~VERSION INFORMATION
 VERS.                 2.0:   CWLS LOG ASCII STANDARD -VERSION 2.0
 WRAP.                  NO:   ONE LINE PER DEPTH STEP
~WELL INFORMATION BLOCK
#MNEM.UNIT           DATA                    DESCRIPTION OF MNEMONIC
#---------    -------------------            -------------------------------
# Generated from Intellog Unique Number	CW_79_81/WELL/903
WELL.         11-12-079-25W4                 : Well_name    - WELL
LOC .         00/11-12-079-25W4/0            : Location     - LOCATION
UWI .         00/11-12-079-25W4/0            : Uwi          - UNIQUE WELL ID
ENTR.         MAX                            : Entered      - ENTERED BY
SRVC.         SCHLUMBERGER                   : Scn          - SERVICE COMPANY
STRT.M        240                            : top_depth    - START DEPTH
STOP.M        455                            : bot_depth    - STOP DEPTH
STEP.M        0.25                           : increment    - STEP LENGTH
 NULL. -999.2500:NULL Value
~CURVE INFORMATION BLOCK
#MNEM UNIT       ERCB CURVE CODE    CURVE DESCRIPTION
#-----------   ------------------   ----------------------------------
DEPT.M        00 001 00 00         : DEPTH        - DEPTH
ILD .OHMM     00 120 00 00         : RESD         - DEEP RESISTIVITY (DIL)
NPHI.V/V      00 330 00 00         : PHIN         - NEUTRON POROSITY (SANDSTONE)
DPHI.V/V      00 890 00 00         : PHID         - DENSITY POROSITY (SANDSTONE)
CALI.MM       00 280 01 00         : CAL          - CALIPER
GR  .API      00 310 00 00         : GR           - GAMMA RAY
~PARAMETER INFORMATION
#MNEM.UNIT           DATA             DESCRIPTION OF MNEMONIC
#---------         -----------     ------------------------------
GL  .M        559.5                : gl           - GROUND LEVEL ELEVATION
EREF.M        563                  : kb           - ELEVATION OF DEPTH REFERENCE
DATM.M        559.5                : datum        - DATUM ELEVATION
TDD .M        455                  : tdd          - TOTAL DEPTH DRILLER
RUN .         ONE                  : Run          - RUN NUMBER
ENG .         BILL                 : Engineer     - RECORDING ENGINEER
WIT .         JIM                  : Witness      - WITNESSED BY
MUD .         GEL                  : Mud_type     - MUD TYPE
MATR.         SANDSTONE            : Logunit      - NEUTRON MATRIX
TMAX.C        27.2                 : BHT          - MAXIMUM RECORDED TEMPERATURE
BHTD.M        455                  : BHTDEP       - MAXIMUM RECORDED TEMPERATURE
RMT .C        12.2                 : MDTP         - TEMPERATURE OF MUD
MUDD.KG/M     1080                 : MWT          - MUD DENSITY
NEUT.         1                    : NEUTRON      - NEUTRON TYPE
RESI.         0                    : RESIST       - RESISTIVITY TYPE
RM  .OHMM     5.14                 : RM           - RESISTIVITY OF MUD
RMC .OHMM     0                    : RMC          - RESISTIVITY OF MUD CAKE
RMF .OHMM     5.24                 : RMF          - RESISTIVITY OF MUD FILTRATE
SUFT.C        -20                  : SUFT         - SURFACE TEMPERATURE
~A  DEPTH     RESD     PHIN     PHID      CAL       GR
# ...
  422.500   19.789    0.196    0.288  233.476   54.895
  422.750   41.953    0.168    0.342  231.951   44.685
  423.000   88.938    0.148    0.350  231.426   37.775
  423.250  137.533    0.153    0.351  231.900   36.858
  423.500  165.549    0.163    0.343  231.378   37.444
  423.750  176.627    0.182    0.338  230.843   40.424
  424.000  133.691    0.190    0.343  230.820   38.310
  424.250   90.530    0.209    0.346  231.794   37.395
  424.500   61.302    0.225    0.342  234.263   37.680
  424.750   50.444    0.267    0.326  235.742   38.864
  425.000   23.787    0.310    0.306  235.713   39.448
  425.250   18.513    0.334    0.299  235.684   39.132
  425.500   22.077    0.333    0.300  235.162   38.216
  425.750   28.890    0.327    0.302  234.637   36.100
  426.000   29.423    0.317    0.308  234.111   35.786
  426.250   36.085    0.316    0.312  233.583   36.970
  426.500   52.779    0.317    0.311  233.563   37.850
  426.750  111.889    0.311    0.309  233.538   36.941
  427.000  130.982    0.312    0.304  233.509   34.823
  427.250  142.367    0.316    0.292  233.483   35.707
  427.500  138.434    0.327    0.293  233.454   37.191
  427.750  133.372    0.333    0.297  233.432   37.779
  428.000  129.693    0.336    0.299  233.406   37.462
  428.250  128.472    0.342    0.297  232.381   35.945
  428.500  133.308    0.343    0.294  230.853   34.431
  428.750  135.786    0.345    0.288  228.332   34.118
  429.000  139.594    0.350    0.290  223.310   35.301
  429.250  139.575    0.366    0.293  220.283   38.284
  429.500  138.264    0.366    0.292  219.758   42.463
  429.750  134.445    0.356    0.290  220.728   46.944
  430.000  130.731    0.344    0.287  221.202   43.931
  430.250  129.506    0.360    0.286  221.179   41.519
  430.500  124.765    0.359    0.284  221.150   41.800
  430.750  121.323    0.356    0.282  221.628   42.388
  431.000  112.624    0.362    0.286  222.101   41.471
  431.250  100.741    0.361    0.290  222.076   39.655
  431.500   93.522    0.357    0.292  222.050   39.344
  431.750   88.442    0.355    0.293  222.024   40.522
  432.000   79.112    0.349    0.286  222.998   42.608
  432.250   58.237    0.337    0.274  223.968   49.188
  432.500   51.612    0.333    0.265  223.942   56.969
  432.750   46.165    0.339    0.262  224.916   59.652
  433.000   41.680    0.352    0.259  224.893   58.133
  433.250   37.630    0.357    0.259  224.361   60.516
  433.500   34.609    0.378    0.265  222.837   63.199
  433.750   32.129    0.398    0.273  220.809   59.588
  434.000   25.950    0.385    0.283  219.285   47.581
  434.250   25.001    0.369    0.287  219.285   43.968
  434.500   22.782    0.345    0.290  218.224   42.454
  434.750   21.149    0.327    0.287  217.712   43.034
  435.000   19.633    0.323    0.290  217.183   44.821
  435.250   18.740    0.347    0.296  217.164   46.902
  435.500   18.740    0.358    0.297  217.135   47.187
  435.750   18.388    0.360    0.297  217.109   48.071
  436.000   17.881    0.361    0.294  216.584   49.552
  436.250   17.879    0.362    0.289  216.058   51.637
  436.500   17.876    0.347    0.290  215.526   53.718
  436.750   18.208    0.347    0.293  215.007   53.405
  437.000   18.546    0.371    0.293  214.482   53.689
  437.250   18.715    0.381    0.292  214.450   55.471
  437.500   18.369    0.371    0.290  214.424   57.853
  437.750   18.028    0.369    0.286  214.402   60.536
  438.000   18.025    0.373    0.278  214.379   63.218
  438.250   18.023    0.379    0.269  214.853   65.302
  438.500   18.187    0.386    0.260  215.823   66.485
  438.750   18.184    0.383    0.244  218.296   68.568
  439.000   18.181    0.361    0.216  221.264   72.152
  439.250   18.179    0.338    0.173  222.238   80.830
  439.500   17.033    0.338    0.169  221.713   85.611
  439.750   14.956    0.361    0.195  221.687   87.694
  440.000   13.010    0.361    0.188  223.157   96.672
  440.250   12.078    0.353    0.182  223.634  107.749
  440.500   11.422    0.354    0.188  224.105  117.326
  440.750   11.004    0.366    0.184  223.586  123.604
  441.000   10.406    0.369    0.183  223.560  122.991
  441.250    9.750    0.361    0.186  223.531  119.678
  441.500    9.481    0.360    0.191  222.009  118.464
  441.750    9.220    0.366    0.197  218.986  119.647
  442.000    8.882    0.394    0.203  215.959  125.328
  442.250    8.718    0.432    0.208  216.433  123.813
  442.500    8.962    0.400    0.213  218.905   77.330
  442.750   10.688    0.362    0.217  221.378   70.120
  443.000   11.618    0.323    0.225  223.347   65.903
  443.250   14.785    0.333    0.230  222.822   68.586
  443.500   21.826    0.318    0.221  222.300   70.069
  443.750   28.560    0.297    0.179  222.274   70.056
  444.000   27.010    0.290    0.159  222.248   70.340
  444.250   21.614    0.304    0.185  222.719   72.124
  444.500   13.844    0.331    0.207  222.696   78.403
  444.750   10.004    0.352    0.216  223.170   85.283
  445.000    6.837    0.370    0.213  222.642   99.959
  445.250    6.406    0.388    0.216  222.613  111.933
  445.500    5.947    0.405    0.199  222.593  110.420
  445.750    5.891    0.432    0.173  222.564  107.703
  446.000    6.113    0.397    0.177  223.535  108.887
  446.250    6.583    0.366    0.208  223.512  111.569
  446.500    7.495    0.410    0.218  222.980  113.954
  446.750    9.450    0.413    0.226  222.961  118.735
  447.000   11.166    0.427    0.247  220.434  121.717
  447.250   13.692    0.425    0.266  217.410  121.702
  447.500   22.594    0.391    0.300  214.883  118.389
  447.750   33.980    0.373    0.302  214.361  109.680
  448.000   44.054    0.355    0.300  215.334  107.864
  448.250   44.456    0.355    0.295  215.808  108.450
  448.500   42.042    0.362    0.295  215.277  111.132
  448.750   39.029    0.398    0.291  215.254  110.815
  449.000   31.233    0.423    0.294  215.228  111.997
  449.250   21.346    0.432    0.302  212.708  110.185
  449.500   18.229    0.436    0.302  210.184  110.469
  449.750   14.587    0.428    0.299  208.659  112.252
  450.000   12.457    0.427    0.303  208.134  112.533
  450.250   10.539    0.427    0.317  208.105  111.918
  450.500    8.672    0.423    0.341  208.578  112.204
  450.750    8.050    0.416    0.380  207.054  111.889
  451.000    7.134    0.411    0.369  204.030  111.571
  451.250    6.623    0.423    0.331  202.003  111.258
  451.500    6.205    0.446    0.284  201.977  112.144
  451.750    5.978    0.431    0.298  201.455  116.925
  452.000    5.922    0.430    0.330  194.434  120.503
  452.250    5.921    0.439    0.322  190.908  119.592
  452.500    6.087    0.445    0.306  191.881  116.875
  452.750    6.317    0.442    0.277  193.857  113.560
  453.000    6.677    0.437    0.252  195.330  112.049
  453.250    6.801    0.433    0.261  195.301  112.049
  453.500    6.552    0.430    0.273  192.777  110.512
  453.750    6.254    0.433    0.278  187.755  109.605
  454.000    5.806    0.439    0.282  182.727  109.288
  454.250    5.491    0.445    0.285  181.202  109.574
  454.500    5.339    0.446    0.284  180.683  110.158
  454.750    5.339    0.440    0.281  180.657  111.340
  455.000    5.239    0.437    0.278  181.131  112.523
