~V
VERS. 2.00: Ver 2.00
WRAP. NO:
VEND. PRIZM:GeoGraphix
~W
STRT.M 45.7200:START DEPTH
STOP.M 281.6352:STOP DEPTH
STEP.M 0.3048:STEP
NULL. -999.2500:NULL VALUE
WELL. NUMAC SURMONT :WELL
COMP. :COMPANY
UWI. 00_10-14-082-06W4_0:UNIQUE WELL ID
FLD. :FIELD
CNTY. :COUNTY
STAT. :STATE
CTRY. :COUNTRY
PDAT. :PERMANENT DATUM
LMF. :LOG MEASURED FROM
DMF. :DRILLING MEASURED FROM
LOC1. 10-14-082-06W4:LOCATION LINE 1
LOC2. :LOCATION LINE 2
LOC3. :LOCATION LINE 3
SEC. :SECTION
TWP. :TOWNSHIP
RAN. :RANGE
SRVC. DRESSER ATLAS:Logging Company
BASE. :Logging Unit Location
ENG. BILL:Logging Engineer
WITN. JIM:Witnessed By
DATE. 26 - MAR - 1973:Date
RUN. ONE:Run No.
MUD_TYPE. GEL:Type Fluid in Hole
MUDS. :Source of Mud Sample
RMFS. :Source of Mud Filtrate
RMCS. :Source of Mud Cake
LOC. :LOCATION
~C
DEPT.M :DEPTH
PHID. :Density Pososity
NPHI. :PHIN         - NEUTRON POROSITY (LIMESTONE)
RHOB.KG/M3 :DENS         - BULK DENSITY
GR.API :GR           - GAMMA RAY
ILD.OHMM :RESD         - DEEP RESISTIVITY (DIL)
~P
EKB. 488.6000:ELEVATION OF KELLY BUSHING
EDF. -999.2500:ELEVATION OF DRILLING FLOOR
EGL. 486.7660:ELEVATION OF GROUND LEVEL
EPD. -999.2500:ELEVATION OF PERMANENT DATUM
APD. -999.2500:LMF DISTANCE ABOVE PERMANENT DATUM
LAT. 56.1093:LATITUDE OF WELL LOCATION
LONG. 110.8227:LONGITUDE OF WELL LOCATION
TDD. 278.8920:Total Depth Driller
TDL. -999.2500:Total Depth Logger
LCSG1. -999.2500:Depth of Casing from Logger
CSIZE. -999.2500:Casing Size
CWT. -999.2500:Casing Weight
BS. -999.2500:Bit Size
TLI. 45.7200:Top Logged Interval
BLI. 281.6352:Bottom Logged Interval
MRT. 16.6667:Maximum Recorded Temperature
WMUD. -999.2500:Drilling Mud Density
DFV. -999.2500:Drilling Mud Viscosity
PH. -999.2500:Drilling Mud pH
DFL. -999.2500:Drilling Mud Fluid Loss
RM. -999.2500:Resistivity of Drilling Fluid
RMT. -999.2500:Measured Temp. of Drilling Fluid
RMF. 0.2500:Resistivity of Drilling Fluid Filtrate
RMFT. -999.2500:Measured Temp. of Drilling Fluid Filtrate
RMC. 0.2500:Resistivity of Mud Cake
RMCT. -999.2500:Measured Temp. of Mud Cake
PHImax.V/V 0.3900:Maximum allowable Porosity
RwBnd.OHMM 0.1500:Bound Water Resistivity
RhoHy.KG/MT 1000.0000:Hydrocarbon Bulk density
SwCutoff.V/V 0.7000:Water Saturation Cutoff
PHINsh.V/V 0.4800:New Description
Rw.OHMM 1.0000:Formation Water Resistivity
Rshl.OHMM 5.0000:Resistivity shale
Trw.DEGC 25.0000:Rw measured at Lab conditions
ShaleCutoff.V/V 0.4000:New Description
GRcln.API 45.0000:Gamma Ray clean
RhoM.KG/MT 2650.0000:Bulk Density Matrix
GRshl.API 90.0000:Gamma Ray shale
m. 2.0000:Archie "m"
n. 2.0000:Archie "n"
GasTol.V/V 0.0500:Gas Tollerance
BHTemp.DEGC 25.0000:Bottom Hole Temperature
BHTDepth.M 1000.0000:Bottom Hole Depth
PHIDsh.US/MT 0.1800:New Description
a. 1.0000:Archie "a"
Gas Tol.V/V 0.0500:Gas Tollerance
RhoF.KG/MT 1000.0000:Bulk Density Fluid
RhoShl.KG/MT 2300.0000:Bulk Density Shale
TarCutoff.V/V 0.0300:New Description
SurfTemp.DEGC 10.0000:New Description
HIshl.V/V 0.4000:Neutron Hydrogen Index shale
MATR. 1.0000:
NEUT. 0.0000:
BHTD.M 278.8920:
DATM.M 488.5940:
NULL. -999.2500:
RESI. 0.0000:
SUFT.C 15.0000:
~A
# ...
  118.8720     0.2888     0.3350  2173.5500    98.0450     5.5760 
  119.1768     0.2851     0.3380  2179.6299   101.0750     5.9000 
  119.4816     0.2703     0.3410  2203.9299   101.0770     6.1260 
  119.7864     0.1943     0.3500  2329.4500    96.8430     6.7280 
  120.0912     0.2127     0.3780  2299.0901    96.2400     6.8560 
  120.3960     0.2127     0.3900  2299.1001    97.4530     6.8590 
  120.7008     0.2114     0.3930  2301.1201    95.6410     4.8120 
  121.0056     0.2200     0.3800  2286.9600    92.0120     4.5510 
  121.3104     0.2433     0.3780  2248.5000    92.0140     4.3850 
  121.6152     0.2482     0.3780  2240.4099    92.0170     4.2260 
  121.9200     0.2482     0.3660  2240.4199    91.4140     3.8510 
  122.2248     0.2470     0.3500  2242.4500    87.7860     3.7800 
  122.5296     0.2470     0.3210  2242.4500    80.5250     3.5090 
  122.8344     0.2433     0.3060  2248.5300    76.2910     3.1980 
  123.1392     0.2335     0.3150  2264.7300    74.4790     3.3830 
  123.4440     0.2482     0.3340  2240.4500    71.4560     5.3970 
  123.7488     0.2445     0.3400  2246.5300    68.4310     6.5080 
  124.0536     0.2237     0.3290  2280.9500    64.1970     5.8200 
  124.3584     0.2335     0.3210  2264.7600    67.2260     5.7130 
  124.6632     0.2445     0.3180  2246.5500    72.0720     8.3030 
  124.9680     0.2543     0.3170  2230.3601    73.8890     8.6220 
  125.2728     0.2592     0.3120  2222.2700    74.4970     7.0230 
  125.5776     0.2666     0.3050  2210.1299    67.8420     5.5110 
  125.8824     0.2715     0.3020  2202.0400    58.1610     5.3110 
  126.1872     0.2666     0.3000  2210.1399    55.1380     6.5240 
  126.4920     0.2666     0.3020  2210.1499    53.3250     7.4370 
  126.7968     0.2678     0.3040  2208.1299    52.7220     9.8450 
  127.1016     0.2788     0.3050  2189.9099    53.9350    10.0330 
  127.4064     0.2899     0.3040  2171.7000    56.3600     9.4900 
  127.7112     0.2923     0.3010  2167.6599    59.3880     9.3170 
  128.0160     0.2911     0.3000  2169.6899    60.6010     9.6760 
  128.3208     0.2911     0.3220  2169.7000    60.6040     9.8620 
  128.6256     0.2960     0.3240  2161.6001    60.0010    10.0500 
  128.9304     0.3058     0.3220  2145.4199    60.6100    10.0520 
  129.2352     0.2997     0.3130  2155.5400    61.8220     9.6870 
  129.5400     0.2972     0.3110  2159.6001    64.8510     8.5020 
  129.8448     0.2984     0.3100  2157.5801    69.0910     7.4630 
  130.1496     0.2948     0.3060  2163.6599    71.5150     5.8560 
  130.4544     0.2886     0.3040  2173.7900    69.0960     5.9690 
  130.7592     0.2800     0.3080  2187.9600    66.0730     6.3140 
  131.0640     0.2751     0.3440  2196.0701    65.4710     8.3580 
  131.3688     0.2690     0.3660  2206.2000    71.5260     9.7070 
  131.6736     0.2690     0.3890  2206.2000    76.9750    10.2700 
  131.9784     0.2910     0.4030  2169.7700    92.7150     9.5340 
  132.2832     0.3033     0.4070  2149.5300    96.3490     2.7290 
  132.5880     0.3021     0.4060  2151.5601    98.1670     2.9970 
  132.8928     0.2972     0.4030  2159.6699    98.7750     3.4820 
  133.1976     0.2702     0.3960  2204.2100    98.1720     3.7530 
  133.5024     0.2370     0.3840  2258.8701    98.7810     3.6850 
  133.8072     0.2334     0.3830  2264.9500    99.9950     3.6180 
  134.1120     0.2505     0.3940  2236.6201    99.9970     3.2350 
  134.4168     0.2603     0.3850  2220.4299    98.7890     3.2970 
  134.7216     0.2481     0.3800  2240.6799    98.1860     3.5540 
  135.0264     0.2481     0.3830  2240.6799    97.5840     3.6900 
  135.3312     0.2444     0.3920  2246.7600   100.6130     3.6230 
  135.6360     0.2444     0.3950  2246.7700   103.6420     3.6240 
  135.9408     0.2542     0.3970  2230.5801   104.2500     3.7630 
  136.2456     0.2542     0.4010  2230.5901   103.0420     4.1330 
  136.5504     0.2444     0.4020  2246.7900   103.6510     3.1240 
  136.8552     0.2407     0.4070  2252.8701   103.6520     2.9550 
  137.1600     0.2260     0.4120  2277.1599    98.8130     3.0110 
  137.4648     0.2505     0.4140  2236.6799    95.7900     3.1270 
  137.7696     0.2480     0.4140  2240.7400    98.2130     3.1280 
  138.0744     0.2456     0.4090  2244.7900    98.2170     3.0710 
  138.3792     0.2542     0.4020  2230.6299    95.7970     3.0150 
  138.6840     0.2689     0.3960  2206.3401    92.7750     3.0160 
  138.9888     0.2897     0.3900  2171.9399    95.1980     3.1910 
  139.2936     0.2861     0.3860  2178.0100    97.0160     3.2520 
  139.5984     0.2627     0.3740  2216.4800    96.4140     3.1930 
  139.9032     0.2296     0.3580  2271.1499    93.3900     3.0770 
  140.2080     0.2713     0.3510  2202.3301    90.3670     3.0210 
  140.5128     0.2382     0.3760  2256.9900    90.9750     3.4440 
  140.8176     0.2284     0.3860  2273.1899    94.0040     4.2310 
  141.1224     0.2222     0.4000  2283.3201    95.8220     3.5770 
  141.4272     0.2161     0.4040  2293.4500    94.6150     2.9140 
  141.7320     0.2075     0.3890  2307.6201    92.8010     2.8610 
  142.0368     0.2075     0.3810  2307.6299    87.9620     3.0270 
  142.3416     0.2284     0.3750  2273.2200    86.1490     2.9720 
  142.6464     0.2541     0.3650  2230.7200    84.3360     2.9180 
  142.9512     0.2504     0.3570  2236.8000    83.7330     2.9180 
  143.2560     0.2553     0.3530  2228.7000    77.0790     2.9190 
  143.5608     0.2664     0.3280  2210.4900    71.0280     3.2060 
  143.8656     0.2713     0.3120  2202.3999    65.5840     4.1650 
  144.1704     0.2750     0.3060  2196.3301    61.9560     7.1600 
  144.4752     0.2799     0.3020  2188.2400    61.9590    10.6020 
  144.7800     0.3191     0.3010  2123.4700    61.9610    10.8060 
  145.0848     0.3056     0.2970  2145.7400    61.3580    10.4140 
  145.3896     0.3056     0.2970  2145.7500    59.5450    10.2230 
  145.6944     0.3265     0.2970  2111.3401    57.7320    10.4190 
  145.9992     0.3289     0.3000  2107.3000    56.5250    10.6200 
  146.3040     0.3252     0.3040  2113.3799    56.5270    10.6240 
  146.6088     0.3179     0.3090  2125.5300    58.9510    10.6270 
  146.9136     0.3056     0.3090  2145.7800    60.7700    10.6290 
  147.2184     0.3031     0.3060  2149.8301    61.3780    10.4360 
  147.5232     0.3080     0.3110  2141.7400    61.3810    10.2460 
  147.8280     0.3142     0.3110  2131.6299    60.7780    10.4430 
  148.1328     0.3203     0.3080  2121.5100    59.5700    10.4460 
  148.4376     0.3227     0.3070  2117.4700    57.7570    10.2550 
  148.7424     0.3203     0.3060  2121.5200    57.1540    10.0710 
  149.0472     0.3043     0.3030  2147.8501    57.1580    10.0730 
  149.3520     0.3129     0.3000  2133.6799    58.3700    10.0750 
  149.6568     0.3190     0.2960  2123.5701    58.9780    10.0800 
  149.9616     0.3190     0.2920  2123.5801    57.7700    10.0830 
  150.2664     0.3190     0.2900  2123.5801    55.3520    10.2750 
  150.5712     0.3178     0.2860  2125.6101    54.7490    10.6700 
  150.8760     0.3104     0.2820  2137.7600    55.9620    11.0790 
  151.1808     0.2969     0.2800  2160.0400    57.7810    11.7200 
  151.4856     0.2908     0.2800  2170.1699    59.6000    13.1140 
  151.7904     0.2884     0.2930  2174.2200    60.2070    17.6860 
  152.0952     0.2614     0.3100  2218.7600    60.8150    11.0920 
  152.4000     0.2699     0.3200  2204.6001    62.6330     9.7360 
  152.7048     0.3092     0.3250  2139.8201    63.2420     9.9240 
  153.0096     0.3190     0.3200  2123.6399    61.4290     9.9270 
  153.3144     0.3276     0.3180  2109.4700    60.8260     9.9300 
  153.6192     0.3300     0.3140  2105.4299    62.0400     9.7490 
  153.9240     0.3300     0.3120  2105.4299    62.6470     9.7520 
  154.2288     0.3264     0.3080  2111.5200    62.6500     9.9390 
  154.5336     0.3214     0.2990  2119.6201    60.8370    10.1300 
  154.8384     0.3153     0.2930  2129.7500    58.4190     9.9460 
  155.1432     0.3079     0.2870  2141.8999    58.4220     9.9490 
