~VERSION INFORMATION
 VERS.                 2.0:   CWLS LOG ASCII STANDARD -VERSION 2.0
 WRAP.                  NO:   ONE LINE PER DEPTH STEP
~WELL INFORMATION BLOCK
#MNEM.UNIT           DATA                    DESCRIPTION OF MNEMONIC
#---------    -------------------            -------------------------------
# Generated from Intellog Unique Number	CS_71_72/WELL/917
WELL.         ET AL KIRBY EX                 : Well_name    - WELL
LOC .         00/12-21-071-04W4/0            : Location     - LOCATION
UWI .         00/12-21-071-04W4/0            : Uwi          - UNIQUE WELL ID
ENTR.         SP                             : Entered      - ENTERED BY
SRVC.         SCHLUMBERGER                   : Scn          - SERVICE COMPANY
STRT.M        290                            : top_depth    - START DEPTH
STOP.M        505                            : bot_depth    - STOP DEPTH
STEP.M        0.25                           : increment    - STEP LENGTH
 NULL. -999.2500:NULL Value
~CURVE INFORMATION BLOCK
#MNEM UNIT       ERCB CURVE CODE    CURVE DESCRIPTION
#-----------   ------------------   ----------------------------------
DEPT.M        00 001 00 00         : DEPTH        - DEPTH
ILD .OHMM     00 120 00 00         : RESD         - DEEP RESISTIVITY (DIL)
DPHI.V/V      00 890 00 00         : PHID         - DENSITY POROSITY (LIMESTONE)
NPHI.V/V      00 330 00 00         : PHIN         - NEUTRON POROSITY (LIMESTONE)
GR  .API      00 310 00 00         : GR           - GAMMA RAY
~PARAMETER INFORMATION
#MNEM.UNIT           DATA             DESCRIPTION OF MNEMONIC
#---------         -----------     ------------------------------
GL  .M        674.8                : gl           - GROUND LEVEL ELEVATION
EREF.M        678.4                : kb           - ELEVATION OF DEPTH REFERENCE
DATM.M        674.8                : datum        - DATUM ELEVATION
TDD .M        523.5                : tdd          - TOTAL DEPTH DRILLER
RUN .         ONE                  : Run          - RUN NUMBER
ENG .         BILL                 : Engineer     - RECORDING ENGINEER
WIT .         JIM                  : Witness      - WITNESSED BY
MUD .         GEL                  : Mud_type     - MUD TYPE
MATR.         LIMESTONE            : Logunit      - NEUTRON MATRIX
TMAX.C        17.5                 : BHT          - MAXIMUM RECORDED TEMPERATURE
BHTD.M        523.5                : BHTDEP       - MAXIMUM RECORDED TEMPERATURE
MATR.         1                    : LOGUNIT      - NEUTRON MATRIX
RMT .C        25                   : MDTP         - TEMPERATURE OF MUD
NEUT.         1                    : NEUTRON      - NEUTRON TYPE
RESI.         0                    : RESIST       - RESISTIVITY TYPE
RMC .OHMM     0.25                 : RMC          - RESISTIVITY OF MUD CAKE
RMF .OHMM     0.25                 : RMF          - RESISTIVITY OF MUD FILTRATE
SUFT.C        15                   : SUFT         - SURFACE TEMPERATURE
~A  DEPTH     RESD     PHID     PHIN       GR
# ...
  420.500    2.570    0.268    0.544   86.794
  420.750    2.636    0.265    0.548   87.799
  421.000    2.647    0.262    0.543   87.879
  421.250    2.648    0.263    0.544   86.619
  421.500    2.804    0.274    0.551   87.134
  421.750    3.042    0.284    0.529   87.525
  422.000    3.381    0.291    0.480   77.576
  422.250    4.000    0.297    0.467   74.174
  422.500    4.732    0.300    0.488   68.388
  422.750    5.757    0.298    0.508   62.417
  423.000    7.274    0.235    0.420   57.975
  423.250    9.242    0.113    0.358   56.836
  423.500   11.502    0.044    0.313   58.696
  423.750   12.154    0.055    0.337   60.933
  424.000    9.888    0.107    0.403   62.050
  424.250    7.864    0.258    0.441   63.604
  424.500    6.643    0.294    0.457   64.736
  424.750    6.188    0.298    0.452   64.568
  425.000    6.042    0.295    0.443   63.675
  425.250    5.922    0.295    0.441   62.904
  425.500    5.837    0.302    0.457   61.767
  425.750    5.785    0.311    0.469   61.300
  426.000    5.756    0.318    0.462   63.160
  426.250    5.737    0.320    0.452   65.511
  426.500    5.719    0.315    0.450   67.370
  426.750    5.723    0.304    0.460   69.229
  427.000    5.726    0.284    0.469   70.353
  427.250    5.730    0.266    0.473   72.213
  427.500    5.657    0.252    0.478   72.604
  427.750    5.411    0.244    0.484   71.345
  428.000    5.243    0.249    0.494   71.001
  428.250    5.120    0.256    0.507   71.458
  428.500    5.161    0.254    0.496   72.089
  428.750    5.536    0.261    0.480   72.973
  429.000    6.574    0.275    0.481   73.362
  429.250    7.732    0.270    0.478   69.289
  429.500    8.909    0.174    0.379   62.825
  429.750    9.538    0.082    0.241   44.130
  430.000    9.724    0.023    0.229   44.464
  430.250    9.353    0.047    0.281   48.651
  430.500    8.173    0.113    0.421   53.024
  430.750    7.009    0.152    0.435   55.120
  431.000    6.206    0.200    0.435   59.371
  431.250    5.771    0.210    0.452   61.650
  431.500    5.774    0.248    0.470   65.590
  431.750    5.842    0.277    0.456   68.978
  432.000    5.934    0.296    0.425   68.821
  432.250    6.039    0.324    0.403   63.581
  432.500    6.100    0.337    0.407   68.746
  432.750    6.114    0.285    0.421   74.279
  433.000    6.130    0.249    0.429   77.726
  433.250    6.145    0.246    0.447   80.321
  433.500    6.149    0.248    0.469   81.076
  433.750    6.105    0.256    0.485   78.043
  434.000    5.983    0.248    0.473   75.436
  434.250    5.733    0.240    0.449   73.567
  434.500    5.432    0.244    0.440   72.366
  434.750    5.234    0.256    0.450   70.923
  435.000    5.082    0.272    0.461   68.131
  435.250    5.065    0.284    0.469   64.423
  435.500    5.194    0.159    0.398   61.327
  435.750    5.335    0.121    0.372   57.683
  436.000    5.460    0.162    0.372   58.257
  436.250    5.588    0.234    0.399   62.012
  436.500    5.612    0.271    0.443   64.974
  436.750    5.500    0.293    0.453   67.322
  437.000    5.172    0.291    0.436   69.245
  437.250    4.622    0.287    0.424   70.797
  437.500    3.890    0.284    0.426   71.616
  437.750    3.280    0.293    0.483   71.702
  438.000    2.998    0.304    0.520   72.155
  438.250    2.762    0.302    0.551   73.339
  438.500    2.676    0.292    0.545   74.954
  438.750    2.698    0.286    0.552   75.835
  439.000    2.949    0.290    0.525   75.737
  439.250    3.310    0.292    0.503   74.233
  439.500    3.728    0.290    0.486   72.123
  439.750    4.067    0.282    0.470   70.802
  440.000    4.355    0.273    0.484   70.147
  440.250    4.516    0.267    0.508   69.803
  440.500    4.578    0.261    0.490   69.949
  440.750    4.607    0.252    0.470   69.976
  441.000    4.644    0.247    0.461   70.186
  441.250    4.638    0.244    0.466   70.576
  441.500    4.511    0.245    0.471   72.187
  441.750    4.315    0.249    0.473   74.047
  442.000    4.309    0.256    0.477   74.377
  442.250    4.477    0.261    0.474   72.998
  442.500    4.739    0.279    0.442   71.121
  442.750    5.513    0.294    0.428   65.640
  443.000    6.106    0.306    0.435   61.870
  443.250    6.839    0.307    0.443   59.876
  443.500    7.503    0.301    0.446   59.353
  443.750    8.155    0.258    0.459   58.028
  444.000    8.520    0.237    0.464   56.159
  444.250    8.606    0.224    0.449   56.246
  444.500    8.482    0.212    0.436   58.286
  444.750    7.581    0.232    0.436   61.863
  445.000    6.392    0.259    0.444   65.741
  445.250    5.200    0.276    0.450   68.941
  445.500    4.214    0.266    0.460   72.513
  445.750    3.655    0.254    0.475   75.903
  446.000    3.463    0.248    0.499   78.128
  446.250    3.313    0.246    0.524   77.418
  446.500    3.289    0.248    0.546   77.136
  446.750    3.304    0.251    0.539   78.200
  447.000    3.312    0.253    0.523   77.861
  447.250    3.338    0.254    0.516   77.518
  447.500    3.397    0.254    0.501   78.277
  447.750    3.748    0.252    0.514   78.543
  448.000    4.270    0.250    0.466   75.448
  448.250    4.667    0.249    0.438   69.844
  448.500    5.853    0.247    0.413   61.121
  448.750    7.395    0.196    0.397   58.206
  449.000    8.649    0.179    0.405   57.742
  449.250    9.383    0.216    0.431   62.048
  449.500    9.196    0.263    0.447   66.237
  449.750    8.296    0.276    0.412   67.971
  450.000    6.097    0.276    0.445   69.339
  450.250    4.750    0.269    0.473   69.732
  450.500    5.311    0.258    0.384   69.633
  450.750    6.271    0.251    0.379   66.783
  451.000    7.761    0.270    0.388   62.463
  451.250    9.354    0.271    0.369   59.733
  451.500   10.597    0.225    0.354   58.105
  451.750   11.367    0.221    0.354   57.827
  452.000   11.633    0.246    0.366   58.647
  452.250   11.750    0.264    0.379   59.285
  452.500   11.713    0.271    0.391   59.979
  452.750   11.479    0.272    0.402   60.246
  453.000   11.103    0.274    0.415   59.719
  453.250   10.700    0.265    0.427   59.684
  453.500   10.370    0.252    0.414   61.300
  453.750   10.143    0.242    0.401   62.669
  454.000    9.997    0.245    0.402   63.734
  454.250   10.040    0.250    0.415   63.510
  454.500   10.295    0.254    0.429   62.192
  454.750   10.615    0.253    0.435   63.805
  455.000   11.934    0.245    0.425   64.627
  455.250   15.279    0.249    0.428   62.874
  455.500   18.625    0.281    0.443   55.496
  455.750   21.460    0.313    0.460   50.258
  456.000   23.280    0.326    0.457   48.509
  456.250   23.162    0.340    0.451   51.839
  456.500   19.566    0.342    0.465   57.428
  456.750   16.038    0.332    0.472   63.882
  457.000   13.805    0.322    0.472   65.919
  457.250   12.177    0.309    0.458   67.472
  457.500   10.580    0.297    0.435   68.723
  457.750    9.176    0.286    0.421   70.457
  458.000    8.033    0.267    0.411   73.421
  458.250    7.316    0.218    0.416   75.097
  458.500    7.037    0.196    0.422   75.734
  458.750    6.949    0.189    0.415   75.020
  459.000    7.032    0.189    0.414   71.988
  459.250    7.129    0.194    0.415   71.888
  459.500    7.297    0.198    0.413   72.463
  459.750    7.384    0.195    0.409   73.839
  460.000    7.444    0.193    0.402   75.268
  460.250    7.476    0.195    0.412   76.455
  460.500    7.479    0.197    0.422   77.147
  460.750    7.469    0.197    0.426   76.070
  461.000    7.502    0.193    0.413   73.158
  461.250    7.563    0.187    0.393   73.125
  461.500    7.624    0.188    0.391   74.859
  461.750    7.629    0.196    0.416   77.514
  462.000    7.618    0.202    0.439   79.922
  462.250    7.580    0.201    0.451   82.272
  462.500    7.584    0.188    0.439   83.947
  462.750    7.546    0.171    0.423   83.360
  463.000    7.522    0.158    0.419   77.817
  463.250    7.597    0.170    0.420   75.150
  463.500    7.716    0.186    0.404   74.687
  463.750    8.031    0.194    0.392   75.630
