~VERSION INFORMATION
 VERS.                 2.0:   CWLS LOG ASCII STANDARD -VERSION 2.0
 WRAP.                  NO:   ONE LINE PER DEPTH STEP
~WELL INFORMATION BLOCK
#MNEM.UNIT           DATA                    DESCRIPTION OF MNEMONIC
#---------    -------------------            -------------------------------
# Generated from Intellog Unique Number	CW_79_81/WELL/2903
WELL.         SCURRY ATKINSON PASTECHO 11-27 : Well_name    - WELL
LOC .         00/11-27-079-04W5/0            : Location     - LOCATION
UWI .         00/11-27-079-04W5/0            : Uwi          - UNIQUE WELL ID
ENTR.         JJ                             : Entered      - ENTERED BY
SRVC.         WESTERN ATLAS                  : Scn          - SERVICE COMPANY
DATE.         18 FEB 73                      : Date         - LOG DATE
STRT.M        427.33                         : top_depth    - START DEPTH
STOP.M        555.33                         : bot_depth    - STOP DEPTH
STEP.M        0.25                           : increment    - STEP LENGTH
 NULL. -999.2500:NULL Value
~CURVE INFORMATION BLOCK
#MNEM UNIT       ERCB CURVE CODE    CURVE DESCRIPTION
#-----------   ------------------   ----------------------------------
DEPT.M        00 001 00 00         : DEPTH        - DEPTH
ILD .OHMM     00 120 00 00         : RESD         - DEEP RESISTIVITY (DIL)
GR  .API      00 310 00 00         : GR           - GAMMA RAY
DELT.US/F     00 520 00 00         : DELT         - SONIC TRAVEL TIME
~PARAMETER INFORMATION
#MNEM.UNIT           DATA             DESCRIPTION OF MNEMONIC
#---------         -----------     ------------------------------
GL  .M        619.536              : gl           - GROUND LEVEL ELEVATION
EREF.M        623.194              : kb           - ELEVATION OF DEPTH REFERENCE
DATM.M        619.536              : datum        - DATUM ELEVATION
TDD .M        556.87               : tdd          - TOTAL DEPTH DRILLER
RUN .         ONE                  : Run          - RUN NUMBER
ENG .         RUTHERFORD           : Engineer     - RECORDING ENGINEER
WIT .         KIRKPATRICK          : Witness      - WITNESSED BY
BASE.         MED HAT              : Branch       - HOME BASE OF LOGGING UNIT
MUD .         MUD/GEL              : Mud_type     - MUD TYPE
MATR.         SANDSTONE            : Logunit      - NEUTRON MATRIX
TMAX.C        28.3333              : BHT          - MAXIMUM RECORDED TEMPERATURE
BHTD.M        556.87               : BHTDEP       - MAXIMUM RECORDED TEMPERATURE
RMT .C        25.5556              : MDTP         - TEMPERATURE OF MUD
MUDD.KG/M     1068                 : MWT          - MUD DENSITY
NEUT.         1                    : NEUTRON      - NEUTRON TYPE
RESI.         0                    : RESIST       - RESISTIVITY TYPE
RM  .OHMM     3                    : RM           - RESISTIVITY OF MUD
RMC .OHMM     3.4                  : RMC          - RESISTIVITY OF MUD CAKE
RMF .OHMM     2.85                 : RMF          - RESISTIVITY OF MUD FILTRATE
SUFT.C        5                    : SUFT         - SURFACE TEMPERATURE
~A  DEPTH     RESD       GR     DELT
# ...
  481.580    5.698   89.621  383.027
  481.830    6.063   92.996  379.776
  482.080    6.604   94.460  371.216
  482.330    8.078   89.922  371.920
  482.580    9.411   84.819  364.783
  482.830   11.061   84.187  351.874
  483.080   12.752   87.600  302.366
  483.330   13.907   81.806  268.217
  483.580   14.924   74.879  258.395
  483.830   15.626   67.802  245.635
  484.080   15.417   63.002  232.277
  484.330   13.706   58.938  304.514
  484.580   11.104   59.495  345.847
  484.830    7.949   71.679  361.721
  485.080    7.265   83.195  360.758
  485.330    7.432   82.853  360.164
  485.580    7.660   83.597  356.119
  485.830    7.569   78.445  355.667
  486.080    6.689   76.928  360.645
  486.330    6.342   77.795  359.675
  486.580    6.372   75.939  361.886
  486.830    6.478   78.264  369.623
  487.080    6.744   81.838  363.549
  487.330    6.892   84.773  360.041
  487.580    6.722   84.114  363.095
  487.830    6.414   79.210  366.357
  488.080    6.346   81.244  366.749
  488.330    6.412   78.413  368.755
  488.580    6.935   76.261  371.457
  488.830    7.439   81.947  368.416
  489.080    7.587   85.762  358.627
  489.330    7.538   82.525  321.155
  489.580    7.446   77.909  303.046
  489.830    7.099   73.327  337.507
  490.080    6.732   75.764  357.684
  490.330    6.348   81.055  364.279
  490.580    6.236   85.732  362.919
  490.830    6.246   89.076  363.320
  491.080    6.334   86.884  366.069
  491.330    6.405   85.634  364.372
  491.580    6.431   84.916  360.320
  491.830    6.441   84.442  362.018
  492.080    6.487   84.179  358.158
  492.330    6.555   86.527  358.398
  492.580    6.744   89.457  360.349
  492.830    6.912   92.022  358.287
  493.080    7.037   85.579  363.778
  493.330    7.344   82.368  365.376
  493.580    7.769   87.281  351.960
  493.830    8.072   89.609  334.718
  494.080    8.417   85.226  330.134
  494.330    8.545   80.502  343.043
  494.580    8.537   80.388  350.599
  494.830    8.464   80.043  348.998
  495.080    8.415   84.773  345.644
  495.330    8.267   86.498  342.277
  495.580    8.174   87.211  342.159
  495.830    8.143   90.703  347.407
  496.080    8.332   94.122  347.851
  496.330    8.360   96.898  340.926
  496.580    8.132   99.168  340.329
  496.830    7.685   95.385  348.201
  497.080    6.569   88.937  349.632
  497.330    6.061   86.497  356.913
  497.580    5.655   91.766  374.173
  497.830    5.665   99.266  390.425
  498.080    6.150  108.851  385.600
  498.330    6.731  103.284  366.089
  498.580    8.044   95.335  346.155
  498.830    9.755   88.522  345.722
  499.080   11.227   83.443  356.538
  499.330   12.719   83.475  357.465
  499.580   14.113   80.286  351.860
  499.830   14.517   77.245  346.639
  500.080   14.784   76.205  343.372
  500.330   15.663   71.553  341.397
  500.580   16.679   69.230  338.107
  500.830   19.041   67.538  333.010
  501.080   24.568   64.945  272.808
  501.330   30.074   63.794  228.312
  501.580   32.694   60.431  215.965
  501.830   32.347   55.778  218.131
  502.080   28.084   54.960  262.583
  502.330   19.272   56.926  331.006
  502.580   16.236   61.410  347.322
  502.830   14.644   67.544  355.971
  503.080   13.110   67.908  360.784
  503.330   11.418   66.920  357.534
  503.580   10.300   69.287  340.363
  503.830    9.439   68.768  333.423
  504.080    8.755   71.969  340.319
  504.330    8.210   71.732  351.993
  504.580    7.647   76.341  357.588
  504.830    7.378   79.711  361.162
  505.080    7.131   74.989  330.907
  505.330    6.921   74.085  315.542
  505.580    6.813   76.604  344.525
  505.830    6.722   78.752  369.223
  506.080    6.711   81.393  372.218
  506.330    6.662   81.070  370.286
  506.580    6.672   77.756  366.854
  506.830    6.738   79.609  365.326
  507.080    7.083   81.909  360.793
  507.330    7.684   84.687  361.705
  507.580    8.544   86.115  368.082
  507.830    9.898   88.365  367.201
  508.080   13.387   87.215  355.079
  508.330   19.428   82.996  352.663
  508.580   20.406   79.002  347.734
  508.830   20.653   75.078  345.371
  509.080   20.563   72.895  339.468
  509.330   19.920   73.475  320.902
  509.580   19.276   69.868  309.829
  509.830   19.007   66.133  324.708
  510.080   19.115   66.619  339.457
  510.330   20.212   69.069  335.132
  510.580   21.507   68.553  274.660
  510.830   22.148   65.037  245.952
  511.080   21.544   61.593  252.519
  511.330   20.029   58.309  276.022
  511.580   17.310   58.400  295.076
  511.830   14.490   61.627  308.253
  512.080   12.364   64.068  343.170
  512.330   11.047   68.286  346.375
  512.580    9.928   73.268  344.310
  512.830    8.969   75.644  352.180
  513.080    8.781   73.469  357.593
  513.330    9.581   71.359  354.069
  513.580    9.945   74.144  337.638
  513.830    9.815   72.266  327.764
  514.080    9.073   69.922  326.290
  514.330    8.350   66.829  290.013
  514.580    7.568   65.473  319.447
  514.830    6.964   68.214  353.986
  515.080    7.092   76.176  352.613
  515.330    7.516   81.225  349.105
  515.580    8.692   83.598  343.082
  515.830    9.986   77.801  333.747
  516.080   10.489   78.739  315.146
  516.330   10.083   70.933  290.509
  516.580    9.360   64.641  332.183
  516.830    8.341   66.637  351.339
  517.080    7.736   73.379  346.586
  517.330    7.548   78.526  348.809
  517.580    7.478   83.078  352.698
  517.830    7.486   86.211  352.128
  518.080    7.357   85.761  350.067
  518.330    7.108   84.084  351.301
  518.580    6.623   87.006  348.487
  518.830    6.398   89.507  349.499
  519.080    6.286   83.908  354.500
  519.330    6.255   83.986  360.007
  519.580    6.205   88.632  364.889
  519.830    6.177   89.118  361.953
  520.080    6.125   91.912  365.206
  520.330    6.095   89.934  369.386
  520.580    6.083   89.412  365.417
  520.830    6.214   90.243  361.190
  521.080    6.337   88.629  363.048
  521.330    6.266   87.099  362.176
  521.580    6.277   87.056  356.933
  521.830    6.364   88.396  354.771
  522.080    6.454   91.375  362.089
  522.330    6.500   94.339  361.661
  522.580    6.530   90.113  366.011
  522.830    6.479   90.968  374.432
  523.080    6.531   95.303  378.407
  523.330    6.637   96.947  365.174
  523.580    6.882   98.209  354.116
  523.830    7.326  101.411  358.308
  524.080    7.710  103.151  338.345
  524.330    8.453  103.940  329.240
  524.580    8.697  105.829  326.952
  524.830    8.250  103.744  323.797
  525.080    7.904   98.678  320.428
  525.330    7.835   93.160  317.182
  525.580    7.984   90.135  320.268
  525.830    8.168   87.827  325.834
  526.080    8.572   87.831  328.667
  526.330    9.216   94.357  329.111
  526.580    9.757   95.305  327.611
  526.830    9.648   94.257  324.582
  527.080    8.509   97.975  320.394
  527.330    7.272  103.276  331.498
  527.580    6.036  101.810  349.366
  527.830    5.432   99.767  368.984
  528.080    5.520   99.430  389.764
  528.330    5.886  101.905  385.051
  528.580    6.229  104.567  389.177
  528.830    7.089  103.881  377.036
  529.080    7.967  105.517  338.224
  529.330    9.083  108.767  324.734
  529.580   10.598   99.860  340.945
  529.830   12.187   88.542  329.126
  530.080   21.312   79.111  321.868
  530.330   23.734   64.208  318.558
  530.580   25.206   51.664  327.495
  530.830   25.811   44.445  337.586
  531.080   25.837   43.611  345.883
  531.330   25.275   49.018  347.535
  531.580   25.185   48.995  345.282
  531.830   25.589   46.521  346.910
  532.080   26.269   46.147  345.293
  532.330   28.078   48.045  342.912
  532.580   29.709   51.734  342.705
  532.830   30.686   52.615  340.531
  533.080   32.061   55.692  340.737
  533.330   31.872   60.348  339.346
  533.580   30.871   61.047  335.207
  533.830   29.179   59.537  328.328
  534.080   27.350   61.135  321.570
  534.330   25.599   59.687  327.227
  534.580   24.123   56.989  329.220
  534.830   22.413   54.872  329.370
  535.080   22.302   53.781  334.590
  535.330   22.924   56.699  332.924
  535.580   23.744   54.879  329.769
