~VERSION INFORMATION
 VERS.                 2.0:   CWLS LOG ASCII STANDARD -VERSION 2.0
 WRAP.                  NO:   ONE LINE PER DEPTH STEP
~WELL INFORMATION BLOCK
#MNEM.UNIT           DATA                    DESCRIPTION OF MNEMONIC
#---------    -------------------            -------------------------------
# Generated from Intellog Unique Number	CC_84_87/WELL/2549
WELL.         HOMESTEAD ET AL WATCHUSK       : Well_name    - WELL
LOC .         00/10-16-084-03W4/0            : Location     - LOCATION
UWI .         00/10-16-084-03W400            : Uwi          - UNIQUE WELL ID
ENTR.         JHS                            : Entered      - ENTERED BY
SRVC.         SCHLUMBERGER                   : Scn          - SERVICE COMPANY
STRT.M        86.563                         : top_depth    - START DEPTH
STOP.M        298.563                        : bot_depth    - STOP DEPTH
STEP.M        0.25                           : increment    - STEP LENGTH
 NULL. -999.2500:NULL Value
~CURVE INFORMATION BLOCK
#MNEM UNIT       ERCB CURVE CODE    CURVE DESCRIPTION
#-----------   ------------------   ----------------------------------
DEPT.M        00 001 00 00         : DEPTH        - DEPTH
ILD .OHMM     00 120 00 00         : RESD         - DEEP RESISTIVITY (DIL)
GR  .API      00 310 00 00         : GR           - GAMMA RAY
DPHI.V/V      00 890 00 00         : PHID         - DENSITY POROSITY (SANDSTONE)
NPHI.V/V      00 330 00 00         : PHIN         - NEUTRON POROSITY (SANDSTONE)
~PARAMETER INFORMATION
#MNEM.UNIT           DATA             DESCRIPTION OF MNEMONIC
#---------         -----------     ------------------------------
GL  .M        454.457              : gl           - GROUND LEVEL ELEVATION
EREF.M        458.114              : kb           - ELEVATION OF DEPTH REFERENCE
DATM.M        458.114              : datum        - DATUM ELEVATION
TDD .M        312.42               : tdd          - TOTAL DEPTH DRILLER
RUN .         ONE                  : Run          - RUN NUMBER
ENG .         BILL                 : Engineer     - RECORDING ENGINEER
WIT .         JIM                  : Witness      - WITNESSED BY
MUD .         GEL                  : Mud_type     - MUD TYPE
MATR.         SANDSTONE            : Logunit      - NEUTRON MATRIX
TMAX.C        19.4444              : BHT          - MAXIMUM RECORDED TEMPERATURE
BHTD.M        312.42               : BHTDEP       - MAXIMUM RECORDED TEMPERATURE
MATR.         1                    : LOGUNIT      - NEUTRON MATRIX
RMT .C        25                   : MDTP         - TEMPERATURE OF MUD
NEUT.         1                    : NEUTRON      - NEUTRON TYPE
RESI.         0                    : RESIST       - RESISTIVITY TYPE
RMC .OHMM     0.25                 : RMC          - RESISTIVITY OF MUD CAKE
RMF .OHMM     0.25                 : RMF          - RESISTIVITY OF MUD FILTRATE
SUFT.C        15                   : SUFT         - SURFACE TEMPERATURE
~A  DEPTH     RESD       GR     PHID     PHIN
   86.563   22.994   53.572    0.319    0.485
   86.813   22.495   52.108    0.335    0.496
   87.063   25.844   54.628    0.346    0.503
   87.313   28.119   57.770    0.344    0.500
   87.563   27.777   59.379    0.337    0.484
   87.813   25.620   59.610    0.328    0.472
   88.063   22.648   59.604    0.317    0.482
   88.313   21.166   59.149    0.318    0.483
   88.563   21.209   58.566    0.331    0.470
   88.813   21.999   58.474    0.342    0.463
   89.063   23.263   58.303    0.344    0.460
   89.313   24.678   57.832    0.344    0.454
   89.563   25.817   57.898    0.344    0.454
   89.813   27.090   58.302    0.337    0.456
   90.063   27.715   59.765    0.343    0.451
   90.313   28.032   60.608    0.346    0.450
   90.563   29.951   59.867    0.343    0.446
   90.813   32.532   57.220    0.353    0.433
   91.063   32.833   53.217    0.366    0.430
   91.313   31.867   51.548    0.354    0.444
   91.563   25.881   51.353    0.349    0.453
   91.813   20.860   51.754    0.344    0.457
   92.063   19.271   52.223    0.342    0.474
   92.313   18.663   51.924    0.351    0.479
   92.563   19.067   50.918    0.355    0.443
   92.813   20.770   50.889    0.344    0.434
   93.063   23.771   51.142    0.340    0.435
   93.313   26.928   52.726    0.339    0.455
   93.563   29.472   54.384    0.348    0.483
   93.813   31.743   54.518    0.363    0.475
   94.063   33.659   53.972    0.361    0.433
   94.313   33.763   53.251    0.356    0.433
   94.563   33.391   55.097    0.350    0.449
   94.813   32.317   55.636    0.346    0.463
   95.063   30.753   53.888    0.349    0.456
   95.313   29.474   53.711    0.357    0.437
   95.563   28.663   56.430    0.355    0.440
   95.813   28.651   58.226    0.342    0.440
   96.063   28.724   56.983    0.335    0.445
   96.313   28.657   54.042    0.341    0.450
   96.563   28.881   51.405    0.348    0.454
   96.813   29.335   51.563    0.342    0.461
   97.063   29.287   54.728    0.337    0.464
   97.313   28.832   55.375    0.351    0.469
   97.563   28.802   55.364    0.349    0.463
   97.813   28.593   55.146    0.359    0.461
   98.063   28.132   54.482    0.370    0.468
   98.313   27.695   53.280    0.362    0.474
   98.563   27.319   51.833    0.362    0.474
   98.813   27.759   52.197    0.368    0.473
   99.063   27.891   53.815    0.361    0.476
   99.313   27.893   56.857    0.344    0.469
   99.563   27.769   60.284    0.333    0.464
   99.813   27.292   62.239    0.326    0.476
  100.063   26.915   62.626    0.318    0.485
  100.313   26.899   62.735    0.326    0.464
  100.563   27.201   61.994    0.345    0.460
  100.813   27.975   63.168    0.354    0.473
  101.063   28.710   64.824    0.344    0.477
  101.313   29.122   64.245    0.331    0.476
  101.563   29.581   60.914    0.332    0.483
  101.813   29.645   53.500    0.334    0.495
  102.063   29.297   53.048    0.327    0.483
  102.313   28.793   56.122    0.325    0.482
  102.563   28.552   58.084    0.330    0.490
  102.813   28.615   58.456    0.335    0.484
  103.063   28.628   56.233    0.339    0.482
  103.313   28.638   53.128    0.347    0.491
  103.563   28.668   51.805    0.352    0.504
  103.813   28.566   50.804    0.344    0.503
  104.063   27.621   50.460    0.335    0.501
  104.313   25.839   51.900    0.338    0.505
  104.563   24.372   53.936    0.347    0.496
  104.813   23.611   56.033    0.349    0.483
  105.063   23.231   56.906    0.356    0.479
  105.313   22.907   56.901    0.362    0.488
  105.563   22.571   57.169    0.362    0.492
  105.813   22.238   58.556    0.355    0.487
  106.063   21.923   60.563    0.350    0.494
  106.313   21.873   61.187    0.367    0.500
  106.563   22.326   61.083    0.367    0.507
  106.813   22.026   61.794    0.360    0.511
  107.063   22.339   64.124    0.355    0.503
  107.313   19.283   67.140    0.347    0.486
  107.563    9.504   71.958    0.333    0.479
  107.813    7.458   82.687    0.320    0.497
  108.063    6.956   87.801    0.301    0.509
  108.313    5.963   88.020    0.289    0.505
  108.563    5.450   88.389    0.294    0.501
  108.813    5.187   90.426    0.304    0.507
  109.063    5.042   94.059    0.304    0.519
  109.313    4.840   97.837    0.285    0.526
  109.563    4.445   98.334    0.276    0.537
  109.813    4.118   98.906    0.283    0.554
  110.063    4.087  100.792    0.283    0.580
  110.313    4.497  102.012    0.280    0.599
  110.563    5.152  100.083    0.296    0.590
  110.813    5.197   92.756    0.308    0.582
  111.063    4.937   91.954    0.315    0.556
  111.313    4.537   96.731    0.323    0.535
  111.563    3.991  105.253    0.313    0.525
  111.813    3.522  105.082    0.287    0.532
  112.063    3.338   90.639    0.278    0.560
  112.313    3.106   98.531    0.283    0.564
  112.563    2.822  104.285    0.286    0.573
  112.813    2.666  101.969    0.284    0.594
  113.063    2.625   99.628    0.285    0.611
  113.313    2.583   99.769    0.296    0.618
  113.563    2.691   99.649    0.317    0.613
  113.813    3.311   96.031    0.315    0.593
  114.063    4.209   89.519    0.312    0.582
  114.313    5.535   82.118    0.318    0.580
  114.563    8.315   73.175    0.326    0.547
  114.813   11.421   64.391    0.333    0.492
  115.063   12.255   62.234    0.336    0.476
  115.313   12.130   67.708    0.332    0.477
  115.563   11.583   70.598    0.321    0.485
  115.813   11.350   67.539    0.314    0.491
  116.063   11.466   61.752    0.327    0.499
  116.313   11.714   57.615    0.355    0.500
  116.563   12.075   56.364    0.361    0.481
  116.813   11.908   54.886    0.350    0.488
  117.063   11.847   53.929    0.344    0.485
  117.313   11.888   54.659    0.338    0.469
  117.563   11.873   55.164    0.337    0.476
  117.813   11.902   54.595    0.345    0.495
  118.063   12.114   54.654    0.355    0.481
  118.313   12.527   54.158    0.357    0.470
  118.563   12.583   54.593    0.363    0.462
  118.813   12.691   59.632    0.363    0.474
  119.063   12.850   69.764    0.355    0.497
  119.313   12.833   69.748    0.347    0.506
  119.563   12.841   52.389    0.344    0.507
  119.813   12.666   51.564    0.360    0.507
  120.063   12.452   53.524    0.362    0.499
  120.313   12.380   53.910    0.358    0.490
  120.563   12.428   54.083    0.364    0.487
  120.813   12.386   53.559    0.367    0.490
  121.063   12.197   53.629    0.356    0.487
  121.313   12.184   53.609    0.348    0.482
  121.563   12.345   54.201    0.347    0.483
  121.813   12.585   56.284    0.350    0.488
  122.063   12.680   58.644    0.352    0.491
  122.313   12.716   59.772    0.349    0.487
  122.563   12.927   59.658    0.345    0.481
  122.813   12.926   58.604    0.346    0.479
  123.063   13.096   58.730    0.355    0.487
  123.313   13.229   59.682    0.368    0.495
  123.563   13.131   60.702    0.373    0.499
  123.813   12.915   60.726    0.367    0.495
  124.063   12.736   59.146    0.357    0.478
  124.313   12.740   58.922    0.354    0.470
  124.563   12.743   60.592    0.354    0.471
  124.813   12.829   60.317    0.361    0.479
  125.063   13.174   57.179    0.370    0.487
  125.313   14.327   53.925    0.374    0.492
  125.563   16.484   52.084    0.374    0.491
  125.813   19.811   50.590    0.365    0.466
  126.063   30.239   49.217    0.316    0.432
  126.313   39.456   47.445    0.261    0.361
  126.563   40.552   48.459    0.157    0.253
  126.813   32.518   53.983    0.045    0.205
  127.063   19.526   59.289    0.091    0.288
  127.313   15.053   60.479    0.218    0.375
  127.563   14.182   60.719    0.329    0.446
  127.813   13.103   59.492    0.371    0.462
  128.063   12.017   57.488    0.366    0.456
  128.313   11.442   57.060    0.361    0.466
  128.563   11.120   58.775    0.366    0.462
  128.813   10.773   61.942    0.365    0.460
  129.063   10.691   62.683    0.356    0.467
  129.313   10.830   61.894    0.356    0.476
  129.563   11.007   60.574    0.369    0.483
  129.813   11.187   58.370    0.376    0.485
