~VERSION INFORMATION
 VERS.                 2.0:   CWLS LOG ASCII STANDARD -VERSION 2.0
 WRAP.                  NO:   ONE LINE PER DEPTH STEP
~WELL INFORMATION BLOCK
#MNEM.UNIT           DATA                    DESCRIPTION OF MNEMONIC
#---------    -------------------            -------------------------------
# Generated from Intellog Unique Number	CW_70_72/WELL/1034
NULL.         -999.25                        : NULL_VALUE
WELL.         SUNDANCE ET AL SMITH 10-10     : Well_name    - WELL              
LOC .         10-10-071-23W4                 : Location     - LOCATION          
UWI .         00/10-10-071-23W4/0            : Uwi          - UNIQUE WELL ID    
ENTR.         J                              : Entered      - ENTERED BY        
SRVC.         SCHLUMBERGER                   : Scn          - SERVICE COMPANY   
DATE.         25 FEB 1976                    : Date         - LOG DATE          
STRT.M        423.672                        : top_depth    - START DEPTH       
STOP.M        612.672                        : bot_depth    - STOP DEPTH        
STEP.M        0.25                           : increment    - STEP LENGTH       
~CURVE INFORMATION BLOCK
#MNEM UNIT       ERCB CURVE CODE    CURVE DESCRIPTION
#-----------   ------------------   ----------------------------------
DEPT.M        00 001 00 00         : DEPTH        - DEPTH                       
DPHI.V/V      00 890 00 00         : PHID         - DENSITY POROSITY (SANDSTONE)
NPHI.V/V      00 330 00 00         : PHIN         - NEUTRON POROSITY (SANDSTONE)
GR  .API      00 310 00 00         : GR           - GAMMA RAY                   
CALI.MM       00 280 01 00         : CAL          - CALIPER                     
ILD .OHMM     00 120 00 00         : RESD         - DEEP RESISTIVITY (DIL)      
~PARAMETER INFORMATION       
#MNEM.UNIT           DATA             DESCRIPTION OF MNEMONIC
#---------         -----------     ------------------------------
GL  .M        662.026              : gl           - GROUND LEVEL ELEVATION      
EREF.M        665.683              : kb           - ELEVATION OF DEPTH REFERENCE
DATM.M        661.721              : datum        - DATUM ELEVATION             
TDD .M        620.268              : tdd          - TOTAL DEPTH DRILLER         
RUN .         ONE                  : Run          - RUN NUMBER                  
BASE.         EDM                  : Branch       - HOME BASE OF LOGGING UNIT   
MUD .         GEL CHEM             : Mud_type     - MUD TYPE                    
MATR.         SANDSTONE            : Logunit      - NEUTRON MATRIX              
TMAX.C        24.4444              : BHT          - MAXIMUM RECORDED TEMPERATURE
BHTD.M        620.268              : BHTDEP       - MAXIMUM RECORDED TEMPERATURE
RMT .C        -17.7778             : MDTP         - TEMPERATURE OF MUD          
MUDD.KG/M     0                    : MWT          - MUD DENSITY                 
NEUT.         1                    : NEUTRON      - NEUTRON TYPE                
RESI.         0                    : RESIST       - RESISTIVITY TYPE            
RM  .OHMM     0                    : RM           - RESISTIVITY OF MUD          
RMC .OHMM     0                    : RMC          - RESISTIVITY OF MUD CAKE     
RMF .OHMM     0                    : RMF          - RESISTIVITY OF MUD FILTRATE 
SUFT.C        0                    : SUFT         - SURFACE TEMPERATURE         
~A  DEPTH     PHID     PHIN       GR      CAL     RESD
  423.672    0.199    0.555  108.426  178.558    3.332
  423.922    0.204    0.537  108.937  179.108    3.220
  424.172    0.225    0.530  108.269  176.189    3.101
  424.422    0.256    0.544  106.793  172.212    2.894
  424.672    0.255    0.530  104.881  169.816    2.676
  424.922    0.215    0.527   99.491  173.320    2.591
  425.172    0.213    0.545   92.732  180.073    2.598
  425.422    0.245    0.570   84.110  178.205    2.769
  425.672    0.259    0.508   72.692  170.024    3.170
  425.922    0.216    0.467   69.599  163.312    3.801
  426.172    0.262    0.442   72.658  160.394    4.659
  426.422    0.307    0.424   75.220  158.840    5.474
  426.672    0.292    0.417   77.969  158.443    6.199
  426.922    0.275    0.426   80.719  160.363    7.098
  427.172    0.256    0.440   82.969  161.964    6.861
  427.422    0.237    0.452   86.095  164.306    6.557
  427.672    0.244    0.457   87.722  167.064    6.030
  427.922    0.251    0.456   90.842  169.090    5.464
  428.172    0.261    0.459   93.654  170.690    4.950
  428.422    0.276    0.467   96.216  173.662    4.372
  428.672    0.270    0.558  101.822  186.628    3.748
  428.922    0.287    0.556  104.383  190.967    3.334
  429.172    0.294    0.541  105.269  190.360    3.288
  429.422    0.274    0.524  107.147  186.175    3.353
  429.672    0.254    0.448  105.734  176.415    3.693
  429.922    0.229    0.424  102.891  158.764    4.114
  430.172    0.206    0.418   99.798  157.211    4.633
  430.422    0.204    0.418   95.151  157.764    5.104
  430.672    0.219    0.414   93.738  159.155    5.290
  430.922    0.209    0.444   96.362  162.021    5.294
  431.172    0.213    0.471   94.760  164.888    4.923
  431.422    0.230    0.473   89.992  166.492    4.776
  431.672    0.234    0.450   83.730  167.568    4.719
  431.922    0.221    0.431   74.611  167.274    4.945
  432.172    0.256    0.408   66.859  164.248    5.811
  432.422    0.188    0.371   62.399  162.487    6.508
  432.672    0.170    0.350   61.358  161.984    7.438
  432.922    0.158    0.348   59.508  161.905    8.627
  433.172    0.149    0.358   58.218  161.932    9.734
  433.422    0.143    0.352   55.251  162.380   11.125
  433.672    0.078    0.279   49.672  162.300   12.810
  433.922    0.062    0.258   43.723  162.321   14.696
  434.172    0.041    0.228   41.190  162.027   16.798
  434.422   -0.012    0.189   40.398  162.583   18.743
  434.672   -0.007    0.168   41.717  163.028   21.029
  434.922    0.003    0.155   45.459  164.208   22.784
  435.172    0.014    0.174   51.129  165.919   23.100
  435.422    0.038    0.239   58.474  167.102   19.553
  435.672    0.083    0.318   65.075  167.963   15.600
  435.922    0.103    0.367   73.664  169.146   12.447
  436.172    0.139    0.411   91.698  170.542    9.787
  436.422    0.172    0.462   96.871  171.301    7.389
  436.672    0.196    0.453   91.045  171.743    5.895
  436.922    0.209    0.427   85.095  171.873    4.917
  437.172    0.268    0.395   81.566  171.899    4.648
  437.422    0.295    0.385   85.249  172.034    4.509
  437.672    0.256    0.415   89.860  172.476    4.555
  437.922    0.237    0.449   93.913  172.605    4.731
  438.172    0.210    0.449   93.058  171.683    4.912
  438.422    0.214    0.434   86.861  168.340    5.120
  438.672    0.234    0.395   79.915  163.419    5.230
  438.922    0.281    0.375   73.902  159.026    5.264
  439.172    0.263    0.390   72.799  156.743    5.259
  439.422    0.242    0.400   70.576  156.347    5.215
  439.672    0.242    0.392   66.490  156.684    5.268
  439.922    0.275    0.378   69.053  157.126    5.421
  440.172    0.279    0.375   71.676  157.152    5.863
  440.422    0.258    0.390   68.087  157.178    6.398
  440.672    0.262    0.387   63.877  157.416    7.532
  440.922    0.297    0.371   61.344  157.651    8.883
  441.172    0.305    0.366   59.123  157.885   10.379
  441.422    0.306    0.400   56.775  157.802   12.241
  441.672    0.329    0.429   53.248  157.510   12.924
  441.922    0.332    0.431   50.032  157.325   12.723
  442.172    0.310    0.407   58.559  157.456   11.090
  442.422    0.258    0.388   70.938  157.799    8.767
  442.672    0.245    0.391   81.702  158.139    7.518
  442.922    0.241    0.412   89.360  158.161    6.662
  443.172    0.235    0.421   92.791  158.612    5.873
  443.422    0.218    0.427   98.088  159.158    5.262
  443.672    0.226    0.438  102.887  159.917    4.804
  443.922    0.206    0.431  102.592  161.309    4.500
  444.172    0.195    0.429   96.144  162.913    4.357
  444.422    0.195    0.425   91.188  164.626    4.273
  444.672    0.201    0.436   87.475  165.913    4.237
  444.922    0.212    0.458   83.140  166.988    4.210
  445.172    0.242    0.457   80.046  167.434    4.238
  445.422    0.284    0.449   80.373  167.666    4.171
  445.672    0.306    0.443   81.381  167.691    3.980
  445.922    0.306    0.455   85.807  167.927    3.707
  446.172    0.295    0.481   92.345  168.689    3.479
  446.422    0.261    0.525  101.432  169.028    3.135
  446.672    0.288    0.567  106.667  169.054    2.763
  446.922    0.279    0.590  111.402  172.865    2.574
  447.172    0.279    0.581  113.405  188.672    2.460
  447.422    0.299    0.568  111.122  181.541    2.431
  447.672    0.238    0.562  115.485  173.360    2.585
  447.922    0.250    0.565  116.743  200.425    2.906
  448.172    0.270    0.545  116.137  206.658    3.434
  448.422    0.268    0.468  116.523  175.644    3.954
  448.672    0.246    0.437  114.550  171.671    4.388
  448.922    0.206    0.443  107.730  173.170    4.710
  449.172    0.203    0.463  100.910  173.826    4.982
  449.422    0.257    0.470   91.603  171.642    5.290
  449.672    0.261    0.459   81.429  164.090    5.575
  449.922    0.271    0.440   74.297  159.274    5.919
  450.172    0.304    0.428   79.221  160.035    6.204
  450.422    0.280    0.442   84.827  161.113    6.302
  450.672    0.254    0.460   90.312  163.032    6.091
  450.922    0.269    0.475   92.313  165.267    5.479
  451.172    0.262    0.487   91.832  167.079    5.178
  451.422    0.238    0.496   90.355  166.896    5.089
  451.672    0.257    0.505   88.442  165.765    5.294
  451.922    0.282    0.500   84.357  163.266    5.664
  452.172    0.283    0.475   81.264  161.076    5.968
  452.422    0.265    0.452   77.612  158.264    6.526
  452.672    0.238    0.462   73.216  157.347    6.903
  452.922    0.245    0.471   71.491  157.368    7.236
  453.172    0.190    0.444   75.047  157.601    7.256
  453.422    0.167    0.412   85.127  157.727    6.697
  453.672    0.142    0.433   89.802  158.488    6.226
  453.922    0.207    0.457   88.388  159.145    5.746
  454.172    0.222    0.478   83.866  159.801    5.236
  454.422    0.228    0.482   78.042  160.459    4.850
  454.672    0.217    0.461   78.803  161.222    4.347
  454.922    0.234    0.466   81.302  162.929    4.041
  455.172    0.254    0.485   86.597  165.479    3.834
  455.422    0.267    0.504   90.402  168.553    3.651
  455.672    0.276    0.509   90.479  169.630    3.568
  455.922    0.291    0.505   91.114  161.553    3.591
  456.172    0.266    0.500   92.433  161.368    3.695
  456.422    0.254    0.486   94.686  163.922    3.810
  456.672    0.240    0.479   97.683  165.519    3.978
  456.922    0.268    0.487  100.928  167.757    4.146
  457.172    0.249    0.480  105.107  169.149    4.258
  457.422    0.238    0.470  107.794  169.598    4.349
  457.672    0.245    0.461  109.486  169.407    4.361
  457.922    0.246    0.457  110.744  169.435    4.278
  458.172    0.215    0.455  113.242  169.459    4.165
  458.422    0.210    0.453  114.064  170.638    4.071
  458.672    0.208    0.452  103.827  172.663    4.029
  458.922    0.228    0.490   95.205  177.000    4.011
  459.172    0.292    0.509   82.421  174.079    4.074
  459.422    0.269    0.469   76.656  169.160    4.123
  459.672    0.264    0.443   81.207  166.978    4.127
  459.922    0.299    0.430   83.397  165.846    4.123
