~VERSION INFORMATION
 VERS.                 2.0:   CWLS LOG ASCII STANDARD -VERSION 2.0
 WRAP.                  NO:   ONE LINE PER DEPTH STEP
~WELL INFORMATION BLOCK
#MNEM.UNIT           DATA                    DESCRIPTION OF MNEMONIC
#---------    -------------------            -------------------------------
# Generated from Intellog Unique Number	CC_80_83/WELL/2341
NULL.         -999.25                        : NULL_VALUE
WELL.         HOMESTEAD ET AL COWPAR         : WELL_NAME
LOC .         10-09-080-04W4                 : Location     - LOCATION          
UWI .         00/10-09-080-04W400            : Uwi          - UNIQUE WELL ID    
ENTR.         DW                             : Entered      - ENTERED BY        
SRVC.         SCHLUMBERGER                   : Scn          - SERVICE COMPANY   
DATE.         23 JAN 72                      : Date         - LOG DATE
STRT.M        94.488                         : top_depth    - START DEPTH       
STOP.M        320.04                         : bot_depth    - STOP DEPTH        
STEP.M        0.3048                         : increment    - STEP LENGTH       
~CURVE INFORMATION BLOCK
#MNEM UNIT       ERCB CURVE CODE    CURVE DESCRIPTION
#-----------   ------------------   ----------------------------------
DEPT.M        00 001 00 00         : DEPTH        - DEPTH                       
NPHI.V/V      00 330 00 00         : PHIN         - NEUTRON POROSITY (LIMESTONE)
GR  .API      00 310 00 00         : GR           - GAMMA RAY                   
DPHI.V/V      00 890 00 00         : PHID         - DENSITY POROSITY (LIMESTONE)
ILD .OHMM     00 120 00 00         : RESD         - DEEP RESISTIVITY (DIL)      
~PARAMETER INFORMATION       
#MNEM.UNIT           DATA             DESCRIPTION OF MNEMONIC
#---------         -----------     ------------------------------
GL  .M        479.45               : gl           - GROUND LEVEL ELEVATION      
EREF.M        483.108              : kb           - ELEVATION OF DEPTH REFERENCE
DATM.M        483.108              : datum        - DATUM ELEVATION             
TDD .M        331.622              : tdd          - TOTAL DEPTH DRILLER         
RUN .         ONE                  : Run          - RUN NUMBER                  
ENG .         BILL                 : Engineer     - RECORDING ENGINEER          
WIT .         JIM                  : Witness      - WITNESSED BY                
MUD .         GEL                  : Mud_type     - MUD TYPE                    
MATR.         LIMESTONE            : Logunit      - NEUTRON MATRIX              
TMAX.C        21.1111              : BHT          - MAXIMUM RECORDED TEMPERATURE
BHTD.M        331.622              : BHTDEP       - MAXIMUM RECORDED TEMPERATURE
MATR.         1                    : LOGUNIT      - NEUTRON MATRIX              
RMT .C        25                   : MDTP         - TEMPERATURE OF MUD          
NEUT.         0                    : NEUTRON      - NEUTRON TYPE                
RESI.         0                    : RESIST       - RESISTIVITY TYPE            
RMC .OHMM     0.25                 : RMC          - RESISTIVITY OF MUD CAKE     
RMF .OHMM     0.25                 : RMF          - RESISTIVITY OF MUD FILTRATE 
SUFT.C        15                   : SUFT         - SURFACE TEMPERATURE         
~A  DEPTH     PHIN       GR     PHID     RESD
# ...
  147.523    0.402   72.164    0.336   10.117
  147.828    0.441   76.627    0.338   11.302
  148.133    0.432   74.198    0.321   12.629
  148.437    0.390   63.660    0.298   13.844
  148.742    0.288   57.987    0.245   13.832
  149.047    0.293   65.288    0.254   12.123
  149.352    0.367   66.913    0.304   10.629
  149.657    0.426   69.753    0.329   10.043
  149.961    0.426   73.811    0.335    9.311
  150.266    0.428   69.354    0.327    8.793
  150.571    0.422   71.790    0.310    8.466
  150.876    0.407   77.064    0.302    8.145
  151.181    0.423   79.500    0.298    7.548
  151.485    0.426   83.151    0.297    7.268
  151.790    0.418   83.965    0.293    6.864
  152.095    0.415   83.158    0.291    6.607
  152.400    0.417   84.377    0.286    6.126
  152.705    0.406   85.191    0.285    5.174
  153.009    0.402   91.681    0.284    4.289
  153.314    0.403   98.170    0.280    3.978
  153.619    0.445   92.498    0.285    4.699
  153.924    0.470   88.041    0.295    5.449
  154.229    0.449   88.449    0.286    6.320
  154.533    0.450   81.560    0.287    7.061
  154.838    0.472   77.509    0.301    6.793
  155.143    0.444   77.107    0.289    6.184
  155.448    0.422   75.893    0.278    5.125
  155.752    0.425   83.195    0.293    4.493
  156.057    0.436   88.874    0.294    4.166
  156.362    0.441   93.336    0.280    4.009
  156.667    0.453   93.745    0.276    4.081
  156.972    0.497   90.505    0.282    4.311
  157.276    0.517   89.697    0.296    4.471
  157.581    0.508   86.862    0.285    4.466
  157.886    0.468   89.298    0.281    4.296
  158.191    0.454   93.760    0.305    4.214
  158.496    0.479   96.197    0.304    4.056
  158.800    0.516   96.605    0.290    3.760
  159.105    0.507   97.825    0.289    3.827
  159.410    0.486   94.989    0.297    4.355
  159.715    0.473   91.749    0.297    4.776
  160.020    0.465   89.320    0.283    5.334
  160.324    0.463   89.728    0.265    5.430
  160.629    0.448   93.380    0.258    4.939
  160.934    0.442   96.222    0.287    4.667
  161.239    0.447   95.819    0.280    4.409
  161.544    0.426   88.930    0.269    4.324
  161.848    0.417   84.473    0.258    4.400
  162.153    0.457   89.341    0.255    4.562
  162.458    0.462   90.561    0.259    4.819
  162.763    0.462   90.564    0.281    5.187
  163.068    0.444   92.188    0.287    5.583
  163.372    0.420   84.083    0.284    6.121
  163.677    0.406   77.194    0.291    6.588
  163.982    0.445   73.548    0.290    6.959
  164.287    0.427   77.605    0.284    7.081
  164.592    0.423   82.474    0.276    7.076
  164.896    0.435   83.693    0.278    7.336
  165.201    0.439   77.615    0.295    7.752
  165.506    0.435   73.564    0.284    8.501
  165.811    0.396   75.593    0.295    9.150
  166.115    0.408   69.515    0.289    9.665
  166.420    0.408   72.357    0.283    9.834
  166.725    0.395   77.630    0.288    9.827
  167.030    0.391   78.038    0.300    9.452
  167.335    0.404   74.393    0.295    9.271
  167.639    0.407   73.586    0.291    8.919
  167.944    0.409   72.372    0.288    8.587
  168.249    0.395   71.564    0.284    8.421
  168.554    0.377   71.162    0.278    8.408
  168.859    0.392   72.381    0.267    8.560
  169.163    0.394   79.682    0.267    8.872
  169.468    0.364   80.901    0.265    8.867
  169.773    0.392   78.067    0.264    8.856
  170.078    0.379   76.854    0.275    8.523
  170.383    0.414   77.263    0.282    8.203
  170.687    0.394   77.670    0.288    7.463
  170.992    0.383   79.701    0.289    7.053
  171.297    0.397   81.325    0.284    6.536
  171.602    0.390   80.518    0.272    6.531
  171.907    0.425   79.304    0.250    6.645
  172.211    0.417   76.875    0.278    6.518
  172.516    0.398   78.906    0.282    6.391
  172.821    0.421   77.692    0.282    5.816
  173.126    0.391   74.857    0.286    5.390
  173.431    0.415   74.049    0.292    5.489
  173.735    0.432   73.242    0.295    5.906
  174.040    0.414   73.245    0.287    6.476
  174.345    0.405   76.086    0.277    7.101
  174.650    0.414   75.683    0.298    7.502
  174.955    0.411   73.254    0.308    7.925
  175.259    0.397   70.419    0.308    8.217
  175.564    0.411   76.503    0.296    8.519
  175.869    0.393   79.344    0.272    8.673
  176.174    0.392   72.050    0.283    8.823
  176.479    0.411   70.026    0.278    8.983
  176.783    0.422   74.084    0.279    9.139
  177.088    0.408   75.303    0.286    9.306
  177.393    0.384   75.711    0.291    9.646
  177.698    0.414   72.066    0.305    9.814
  178.002    0.429   70.853    0.308    9.807
  178.307    0.402   70.450    0.299    9.800
  178.612    0.384   68.426    0.289   10.159
  178.917    0.397   69.645    0.299   10.341
  179.222    0.393   72.893    0.300    9.952
  179.526    0.387   72.490    0.307    9.226
  179.831    0.403   63.978    0.312    7.792
  180.136    0.420   65.604    0.314    6.342
  180.441    0.430   75.337    0.306    3.759
  180.746    0.446   82.233    0.304    2.892
  181.050    0.471   87.101    0.330    2.583
  181.355    0.533   88.726    0.336    2.580
  181.660    0.514   90.755    0.330    2.626
  181.965    0.479   95.218    0.317    2.826
  182.270    0.475   96.843    0.303    2.987
  182.574    0.485   99.684    0.286    3.337
  182.879    0.495   98.067    0.269    3.797
  183.184    0.474   96.447    0.297    4.164
  183.489    0.476   91.990    0.294    4.399
  183.794    0.482   86.723    0.283    5.100
  184.098    0.475   83.077    0.277    6.025
  184.403    0.458   79.431    0.280    6.366
  184.708    0.411   83.895    0.287    6.011
  185.013    0.431   85.113    0.292    5.897
  185.318    0.435   84.306    0.301    5.889
  185.622    0.439   79.849    0.302    6.459
  185.927    0.428   80.258    0.275    7.350
  186.232    0.414   77.829    0.263    8.213
  186.537    0.412   72.155    0.275    9.175
  186.842    0.411   65.672    0.262    9.512
  187.146    0.394   68.918    0.251    9.864
  187.451    0.334   73.787    0.281   11.018
  187.756    0.345   67.303    0.310   12.081
  188.061    0.421   70.144    0.311   12.523
  188.365    0.413   66.498    0.279   12.517
  188.670    0.398   58.798    0.228   11.820
  188.975    0.338   63.666    0.244   11.164
  189.280    0.311   76.643    0.311   11.154
  189.585    0.418   80.295    0.306   10.939
  189.889    0.432   76.244    0.299   11.131
  190.194    0.432   66.922    0.271   11.761
  190.499    0.409   69.358    0.251   13.137
  190.804    0.414   74.226    0.284   13.882
  191.109    0.376   75.445    0.270   14.653
  191.413    0.394   72.205    0.221   14.918
  191.718    0.314   65.316    0.114   14.633
  192.023    0.185   61.265    0.209   12.830
  192.328    0.126   66.944    0.242   10.832
  192.633    0.291   71.001    0.272    9.861
  192.937    0.335   75.870    0.317    9.143
  193.242    0.389   79.116    0.310    8.477
  193.547    0.409   82.768    0.320    7.428
  193.852    0.427   82.771    0.309    7.153
  194.157    0.404   85.207    0.287    6.631
  194.461    0.385   84.399    0.274    6.623
  194.766    0.377   85.618    0.293    6.998
  195.071    0.397   91.298    0.270    7.672
  195.376    0.431   89.679    0.285    7.808
  195.681    0.393   82.790    0.280    7.514
  195.985    0.391   77.117    0.276    6.839
  196.290    0.407   73.471    0.286    6.110
  196.595    0.416   77.528    0.304    5.258
  196.900    0.414   83.613    0.290    4.966
  197.205    0.409   85.643    0.279    4.867
  197.509    0.435   87.268    0.285    5.142
  197.814    0.439   88.082    0.279    5.235
  198.119    0.449   83.625    0.270    5.229
  198.424    0.455   85.250    0.273    4.940
  198.728    0.459   84.442    0.299    4.494
  199.033    0.429   87.689    0.308    4.491
  199.338    0.444   90.530    0.329    4.833
  199.643    0.455   81.614    0.348    4.482
  199.948    0.477   77.562    0.324    3.857
  200.252    0.448   78.376    0.313    3.445
