~VERSION INFORMATION
 VERS.                 2.0:   CWLS LOG ASCII STANDARD -VERSION 2.0
 WRAP.                  NO:   ONE LINE PER DEPTH STEP
~WELL INFORMATION BLOCK
#MNEM.UNIT           DATA                    DESCRIPTION OF MNEMONIC
#---------    -------------------            -------------------------------
# Generated from Intellog Unique Number	CS_71_72/WELL/858
WELL.         ALLIED ET AL WANDER            : Well_name    - WELL
LOC .         00/10-17-072-13W4/0            : Location     - LOCATION
UWI .         00/10-17-072-13W4/0            : Uwi          - UNIQUE WELL ID
ENTR.         SP                             : Entered      - ENTERED BY
SRVC.         SCHLUMBERGER                   : Scn          - SERVICE COMPANY
STRT.M        313.944                        : top_depth    - START DEPTH
STOP.M        536.194                        : bot_depth    - STOP DEPTH
STEP.M        0.25                           : increment    - STEP LENGTH
 NULL. -999.2500:NULL Value
~CURVE INFORMATION BLOCK
#MNEM UNIT       ERCB CURVE CODE    CURVE DESCRIPTION
#-----------   ------------------   ----------------------------------
DEPT.M        00 001 00 00         : DEPTH        - DEPTH
GR  .API      00 310 00 00         : GR           - GAMMA RAY
DPHI.V/V      00 890 00 00         : PHID         - DENSITY POROSITY (SANDSTONE)
NPHI.V/V      00 330 00 00         : PHIN         - NEUTRON POROSITY (SANDSTONE)
ILD .OHMM     00 120 00 00         : RESD         - DEEP RESISTIVITY (DIL)
~PARAMETER INFORMATION
#MNEM.UNIT           DATA             DESCRIPTION OF MNEMONIC
#---------         -----------     ------------------------------
GL  .M        642.671              : gl           - GROUND LEVEL ELEVATION
EREF.M        645.871              : kb           - ELEVATION OF DEPTH REFERENCE
DATM.M        642.671              : datum        - DATUM ELEVATION
TDD .M        548.64               : tdd          - TOTAL DEPTH DRILLER
RUN .         ONE                  : Run          - RUN NUMBER
ENG .         BILL                 : Engineer     - RECORDING ENGINEER
WIT .         JIM                  : Witness      - WITNESSED BY
MUD .         GEL                  : Mud_type     - MUD TYPE
MATR.         SANDSTONE            : Logunit      - NEUTRON MATRIX
TMAX.C        14.4444              : BHT          - MAXIMUM RECORDED TEMPERATURE
BHTD.M        548.64               : BHTDEP       - MAXIMUM RECORDED TEMPERATURE
MATR.         1                    : LOGUNIT      - NEUTRON MATRIX
RMT .C        25                   : MDTP         - TEMPERATURE OF MUD
NEUT.         1                    : NEUTRON      - NEUTRON TYPE
RESI.         0                    : RESIST       - RESISTIVITY TYPE
RMC .OHMM     0.25                 : RMC          - RESISTIVITY OF MUD CAKE
RMF .OHMM     0.25                 : RMF          - RESISTIVITY OF MUD FILTRATE
SUFT.C        15                   : SUFT         - SURFACE TEMPERATURE
~A  DEPTH       GR     PHID     PHIN     RESD
# ...
  487.944   95.455    0.262    0.407   19.740
  488.194  100.965    0.242    0.409   12.269
  488.444  104.647    0.229    0.412   11.563
  488.694  102.585    0.227    0.404   10.794
  488.944   97.675    0.231    0.394   10.509
  489.194   95.350    0.220    0.387   11.496
  489.444   94.021    0.197    0.385   12.180
  489.694   91.848    0.186    0.382   12.298
  489.944   90.253    0.213    0.376   11.626
  490.194   93.728    0.220    0.381   10.992
  490.444  100.344    0.211    0.401   10.377
  490.694  106.143    0.198    0.417    9.519
  490.944  110.049    0.193    0.428    8.825
  491.194  114.484    0.190    0.440    7.855
  491.444  113.531    0.192    0.447    7.341
  491.694  108.462    0.197    0.450    7.513
  491.944  103.411    0.197    0.469    9.589
  492.194   96.779    0.197    0.494   12.413
  492.444   87.433    0.212    0.501   17.684
  492.694   80.392    0.233    0.481   20.282
  492.944   75.549    0.255    0.452   20.610
  493.194   80.671    0.260    0.412   21.571
  493.444   78.225    0.250    0.386   21.950
  493.694   73.614    0.232    0.356   21.895
  493.944   72.601    0.216    0.306   21.115
  494.194   77.466    0.167    0.302   19.817
  494.444   80.664    0.131    0.397   18.625
  494.694   83.814    0.184    0.426   17.498
  494.944   81.695    0.237    0.406   16.459
  495.194   80.158    0.237    0.388   15.716
  495.444   79.714    0.235    0.375   15.134
  495.694   81.392    0.254    0.359   14.557
  495.944   82.155    0.240    0.353   14.191
  496.194   80.854    0.223    0.357   13.999
  496.444   76.866    0.214    0.360   13.836
  496.694   78.352    0.209    0.366   13.474
  496.944   82.336    0.212    0.365   13.104
  497.194   86.480    0.218    0.366   12.617
  497.444   89.963    0.214    0.381   12.453
  497.694   83.311    0.198    0.392   12.627
  497.944   78.020    0.190    0.401   12.973
  498.194   75.774    0.178    0.379   13.465
  498.444   77.718    0.205    0.370   14.055
  498.694   80.600    0.225    0.365   14.125
  498.944   79.925    0.235    0.383   14.337
  499.194   73.056    0.215    0.417   14.857
  499.444   63.945    0.233    0.442   15.910
  499.694   56.231    0.245    0.421   17.608
  499.944   59.172    0.258    0.388   18.470
  500.194   64.954    0.268    0.405   19.087
  500.444   68.513    0.285    0.416   17.092
  500.694   70.062    0.276    0.438   13.792
  500.944   72.498    0.266    0.451   11.645
  501.194   75.050    0.262    0.456   10.173
  501.444   78.777    0.266    0.443    9.180
  501.694   85.874    0.272    0.417    8.398
  501.944   92.743    0.270    0.456    7.730
  502.194  103.264    0.203    0.506    7.071
  502.444  108.432    0.156    0.502    6.341
  502.694  111.501    0.118    0.472    5.760
  502.944  112.226    0.094    0.612    5.383
  503.194  118.185    0.076    0.598    4.978
  503.444  122.025    0.055    0.543    4.828
  503.694  117.257    0.120    0.436    4.782
  503.944  106.682    0.118    0.402    5.979
  504.194  100.851    0.144    0.384    6.878
  504.444   97.778    0.167    0.391    7.626
  504.694  100.579    0.164    0.401    8.134
  504.944   97.915    0.148    0.412    8.405
  505.194   94.089    0.143    0.405    8.817
  505.444   86.850    0.157    0.399    8.760
  505.694   82.678    0.194    0.410    8.397
  505.944   79.038    0.207    0.431    8.009
  506.194   77.732    0.230    0.427    7.611
  506.444   77.819    0.245    0.424    7.128
  506.694   81.033    0.250    0.427    7.011
  506.944   83.424    0.254    0.422    6.898
  507.194   83.813    0.245    0.419    6.902
  507.444   84.510    0.236    0.400    7.016
  507.694   87.543    0.231    0.392    7.343
  507.944   90.358    0.224    0.380    7.753
  508.194   92.095    0.206    0.374    8.016
  508.444   92.302    0.184    0.379    8.408
  508.694   91.293    0.173    0.388    8.921
  508.944   90.555    0.170    0.397    9.466
  509.194   89.898    0.179    0.411    9.711
  509.444   90.810    0.191    0.433    9.929
  509.694   95.152    0.200    0.411    9.743
  509.944  101.446    0.208    0.390    9.426
  510.194   97.466    0.229    0.396    8.900
  510.444   89.507    0.226    0.389    8.272
  510.694   61.428    0.220    0.367    7.999
  510.944   63.802    0.210    0.364    8.055
  511.194   73.039    0.202    0.399    7.984
  511.444   78.470    0.213    0.422    7.627
  511.694   86.093    0.249    0.492    7.582
  511.944   90.736    0.278    0.534    7.955
  512.194   90.231    0.253    0.503    7.884
  512.444   66.024    0.239    0.466    7.416
  512.694   65.166    0.249    0.406    6.941
  512.944   62.308    0.274    0.390    6.429
  513.194   59.431    0.264    0.401    6.094
  513.444   55.254    0.255    0.392    5.910
  513.694   60.068    0.278    0.375    5.678
  513.944   68.699    0.289    0.380    5.777
  514.194   74.631    0.278    0.388    5.963
  514.444   85.468    0.280    0.373    6.844
  514.694   91.769    0.259    0.368    7.404
  514.944  100.572    0.197    0.371    7.938
  515.194  105.144    0.172    0.378    8.216
  515.444  108.017    0.156    0.392    8.385
  515.694  103.985    0.148    0.384    8.375
  515.944   90.725    0.160    0.364    8.602
  516.194   77.690    0.176    0.350    8.858
  516.444   73.352    0.190    0.345    9.138
  516.694   79.536    0.205    0.346    9.355
  516.944   82.353    0.220    0.343    9.476
  517.194   78.761    0.223    0.363    9.474
  517.444   71.897    0.207    0.378    9.472
  517.694   69.287    0.212    0.356    9.482
  517.944   74.020    0.225    0.304    9.311
  518.194   78.156    0.158    0.310    9.119
  518.444   81.004    0.177    0.340    8.860
  518.694   82.749    0.195    0.362    8.593
  518.944   85.156    0.206    0.363    8.428
  519.194   87.540    0.208    0.350    8.425
  519.444   91.040    0.199    0.339    8.562
  519.694   94.584    0.187    0.343    8.828
  519.944   99.702    0.175    0.360    8.922
  520.194   90.324    0.166    0.376    8.543
  520.444   77.155    0.180    0.389    8.034
  520.694   69.066    0.204    0.399    7.550
  520.944   64.143    0.218    0.402    7.114
  521.194   67.572    0.230    0.397    6.703
  521.444   71.292    0.241    0.394    6.471
  521.694   72.589    0.231    0.397    6.252
  521.944   71.018    0.221    0.399    6.328
  522.194   70.027    0.231    0.397    6.305
  522.444   70.457    0.237    0.399    5.761
  522.694   72.418    0.229    0.403    5.572
  522.944   74.127    0.227    0.397    5.333
  523.194   74.013    0.240    0.383    5.379
  523.444   77.460    0.237    0.374    5.463
  523.694   80.013    0.230    0.379    5.717
  523.944   82.918    0.225    0.377    5.920
  524.194   85.846    0.209    0.371    6.062
  524.444   83.141    0.190    0.378    6.101
  524.694   79.819    0.187    0.393    6.170
  524.944   76.881    0.203    0.379    6.140
  525.194   76.332    0.213    0.357    6.009
  525.444   82.078    0.183    0.345    6.083
  525.694   87.118    0.166    0.394    6.196
  525.944   91.043    0.182    0.410    6.323
  526.194   97.945    0.193    0.403    6.459
  526.444  106.981    0.161    0.396    6.479
  526.694  118.751    0.116    0.432    6.400
  526.944  125.100    0.160    0.454    6.270
  527.194  128.333    0.153    0.469    6.149
  527.444  128.768    0.171    0.476    6.147
  527.694  126.238    0.184    0.485    6.224
  527.944  123.704    0.173    0.444    6.408
  528.194  120.294    0.157    0.398    6.581
  528.444  118.213    0.178    0.377    6.898
  528.694  119.367    0.179    0.373    7.195
  528.944  122.670    0.165    0.427    7.318
  529.194  128.468    0.159    0.491    7.310
  529.444  131.161    0.173    0.519    7.257
  529.694  133.609    0.190    0.445    7.249
  529.944  131.209    0.199    0.405    7.363
  530.194  129.043    0.175    0.432    7.469
  530.444  123.783    0.195    0.459    8.001
  530.694  109.801    0.247    0.483    8.038
  530.944   95.751    0.251    0.447    7.329
  531.194   89.224    0.216    0.462    7.162
