~VERSION INFORMATION
 VERS.                 2.0:   CWLS LOG ASCII STANDARD -VERSION 2.0
 WRAP.                  NO:   ONE LINE PER DEPTH STEP
~WELL INFORMATION BLOCK
#MNEM.UNIT           DATA                    DESCRIPTION OF MNEMONIC
#---------    -------------------            -------------------------------
# Generated from Intellog Unique Number	CS_71_72/WELL/2059
WELL.         GEPC WANDER                    : Well_name    - WELL
LOC .         00/11-29-071-13W4/0            : Location     - LOCATION
UWI .         00/11-29-071-13W4/0            : Uwi          - UNIQUE WELL ID
ENTR.         T                              : Entered      - ENTERED BY
SRVC.         SCHLUMBERGER                   : Scn          - SERVICE COMPANY
DATE.         01/15/92                       : Date         - LOG DATE
STRT.M        335.28                         : top_depth    - START DEPTH
STOP.M        563.78                         : bot_depth    - STOP DEPTH
STEP.M        0.25                           : increment    - STEP LENGTH
 NULL. -999.2500:NULL Value
~CURVE INFORMATION BLOCK
#MNEM UNIT       ERCB CURVE CODE    CURVE DESCRIPTION
#-----------   ------------------   ----------------------------------
DEPT.M        00 001 00 00         : DEPTH        - DEPTH
GR  .API      00 310 00 00         : GR           - GAMMA RAY
NPHI.V/V      00 330 00 00         : PHIN         - NEUTRON POROSITY (SANDSTONE)
ILD .OHMM     00 120 00 00         : RESD         - DEEP RESISTIVITY (DIL)
~PARAMETER INFORMATION
#MNEM.UNIT           DATA             DESCRIPTION OF MNEMONIC
#---------         -----------     ------------------------------
GL  .M        657.758              : gl           - GROUND LEVEL ELEVATION
EREF.M        661.721              : kb           - ELEVATION OF DEPTH REFERENCE
DATM.M        661.721              : datum        - DATUM ELEVATION
TDD .M        566.928              : tdd          - TOTAL DEPTH DRILLER
RUN .         ONE                  : Run          - RUN NUMBER
ENG .         BILL                 : Engineer     - RECORDING ENGINEER
WIT .         JIM                  : Witness      - WITNESSED BY
MUD .         GEL                  : Mud_type     - MUD TYPE
MATR.         SANDSTONE            : Logunit      - NEUTRON MATRIX
TMAX.C        10.5556              : BHT          - MAXIMUM RECORDED TEMPERATURE
BHTD.M        566.928              : BHTDEP       - MAXIMUM RECORDED TEMPERATURE
RMT .C        8.33333              : MDTP         - TEMPERATURE OF MUD
MUDD.KG/M     9800                 : MWT          - MUD DENSITY
NEUT.         1                    : NEUTRON      - NEUTRON TYPE
RESI.         0                    : RESIST       - RESISTIVITY TYPE
RM  .OHMM     4.4                  : RM           - RESISTIVITY OF MUD
RMC .OHMM     5.08                 : RMC          - RESISTIVITY OF MUD CAKE
RMF .OHMM     4.4                  : RMF          - RESISTIVITY OF MUD FILTRATE
SUFT.C        4                    : SUFT         - SURFACE TEMPERATURE
~A  DEPTH       GR     PHIN     RESD
# ...
  498.030  110.723    0.481    3.308
  498.280  110.136    0.478    3.373
  498.530  111.949    0.489    3.309
  498.780  114.361    0.501    3.245
  499.030  116.777    0.501    3.183
  499.280  117.383    0.494    3.122
  499.530  117.395    0.489    3.062
  499.780  117.407    0.489    3.063
  500.030  117.412    0.489    3.184
  500.280  117.421    0.488    3.375
  500.530  116.829    0.484    3.720
  500.780  117.440    0.479    3.720
  501.030  118.654    0.475    3.510
  501.280  117.459    0.470    3.443
  501.530  115.667    0.460    3.650
  501.780  115.677    0.473    3.650
  502.030  115.686    0.488    3.443
  502.280  115.696    0.489    3.312
  502.530  118.713    0.468    3.580
  502.780  116.316    0.447    3.946
  503.030  112.720    0.449    3.870
  503.280  109.721    0.452    3.723
  503.530  115.743    0.455    3.445
  503.780  122.967    0.463    3.250
  504.030  123.580    0.474    3.379
  504.280  125.994    0.481    4.267
  504.530  129.608    0.473    6.293
  504.780  123.005    0.455    8.102
  505.030  117.002    0.431    9.283
  505.280  110.398    0.397    8.424
  505.530   97.181    0.298    8.103
  505.780   91.179    0.309    7.795
  506.030   95.397    0.338    9.653
  506.280   96.611    0.366   11.954
  506.530   92.410    0.361   11.955
  506.780   83.401    0.348   11.500
  507.030   78.000    0.372   10.436
  507.280   72.601    0.390   10.039
  507.530   70.206    0.382   11.728
  507.780   72.617    0.388   14.244
  508.030   78.038    0.400   15.100
  508.280   80.454    0.403   16.008
  508.530   80.464    0.396   16.643
  508.780   82.878    0.384   16.324
  509.030   84.090    0.359   16.011
  509.280   82.897    0.354   15.402
  509.530   80.502    0.362   15.107
  509.780   77.507    0.377   14.817
  510.030   76.310    0.388   15.707
  510.280   73.914    0.383   17.997
  510.530   73.325    0.362   19.453
  510.780   74.534    0.338   20.225
  511.030   78.153    0.333   20.623
  511.280   79.971    0.327   20.624
  511.530   78.774    0.314   20.229
  511.780   75.176    0.314   18.718
  512.030   75.787    0.356   16.660
  512.280   81.207    0.362   13.988
  512.530   74.603    0.387   13.720
  512.780   71.008    0.406   15.720
  513.030   95.063    0.401   16.029
  513.280  107.096    0.375   13.723
  513.530  113.120    0.346   11.301
  513.780  110.121    0.336   10.256
  514.030  104.720    0.338   10.457
  514.280  100.521    0.352   10.257
  514.530  108.947    0.367    9.308
  514.780  119.177    0.364    8.613
  515.030  123.397    0.388    7.666
  515.280  124.005    0.407    7.519
  515.530  125.219    0.425    7.817
  515.780  127.035    0.412    8.127
  516.030  126.441    0.411    8.785
  516.280  122.843    0.409    9.496
  516.530  119.248    0.401   10.465
  516.780  117.451    0.388   10.880
  517.030  115.058    0.394   11.761
  517.280  113.264    0.409   11.992
  517.530  110.866    0.411   12.713
  517.780  105.465    0.356   14.011
  518.030   97.058    0.317   15.744
  518.280   86.847    0.300   16.055
  518.530   86.255    0.321   15.146
  518.780   89.271    0.349   14.570
  519.030   89.884    0.349   13.482
  519.280   91.699    0.346   13.223
  519.530   92.305    0.342   12.475
  519.780   93.517    0.336   11.543
  520.030   88.115    0.323   11.544
  520.280   82.115    0.313   11.772
  520.530   88.134    0.315   11.324
  520.780   97.162    0.321   10.893
  521.030  107.993    0.329   10.479
  521.280  112.812    0.344   10.080
  521.530  109.214    0.360    9.887
  521.780  102.009    0.363   10.280
  522.030   98.414    0.359   10.687
  522.280   96.016    0.350   11.330
  522.530  100.835    0.342   11.113
  522.780  104.454    0.331   10.899
  523.030  104.464    0.323   10.485
  523.280  103.872    0.326   10.284
  523.530  102.078    0.333   10.285
  523.780  102.691    0.337   10.285
  524.030  103.900    0.339   10.488
  524.280  101.507    0.336   10.695
  524.530   99.112    0.329   10.905
  524.780   97.919    0.332   11.338
  525.030   94.920    0.345   11.788
  525.280   90.120    0.358   11.789
  525.530   90.731    0.376   11.790
  525.780   93.749    0.366   11.563
  526.030   94.960    0.347   11.123
  526.280  111.200    0.344   10.293
  526.530  129.846    0.349    9.341
  526.780  135.868    0.353    7.544
  527.030  134.074    0.404    6.846
  527.280  119.654    0.404    7.400
  527.530  111.247    0.392    8.815
  527.780  104.643    0.366    9.344
  528.030   98.040    0.348   10.500
  528.280   92.641    0.350   12.030
  528.530   93.251    0.361   12.753
  528.780   93.860    0.376   13.520
  529.030   95.673    0.369   14.332
  529.280   96.283    0.366   14.614
  529.530   98.096    0.358   15.195
  529.780  101.114    0.352   14.616
  530.030  102.326    0.335   13.790
  530.280   99.327    0.337   13.265
  530.530   94.529    0.345   12.761
  530.780   93.935    0.347   12.276
  531.030   96.953    0.345   11.808
  531.280   98.162    0.343   11.359
  531.530   99.377    0.340   10.717
  531.780  102.392    0.337   10.309
  532.030  106.610    0.337    9.917
  532.280  106.619    0.342    9.727
  532.530  106.030    0.345   10.312
  532.780  108.444    0.345    9.919
  533.030  112.059    0.345    9.542
  533.280  122.890    0.345    9.002
  533.530  135.524    0.348    8.660
  533.780  129.524    0.355    8.830
  534.030  119.313    0.360    9.181
  534.280  115.713    0.350    9.545
  534.530  110.312    0.343   10.318
  534.780  101.907    0.345   11.152
  535.030  106.723    0.346   10.319
  535.280  115.150    0.342    9.364
  535.530  125.380    0.332    8.174
  535.780  122.383    0.329    7.564
  536.030  109.772    0.340    7.276
  536.280  107.973    0.376    7.136
  536.530  102.574    0.385    7.137
  536.780   98.974    0.398    7.138
  537.030   93.573    0.410    7.001
  537.280   94.183    0.416    7.001
  537.530  102.610    0.418    7.139
  537.780  103.220    0.413    8.022
  538.030   96.015    0.405    9.015
  538.280   88.209    0.418   10.531
  538.530   85.213    0.432   11.834
  538.780   92.437    0.431   13.043
  539.030  100.863    0.421   12.792
  539.280   99.672    0.405   12.547
  539.530   96.676    0.387   11.610
  539.780   94.283    0.380   10.953
  540.030   99.099    0.372   10.135
  540.280  111.133    0.362    9.198
  540.530  117.154    0.349    8.848
  540.780  120.771    0.332    8.678
  541.030  121.382    0.328    8.679
  541.280  108.167    0.323    8.850
  541.530  105.173    0.320    9.024
  541.780   96.162    0.315    9.382
  542.030   93.767    0.312    9.567
  542.280   90.169    0.310   10.142
  542.530   85.968    0.307   10.142
  542.780   77.560    0.297    9.757
  543.030   75.167    0.276    9.386
  543.280   74.576    0.262    9.028
  543.530   78.791    0.297    8.855
  543.780   89.622    0.314    8.519
  544.030   99.251    0.338    8.037
  544.280  108.879    0.330    7.883
  544.530  117.306    0.323    7.732
  544.780  114.915    0.310    7.732
  545.030  113.717    0.312    7.884
  545.280  110.120    0.320    7.585
  545.530  102.915    0.351    7.439
  545.780   89.097    0.383    7.296
  546.030   80.689    0.401    6.884
  546.280   76.490    0.407    6.370
  546.530   79.506    0.398    5.894
  546.780   86.128    0.364    6.753
  547.030   95.158    0.351    7.299
  547.280  101.180    0.341    8.363
  547.530  104.197    0.330    9.040
  547.780  103.603    0.322    8.696
  548.030  100.609    0.317    8.204
  548.280   98.214    0.318    8.047
  548.530   96.417    0.326    7.303
  548.780   92.822    0.336    6.890
  549.030   89.222    0.339    6.628
  549.280   85.624    0.343    6.375
  549.530   82.026    0.351    6.133
  549.780   80.235    0.355    6.254
  550.030   79.641    0.360    6.377
  550.280   80.855    0.367    6.760
  550.530   84.469    0.362    7.307
  550.780   96.502    0.360    7.746
  551.030  116.351    0.347    8.053
  551.280  158.447    0.342    8.054
  551.530  148.837    0.344    7.747
  551.780  128.404    0.347    7.031
  552.030  119.398    0.342    6.896
