~VERSION INFORMATION
 VERS.                 2.0:   CWLS LOG ASCII STANDARD -VERSION 2.0
 WRAP.                  NO:   ONE LINE PER DEPTH STEP
~WELL INFORMATION BLOCK
#MNEM.UNIT           DATA                    DESCRIPTION OF MNEMONIC
#---------    -------------------            -------------------------------
# Generated from Intellog Unique Number	CC_84_87/WELL/2355
NULL.         -999.25                        : NULL_VALUE
COMP.         PINNACLE RESOURCES LTD         : COMPANY
WELL.         COSEKA ET AL SALESKI           : Well_name    - WELL              
LOC .         15-35-087-17W4                 : Location     - LOCATION          
UWI .         00/15-35-087-17W400            : Uwi          - UNIQUE WELL ID    
ENTR.         JHS                            : Entered      - ENTERED BY        
SRVC.         COMPUTALOG                     : Scn          - SERVICE COMPANY   
DATE.         29 JAN 86                      : Date         - LOG DATE
STRT.M        103                            : top_depth    - START DEPTH       
STOP.M        228.701                        : bot_depth    - STOP DEPTH        
STEP.M        0.3                            : increment    - STEP LENGTH       
~CURVE INFORMATION BLOCK
#MNEM UNIT       ERCB CURVE CODE    CURVE DESCRIPTION
#-----------   ------------------   ----------------------------------
DEPT.M        00 001 00 00         : DEPTH        - DEPTH                       
DPHI.V/V      00 890 00 00         : PHID         - DENSITY POROSITY (LIMESTONE)
NPHI.V/V      00 330 00 00         : PHIN         - NEUTRON POROSITY (LIMESTONE)
GR  .API      00 310 00 00         : GR           - GAMMA RAY                   
ILD .OHMM     00 120 00 00         : RESD         - DEEP RESISTIVITY (DIL)      
~PARAMETER INFORMATION       
#MNEM.UNIT           DATA             DESCRIPTION OF MNEMONIC
#---------         -----------     ------------------------------
GL  .M        525.8                : gl           - GROUND LEVEL ELEVATION      
EREF.M        529.6                : kb           - ELEVATION OF DEPTH REFERENCE
DATM.M        529.6                : datum        - DATUM ELEVATION             
TDD .M        230.7                : tdd          - TOTAL DEPTH DRILLER         
RUN .         ONE                  : Run          - RUN NUMBER                  
ENG .         BILL                 : Engineer     - RECORDING ENGINEER          
WIT .         JIM                  : Witness      - WITNESSED BY                
MUD .         GEL                  : Mud_type     - MUD TYPE                    
MATR.         LIMESTONE            : Logunit      - NEUTRON MATRIX              
TMAX.C        28                   : BHT          - MAXIMUM RECORDED TEMPERATURE
BHTD.M        230.7                : BHTDEP       - MAXIMUM RECORDED TEMPERATURE
MATR.         1                    : LOGUNIT      - NEUTRON MATRIX              
RMT .C        25                   : MDTP         - TEMPERATURE OF MUD          
NEUT.         1                    : NEUTRON      - NEUTRON TYPE                
RESI.         0                    : RESIST       - RESISTIVITY TYPE            
RMC .OHMM     0.25                 : RMC          - RESISTIVITY OF MUD CAKE     
RMF .OHMM     0.25                 : RMF          - RESISTIVITY OF MUD FILTRATE 
SUFT.C        15                   : SUFT         - SURFACE TEMPERATURE         
~A  DEPTH     PHID     PHIN       GR     RESD
# ...
  155.201    0.268    0.420   76.423   14.910
  155.501    0.241    0.433   80.185   13.562
  155.801    0.237    0.434   89.594   11.648
  156.101    0.241    0.424   89.589   10.800
  156.401    0.238    0.399   87.703   10.404
  156.701    0.233    0.386   88.953   10.413
  157.001    0.232    0.393   88.321   10.623
  157.301    0.224    0.425   91.454   10.838
  157.601    0.221    0.439   93.960   11.057
  157.901    0.228    0.435   91.445   10.858
  158.201    0.247    0.424   83.910   10.870
  158.501    0.263    0.404   75.119   11.306
  158.801    0.280    0.400   64.446   11.312
  159.101    0.306    0.415   60.048   11.763
  159.401    0.314    0.405   62.554   11.775
  159.701    0.305    0.394   61.295   11.563
  160.001    0.282    0.388   65.056   11.140
  160.301    0.286    0.385   66.934   10.525
  160.601    0.270    0.438   70.695    9.394
  160.901    0.246    0.452   76.967    9.048
  161.201    0.246    0.453   78.218    9.966
  161.501    0.285    0.452   70.054   10.768
  161.801    0.296    0.440   65.656   12.090
  162.101    0.245    0.418   63.769   12.573
  162.401    0.172    0.405   65.020   12.110
  162.701    0.128    0.419   69.409   11.893
  163.001    0.129    0.412   70.032   12.134
  163.301    0.202    0.393   63.752   12.379
  163.601    0.250    0.400   66.885   12.154
  163.901    0.269    0.397   73.157   11.710
  164.201    0.202    0.390   71.269   11.498
  164.501    0.215    0.388   66.872   11.075
  164.801    0.241    0.395   69.378    9.884
  165.101    0.246    0.412   74.394    9.520
  165.401    0.254    0.415   80.666    9.715
  165.701    0.255    0.412   80.661   10.297
  166.001    0.261    0.403   77.519   10.306
  166.301    0.262    0.389   79.397    9.374
  166.601    0.245    0.400   80.648    7.897
  166.901    0.202    0.417   80.016    7.184
  167.201    0.226    0.441   76.246    7.913
  167.501    0.217    0.442   71.849    9.054
  167.801    0.183    0.399   69.961   10.973
  168.101    0.147    0.368   70.584   13.049
  168.401    0.142    0.328   68.697   12.331
  168.701    0.175    0.336   70.575    9.624
  169.001    0.217    0.385   72.454    6.825
  169.301    0.229    0.423   78.098    5.030
  169.601    0.250    0.453   88.135    4.846
  169.901    0.274    0.462  101.310    4.943
  170.201    0.256    0.452  108.209    5.445
  170.501    0.239    0.445  107.577    6.600
  170.801    0.196    0.434   95.021    7.551
  171.101    0.081    0.422   83.092    9.694
  171.401    0.084    0.406   70.536   11.094
  171.701    0.145    0.412   71.159   11.536
  172.001    0.199    0.413   91.238   11.548
  172.301    0.217    0.397   91.860   10.913
  172.601    0.220    0.399   92.483   10.315
  172.901    0.219    0.438   94.362   10.129
  173.201    0.205    0.430   94.985   10.138
  173.501    0.172    0.421   98.119   10.344
  173.801    0.181    0.443   95.604   10.353
  174.101    0.216    0.447  101.248   10.561
  174.401    0.219    0.442  109.402   10.775
  174.701    0.212    0.430  101.867   10.993
  175.001    0.210    0.408   96.214   11.430
  175.301    0.207    0.405   94.954   12.594
  175.601    0.211    0.386   96.205   13.093
  175.901    0.210    0.374   97.456   13.617
  176.201    0.213    0.378   96.196   14.437
  176.501    0.226    0.377   93.054   15.301
  176.801    0.230    0.367   85.519   16.219
  177.101    0.197    0.344   81.748   17.866
  177.401    0.216    0.329   81.744   18.579
  177.701    0.258    0.321   82.367   18.592
  178.001    0.275    0.333   79.224   17.573
  178.301    0.278    0.361   78.593   16.291
  178.601    0.282    0.398   76.705   14.539
  178.901    0.278    0.421   71.053   14.550
  179.201    0.265    0.421   76.069   15.424
  179.501    0.150    0.401   82.968   16.989
  179.801    0.075    0.306   71.667   17.331
  180.101    0.100    0.297   69.152   16.699
  180.401    0.210    0.329   77.934   15.778
  180.701    0.254    0.373   89.854   14.082
  181.001    0.259    0.392   87.339   14.093
  181.301    0.247    0.402   86.080   14.941
  181.601    0.184    0.404   84.820   15.837
  181.901    0.107    0.393   77.284   17.113
  182.201    0.147    0.358   71.632   18.847
  182.501    0.184    0.377   77.903   20.759
  182.801    0.057    0.375   76.643   21.178
  183.101    0.053    0.283   65.970   19.262
  183.401    0.097    0.279   65.965   16.864
  183.701    0.156    0.314   76.630   15.049
  184.001    0.210    0.356   94.826   13.954
  184.301    0.207    0.405   94.821   13.701
  184.601    0.190    0.406   91.678   13.977
  184.901    0.149    0.406   86.026   13.990
  185.201    0.192    0.412   86.022   13.735
  185.501    0.213    0.411   94.176   12.980
  185.801    0.204    0.414   95.427   12.747
  186.101    0.166    0.425   97.933   12.519
  186.401    0.151    0.431   96.673   12.771
  186.701    0.172    0.436   94.159   12.780
  187.001    0.183    0.449   96.037   11.850
  187.301    0.187    0.448  101.681   11.200
  187.601    0.187    0.438  101.049   11.425
  187.901    0.187    0.423   97.906   11.884
  188.201    0.185    0.429   94.136   12.124
  188.501    0.160    0.420   96.014   12.608
  188.801    0.168    0.411   93.499   13.366
  189.101    0.211    0.406   91.612   13.635
  189.401    0.221    0.396   92.235   13.911
  189.701    0.223    0.399   91.603   13.925
  190.001    0.219    0.399   90.343   13.413
  190.301    0.208    0.405   90.967   11.970
  190.601    0.199    0.403   96.611   11.529
  190.901    0.212    0.388   99.117   11.989
  191.201    0.229    0.370   95.974   13.463
  191.501    0.237    0.369   92.832   14.270
  191.801    0.229    0.383   92.828   14.560
  192.101    0.218    0.394   95.962   14.853
  192.401    0.216    0.383   93.446   14.584
  192.701    0.212    0.370   96.579   14.597
  193.001    0.209    0.371   98.459   14.894
  193.301    0.142    0.369   95.944   15.789
  193.601    0.099    0.376   91.546   16.420
  193.901    0.153    0.370   92.169   16.120
  194.201    0.196    0.356   98.440   14.663
  194.501    0.193    0.365  104.712   13.596
  194.801    0.199    0.385  104.708   13.608
  195.101    0.217    0.383  100.310   13.883
  195.401    0.215    0.379   99.051   14.166
  195.701    0.203    0.386  105.322   14.176
  196.001    0.192    0.387  112.222   13.920
  196.301    0.191    0.398  107.196   13.412
  196.601    0.197    0.399   99.033   12.433
  196.901    0.200    0.393  101.539   10.884
  197.201    0.197    0.405  105.928    8.997
  197.501    0.195    0.459  111.571    8.183
  197.801    0.198    0.452  115.333    8.191
  198.101    0.186    0.431  109.680    9.021
  198.401    0.067    0.420   95.241   10.129
  198.701    0.109    0.358   81.429   11.591
  199.001    0.162    0.350   81.425   12.054
  199.301    0.196    0.365   93.972   11.611
  199.601    0.191    0.423  103.382    9.971
  199.901    0.188    0.427  107.771    8.242
  200.201    0.196    0.427  107.138    7.789
  200.501    0.196    0.443  107.134    7.797
  200.801    0.191    0.446  107.757    8.110
  201.101    0.195    0.433  111.518    8.273
  201.401    0.200    0.404  112.142    8.440
  201.701    0.192    0.414  108.999    8.610
  202.001    0.191    0.462  110.250    8.956
  202.301    0.192    0.466  113.384    9.494
  202.601    0.195    0.453  117.144   10.062
  202.901    0.201    0.403  116.512   11.297
  203.201    0.185    0.392  107.094   13.431
  203.501    0.019    0.383   98.304   15.969
  203.801    0.079    0.313   90.140   17.934
  204.101    0.135    0.317   95.784   17.948
  204.401    0.185    0.335  105.821   16.322
  204.701    0.182    0.350  103.934   14.566
  205.001    0.179    0.366  109.578   14.302
  205.301    0.180    0.376  106.435   14.315
  205.601    0.195    0.396  104.548   14.329
  205.901    0.225    0.391  105.799   14.901
  206.201    0.229    0.358  103.284   16.100
  206.501    0.201    0.340   98.259   18.077
  206.801    0.046    0.317   92.606   19.161
  207.101    0.097    0.293   86.326   19.178
