~VERSION INFORMATION
 VERS.                 2.0:   CWLS LOG ASCII STANDARD -VERSION 2.0
 WRAP.                  NO:   ONE LINE PER DEPTH STEP
~WELL INFORMATION BLOCK
#MNEM.UNIT           DATA                    DESCRIPTION OF MNEMONIC
#---------    -------------------            -------------------------------
# Generated from Intellog Unique Number	CS_73_76/WELL/3237
WELL.         10-16-076-05W4                 : Well_name    - WELL
LOC .         00/10-16-076-05W4/0            : Location     - LOCATION
UWI .         00/10-16-076-05W4/0            : Uwi          - UNIQUE WELL ID
ENTR.         SP                             : Entered      - ENTERED BY
SRVC.         SCHLUMBERGER                   : Scn          - SERVICE COMPANY
STRT.M        210.312                        : top_depth    - START DEPTH
STOP.M        447.812                        : bot_depth    - STOP DEPTH
STEP.M        0.25                           : increment    - STEP LENGTH
 NULL. -999.2500:NULL Value
~CURVE INFORMATION BLOCK
#MNEM UNIT       ERCB CURVE CODE    CURVE DESCRIPTION
#-----------   ------------------   ----------------------------------
DEPT.M        00 001 00 00         : DEPTH        - DEPTH
GR  .API      00 310 00 00         : GR           - GAMMA RAY
DPHI.V/V      00 890 00 00         : PHID         - DENSITY POROSITY (SANDSTONE)
NPHI.V/V      00 330 00 00         : PHIN         - NEUTRON POROSITY (SANDSTONE)
ILD .OHMM     00 120 00 00         : RESD         - DEEP RESISTIVITY (DIL)
~PARAMETER INFORMATION
#MNEM.UNIT           DATA             DESCRIPTION OF MNEMONIC
#---------         -----------     ------------------------------
GL  .M        580.949              : gl           - GROUND LEVEL ELEVATION
EREF.M        584.302              : kb           - ELEVATION OF DEPTH REFERENCE
DATM.M        580.949              : datum        - DATUM ELEVATION
TDD .M        451.104              : tdd          - TOTAL DEPTH DRILLER
RUN .         ONE                  : Run          - RUN NUMBER
ENG .         BILL                 : Engineer     - RECORDING ENGINEER
WIT .         JIM                  : Witness      - WITNESSED BY
MUD .         GEL                  : Mud_type     - MUD TYPE
MATR.         SANDSTONE            : Logunit      - NEUTRON MATRIX
TMAX.C        17.2222              : BHT          - MAXIMUM RECORDED TEMPERATURE
BHTD.M        451.104              : BHTDEP       - MAXIMUM RECORDED TEMPERATURE
MATR.         1                    : LOGUNIT      - NEUTRON MATRIX
RMT .C        25                   : MDTP         - TEMPERATURE OF MUD
NEUT.         1                    : NEUTRON      - NEUTRON TYPE
RESI.         0                    : RESIST       - RESISTIVITY TYPE
RMC .OHMM     0.25                 : RMC          - RESISTIVITY OF MUD CAKE
RMF .OHMM     0.25                 : RMF          - RESISTIVITY OF MUD FILTRATE
SUFT.C        15                   : SUFT         - SURFACE TEMPERATURE
~A  DEPTH       GR     PHID     PHIN     RESD
# ...
  297.312   75.411    0.325    0.467    9.207
  297.562   73.767    0.330    0.466    9.010
  297.812   72.811    0.317    0.462    9.017
  298.062   71.317    0.304    0.459    8.884
  298.312   70.962    0.306    0.456    8.711
  298.562   72.409    0.307    0.448    8.556
  298.812   75.876    0.323    0.442    8.312
  299.062   79.412    0.317    0.439    8.095
  299.312   83.633    0.308    0.443    7.420
  299.562   85.497    0.308    0.448    7.218
  299.812   89.142    0.303    0.436    6.848
  300.062   94.087    0.294    0.445    6.659
  300.312   95.824    0.278    0.454    6.475
  300.562   92.179    0.264    0.461    6.147
  300.812   91.187    0.253    0.455    5.693
  301.062   93.160    0.247    0.449    5.513
  301.312   94.389    0.243    0.470    5.238
  301.562   94.394    0.250    0.490    5.027
  301.812   94.728    0.245    0.494    4.756
  302.062   96.772    0.239    0.490    4.623
  302.312   99.701    0.240    0.482    4.488
  302.562  102.422    0.231    0.475    4.356
  302.812  105.570    0.224    0.466    4.235
  303.062  106.998    0.226    0.476    3.837
  303.312  107.539    0.206    0.490    3.399
  303.562  108.095    0.258    0.507    3.115
  303.812  108.561    0.266    0.518    2.826
  304.062  110.612    0.264    0.554    2.622
  304.312  112.094    0.262    0.568    2.579
  304.562  112.738    0.253    0.538    2.651
  304.812  110.997    0.248    0.541    2.791
  305.062  111.013    0.238    0.535    2.889
  305.312  112.021    0.229    0.531    2.961
  305.562  113.404    0.236    0.531    2.789
  305.812  113.146    0.249    0.542    2.821
  306.062  111.487    0.261    0.553    2.914
  306.312  108.916    0.276    0.562    3.158
  306.562  105.240    0.281    0.537    3.363
  306.812  102.256    0.263    0.513    3.931
  307.062   99.279    0.250    0.489    4.207
  307.312   98.852    0.252    0.485    4.711
  307.562  102.382    0.246    0.486    5.147
  307.812  107.378    0.256    0.479    5.443
  308.062  113.485    0.275    0.471    6.084
  308.312  121.900    0.295    0.463    6.514
  308.562  122.741    0.292    0.477    7.010
  308.812  110.185    0.291    0.486    7.477
  309.062   78.763    0.292    0.463    8.099
  309.312   66.792    0.306    0.455    8.521
  309.562   67.356    0.313    0.453    8.751
  309.812   68.650    0.324    0.464    8.897
  310.062   70.457    0.312    0.469    8.980
  310.312   69.198    0.296    0.445    9.264
  310.562   68.669    0.280    0.432    9.246
  310.812   70.684    0.286    0.428    9.524
  311.062   72.917    0.299    0.440    9.611
  311.312   69.964    0.299    0.449    9.746
  311.562   67.746    0.290    0.448    9.747
  311.812   66.941    0.281    0.449    9.623
  312.062   69.745    0.299    0.454    9.780
  312.312   72.086    0.312    0.467    9.615
  312.562   74.568    0.310    0.466    9.311
  312.812   75.599    0.317    0.449    9.130
  313.062   76.619    0.322    0.459    8.926
  313.312   77.043    0.315    0.461    8.815
  313.562   77.679    0.308    0.457    8.574
  313.812   78.303    0.316    0.467    8.330
  314.062   78.240    0.320    0.461    8.070
  314.312   78.039    0.327    0.451    7.979
  314.562   77.016    0.326    0.453    8.216
  314.812   73.865    0.336    0.436    8.536
  315.062   71.321    0.304    0.410    9.621
  315.312   68.788    0.201    0.386   10.975
  315.562   66.716    0.106    0.353   13.295
  315.812   60.378    0.032    0.219   16.018
  316.062   55.330    0.008    0.144   19.498
  316.312   54.825   -0.000    0.140   22.274
  316.562   58.270    0.002    0.155   19.566
  316.812   62.872    0.030    0.181   16.413
  317.062   69.528    0.053    0.291   13.008
  317.312   78.131    0.165    0.343   10.582
  317.562   84.090    0.243    0.423    9.209
  317.812   89.281    0.287    0.456    7.567
  318.062   90.753    0.267    0.448    6.878
  318.312   91.648    0.257    0.441    6.554
  318.562   93.214    0.247    0.432    6.389
  318.812   93.665    0.250    0.423    6.401
  319.062   92.506    0.256    0.430    6.381
  319.312   89.244    0.258    0.428    6.678
  319.562   86.096    0.266    0.431    6.992
  319.812   87.879    0.258    0.419    7.280
  320.062   89.107    0.259    0.412    7.570
  320.312   89.815    0.250    0.419    7.664
  320.562   87.805    0.251    0.437    7.816
  320.812   83.495    0.269    0.462    7.722
  321.062   82.571    0.281    0.477    7.633
  321.312   85.820    0.293    0.473    7.406
  321.562   88.886    0.300    0.472    7.185
  321.812   88.206    0.279    0.472    7.204
  322.062   86.019    0.267    0.466    7.047
  322.312   87.140    0.276    0.458    7.071
  322.562   87.281    0.282    0.455    6.926
  322.812   85.891    0.281    0.452    6.941
  323.062   85.935    0.274    0.450    6.945
  323.312   86.588    0.272    0.454    6.944
  323.562   87.213    0.283    0.455    6.782
  323.812   88.673    0.292    0.454    5.254
  324.062   90.158    0.273    0.445    4.113
  324.312   91.927    0.248    0.447    3.468
  324.562   92.979    0.237    0.464    2.995
  324.812   93.254    0.231    0.483    2.347
  325.062   93.720    0.233    0.501    2.162
  325.312   93.928    0.236    0.515    2.236
  325.562   95.572    0.243    0.522    2.481
  325.812   95.922    0.246    0.525    2.699
  326.062   97.457    0.231    0.531    3.127
  326.312  100.493    0.238    0.518    3.544
  326.562  102.401    0.244    0.509    4.202
  326.812  103.691    0.254    0.522    4.528
  327.062  105.037    0.257    0.533    4.416
  327.312  106.066    0.247    0.513    4.129
  327.562  106.142    0.251    0.502    4.028
  327.812  106.787    0.256    0.513    4.190
  328.062  107.139    0.257    0.532    4.588
  328.312  106.058    0.248    0.540    5.021
  328.562  100.116    0.263    0.519    5.505
  328.812   92.251    0.275    0.500    5.915
  329.062   85.792    0.289    0.479    6.352
  329.312   81.959    0.310    0.465    6.760
  329.562   80.319    0.315    0.476    6.960
  329.812   78.703    0.320    0.494    7.168
  330.062   78.609    0.320    0.473    7.269
  330.312   81.022    0.317    0.475    7.301
  330.562   85.409    0.321    0.478    7.309
  330.812   87.901    0.332    0.470    7.218
  331.062   86.695    0.319    0.461    7.159
  331.312   84.204    0.315    0.455    6.930
  331.562   84.716    0.290    0.458    6.867
  331.812   87.384    0.261    0.481    6.654
  332.062   90.462    0.224    0.496    6.561
  332.312   91.915    0.231    0.489    6.521
  332.562   92.524    0.246    0.481    6.331
  332.812   93.570    0.241    0.465    6.338
  333.062   94.585    0.235    0.451    6.290
  333.312   94.891    0.243    0.448    6.357
  333.562   95.632    0.229    0.442    6.300
  333.812   92.798    0.241    0.438    6.243
  334.062   90.701    0.240    0.445    6.239
  334.312   91.676    0.235    0.458    6.232
  334.562   92.575    0.238    0.471    6.168
  334.812   91.919    0.245    0.481    5.908
  335.062   91.213    0.245    0.468    5.974
  335.312   86.790    0.243    0.455    6.026
  335.562   84.920    0.246    0.451    6.032
  335.812   85.261    0.240    0.449    6.045
  336.062   87.342    0.245    0.443    5.921
  336.312   90.745    0.242    0.434    5.933
  336.562   94.870    0.235    0.424    5.943
  336.812   97.290    0.223    0.416    5.827
  337.062   96.375    0.215    0.414    5.758
  337.312   93.407    0.210    0.418    5.714
  337.562   92.533    0.223    0.413    5.432
  337.812   90.958    0.238    0.415    5.232
  338.062   89.342    0.216    0.438    4.803
  338.312   87.829    0.209    0.454    4.335
  338.562   87.756    0.219    0.476    3.729
  338.812   87.760    0.232    0.497    3.123
  339.062   89.206    0.248    0.523    2.727
  339.312   90.710    0.270    0.537    2.489
  339.562   91.262    0.288    0.538    2.256
  339.812   89.262    0.275    0.535    2.252
  340.062   87.790    0.263    0.529    2.342
  340.312   88.309    0.286    0.520    2.305
  340.562   87.665    0.301    0.517    2.305
