~VERSION INFORMATION
 VERS.                 2.0:   CWLS LOG ASCII STANDARD -VERSION 2.0
 WRAP.                  NO:   ONE LINE PER DEPTH STEP
~WELL INFORMATION BLOCK
#MNEM.UNIT           DATA                    DESCRIPTION OF MNEMONIC
#---------    -------------------            -------------------------------
# Generated from Intellog Unique Number	CS_69_70/WELL/865
WELL.         ASHLAND OIL CANADA             : Well_name    - WELL
LOC .         00/10-10-069-18W4/0            : Location     - LOCATION
UWI .         00/10-10-069-18W4/0            : Uwi          - UNIQUE WELL ID
ENTR.         SP                             : Entered      - ENTERED BY
SRVC.         SCHLUMBERGER                   : Scn          - SERVICE COMPANY
STRT.M        259.08                         : top_depth    - START DEPTH
STOP.M        487.33                         : bot_depth    - STOP DEPTH
STEP.M        0.25                           : increment    - STEP LENGTH
 NULL. -999.2500:NULL Value
~CURVE INFORMATION BLOCK
#MNEM UNIT       ERCB CURVE CODE    CURVE DESCRIPTION
#-----------   ------------------   ----------------------------------
DEPT.M        00 001 00 00         : DEPTH        - DEPTH
GR  .API      00 310 00 00         : GR           - GAMMA RAY
DPHI.V/V      00 890 00 00         : PHID         - DENSITY POROSITY (SANDSTONE)
NPHI.V/V      00 330 00 00         : PHIN         - NEUTRON POROSITY (SANDSTONE)
ILD .OHMM     00 120 00 00         : RESD         - DEEP RESISTIVITY (DIL)
~PARAMETER INFORMATION
#MNEM.UNIT           DATA             DESCRIPTION OF MNEMONIC
#---------         -----------     ------------------------------
GL  .M        549.859              : gl           - GROUND LEVEL ELEVATION
EREF.M        553.822              : kb           - ELEVATION OF DEPTH REFERENCE
DATM.M        549.859              : datum        - DATUM ELEVATION
TDD .M        548.64               : tdd          - TOTAL DEPTH DRILLER
RUN .         ONE                  : Run          - RUN NUMBER
ENG .         BILL                 : Engineer     - RECORDING ENGINEER
WIT .         JIM                  : Witness      - WITNESSED BY
MUD .         GEL                  : Mud_type     - MUD TYPE
MATR.         SANDSTONE            : Logunit      - NEUTRON MATRIX
TMAX.C        21.6667              : BHT          - MAXIMUM RECORDED TEMPERATURE
BHTD.M        548.64               : BHTDEP       - MAXIMUM RECORDED TEMPERATURE
MATR.         1                    : LOGUNIT      - NEUTRON MATRIX
RMT .C        25                   : MDTP         - TEMPERATURE OF MUD
NEUT.         1                    : NEUTRON      - NEUTRON TYPE
RESI.         0                    : RESIST       - RESISTIVITY TYPE
RMC .OHMM     0.25                 : RMC          - RESISTIVITY OF MUD CAKE
RMF .OHMM     0.25                 : RMF          - RESISTIVITY OF MUD FILTRATE
SUFT.C        15                   : SUFT         - SURFACE TEMPERATURE
~A  DEPTH       GR     PHID     PHIN     RESD
# ...
  346.080   77.084    0.393    0.534    5.342
  346.330   76.190    0.394    0.541    6.033
  346.580   76.669    0.380    0.519    7.036
  346.830   77.241    0.376    0.493    7.769
  347.080   76.279    0.353    0.481    8.476
  347.330   72.420    0.309    0.250    8.344
  347.580   65.199    0.246    0.231    7.395
  347.830   59.402    0.127    0.216    6.495
  348.080   63.546    0.053    0.266    5.748
  348.330   71.134    0.239    0.388    5.203
  348.580   77.431    0.363    0.453    4.968
  348.830   81.034    0.388    0.497    4.916
  349.080   83.360    0.389    0.513    4.952
  349.330   85.771    0.372    0.525    4.985
  349.580   88.401    0.375    0.532    4.992
  349.830   91.008    0.388    0.538    4.994
  350.080   91.990    0.374    0.527    5.047
  350.330   92.638    0.359    0.518    5.090
  350.580   90.374    0.349    0.536    5.093
  350.830   89.714    0.354    0.563    5.120
  351.080   91.019    0.357    0.566    5.192
  351.330   92.459    0.381    0.562    5.269
  351.580   93.478    0.368    0.554    5.318
  351.830   94.825    0.344    0.545    5.299
  352.080   96.530    0.334    0.541    5.329
  352.330   97.844    0.322    0.559    5.354
  352.580   98.960    0.327    0.550    5.346
  352.830   99.430    0.340    0.544    5.361
  353.080  100.014    0.334    0.556    5.367
  353.330   99.644    0.353    0.539    5.354
  353.580   95.910    0.308    0.546    5.340
  353.830  103.812    0.282    0.562    5.323
  354.080  109.566    0.265    0.556    5.340
  354.330  113.281    0.252    0.550    5.357
  354.580  112.549    0.267    0.523    5.484
  354.830  106.042    0.321    0.494    5.616
  355.080   98.478    0.346    0.513    5.691
  355.330   95.291    0.336    0.496    5.712
  355.580   94.827    0.321    0.476    5.704
  355.830   97.952    0.342    0.468    5.700
  356.080  103.430    0.329    0.513    5.609
  356.330  109.293    0.305    0.596    5.517
  356.580  113.430    0.293    0.618    5.349
  356.830  111.666    0.288    0.631    5.129
  357.080  110.649    0.306    0.633    4.961
  357.330  111.905    0.322    0.632    4.875
  357.580  112.617    0.307    0.630    4.898
  357.830  113.722    0.312    0.628    4.994
  358.080  114.798    0.332    0.626    5.287
  358.330  115.084    0.278    0.624    5.750
  358.580  114.533    0.317    0.624    6.251
  358.830  112.774    0.341    0.624    6.652
  359.080  109.880    0.334    0.624    6.788
  359.330  106.793    0.330    0.624    6.823
  359.580  104.451    0.315    0.624    7.173
  359.830   99.567    0.315    0.623    7.708
  360.080   91.384    0.329    0.624    8.406
  360.330   84.639    0.342    0.624    8.914
  360.580   77.157    0.477    0.623    9.132
  360.830   68.688    0.545    0.621    8.830
  361.080   52.843    0.580    0.621    7.394
  361.330   41.279    0.619    0.621    6.448
  361.580   48.346    0.635    0.622    5.536
  361.830   54.558    0.611    0.583    4.864
  362.080   57.916    0.423    0.470    4.440
  362.330   60.465    0.375    0.416    4.389
  362.580   62.604    0.395    0.405    4.326
  362.830   63.708    0.417    0.402    4.303
  363.080   63.400    0.437    0.418    4.228
  363.330   60.925    0.440    0.450    4.205
  363.580   59.031    0.453    0.463    4.145
  363.830   58.904    0.442    0.469    4.091
  364.080   59.619    0.452    0.460    4.044
  364.330   60.132    0.456    0.453    4.027
  364.580   60.362    0.473    0.457    3.991
  364.830   60.683    0.504    0.474    3.965
  365.080   63.665    0.522    0.491    3.924
  365.330   66.068    0.507    0.505    3.905
  365.580   68.301    0.488    0.491    3.877
  365.830   69.639    0.465    0.474    3.889
  366.080   65.187    0.468    0.464    3.953
  366.330   63.698    0.476    0.460    4.045
  366.580   65.411    0.467    0.462    4.126
  366.830   69.065    0.470    0.463    4.265
  367.080   72.850    0.450    0.463    4.474
  367.330   76.494    0.417    0.467    4.829
  367.580   80.832    0.409    0.468    5.192
  367.830   86.059    0.389    0.467    5.292
  368.080   90.587    0.345    0.474    5.314
  368.330   90.626    0.318    0.486    5.250
  368.580   86.264    0.365    0.484    5.197
  368.830   82.505    0.384    0.476    5.308
  369.080   79.275    0.380    0.484    5.557
  369.330   77.119    0.362    0.493    5.651
  369.580   75.442    0.372    0.496    5.686
  369.830   74.047    0.293    0.483    5.679
  370.080   75.927    0.181    0.456    5.620
  370.330   80.284    0.162    0.423    5.408
  370.580   85.242    0.354    0.431    5.297
  370.830   90.079    0.375    0.488    5.157
  371.080   93.788    0.363    0.522    5.067
  371.330   97.233    0.370    0.540    5.004
  371.580  100.429    0.356    0.548    4.967
  371.830  102.434    0.330    0.548    4.907
  372.080  104.006    0.332    0.537    4.861
  372.330   99.303    0.375    0.525    4.870
  372.580   84.754    0.389    0.515    4.835
  372.830   76.251    0.423    0.506    4.747
  373.080   74.165    0.443    0.498    4.667
  373.330   75.862    0.424    0.507    4.573
  373.580   76.733    0.409    0.519    4.451
  373.830   75.802    0.399    0.532    4.345
  374.080   74.140    0.406    0.512    4.913
  374.330   73.588    0.412    0.495    4.606
  374.580   74.561    0.429    0.496    4.433
  374.830   74.775    0.442    0.509    4.287
  375.080   73.484    0.452    0.519    4.167
  375.330   74.286    0.463    0.519    4.097
  375.580   76.192    0.453    0.498    4.042
  375.830   79.138    0.472    0.488    4.133
  376.080   82.078    0.467    0.490    4.154
  376.330   83.286    0.443    0.493    4.097
  376.580   80.739    0.423    0.483    4.128
  376.830   77.422    0.410    0.501    4.133
  377.080   75.008    0.396    0.506    4.205
  377.330   74.576    0.386    0.487    4.243
  377.580   75.351    0.381    0.474    4.274
  377.830   77.406    0.388    0.468    4.256
  378.080   79.609    0.418    0.481    4.241
  378.330   80.436    0.418    0.482    4.331
  378.580   79.253    0.401    0.479    4.377
  378.830   76.795    0.410    0.489    4.504
  379.080   75.380    0.396    0.483    4.534
  379.330   72.803    0.359    0.467    4.611
  379.580   70.450    0.288    0.455    4.706
  379.830   67.563    0.236    0.444    4.714
  380.080   65.374    0.208    0.407    4.690
  380.330   69.992    0.196    0.376    4.553
  380.580   73.941    0.269    0.403    4.495
  380.830   76.868    0.399    0.453    4.516
  381.080   78.921    0.418    0.496    4.612
  381.330   81.793    0.395    0.506    4.656
  381.580   84.837    0.386    0.509    4.639
  381.830   90.817    0.396    0.520    4.630
  382.080   96.233    0.392    0.525    4.589
  382.330  101.330    0.323    0.529    4.539
  382.580  103.296    0.293    0.538    4.508
  382.830  103.036    0.317    0.520    4.608
  383.080   99.219    0.346    0.512    4.854
  383.330   90.249    0.377    0.525    5.097
  383.580   85.142    0.384    0.526    5.364
  383.830   80.898    0.406    0.524    5.761
  384.080   79.181    0.397    0.539    6.103
  384.330   78.470    0.376    0.517    6.462
  384.580   77.609    0.350    0.469    7.037
  384.830   76.486    0.264    0.381    7.619
  385.080   72.666    0.208    0.335    8.215
  385.330   69.338    0.168    0.288    8.469
  385.580   73.927    0.147    0.332    7.710
  385.830   78.813    0.260    0.383    6.732
  386.080   82.565    0.326    0.449    5.937
  386.330   83.147    0.359    0.491    5.416
  386.580   80.757    0.381    0.505    5.067
  386.830   84.497    0.398    0.487    4.860
  387.080   89.802    0.399    0.475    4.825
  387.330   93.897    0.357    0.464    4.849
  387.580   96.181    0.336    0.472    4.899
  387.830   98.565    0.322    0.492    4.883
  388.080  100.992    0.315    0.517    4.946
  388.330   96.788    0.320    0.518    5.014
  388.580   95.072    0.322    0.518    5.047
  388.830   96.012    0.314    0.528    5.091
  389.080   97.847    0.323    0.521    5.149
  389.330   99.434    0.315    0.509    5.259
