~VERSION INFORMATION
 VERS.                 2.0:   CWLS LOG ASCII STANDARD -VERSION 2.0
 WRAP.                  NO:   ONE LINE PER DEPTH STEP
~WELL INFORMATION BLOCK
#MNEM.UNIT           DATA                    DESCRIPTION OF MNEMONIC
#---------    -------------------            -------------------------------
# Generated from Intellog Unique Number	CS_77_79/WELL/3008
WELL.         CDN OXY WINEFRED               : Well_name    - WELL
LOC .         00/11-34-077-03W4/0            : Location     - LOCATION
UWI .         00/11-34-077-03W4/0            : Uwi          - UNIQUE WELL ID
ENTR.         TIM                            : Entered      - ENTERED BY
SRVC.         SCHLUMBERGER                   : Scn          - SERVICE COMPANY
STRT.M        195                            : top_depth    - START DEPTH
STOP.M        455                            : bot_depth    - STOP DEPTH
STEP.M        0.25                           : increment    - STEP LENGTH
 NULL. -999.2500:NULL Value
~CURVE INFORMATION BLOCK
#MNEM UNIT       ERCB CURVE CODE    CURVE DESCRIPTION
#-----------   ------------------   ----------------------------------
DEPT.M        00 001 00 00         : DEPTH        - DEPTH
GR  .API      00 310 00 00         : GR           - GAMMA RAY
NPHI.V/V      00 330 00 00         : PHIN         - NEUTRON POROSITY (DOLOMITE)
DPHI.V/V      00 890 00 00         : PHID         - DENSITY POROSITY (DOLOMITE)
ILD .OHMM     00 120 00 00         : RESD         - DEEP RESISTIVITY (DIL)
~PARAMETER INFORMATION
#MNEM.UNIT           DATA             DESCRIPTION OF MNEMONIC
#---------         -----------     ------------------------------
GL  .M        588.9                : gl           - GROUND LEVEL ELEVATION
EREF.M        591.9                : kb           - ELEVATION OF DEPTH REFERENCE
DATM.M        591.9                : datum        - DATUM ELEVATION
TDD .M        457                  : tdd          - TOTAL DEPTH DRILLER
RUN .         ONE                  : Run          - RUN NUMBER
ENG .         BILL                 : Engineer     - RECORDING ENGINEER
WIT .         JIM                  : Witness      - WITNESSED BY
MUD .         GEL                  : Mud_type     - MUD TYPE
MATR.         DOLOMITE             : Logunit      - NEUTRON MATRIX
TMAX.C        13                   : BHT          - MAXIMUM RECORDED TEMPERATURE
BHTD.M        457                  : BHTDEP       - MAXIMUM RECORDED TEMPERATURE
MATR.         1                    : LOGUNIT      - NEUTRON MATRIX
RMT .C        20                   : MDTP         - TEMPERATURE OF MUD
NEUT.         1                    : NEUTRON      - NEUTRON TYPE
RESI.         2.8                  : RESIST       - RESISTIVITY TYPE
RMC .OHMM     2.6                  : RMC          - RESISTIVITY OF MUD CAKE
RMF .OHMM     2.6                  : RMF          - RESISTIVITY OF MUD FILTRATE
SUFT.C        15                   : SUFT         - SURFACE TEMPERATURE
~A  DEPTH       GR     PHIN     PHID     RESD
# ...
  282.000   64.140    0.427    0.324   15.098
  282.250   65.283    0.431    0.326   15.088
  282.500   67.626    0.431    0.324   14.006
  282.750   69.970    0.427    0.317   12.531
  283.000   72.891    0.425    0.290   11.007
  283.250   75.234    0.425    0.280    9.667
  283.500   78.746    0.437    0.267    7.741
  283.750   81.090    0.453    0.256    6.675
  284.000   83.427    0.460    0.240    5.650
  284.250   87.530    0.467    0.243    4.871
  284.500   89.873    0.472    0.247    4.123
  284.750   90.432    0.477    0.248    3.828
  285.000   90.997    0.491    0.248    3.488
  285.250   90.971    0.502    0.250    3.550
  285.500   89.174    0.515    0.261    3.750
  285.750   85.013    0.521    0.292    4.035
  286.000   78.490    0.510    0.328    4.342
  286.250   63.692    0.482    0.361    5.029
  286.500   59.531    0.476    0.368    6.629
  286.750   57.721    0.464    0.366    8.578
  287.000   57.702    0.456    0.367   11.518
  287.250   57.079    0.458    0.369   13.844
  287.500   55.879    0.462    0.371   15.173
  287.750   54.672    0.462    0.371   16.027
  288.000   53.471    0.457    0.370   16.315
  288.250   52.264    0.453    0.368   16.303
  288.500   51.641    0.448    0.364   16.288
  288.750   51.019    0.434    0.362   16.285
  289.000   51.584    0.404    0.359   16.276
  289.250   52.149    0.402    0.361   16.266
  289.500   53.305    0.407    0.362   16.253
  289.750   53.870    0.413    0.361   16.244
  290.000   54.441    0.421    0.357   16.234
  290.250   55.000    0.437    0.356   16.224
  290.500   54.981    0.460    0.350   16.212
  290.750   54.955    0.458    0.350   16.199
  291.000   55.514    0.453    0.350   16.194
  291.250   55.494    0.447    0.353   16.182
  291.500   56.040    0.441    0.356   16.175
  291.750   56.618    0.433    0.361   16.163
  292.000   57.177    0.430    0.362   16.155
  292.250   57.151    0.427    0.364   16.140
  292.500   57.126    0.426    0.364   16.133
  292.750   57.100    0.428    0.365   16.119
  293.000   57.074    0.431    0.365   16.111
  293.250   57.049    0.432    0.364   16.101
  293.500   56.432    0.433    0.358   16.094
  293.750   56.407    0.432    0.356   16.082
  294.000   56.388    0.430    0.351   16.075
  294.250   56.946    0.427    0.351   16.062
  294.500   56.901    0.426    0.351   16.055
  294.750   57.486    0.426    0.352   16.045
  295.000   57.460    0.426    0.352   15.742
  295.250   56.844    0.426    0.354   15.441
  295.500   56.812    0.426    0.355   15.429
  295.750   56.189    0.429    0.355   15.422
  296.000   56.170    0.431    0.357   15.128
  296.250   56.151    0.434    0.359   15.124
  296.500   56.709    0.438    0.361   15.110
  296.750   57.281    0.440    0.361   14.827
  297.000   58.430    0.439    0.355   14.820
  297.250   58.405    0.435    0.353   14.807
  297.500   58.373    0.433    0.353   14.798
  297.750   57.756    0.437    0.354   14.791
  298.000   57.731    0.440    0.354   15.060
  298.250   57.705    0.442    0.354   15.326
  298.500   57.680    0.442    0.354   15.602
  298.750   57.063    0.439    0.350   16.179
  299.000   55.850    0.437    0.345   16.777
  299.250   54.649    0.430    0.339   17.400
  299.500   54.039    0.420    0.334   18.379
  299.750   53.417    0.407    0.336   19.414
  300.000   55.163    0.390    0.339   19.047
  300.250   58.085    0.379    0.341   18.008
  300.500   60.422    0.391    0.343   16.716
  300.750   61.577    0.413    0.343   15.234
  301.000   62.149    0.437    0.342   13.883
  301.250   62.714    0.441    0.337   13.125
  301.500   63.279    0.440    0.332   12.879
  301.750   64.428    0.438    0.336   12.405
  302.000   65.578    0.439    0.339   12.396
  302.250   66.156    0.447    0.333   12.388
  302.500   69.083    0.461    0.321   12.382
  302.750   69.058    0.461    0.306   12.375
  303.000   65.488    0.456    0.284   12.598
  303.250   62.490    0.451    0.266   13.553
  303.500   63.068    0.464    0.263   13.053
  303.750   63.633    0.477    0.273   12.341
  304.000   65.963    0.487    0.296   11.669
  304.250   67.716    0.486    0.306   11.447
  304.500   70.638    0.473    0.313   11.444
  304.750   72.384    0.461    0.299   11.865
  305.000   72.949    0.457    0.283   12.306
  305.250   75.293    0.464    0.272   12.527
  305.500   79.992    0.475    0.258   10.604
  305.750   85.873    0.484    0.247    8.337
  306.000   91.164    0.485    0.241    6.201
  306.250   95.864    0.486    0.242    4.699
  306.500   99.973    0.491    0.245    3.904
  306.750  102.894    0.497    0.245    3.305
  307.000  104.647    0.510    0.250    3.068
  307.250  107.568    0.525    0.254    2.848
  307.500  108.730    0.524    0.252    2.643
  307.750  109.886    0.518    0.242    2.593
  308.000  109.854    0.525    0.232    2.591
  308.250  109.238    0.538    0.228    2.590
  308.500  108.609    0.550    0.224    2.589
  308.750  109.180    0.549    0.220    2.635
  309.000  109.161    0.551    0.225    2.683
  309.250  109.135    0.554    0.227    2.731
  309.500  108.519    0.539    0.233    2.780
  309.750  106.715    0.545    0.244    2.882
  310.000  104.924    0.552    0.249    2.934
  310.250  101.938    0.531    0.252    3.099
  310.500   98.966    0.508    0.253    3.155
  310.750   92.430    0.502    0.246    3.395
  311.000   91.230    0.499    0.253    3.790
  311.250   89.425    0.497    0.265    4.154
  311.500   88.219    0.491    0.286    4.638
  311.750   85.824    0.487    0.279    4.638
  312.000   84.039    0.473    0.268    4.894
  312.250   80.463    0.463    0.264    5.267
  312.500   77.478    0.460    0.275    5.461
  312.750   78.043    0.457    0.284    5.561
  313.000   80.977    0.452    0.275    5.660
  313.250   85.086    0.445    0.264    5.762
  313.500   86.242    0.450    0.271    5.865
  313.750   80.900    0.458    0.267    5.971
  314.000   77.331    0.462    0.263    6.307
  314.250   73.761    0.455    0.257    6.541
  314.500   70.775    0.448    0.262    6.909
  314.750   69.569    0.435    0.260    7.297
  315.000   68.946    0.429    0.256    7.429
  315.250   69.517    0.432    0.256    7.846
  315.500   70.076    0.436    0.253    8.137
  315.750   71.232    0.431    0.243    8.284
  316.000   71.797    0.436    0.235    8.432
  316.250   72.368    0.444    0.240    8.428
  316.500   73.524    0.450    0.263    8.266
  316.750   74.083    0.451    0.274    8.261
  317.000   73.466    0.443    0.287    8.256
  317.250   72.850    0.426    0.293    8.252
  317.500   72.831    0.415    0.303    8.401
  317.750   72.215    0.408    0.312    8.552
  318.000   72.170    0.399    0.300    9.199
  318.250   70.969    0.388    0.285    9.720
  318.500   67.990    0.343    0.273   11.053
  318.750   63.830    0.314    0.021   12.340
  319.000   60.857    0.272    0.008   13.275
  319.250   64.363    0.231    0.040   13.025
  319.500   67.304    0.239    0.104   12.545
  319.750   72.003    0.329    0.281   11.647
  320.000   76.697    0.386    0.284   10.812
  320.250   76.671    0.397    0.286    8.982
  320.500   77.230    0.412    0.286    8.185
  320.750   77.808    0.441    0.277    7.741
  321.000   77.769    0.476    0.265    6.924
  321.250   75.387    0.491    0.253    6.194
  321.500   75.952    0.479    0.245    5.645
  321.750   79.471    0.464    0.240    5.338
  322.000   82.392    0.467    0.241    5.237
  322.250   84.729    0.475    0.242    5.233
  322.500   87.066    0.480    0.242    5.427
  322.750   88.228    0.475    0.242    5.524
  323.000   90.566    0.472    0.242    5.625
  323.250   92.903    0.466    0.241    5.832
  323.500   92.877    0.462    0.240    6.047
  323.750   92.261    0.460    0.239    6.157
  324.000   91.047    0.461    0.239    7.401
  324.250   91.022    0.469    0.238    7.396
  324.500   91.587    0.476    0.237    7.396
  324.750   92.152    0.482    0.237    6.491
  325.000   93.308    0.487    0.237    4.919
  325.250   94.463    0.488    0.237    4.319
