~VERSION INFORMATION
 VERS.                 2.0:   CWLS LOG ASCII STANDARD -VERSION 2.0
 WRAP.                  NO:   ONE LINE PER DEPTH STEP
~WELL INFORMATION BLOCK
#MNEM.UNIT           DATA                    DESCRIPTION OF MNEMONIC
#---------    -------------------            -------------------------------
# Generated from Intellog Unique Number	CN_91_93/WELL/3184
WELL.         MIAMI OIL PRODUCERS INC.       : Well_name    - WELL
LOC .         00/10-16-092-19W4/0            : Location     - LOCATION
UWI .         00/10-16-092-19W4/0            : Uwi          - UNIQUE WELL ID
ENTR.         JOETTE                         : Entered      - ENTERED BY
SRVC.         SCHLUMBERGER                   : Scn          - SERVICE COMPANY
DATE.         04/12/92                       : Date         - LOG DATE
STRT.F        600                            : top_depth    - START DEPTH
STOP.F        919.882                        : bot_depth    - STOP DEPTH
STEP.F        0.82                           : increment    - STEP LENGTH
 NULL. -999.2500:NULL Value
~CURVE INFORMATION BLOCK
#MNEM UNIT       ERCB CURVE CODE    CURVE DESCRIPTION
#-----------   ------------------   ----------------------------------
DEPT.F        00 001 00 00         : DEPTH        - DEPTH
CALI.IN       00 280 01 00         : CAL          - CALIPER
GR  .API      00 310 00 00         : GR           - GAMMA RAY
NPHI.V/V      00 330 00 00         : PHIN         - NEUTRON POROSITY (SANDSTONE)
DPHI.V/V      00 890 00 00         : PHID         - DENSITY POROSITY (SANDSTONE)
ILD .OHMM     00 120 00 00         : RESD         - DEEP RESISTIVITY (DIL)
~PARAMETER INFORMATION
#MNEM.UNIT           DATA             DESCRIPTION OF MNEMONIC
#---------         -----------     ------------------------------
GL  .F        1727                 : gl           - GROUND LEVEL ELEVATION
EREF.F        1740                 : kb           - ELEVATION OF DEPTH REFERENCE
DATM.F        1740                 : datum        - DATUM ELEVATION
TDD .F        1097                 : tdd          - TOTAL DEPTH DRILLER
RUN .         ONE                  : Run          - RUN NUMBER
ENG .         BILL                 : Engineer     - RECORDING ENGINEER
WIT .         JIM                  : Witness      - WITNESSED BY
MUD .         GEL                  : Mud_type     - MUD TYPE
MATR.         SANDSTONE            : Logunit      - NEUTRON MATRIX
TMAX.F        67                   : BHT          - MAXIMUM RECORDED TEMPERATURE
BHTD.F        1097                 : BHTDEP       - MAXIMUM RECORDED TEMPERATURE
RMT .F        65                   : MDTP         - TEMPERATURE OF MUD
MUDD.LB/G     8.5                  : MWT          - MUD DENSITY
NEUT.         1                    : NEUTRON      - NEUTRON TYPE
RESI.         0                    : RESIST       - RESISTIVITY TYPE
RM  .OHMM     6.7                  : RM           - RESISTIVITY OF MUD
RMC .OHMM     6.7                  : RMC          - RESISTIVITY OF MUD CAKE
RMF .OHMM     6.7                  : RMF          - RESISTIVITY OF MUD FILTRATE
SUFT.F        39.2                 : SUFT         - SURFACE TEMPERATURE
~A  DEPTH      CAL       GR     PHIN     PHID     RESD
  600.000    6.348   68.666    0.598    0.209   16.993
  600.820    6.347   71.094    0.598    0.239   17.622
  601.640    6.344   71.667    0.597    0.240   23.241
  602.461    6.341   71.029    0.594    0.247   27.422
  603.281    6.340   68.528    0.588    0.251   24.072
  604.101    6.336   69.722    0.581    0.229   21.115
  604.921    6.335   70.915    0.562    0.189   23.152
  605.741    6.333   72.117    0.521    0.155   32.859
  606.562    6.290   75.763    0.517    0.089   36.020
  607.382    6.247   84.314    0.552    0.060   38.762
  608.202    6.245   92.252    0.576    0.182   39.449
  609.022    6.774   96.503    0.445    0.270   29.306
  609.843    7.017   98.310    0.423    0.206   20.213
  610.663    6.891  100.125    0.498    0.173   17.739
  611.483    6.767   98.253    0.472    0.158   15.855
  612.303    6.683   93.307    0.490    0.134   15.268
  613.123    6.558   96.340    0.462    0.151   12.211
  613.944    6.842  101.818    0.446    0.209   10.135
  614.764    7.126  101.777    0.502    0.226    9.233
  615.584    7.124   99.913    0.515    0.229   13.607
  616.404    7.653   98.663    0.497    0.197   13.097
  617.224    7.528   96.178    0.467    0.217   10.873
  618.045    7.035   89.393    0.437    0.099   11.916
  618.865    6.543   89.361    0.382    0.152   16.924
  619.685    6.499   92.386    0.419    0.185   19.244
  620.505    6.497   90.514    0.413    0.136   19.580
  621.325    6.494   91.103    0.381    0.127   19.570
  622.146    6.451   94.749    0.408    0.218   17.488
  622.966    6.367   97.169    0.419    0.221   15.634
  623.786    6.447   96.515    0.395    0.208   14.508
  624.606    6.526   94.030    0.397    0.203   14.228
  625.427    6.524   92.158    0.429    0.184   15.023
  626.247    6.481   89.665    0.420    0.131   15.575
  627.067    6.438   87.181    0.371    0.094   15.847
  627.887    6.436   85.309    0.336    0.085   15.836
  628.707    6.434   87.729    0.353    0.112   15.821
  629.528    6.391   93.835    0.436    0.141   15.508
  630.348    6.593  101.160    0.436    0.192   15.213
  631.168    6.958   98.054    0.419    0.198   14.378
  631.988    6.874   93.109    0.395    0.204   13.335
  632.808    6.708   91.858    0.418    0.220   13.081
  633.629    6.624   95.496    0.412    0.228   13.063
  634.449    6.704   96.690    0.398    0.222   14.054
  635.269    6.824   95.423    0.408    0.238   13.783
  636.089    7.109   94.172    0.411    0.348   13.272
  636.909    7.883   91.679    0.388    0.276   11.648
  637.730    8.576   91.647    0.361    0.198   11.848
  638.550    8.083   91.614    0.354    0.131   12.516
  639.370    6.649   90.356    0.340    0.090   13.463
  640.190    6.934   89.097    0.505    0.174   13.701
  641.010    7.299   92.751    0.573    0.207   13.944
  641.831    7.502   91.476    0.567    0.234   13.675
  642.651    7.254   90.218    0.504    0.317   12.451
  643.471    6.925   89.580    0.455    0.274   11.342
  644.291    6.800   90.153    0.455    0.318    7.825
  645.112    7.043   94.420    0.528    0.368    6.994
  645.932    7.326  107.254    0.497    0.321    5.699
  646.752    7.488  113.974    0.486    0.261    5.189
  647.572    7.567  113.941    0.474    0.235    5.481
  648.392    7.566  104.091    0.477    0.224    6.711
  649.213    7.400  101.598    0.497    0.226    9.020
  650.033    7.112  103.413    0.543    0.239    9.519
  650.853    6.904  107.672    0.530    0.205   10.056
  651.673    6.902  107.632    0.500    0.190   10.819
  652.493    6.859  105.155    0.526    0.191   11.211
  653.314    6.857   99.597    0.500    0.164   11.206
  654.134    6.855   94.046    0.494    0.136   11.198
  654.954    6.811   95.853    0.523    0.125   10.383
  655.774    6.769   98.886    0.511    0.184    9.999
  656.594    6.643  100.080    0.540    0.176    9.276
  657.415    6.559  100.660    0.506    0.142    9.617
  658.235    6.517   95.723    0.479    0.123   11.142
  659.055    6.514   83.421    0.379    0.048   16.120
  659.875    6.471   81.541    0.303    0.008   17.993
  660.696    6.510   85.195    0.412    0.080   19.002
  661.516    6.589   92.512    0.402    0.148   18.980
  662.336    6.627   96.158    0.392    0.182   18.962
  663.156    6.626   97.973    0.404    0.169   18.259
  663.976    6.623   97.932    0.421    0.169   16.320
  664.797    6.621   97.286    0.431    0.177   14.060
  665.617    6.660   97.230    0.431    0.187   14.309
  666.437    6.657   97.213    0.431    0.157   15.682
  667.257    6.655   97.189    0.431    0.151   18.169
  668.077    6.735   96.535    0.421    0.144   20.658
  668.898    6.609   95.898    0.389    0.122   21.024
  669.718    6.485   95.252    0.354    0.111   19.138
  670.538    6.442   94.607    0.387    0.115   18.778
  671.358    6.399   91.501    0.404    0.127   20.202
  672.178    6.356   87.781    0.348    0.061   23.405
  672.999    6.353   84.079    0.284    0.000   27.116
  673.819    6.474   83.425    0.435    0.058   27.090
  674.639    6.594   88.305    0.474    0.139   23.769
  675.459    6.633   93.169    0.464    0.197   21.250
  676.280    6.590   91.903    0.428    0.205   20.078
  677.100    6.506   88.813    0.421    0.184   20.434
  677.920    6.462   86.328    0.398    0.160   23.233
  678.740    6.501   83.843    0.381    0.176   26.430
  679.560    6.498   80.132    0.385    0.151   31.192
  680.381    6.455   72.734    0.340    0.105   36.813
  681.201    6.372   66.571    0.376    0.135   43.447
  682.021    6.288   65.925    0.378    0.131   49.401
  682.841    6.285   65.280    0.319    0.018   49.342
  683.661    6.283   66.474    0.276    0.066   46.643
  684.482    6.323   76.864    0.296    0.081   39.437
  685.302    6.402   77.428    0.308    0.068   35.924
  686.122    6.481   77.404    0.302    0.038   30.374
  686.942    6.601   79.210    0.388    0.059   22.146
  687.762    6.640   84.083    0.435    0.113   20.545
  688.583    6.678   91.407    0.449    0.109   19.061
  689.403    6.677   92.585    0.429    0.083   17.040
  690.223    6.674   92.560    0.472    0.075   14.955
  691.043    6.671   95.602    0.486    0.130   13.121
  691.864    6.669  101.087    0.453    0.179   11.950
  692.684    6.668  102.272    0.430    0.164   12.392
  693.504    6.665  101.627    0.428    0.142   13.821
  694.324    6.622   99.150    0.435    0.135   13.558
  695.144    6.579  100.344    0.473    0.134   13.303
  695.965    6.455  100.295    0.487    0.152   12.339
  696.785    6.330   98.431    0.489    0.107   11.655
  697.605    6.408   96.552    0.489    0.087   11.436
  698.425    6.488   98.980    0.504    0.113   11.420
  699.245    6.609   99.560    0.494    0.104   11.628
  700.066    6.648   98.302    0.477    0.118   12.055
  700.886    6.686   98.261    0.496    0.155   12.269
  701.706    6.684   98.228    0.500    0.139   12.483
  702.526    6.682   98.196    0.475    0.117   12.701
  703.346    6.720   96.929    0.476    0.103   12.689
  704.167    6.759   96.292    0.463    0.090   12.213
  704.987    6.879  106.069    0.521    0.146   11.764
  705.807    6.958  110.328    0.517    0.169   10.708
  706.627    6.997  106.617    0.494    0.160   10.312
  707.448    6.994  103.519    0.492    0.166   10.113
  708.268    6.993   99.178    0.492    0.171    9.734
  709.088    6.990   96.694    0.467    0.085    9.725
  709.908    7.029   93.604    0.451    0.077   10.082
  710.728    7.027   92.345    0.479    0.142   11.047
  711.549    6.984   99.057    0.486    0.184   11.455
  712.369    6.982  103.929    0.495    0.172   11.655
  713.189    6.898  108.188    0.520    0.163   11.433
  714.009    6.814  111.826    0.497    0.172   11.213
  714.829    6.730  110.567    0.457    0.181   11.406
  715.650    6.563  105.009    0.430    0.176   13.465
  716.470    6.520  101.919    0.390    0.163   15.596
  717.290    6.477   96.974    0.355    0.111   16.779
  718.110    6.475   93.876    0.331    0.031   16.459
  718.930    6.596   95.070    0.421    0.068   14.986
