~VERSION INFORMATION
 VERS.                 2.0:   CWLS LOG ASCII STANDARD -VERSION 2.0
 WRAP.                  NO:   ONE LINE PER DEPTH STEP
~WELL INFORMATION BLOCK
#MNEM.UNIT           DATA                    DESCRIPTION OF MNEMONIC
#---------    -------------------            -------------------------------
# Generated from Intellog Unique Number	CN_91_93/WELL/2727
WELL.         PARAMOUNT RESOURCES LTD.       : Well_name    - WELL
LOC .         00/13-28-091-19W4/0            : Location     - LOCATION
UWI .         00/13-28-091-19W4/0            : Uwi          - UNIQUE WELL ID
ENTR.         JOETTE                         : Entered      - ENTERED BY
SRVC.         COMPUTALOG                     : Scn          - SERVICE COMPANY
DATE.         02/11/92                       : Date         - LOG DATE
STRT.M        100                            : top_depth    - START DEPTH
STOP.M        262                            : bot_depth    - STOP DEPTH
STEP.M        0.25                           : increment    - STEP LENGTH
 NULL. -999.2500:NULL Value
~CURVE INFORMATION BLOCK
#MNEM UNIT       ERCB CURVE CODE    CURVE DESCRIPTION
#-----------   ------------------   ----------------------------------
DEPT.M        00 001 00 00         : DEPTH        - DEPTH
GR  .API      00 310 00 00         : GR           - GAMMA RAY
CALI.MM       00 280 01 00         : CAL          - CALIPER
NPHI.V/V      00 330 00 00         : PHIN         - NEUTRON POROSITY (SANDSTONE)
DPHI.V/V      00 890 00 00         : PHID         - DENSITY POROSITY (SANDSTONE)
ILD .OHMM     00 120 00 00         : RESD         - DEEP RESISTIVITY (DIL)
~PARAMETER INFORMATION
#MNEM.UNIT           DATA             DESCRIPTION OF MNEMONIC
#---------         -----------     ------------------------------
GL  .M        535.6                : gl           - GROUND LEVEL ELEVATION
EREF.M        539                  : kb           - ELEVATION OF DEPTH REFERENCE
DATM.M        539                  : datum        - DATUM ELEVATION
TDD .M        263                  : tdd          - TOTAL DEPTH DRILLER
RUN .         ONE                  : Run          - RUN NUMBER
ENG .         BILL                 : Engineer     - RECORDING ENGINEER
WIT .         JIM                  : Witness      - WITNESSED BY
MUD .         GEL                  : Mud_type     - MUD TYPE
MATR.         SANDSTONE            : Logunit      - NEUTRON MATRIX
TMAX.C        15                   : BHT          - MAXIMUM RECORDED TEMPERATURE
BHTD.M        263                  : BHTDEP       - MAXIMUM RECORDED TEMPERATURE
RMT .C        7.8                  : MDTP         - TEMPERATURE OF MUD
MUDD.KG/M     1070                 : MWT          - MUD DENSITY
NEUT.         1                    : NEUTRON      - NEUTRON TYPE
RESI.         0                    : RESIST       - RESISTIVITY TYPE
RM  .OHMM     4.5                  : RM           - RESISTIVITY OF MUD
RMC .OHMM     4.5                  : RMC          - RESISTIVITY OF MUD CAKE
RMF .OHMM     4.5                  : RMF          - RESISTIVITY OF MUD FILTRATE
SUFT.C        4                    : SUFT         - SURFACE TEMPERATURE
~A  DEPTH       GR      CAL     PHIN     PHID     RESD
  100.000   73.494  166.334    0.519    0.415    1.000
  100.250   71.362  165.301    0.490    0.409    4.868
  100.500   71.046  166.287    0.470    0.411    4.645
  100.750   69.824  167.270    0.515    0.417    4.473
  101.000   66.482  167.751    0.524    0.421    4.473
  101.250   69.193  167.225    0.530    0.420    4.466
  101.500   73.714  164.178    0.513    0.394    4.424
  101.750   74.912  151.551    0.476    0.277    4.424
  102.000   73.992  131.870    0.471    0.182    4.377
  102.250   74.882  126.810    0.464    0.194    4.023
  102.500   85.456  136.869    0.453    0.217    3.698
  102.750   96.635  168.099    0.453    0.244    3.561
  103.000  101.457  175.134    0.483    0.240    4.492
  103.250  103.865  175.616    0.508    0.237    6.162
  103.500  103.247  171.558    0.494    0.225    7.350
  103.750  100.812  171.539    0.463    0.231    7.915
  104.000   95.052  200.248    0.454    0.267    8.364
  104.250   88.686  206.269    0.495    0.345    7.688
  104.500   82.020  195.664    0.506    0.357    6.031
  104.750   84.729  177.493    0.516    0.259    5.543
  105.000   99.535  165.370    0.522    0.239    5.094
  105.250   96.800  159.304    0.511    0.253    4.951
  105.500   89.225  160.789    0.488    0.261    5.281
  105.750   87.093  167.322    0.464    0.263    7.177
  106.000   93.734  168.305    0.447    0.257    8.805
  106.250   91.301  167.277    0.423    0.255   10.702
  106.500   81.606  157.171    0.410    0.284   13.129
  106.750   75.545  153.620    0.421    0.309   16.873
  107.000   64.945  153.094    0.390    0.328   16.873
  107.250   56.767  153.068    0.383    0.335   19.928
  107.500   47.983  153.553    0.387    0.341   22.908
  107.750   46.150  153.514    0.375    0.340   22.894
  108.000   46.439  153.506    0.360    0.260   22.883
  108.250   48.240  153.481    0.350    0.198   22.238
  108.500   50.650  152.954    0.358    0.215   20.823
  108.750   53.056  152.431    0.368    0.249   17.273
  109.000   55.460  154.923    0.382    0.308   13.806
  109.250   69.058  157.427    0.371    0.297   11.344
  109.500   83.260  160.423    0.367    0.271   10.623
  109.750   88.993  160.908    0.372    0.251    9.947
  110.000   87.467  159.880    0.411    0.227    9.757
  110.250   78.376  156.828    0.416    0.212   10.606
  110.500   70.805  155.296    0.396    0.267   13.378
  110.750   69.580  154.767    0.352    0.267   14.272
  111.000   75.617  156.260    0.342    0.273   14.263
  111.250   81.652  158.254    0.359    0.281   13.480
  111.500   93.130  159.237    0.396    0.279   11.716
  111.750  100.073  158.203    0.403    0.264    9.540
  112.000  105.201  156.672    0.439    0.250    8.526
  112.250  106.399  160.178    0.450    0.248    7.909
  112.500  106.989  171.242    0.450    0.250    7.337
  112.750  106.974  176.765    0.445    0.273    6.934
  113.000  105.752  177.249    0.420    0.292    6.740
  113.250  101.807  172.688    0.425    0.319    6.862
  113.500   89.997  157.039    0.426    0.320    8.656
  113.750   76.374  157.521    0.411    0.329   12.211
  114.000   63.658  170.098    0.416    0.398   13.522
  114.250   60.317  172.094    0.422    0.362   14.159
  114.500   70.889  175.598    0.420    0.327   13.257
  114.750   77.528  164.987    0.406    0.310   12.885
  115.000   80.838  162.444    0.404    0.312   12.522
  115.250   82.945  161.921    0.410    0.301   12.398
  115.500   85.652  162.904    0.421    0.286   12.275
  115.750   83.523  159.356    0.421    0.278   12.155
  116.000   81.998  170.927    0.417    0.252   11.488
  116.250   95.292  171.406    0.417    0.247   11.063
  116.500  103.443  162.311    0.433    0.242   10.262
  116.750  102.825  164.809    0.438    0.242   10.063
  117.000  106.442  170.835    0.433    0.243    9.604
  117.250  110.359  176.859    0.436    0.242    8.992
  117.500  108.833  178.853    0.445    0.236    8.578
  117.750  104.582  178.833    0.430    0.236    8.260
  118.000  101.849  177.296    0.430    0.251    7.952
  118.250   99.718  176.767    0.456    0.257    7.801
  118.500  106.661  177.753    0.465    0.247    7.582
  118.750  110.581  180.251    0.471    0.237    7.507
  119.000  107.540  180.735    0.455    0.241    7.434
  119.250  107.226  179.705    0.456    0.227    7.500
  119.500  109.027  177.162    0.462    0.225    7.565
  119.750  109.314  174.617    0.454    0.224    7.561
  120.000  108.093  174.088    0.438    0.205    7.627
  120.250  105.356  174.572    0.431    0.198    7.623
  120.500   98.084  174.046    0.432    0.213    7.618
  120.750   96.256  168.977    0.436    0.225    7.615
  121.000   97.755  166.440    0.444    0.228    7.681
  121.250  100.463  167.423    0.444    0.227    7.821
  121.500  102.868  172.442    0.430    0.228    7.601
  121.750  104.667  177.454    0.429    0.232    7.319
  122.000  105.865  178.947    0.419    0.241    7.114
  122.250  105.546  178.421    0.421    0.243    7.175
  122.500  102.209  176.385    0.435    0.226    8.094
  122.750  100.079  176.360    0.440    0.220    7.794
  123.000  103.090  178.351    0.415    0.226    7.717
  123.250  105.194  178.836    0.399    0.227    8.309
  123.500  105.481  176.797    0.400    0.220    8.621
  123.750  103.351  171.227    0.414    0.207    8.943
  124.000   96.682  164.652    0.426    0.182    9.106
  124.250   94.553  157.572    0.437    0.147    9.016
  124.500   91.816  156.539    0.448    0.150    8.521
  124.750   89.380  161.056    0.454    0.203    7.759
  125.000   90.578  167.080    0.455    0.243    6.201
  125.250  102.664  169.074    0.432    0.257    5.541
  125.500  110.816  169.556    0.432    0.242    5.336
  125.750  105.056  169.030    0.439    0.227    5.383
  126.000  106.856  171.021    0.423    0.224    6.481
  126.250  106.843  175.028    0.422    0.221    7.518
  126.500   97.756  177.028    0.428    0.214    7.656
  126.750   89.575  177.510    0.442    0.208    7.581
  127.000   86.840  165.891    0.453    0.214    7.232
  127.250   93.177  161.839    0.468    0.227    6.523
  127.500  104.356  167.356    0.483    0.252    5.565
  127.750  112.509  169.350    0.508    0.257    4.616
  128.000  130.338  169.831    0.537    0.257    4.404
  128.250  115.204  168.297    0.513    0.250    4.201
  128.500  111.862  167.266    0.464    0.248    4.318
  128.750  110.034  169.767    0.455    0.247    5.009
  129.000   91.572  171.758    0.430    0.266    8.356
  129.250   61.312  165.180    0.386    0.300   10.541
  129.500   52.225  159.112    0.391    0.329   16.476
  129.750   51.604  159.591    0.392    0.337   25.273
  130.000   52.800  159.591    0.366    0.338   27.213
  130.250   54.301  161.056    0.360    0.338   28.761
  130.500   64.266  162.546    0.361    0.338   28.733
  130.750   70.303  162.016    0.378    0.344   28.727
  131.000   71.802  160.989    0.383    0.333   27.661
  131.250   71.784  159.454    0.336    0.269   26.146
  131.500   70.262  160.443    0.309    0.147   23.365
  131.750   69.038  160.922    0.297    0.049   21.677
  132.000   62.974  160.395    0.328    0.040   20.297
  132.250   76.269  159.362    0.364    0.094   19.727
  132.500   82.306  160.855    0.369    0.267   20.462
  132.750   69.590  160.827    0.371    0.306   21.831
  133.000   60.503  159.298    0.372    0.325   22.854
  133.250   57.161  160.284    0.386    0.336   23.055
  133.500   55.029  161.774    0.405    0.329   22.831
  133.750   56.529  163.261    0.403    0.297   21.378
  134.000   70.126  162.735    0.401    0.273   17.407
  134.250   85.235  163.216    0.408    0.245   13.911
  134.500   98.529  168.229    0.431    0.241   11.222
  134.750  108.799  171.738    0.444    0.250    9.310
  135.000  113.018  172.727    0.439    0.252    8.243
  135.250  111.795  168.165    0.441    0.261    7.505
  135.500  103.315  162.091    0.443    0.265    7.362
  135.750   77.894  159.044    0.414    0.232    7.927
  136.000   72.135  156.499    0.385    0.211    9.635
  136.250   65.467  156.482    0.392    0.250   11.930
