~VERSION INFORMATION
 VERS.                 2.0:   CWLS LOG ASCII STANDARD -VERSION 2.0
 WRAP.                  NO:   ONE LINE PER DEPTH STEP
~WELL INFORMATION BLOCK
#MNEM.UNIT           DATA                    DESCRIPTION OF MNEMONIC
#---------    -------------------            -------------------------------
# Generated from Intellog Unique Number	CC_80_83/WELL/2420
NULL.         -999.25                        : NULL_VALUE
WELL.         AMOCO SURMONT E5               : Well_name    - WELL
LOC .         11-31-083-09W4                 : Location     - LOCATION          
UWI .         00/11-31-083-09W400            : Uwi          - UNIQUE WELL ID    
ENTR.         DW                             : Entered      - ENTERED BY        
SRVC.         SCHLUMBERGER                   : Scn          - SERVICE COMPANY   
DATE.         07 MAR 77                      : Date         - LOG DATE
STRT.M        240.792                        : top_depth    - START DEPTH       
STOP.M        484.639                        : bot_depth    - STOP DEPTH        
STEP.M        0.305                          : increment    - STEP LENGTH       
~CURVE INFORMATION BLOCK
#MNEM UNIT       ERCB CURVE CODE    CURVE DESCRIPTION
#-----------   ------------------   ----------------------------------
DEPT.M        00 001 00 00         : DEPTH        - DEPTH                       
DPHI.V/V      00 890 00 00         : PHID         - DENSITY POROSITY (LIMESTONE)
NPHI.V/V      00 330 00 00         : PHIN         - NEUTRON POROSITY (LIMESTONE)
GR  .API      00 310 00 00         : GR           - GAMMA RAY                   
ILD .OHMM     00 120 00 00         : RESD         - DEEP RESISTIVITY (DIL)      
~PARAMETER INFORMATION       
#MNEM.UNIT           DATA             DESCRIPTION OF MNEMONIC
#---------         -----------     ------------------------------
GL  .M        712.318              : gl           - GROUND LEVEL ELEVATION      
EREF.M        716.28               : kb           - ELEVATION OF DEPTH REFERENCE
DATM.M        716.28               : datum        - DATUM ELEVATION             
TDD .M        486.461              : tdd          - TOTAL DEPTH DRILLER         
RUN .         ONE                  : Run          - RUN NUMBER                  
ENG .         BILL                 : Engineer     - RECORDING ENGINEER          
WIT .         JIM                  : Witness      - WITNESSED BY                
MUD .         GEL                  : Mud_type     - MUD TYPE                    
MATR.         LIMESTONE            : Logunit      - NEUTRON MATRIX              
TMAX.C        21.6667              : BHT          - MAXIMUM RECORDED TEMPERATURE
BHTD.M        486.461              : BHTDEP       - MAXIMUM RECORDED TEMPERATURE
MATR.         1                    : LOGUNIT      - NEUTRON MATRIX              
RMT .C        25                   : MDTP         - TEMPERATURE OF MUD          
NEUT.         1                    : NEUTRON      - NEUTRON TYPE                
RESI.         0                    : RESIST       - RESISTIVITY TYPE            
RMC .OHMM     0.25                 : RMC          - RESISTIVITY OF MUD CAKE     
RMF .OHMM     0.25                 : RMF          - RESISTIVITY OF MUD FILTRATE 
SUFT.C        15                   : SUFT         - SURFACE TEMPERATURE         
~A  DEPTH     PHID     PHIN       GR     RESD
  240.792    0.275    0.538  114.773    3.837
  241.097    0.259    0.533  114.165    3.838
  241.402    0.250    0.532  110.520    3.838
  241.706    0.268    0.530  107.482    3.911
  242.011    0.265    0.520  108.695    3.912
  242.316    0.257    0.515  113.551    3.913
  242.621    0.263    0.521  114.765    3.988
  242.926    0.275    0.536  114.156    4.063
  243.230    0.278    0.562  110.510    4.141
  243.535    0.274    0.583  108.080    4.220
  243.840    0.261    0.521  106.257    4.220
  244.145    0.270    0.533  105.041    4.143
  244.450    0.276    0.539  110.505    4.067
  244.754    0.252    0.545  112.933    3.775
  245.059    0.278    0.555  113.538    3.706
  245.364    0.291    0.550  112.930    3.376
  245.669    0.301    0.566  110.499    3.192
  245.973    0.295    0.583  106.247    3.193
  246.278    0.297    0.599   99.565    3.506
  246.583    0.286    0.570   93.491    3.709
  246.888    0.199    0.550   88.024    3.923
  247.193    0.167    0.456   78.914    3.924
  247.497    0.172    0.502   87.414    3.781
  247.802    0.256    0.601  106.238    3.712
  248.107    0.272    0.596  107.451    3.782
  248.412    0.256    0.579  103.199    3.854
  248.717    0.248    0.579   97.124    4.154
  249.021    0.252    0.581  100.160    4.313
  249.326    0.178    0.536   97.121    4.478
  249.631    0.179    0.524  105.015    4.479
  249.936    0.224    0.525  111.693    4.316
  250.241    0.252    0.531  114.121    4.316
  250.545    0.242    0.527  112.297    4.317
  250.850    0.256    0.514  108.045    4.399
  251.155    0.247    0.510  104.400    4.654
  251.460    0.230    0.516  103.791    4.742
  251.765    0.228    0.527  106.826    4.484
  252.069    0.239    0.545  108.039    4.321
  252.374    0.263    0.533  106.823    4.321
  252.679    0.245    0.498   98.320    4.404
  252.984    0.235    0.512   94.675    4.572
  253.289    0.242    0.544   96.496    4.747
  253.593    0.253    0.515  101.352    5.116
  253.898    0.255    0.478  101.351    5.213
  254.203    0.256    0.475   99.527    4.839
  254.508    0.255    0.476   95.275    4.750
  254.813    0.234    0.501   95.273    5.216
  255.117    0.202    0.519   92.236    6.407
  255.422    0.181    0.470   74.624    8.640
  255.727    0.184    0.441   68.549   18.933
  256.032    0.233    0.452   72.191   21.183
  256.337    0.327    0.456   74.619   19.661
  256.641    0.309    0.442   79.476   16.622
  256.946    0.316    0.432   83.118   14.053
  257.251    0.301    0.447   81.294   12.567
  257.556    0.280    0.435   83.722   12.335
  257.861    0.268    0.461   86.757   12.570
  258.165    0.261    0.465   89.792   13.547
  258.470    0.263    0.457   88.576   16.332
  258.775    0.284    0.446   83.716   18.967
  259.080    0.312    0.444   82.500   20.064
  259.385    0.338    0.446   84.927   18.975
  259.689    0.321    0.451   85.534   16.966
  259.994    0.302    0.439   81.889   14.614
  260.299    0.282    0.459   90.996   13.820
  260.604    0.259    0.440   87.958   14.350
  260.909    0.241    0.424   81.884   16.053
  261.213    0.330    0.447   81.275   18.644
  261.518    0.422    0.562   76.416   23.771
  261.823    0.474    0.599   72.164   28.656
  262.128    0.456    0.475   84.308   33.908
  262.433    0.318    0.456   87.342   35.204
  262.738    0.308    0.452   86.126   30.897
  263.042    0.312    0.447   89.161   26.120
  263.347    0.321    0.441   90.981   21.274
  263.652    0.328    0.446   89.766   22.088
  263.957    0.312    0.475   80.655   30.348
  264.262    0.325    0.492   78.225   35.908
  264.566    0.315    0.491   61.220   38.699
  264.871    0.307    0.421   52.109   37.991
  265.176    0.326    0.401   52.715   35.926
  265.481    0.331    0.419   54.535   35.268
  265.786    0.308    0.430   58.178   33.982
  266.090    0.314    0.433   66.070   33.989
  266.395    0.320    0.425   74.571   33.365
  266.700    0.298    0.419   80.642   32.147
  267.005    0.285    0.416   83.677   28.213
  267.310    0.250    0.407   81.246   24.303
  267.614    0.216    0.407   81.852   22.983
  267.919    0.279    0.440   84.280   23.862
  268.224    0.295    0.441   81.242   24.773
  268.529    0.325    0.415   73.953   27.716
  268.834    0.307    0.411   72.129   28.243
  269.139    0.312    0.417   73.950   26.216
  269.443    0.314    0.422   76.378   24.333
  269.748    0.325    0.448   72.126   23.013
  270.053    0.319    0.455   64.837   23.015
  270.358    0.320    0.465   64.835   25.749
  270.663    0.338    0.479   66.048   28.273
  270.967    0.326    0.452   68.476   28.279
  271.272    0.308    0.408   70.904   26.743
  271.577    0.331    0.413   74.546   23.912
  271.882    0.298    0.422   78.188   21.784
  272.187    0.285    0.422   81.830   21.386
  272.491    0.270    0.418   86.687   23.483
  272.796    0.255    0.428   85.471   24.380
  273.101    0.250    0.444   77.575   27.276
  273.406    0.307    0.457   76.966   29.952
  273.711    0.331    0.450   80.608   32.889
  274.015    0.328    0.445   82.428   34.148
  274.320    0.322    0.446   79.391   34.796
  274.625    0.324    0.452   76.353   34.803
  274.930    0.327    0.458   71.493   32.914
  275.235    0.330    0.459   64.204   31.711
  275.540    0.328    0.453   69.061   28.355
  275.844    0.328    0.436   79.990   25.832
  276.149    0.331    0.444   84.240   21.040
  276.454    0.312    0.447   86.060   18.464
  276.759    0.290    0.444   86.666   15.904
  277.064    0.269    0.434   87.272   13.446
  277.368    0.264    0.438   90.307   13.199
  277.673    0.259    0.442   98.807   12.483
  277.978    0.251    0.434  107.307   11.372
  278.283    0.270    0.444  104.877   10.168
  278.588    0.278    0.445   90.908    8.759
  278.892    0.264    0.430   91.514    7.831
  279.197    0.250    0.432  104.265    6.621
  279.502    0.190    0.455  112.158    5.393
  279.807    0.200    0.478  118.836    4.913
  280.112    0.216    0.501  121.264    4.560
  280.416    0.216    0.503  114.583    4.476
  280.721    0.189    0.497  118.225    4.313
  281.026    0.204    0.498  121.260    4.234
  281.331    0.199    0.505  100.611    4.649
  281.636    0.228    0.527  123.079    6.040
  281.941    0.258    0.525  121.256    7.558
  282.245    0.280    0.513  114.574   10.982
  282.550    0.291    0.501  102.427   16.566
  282.855    0.296    0.456   98.782   21.926
  283.160    0.304    0.445  103.032   24.076
  283.465    0.307    0.439   95.743   24.997
  283.769    0.299    0.423   93.312   23.204
  284.074    0.295    0.419   82.987   23.207
  284.379    0.309    0.410   81.164   24.093
  284.684    0.326    0.407   89.057   25.015
  284.989    0.325    0.416   92.092   24.555
  285.293    0.316    0.462   91.483   22.795
  285.598    0.325    0.478   95.126   21.555
  285.903    0.316    0.462   90.873   19.637
  286.208    0.298    0.453   93.300   15.993
  286.513    0.288    0.447   98.157   12.316
  286.817    0.265    0.433  104.836   11.012
  287.122    0.239    0.424  109.085   12.320
  287.427    0.222    0.476  110.298   16.306
  287.732    0.265    0.444  104.224   21.988
  288.037    0.281    0.428  102.401   25.536
  288.342    0.301    0.434   90.254   28.570
  288.646    0.292    0.448   90.253   29.114
  288.951    0.296    0.447   93.895   30.227
  289.256    0.310    0.428   76.283   29.672
  289.561    0.321    0.436   68.386   28.590
  289.866    0.331    0.451   70.207   23.726
  290.170    0.335    0.450   73.849   22.436
  290.475    0.315    0.438   79.920   18.969
  290.780    0.275    0.425   84.777   16.960
  291.085    0.257    0.421   88.419   15.742
  291.390    0.253    0.418   93.883   16.043
  291.694    0.259    0.408   98.740   17.289
  291.999    0.262    0.401   99.953   20.079
  292.304    0.248    0.421   97.522   22.048
  292.609    0.241    0.451   89.626   22.051
  292.914    0.248    0.441   70.800   19.354
  293.218    0.200    0.423   71.406   16.985
  293.523    0.235    0.434   82.334   15.473
