~VERSION INFORMATION
 VERS.                 2.0:   CWLS LOG ASCII STANDARD -VERSION 2.0
 WRAP.                  NO:   ONE LINE PER DEPTH STEP
~WELL INFORMATION BLOCK
#MNEM.UNIT           DATA                    DESCRIPTION OF MNEMONIC
#---------    -------------------            -------------------------------
# Generated from Intellog Unique Number	CW_73_75/WELL/992
WELL.         CDN-SUP ET AL FRANCIS 10-26    : Well_name    - WELL
LOC .         00/10-26-074-20W4/0            : Location     - LOCATION
UWI .         00/10-26-074-20W4/0            : Uwi          - UNIQUE WELL ID
ENTR.         JAYE                           : Entered      - ENTERED BY
SRVC.         SCHLUMBERGER                   : Scn          - SERVICE COMPANY
DATE.         16 M1R 76                      : Date         - LOG DATE
STRT.M        362.712                        : top_depth    - START DEPTH
STOP.M        542.462                        : bot_depth    - STOP DEPTH
STEP.M        0.25                           : increment    - STEP LENGTH
 NULL. -999.2500:NULL Value
~CURVE INFORMATION BLOCK
#MNEM UNIT       ERCB CURVE CODE    CURVE DESCRIPTION
#-----------   ------------------   ----------------------------------
DEPT.M        00 001 00 00         : DEPTH        - DEPTH
GR  .API      00 310 00 00         : GR           - GAMMA RAY
CALI.MM       00 280 01 00         : CAL          - CALIPER
NPHI.V/V      00 330 00 00         : PHIN         - NEUTRON POROSITY (SANDSTONE)
DPHI.V/V      00 890 00 00         : PHID         - DENSITY POROSITY (SANDSTONE)
ILD .OHMM     00 120 00 00         : RESD         - DEEP RESISTIVITY (DLL)
~PARAMETER INFORMATION
#MNEM.UNIT           DATA             DESCRIPTION OF MNEMONIC
#---------         -----------     ------------------------------
GL  .M        683.057              : gl           - GROUND LEVEL ELEVATION
EREF.M        686.714              : kb           - ELEVATION OF DEPTH REFERENCE
DATM.M        683.057              : datum        - DATUM ELEVATION
TDD .M        619.354              : tdd          - TOTAL DEPTH DRILLER
RUN .         ONE                  : Run          - RUN NUMBER
ENG .         WILTSHIRE            : Engineer     - RECORDING ENGINEER
WIT .         BRAND                : Witness      - WITNESSED BY
BASE.         EDMONTON             : Branch       - HOME BASE OF LOGGING UNIT
MUD .         GEL CHEM             : Mud_type     - MUD TYPE
MATR.         SANDSTONE            : Logunit      - NEUTRON MATRIX
TMAX.C        28.3333              : BHT          - MAXIMUM RECORDED TEMPERATURE
BHTD.M        619.963              : BHTDEP       - MAXIMUM RECORDED TEMPERATURE
RMT .C        11.6667              : MDTP         - TEMPERATURE OF MUD
MUDD.KG/M     1080                 : MWT          - MUD DENSITY
NEUT.         1                    : NEUTRON      - NEUTRON TYPE
RESI.         1                    : RESIST       - RESISTIVITY TYPE
RM  .OHMM     1.4                  : RM           - RESISTIVITY OF MUD
RMC .OHMM     3.95                 : RMC          - RESISTIVITY OF MUD CAKE
RMF .OHMM     2.45                 : RMF          - RESISTIVITY OF MUD FILTRATE
SUFT.C        -17.7778             : SUFT         - SURFACE TEMPERATURE
~A  DEPTH       GR      CAL     PHIN     PHID     RESD
# ...
  508.712   88.768  246.169    0.437    0.221    6.669
  508.962   88.376  246.346    0.418    0.203    6.804
  509.212   88.108  246.627    0.406    0.168    6.916
  509.462   85.301  247.011    0.409    0.175    7.030
  509.712   84.784  247.075    0.419    0.161    7.067
  509.962   88.789  247.040    0.428    0.168    7.090
  510.212   88.891  247.003    0.428    0.193    7.087
  510.462   86.518  247.184    0.431    0.210    7.059
  510.712   86.311  247.461    0.433    0.200    6.965
  510.962   88.830  247.218    0.426    0.203    6.797
  511.212   90.852  247.184    0.412    0.202    6.546
  511.462   93.308  246.831    0.402    0.210    6.294
  511.712   94.092  246.695    0.412    0.184    6.096
  511.962   94.692  246.657    0.423    0.155    5.850
  512.212   95.351  246.727    0.421    0.147    5.762
  512.462   98.982  246.585    0.422    0.151    5.727
  512.712   99.954  246.656    0.446    0.170    5.757
  512.962   96.095  246.624    0.434    0.168    5.852
  513.212   94.339  246.587    0.417    0.134    5.960
  513.462   96.176  246.446    0.398    0.137    6.160
  513.712   97.829  247.250    0.393    0.161    6.486
  513.962   96.816  249.209    0.413    0.181    6.843
  514.212   95.929  244.038    0.403    0.218    7.245
  514.462   95.598  237.394    0.391    0.173    7.163
  514.712   94.154  237.254    0.394    0.142    6.835
  514.962   98.776  240.365    0.419    0.132    6.670
  515.212  103.216  246.204    0.445    0.145    6.606
  515.462  101.397  248.057    0.470    0.148    6.853
  515.712   97.415  237.640    0.459    0.176    7.229
  515.962   93.555  229.005    0.436    0.210    7.740
  516.212   93.843  224.774    0.410    0.194    8.258
  516.462   93.822  221.698    0.392    0.180    9.108
  516.712   93.430  220.512    0.384    0.201   10.216
  516.962   93.038  219.220    0.379    0.221   11.081
  517.212   92.337  217.401    0.372    0.234   12.132
  517.462   90.892  215.478    0.365    0.246   13.234
  517.712   81.830  214.185    0.354    0.157   14.843
  517.962   74.193  213.312    0.342    0.107   16.372
  518.212   70.393  212.643    0.326    0.120   17.048
  518.462   69.445  213.239    0.306    0.156   16.421
  518.712   69.297  214.988    0.278    0.144   14.202
  518.962   69.341  216.842    0.250    0.102   10.528
  519.212   72.168  219.845    0.252    0.076    8.438
  519.462   78.589  222.433    0.298    0.077    7.560
  519.712   89.157  224.706    0.344    0.109    7.068
  519.962   92.790  227.290    0.385    0.130    6.923
  520.212   89.673  230.193    0.400    0.139    7.037
  520.462   88.349  233.195    0.414    0.152    7.246
  520.712   90.497  235.048    0.408    0.139    7.338
  520.962   93.945  236.375    0.405    0.153    7.377
  521.212   97.763  236.973    0.407    0.163    7.415
  521.462   97.867  237.356    0.411    0.160    7.427
  521.712   95.552  237.738    0.404    0.148    7.423
  521.962   95.158  238.433    0.400    0.166    7.449
  522.212   94.523  238.614    0.401    0.174    7.501
  522.462   91.840  239.204    0.396    0.191    7.569
  522.712   92.993  239.804    0.386    0.173    7.665
  522.962   95.204  240.398    0.391    0.152    7.791
  523.212   97.163  240.885    0.401    0.152    7.875
  523.462   96.771  241.374    0.393    0.162    8.050
  523.712   96.876  242.071    0.392    0.161    8.321
  523.962   96.978  242.773    0.399    0.162    8.568
  524.212   93.861  243.575    0.390    0.181    8.774
  524.462   90.681  243.647    0.373    0.159    8.787
  524.712   86.823  240.465    0.373    0.127    8.687
  524.962   84.759  235.817    0.338    0.074    8.492
  525.212   90.125  234.944    0.329    0.095    8.134
  525.462   94.997  238.578    0.348    0.129    7.806
  525.712   98.073  242.527    0.376    0.147    7.477
  525.962   95.141  246.372    0.391    0.146    7.364
  526.212   93.324  249.796    0.377    0.157    6.771
  526.462   91.507  237.910    0.368    0.163    6.078
  526.712   90.063  240.395    0.360    0.151    5.103
  526.962   89.113  247.490    0.410    0.162    3.940
  527.212   90.020  262.553    0.438    0.216    2.965
  527.462   91.177  259.477    0.461    0.265    2.341
  527.712   93.261  242.979    0.543    0.319    2.113
  527.962   97.018  236.235    0.542    0.264    2.047
  528.212   98.546  237.248    0.537    0.219    2.046
  528.462   99.204  238.050    0.534    0.203    2.099
  528.712  100.547  238.957    0.518    0.205    2.243
  528.962  100.899  239.654    0.502    0.198    2.447
  529.212   98.214  239.939    0.501    0.196    2.750
  529.462   96.337  240.532    0.488    0.185    3.291
  529.712   96.254  241.337    0.459    0.169    4.461
  529.962   96.171  242.246    0.415    0.166    5.193
  530.212   94.602  244.516    0.389    0.135    5.824
  530.462   95.449  252.345    0.396    0.129    6.341
  530.712   90.536  247.488    0.397    0.156    6.802
  530.962   86.119  245.460    0.389    0.130    6.888
  531.212   86.655  245.004    0.367    0.114    6.759
  531.462   89.545  245.286    0.352    0.135    6.547
  531.712   91.195  245.459    0.386    0.175    6.330
  531.962   89.813  246.156    0.423    0.165    6.199
  532.212   89.607  246.960    0.421    0.129    6.290
  532.462   90.886  247.976    0.403    0.138    6.501
  532.712   88.389  248.568    0.407    0.149    6.871
  532.962   88.552  249.160    0.398    0.131    7.262
  533.212   90.081  249.754    0.371    0.120    7.562
  533.462   92.968  250.036    0.367    0.137    7.687
  533.712   92.886  250.422    0.391    0.151    7.613
  533.962   88.223  250.912    0.411    0.129    7.442
  534.212   82.010  247.099    0.432    0.111    7.385
  534.462   81.432  244.967    0.401    0.083    7.548
  534.712   84.508  244.515    0.382    0.031    7.831
  534.962   88.883  245.317    0.366    0.027    7.613
  535.212   94.374  247.063    0.372    0.066    7.198
  535.462   96.767  249.232    0.386    0.121    6.630
  535.712   98.233  247.623    0.389    0.137    6.154
  535.962   99.018  245.176    0.386    0.131    5.658
  536.212   98.377  245.559    0.393    0.133    5.420
  536.462   99.472  248.359    0.391    0.132    5.250
  536.712  101.433  243.395    0.391    0.117    5.199
  536.962  101.351  240.526    0.399    0.129    5.216
  537.212  100.091  242.696    0.409    0.150    5.293
  537.462  105.085  242.552    0.402    0.137    5.420
  537.712  110.205  237.802    0.397    0.147    5.613
  537.962  108.636  235.563    0.429    0.150    6.054
  538.212  101.989  237.834    0.451    0.131    6.690
  538.462   98.997  239.163    0.438    0.097    7.435
  538.712  102.690  235.144    0.406    0.103    8.110
  538.962  104.095  231.544    0.391    0.065    8.228
  539.212  102.278  234.445    0.394    0.093    7.881
  539.462  101.205  232.940    0.410    0.122    7.648
  539.712  100.130  234.375    0.410    0.120    7.588
  539.962   91.565  237.696    0.401    0.099    7.728
  540.212   79.160  212.494    0.441    0.138    9.046
  540.462   70.655  200.925    0.421    0.162   13.681
  540.712   64.009  199.527    0.276    0.147   19.936
  540.962   62.440  199.702    0.210    0.063   27.275
  541.212   62.234  200.297    0.183    0.004   29.640
  541.462   61.594  201.099    0.201    0.034   27.611
  541.712   64.669  202.638    0.197    0.057   25.248
  541.962   69.416  211.830    0.200    0.077   25.286
  542.212   71.378  215.149    0.226    0.061   26.038
  542.462   61.945  204.312    0.263    0.077   27.725
