~VERSION INFORMATION
 VERS.                 2.0:   CWLS LOG ASCII STANDARD -VERSION 2.0
 WRAP.                  NO:   ONE LINE PER DEPTH STEP
~WELL INFORMATION BLOCK
#MNEM.UNIT           DATA                    DESCRIPTION OF MNEMONIC
#---------    -------------------            -------------------------------
# Generated from Intellog Unique Number	CS_71_72/WELL/854
WELL.         BOW VALLEY INDUSTRIES          : Well_name    - WELL
LOC .         00/10-12-072-18W4/0            : Location     - LOCATION
UWI .         00/10-12-072-18W4/0            : Uwi          - UNIQUE WELL ID
ENTR.         SP                             : Entered      - ENTERED BY
SRVC.         SCHLUMBERGER                   : Scn          - SERVICE COMPANY
STRT.M        283.464                        : top_depth    - START DEPTH
STOP.M        462.964                        : bot_depth    - STOP DEPTH
STEP.M        0.25                           : increment    - STEP LENGTH
 NULL. -999.2500:NULL Value
~CURVE INFORMATION BLOCK
#MNEM UNIT       ERCB CURVE CODE    CURVE DESCRIPTION
#-----------   ------------------   ----------------------------------
DEPT.M        00 001 00 00         : DEPTH        - DEPTH
GR  .API      00 310 00 00         : GR           - GAMMA RAY
DPHI.V/V      00 890 00 00         : PHID         - DENSITY POROSITY (SANDSTONE)
NPHI.V/V      00 330 00 00         : PHIN         - NEUTRON POROSITY (SANDSTONE)
ILD .OHMM     00 120 00 00         : RESD         - DEEP RESISTIVITY (DIL)
~PARAMETER INFORMATION
#MNEM.UNIT           DATA             DESCRIPTION OF MNEMONIC
#---------         -----------     ------------------------------
GL  .M        593.507              : gl           - GROUND LEVEL ELEVATION
EREF.M        596.494              : kb           - ELEVATION OF DEPTH REFERENCE
DATM.M        593.507              : datum        - DATUM ELEVATION
TDD .M        505.968              : tdd          - TOTAL DEPTH DRILLER
RUN .         ONE                  : Run          - RUN NUMBER
ENG .         BILL                 : Engineer     - RECORDING ENGINEER
WIT .         JIM                  : Witness      - WITNESSED BY
MUD .         GEL                  : Mud_type     - MUD TYPE
MATR.         SANDSTONE            : Logunit      - NEUTRON MATRIX
TMAX.C        23.8889              : BHT          - MAXIMUM RECORDED TEMPERATURE
BHTD.M        502.92               : BHTDEP       - MAXIMUM RECORDED TEMPERATURE
MATR.         1                    : LOGUNIT      - NEUTRON MATRIX
RMT .C        25                   : MDTP         - TEMPERATURE OF MUD
NEUT.         1                    : NEUTRON      - NEUTRON TYPE
RESI.         0                    : RESIST       - RESISTIVITY TYPE
RMC .OHMM     0.25                 : RMC          - RESISTIVITY OF MUD CAKE
RMF .OHMM     0.25                 : RMF          - RESISTIVITY OF MUD FILTRATE
SUFT.C        15                   : SUFT         - SURFACE TEMPERATURE
~A  DEPTH       GR     PHID     PHIN     RESD
# ...
  326.964   67.156    0.289    0.518    7.552
  327.214   70.010    0.283    0.508    7.194
  327.464   73.531    0.293    0.501    6.784
  327.714   80.778    0.268    0.497    6.217
  327.964   88.478    0.253    0.494    5.675
  328.214   96.008    0.265    0.510    5.272
  328.464   91.273    0.291    0.515    5.048
  328.714   84.155    0.297    0.491    5.070
  328.964   79.539    0.297    0.467    5.284
  329.214   76.513    0.282    0.460    5.495
  329.464   85.469    0.264    0.465    6.063
  329.714   91.272    0.260    0.472    6.295
  329.964   94.668    0.272    0.485    6.357
  330.214   94.602    0.267    0.476    6.370
  330.464   94.863    0.248    0.470    6.193
  330.714   98.280    0.236    0.480    6.010
  330.964  100.998    0.228    0.485    5.455
  331.214  104.058    0.221    0.496    4.904
  331.464  105.478    0.250    0.509    4.564
  331.714  103.556    0.256    0.542    4.685
  331.964  100.739    0.255    0.555    5.046
  332.214   96.700    0.247    0.531    5.659
  332.464   94.980    0.285    0.549    5.981
  332.714   92.455    0.285    0.534    6.296
  332.964   89.386    0.279    0.508    6.586
  333.214   86.727    0.288    0.496    7.097
  333.464   79.978    0.274    0.497    7.293
  333.714   72.724    0.273    0.474    7.323
  333.964   67.576    0.286    0.466    7.296
  334.214   62.747    0.288    0.459    7.153
  334.464   58.904    0.280    0.468    6.942
  334.714   56.437    0.310    0.475    6.735
  334.964   58.411    0.325    0.475    6.536
  335.214   60.099    0.318    0.481    6.344
  335.464   61.546    0.309    0.430    6.168
  335.714   61.586    0.306    0.472    6.180
  335.964   59.007    0.304    0.464    6.181
  336.214   54.743    0.306    0.461    6.183
  336.464   52.980    0.314    0.466    6.185
  336.714   55.931    0.304    0.475    6.187
  336.964   57.369    0.319    0.468    6.190
  337.214   57.454    0.305    0.479    6.191
  337.464   56.035    0.315    0.480    6.192
  337.714   56.125    0.321    0.461    6.199
  337.964   57.723    0.312    0.456    6.075
  338.214   59.401    0.323    0.460    6.086
  338.464   59.783    0.331    0.460    6.089
  338.714   59.829    0.347    0.465    6.092
  338.964   59.074    0.350    0.470    6.097
  339.214   58.053    0.341    0.462    6.001
  339.464   57.952    0.330    0.448    5.986
  339.714   58.651    0.327    0.439    5.981
  339.964   59.233    0.323    0.446    5.873
  340.214   59.402    0.336    0.457    5.881
  340.464   59.800    0.339    0.465    5.884
  340.714   59.806    0.338    0.469    5.886
  340.964   59.799    0.340    0.477    5.888
  341.214   59.830    0.338    0.488    5.890
  341.464   58.886    0.335    0.487    5.889
  341.714   58.052    0.332    0.477    5.876
  341.964   59.114    0.345    0.473    5.784
  342.214   61.353    0.349    0.480    5.789
  342.464   62.852    0.332    0.483    5.791
  342.714   62.822    0.320    0.484    5.804
  342.964   64.127    0.321    0.487    5.679
  343.214   66.498    0.336    0.484    5.692
  343.464   67.513    0.347    0.479    5.695
  343.714   67.477    0.340    0.477    5.702
  343.964   66.529    0.333    0.481    5.596
  344.214   63.779    0.336    0.487    5.663
  344.464   65.610    0.339    0.495    5.700
  344.714   67.029    0.341    0.494    5.704
  344.964   67.933    0.346    0.487    5.705
  345.214   64.811    0.340    0.482    5.705
  345.464   67.076    0.334    0.481    5.801
  345.714   68.410    0.323    0.483    5.817
  345.964   67.134    0.319    0.490    5.823
  346.214   70.121    0.313    0.495    5.742
  346.464   67.801    0.316    0.497    5.722
  346.714   65.283    0.320    0.497    5.721
  346.964   63.659    0.335    0.494    5.723
  347.214   63.735    0.328    0.489    5.725
  347.464   66.412    0.324    0.486    5.727
  347.714   68.094    0.326    0.495    5.728
  347.964   68.996    0.329    0.507    5.731
  348.214   68.481    0.320    0.518    5.735
  348.464   66.945    0.318    0.532    5.802
  348.714   68.569    0.324    0.535    5.739
  348.964   71.599    0.321    0.532    5.854
  349.214   73.542    0.318    0.525    5.852
  349.464   72.409    0.323    0.508    5.854
  349.714   68.997    0.334    0.488    5.738
  349.964   68.102    0.331    0.480    6.992
  350.214   67.763    0.322    0.486    6.796
  350.464   68.099    0.331    0.497    6.675
  350.714   69.139    0.321    0.511    6.546
  350.964   70.085    0.317    0.519    6.442
  351.214   71.501    0.325    0.523    6.376
  351.464   71.446    0.339    0.504    6.328
  351.714   70.350    0.345    0.489    6.223
  351.964   69.943    0.335    0.481    6.211
  352.214   69.571    0.337    0.475    6.211
  352.464   68.530    0.338    0.474    6.213
  352.714   67.428    0.334    0.488    6.213
  352.964   64.753    0.322    0.509    6.216
  353.214   63.546    0.324    0.524    6.096
  353.464   63.765    0.313    0.518    6.107
  353.714   64.166    0.308    0.513    6.110
  353.964   65.891    0.303    0.504    6.112
  354.214   66.108    0.320    0.502    6.113
  354.464   66.672    0.316    0.504    6.119
  354.714   65.943    0.312    0.506    6.214
  354.964   65.948    0.319    0.505    6.615
  355.214   65.391    0.293    0.482    6.899
  355.464   65.396    0.231    0.446    7.501
  355.714   65.382    0.162    0.268    8.136
  355.964   63.316    0.083    0.251    8.940
  356.214   62.294    0.062    0.240    9.986
  356.464   60.039    0.065    0.234   10.700
  356.714   61.237    0.079    0.235   11.579
  356.964   63.767    0.090    0.249   12.536
  357.214   64.857    0.059    0.261   12.879
  357.464   64.813    0.025    0.252   13.166
  357.714   66.236    0.027    0.240   13.129
  357.964   68.168    0.118    0.311   12.587
  358.214   71.477    0.212    0.361   10.539
  358.464   74.772    0.255    0.412    8.996
  358.714   76.736    0.284    0.460    7.679
  358.964   78.361    0.290    0.491    7.289
  359.214   80.611    0.275    0.526    6.621
  359.464   84.165    0.285    0.555    6.025
  359.714   86.816    0.291    0.522    5.769
  359.964   84.854    0.300    0.496    5.519
  360.214   82.164    0.308    0.482    5.404
  360.464   81.064    0.291    0.472    5.392
  360.714   82.612    0.268    0.466    5.409
  360.964   86.544    0.245    0.487    5.461
  361.214   91.359    0.247    0.500    5.640
  361.464   95.868    0.215    0.515    5.923
  361.714   97.023    0.205    0.506    5.996
  361.964   94.233    0.213    0.508    6.067
  362.214   91.793    0.222    0.521    6.084
  362.464   89.025    0.208    0.527    5.957
  362.714   92.628    0.200    0.520    5.854
  362.964   98.657    0.206    0.518    5.681
  363.214  103.077    0.208    0.522    5.512
  363.464  106.985    0.198    0.520    5.349
  363.714  109.047    0.184    0.510    5.206
  363.964  109.329    0.184    0.501    4.822
  364.214  107.332    0.194    0.528    4.630
  364.464  104.377    0.211    0.521    4.229
  364.714  101.335    0.223    0.500    4.039
  364.964   98.573    0.229    0.504    3.728
  365.214   97.510    0.219    0.529    3.699
  365.464   92.473    0.232    0.539    3.695
  365.714   83.955    0.337    0.534    3.869
  365.964   76.459    0.382    0.512    4.049
  366.214   71.740    0.370    0.470    4.289
  366.464   65.613    0.351    0.453    4.473
  366.714   65.248    0.335    0.450    4.634
  366.964   66.670    0.324    0.459    4.548
  367.214   69.658    0.324    0.459    4.500
  367.464   71.051    0.339    0.457    4.455
  367.714   72.747    0.325    0.467    4.310
  367.964   69.739    0.323    0.475    4.302
  368.214   65.591    0.330    0.472    4.301
  368.464   69.196    0.317    0.461    4.171
  368.714   71.941    0.321    0.469    4.786
  368.964   72.223    0.330    0.489    4.640
  369.214   69.628    0.342    0.491    4.586
  369.464   68.076    0.337    0.483    4.560
  369.714   68.620    0.321    0.480    4.560
  369.964   69.650    0.323    0.481    4.561
  370.214   69.891    0.330    0.471    4.563
