~VERSION INFORMATION
 VERS.                 2.0:   CWLS LOG ASCII STANDARD -VERSION 2.0
 WRAP.                  NO:   ONE LINE PER DEPTH STEP
~WELL INFORMATION BLOCK
#MNEM.UNIT           DATA                    DESCRIPTION OF MNEMONIC
#---------    -------------------            -------------------------------
# Generated from Intellog Unique Number	CC_80_83/WELL/2415
NULL.         -999.25                        : NULL_VALUE
WELL.         BAYSEL PHILLIPS                : Well_name    - WELL              
LOC .         11-29-081-08W4                 : Location     - LOCATION          
UWI .         00/11-29-081-08W4/0            : Uwi          - UNIQUE WELL ID    
ENTR.         DW                             : Entered      - ENTERED BY        
SRVC.         SCHLUMBERGER                   : Scn          - SERVICE COMPANY   
DATE.         03 MAR 76                      : Date         - LOG DATE
STRT.M        265.176                        : top_depth    - START DEPTH       
STOP.M        490.735                        : bot_depth    - STOP DEPTH        
STEP.M        0.305                          : increment    - STEP LENGTH       
~CURVE INFORMATION BLOCK
#MNEM UNIT       ERCB CURVE CODE    CURVE DESCRIPTION
#-----------   ------------------   ----------------------------------
DEPT.M        00 001 00 00         : DEPTH        - DEPTH                       
DPHI.V/V      00 890 00 00         : PHID         - DENSITY POROSITY (LIMESTONE)
GR  .API      00 310 00 00         : GR           - GAMMA RAY                   
ILD .OHMM     00 120 00 00         : RESD         - DEEP RESISTIVITY (DIL)      
~PARAMETER INFORMATION       
#MNEM.UNIT           DATA             DESCRIPTION OF MNEMONIC
#---------         -----------     ------------------------------
GL  .M        708.965              : gl           - GROUND LEVEL ELEVATION      
EREF.M        712.622              : kb           - ELEVATION OF DEPTH REFERENCE
DATM.M        712.622              : datum        - DATUM ELEVATION             
TDD .M        496.824              : tdd          - TOTAL DEPTH DRILLER         
RUN .         ONE                  : Run          - RUN NUMBER                  
ENG .         BILL                 : Engineer     - RECORDING ENGINEER          
WIT .         JIM                  : Witness      - WITNESSED BY                
MUD .         GEL                  : Mud_type     - MUD TYPE                    
MATR.         LIMESTONE            : Logunit      - NEUTRON MATRIX              
TMAX.C        23.8889              : BHT          - MAXIMUM RECORDED TEMPERATURE
BHTD.M        496.824              : BHTDEP       - MAXIMUM RECORDED TEMPERATURE
MATR.         1                    : LOGUNIT      - NEUTRON MATRIX              
RMT .C        25                   : MDTP         - TEMPERATURE OF MUD          
NEUT.         1                    : NEUTRON      - NEUTRON TYPE                
RESI.         0                    : RESIST       - RESISTIVITY TYPE            
RMC .OHMM     0.25                 : RMC          - RESISTIVITY OF MUD CAKE     
RMF .OHMM     0.25                 : RMF          - RESISTIVITY OF MUD FILTRATE 
SUFT.C        4                    : SUFT         - SURFACE TEMPERATURE         
~A  DEPTH     PHID       GR     RESD
# ...
  397.463    0.245   89.272    6.467
  397.768    0.253   85.539    5.990
  398.073    0.261   83.438    5.983
  398.378    0.246   82.560    6.205
  398.683    0.239   82.075    6.678
  398.987    0.242   80.401    7.463
  399.292    0.255   74.220    8.498
  399.597    0.262   75.788   10.045
  399.902    0.291   75.328   10.414
  400.207    0.280   73.217   10.401
  400.511    0.268   73.575    9.634
  400.816    0.264   77.188    9.097
  401.121    0.247   90.189    8.590
  401.426    0.217   85.229    7.667
  401.731    0.244   81.085    6.842
  402.035    0.254   81.851    6.460
  402.340    0.264   82.186    6.452
  402.645    0.261   81.730    6.945
  402.950    0.264   82.889    7.066
  403.255    0.266   84.869    6.800
  403.560    0.265   81.960    6.297
  403.864    0.266   75.371    6.292
  404.169    0.263   73.262    6.285
  404.474    0.285   72.800    6.762
  404.779    0.296   70.702    7.278
  405.084    0.292   67.783    7.689
  405.388    0.293   71.805    7.822
  405.693    0.303   72.157    7.815
  405.998    0.300   71.273    7.379
  406.303    0.275   73.664    6.838
  406.608    0.275   81.366    4.785
  406.912    0.280   80.897    4.037
  407.217    0.261   76.339    4.033
  407.522    0.175   72.205    4.423
  407.827    0.166   65.608    5.529
  408.132    0.266   64.333    6.913
  408.436    0.299   62.233    7.303
  408.741    0.298   65.436    7.158
  409.046    0.290   62.519    7.283
  409.351    0.108   56.731    7.695
  409.656    0.083   53.823    9.267
  409.961    0.056   50.093   12.964
  410.265    0.027   43.917   19.915
  410.570    0.078   45.485   19.516
  410.875    0.122   56.857   16.468
  411.180    0.174   75.166   13.387
  411.485    0.212   76.734    8.217
  411.789    0.254   78.720    6.680
  412.094    0.250   79.479    6.074
  412.399    0.238   77.781    5.955
  412.704    0.244   73.237    6.173
  413.009    0.234   77.258    6.522
  413.313    0.236   82.910    6.634
  413.618    0.249   77.953    6.504
  413.923    0.250   79.938    6.254
  414.228    0.236   90.899    6.132
  414.533    0.242   90.021    6.239
  414.837    0.243   85.058    6.591
  415.142    0.243   85.412    6.709
  415.447    0.244   89.025    6.826
  415.752    0.257   84.879    6.442
  416.057    0.256   78.289    6.085
  416.362    0.275   75.377    5.231
  416.666    0.286   77.759    4.415
  416.971    0.291   74.032    3.207
  417.276    0.311   68.671    2.418
  417.581    0.318   66.973    2.241
  417.886    0.311   73.450    2.412
  418.190    0.245   73.390    2.696
  418.495    0.253   69.657    3.127
  418.800    0.244   75.719    3.766
  419.105    0.236   74.024    4.535
  419.410    0.224   69.874    4.974
  419.714    0.199   66.971    5.454
  420.019    0.160   65.686    5.983
  420.324    0.096   73.786    6.318
  420.629    0.172   79.440    6.195
  420.934    0.209   83.461    5.529
  421.238    0.239   86.662    4.665
  421.543    0.250   83.346    3.792
  421.848    0.258   80.837    3.260
  422.153    0.266   80.370    3.195
  422.458    0.270   82.756    3.313
  422.763    0.259   85.958    3.372
  423.067    0.247   89.984    3.430
  423.372    0.261   91.965    3.426
  423.677    0.275   93.543    3.359
  423.982    0.278   91.845    3.292
  424.287    0.270   87.704    3.226
  424.591    0.256   83.978    3.282
  424.896    0.248   84.324    3.404
  425.201    0.251   87.124    3.733
  425.506    0.237   86.243    4.094
  425.811    0.239   82.513    4.407
  426.115    0.237   78.780    4.833
  426.420    0.234   75.858    4.918
  426.725    0.230   77.433    5.004
  427.030    0.236   76.560    4.995
  427.335    0.235   71.193    5.085
  427.639    0.222   69.088    5.474
  427.944    0.170   70.658    5.893
  428.249    0.171   68.158    6.462
  428.554    0.236   55.445    6.574
  428.859    0.260   52.123    6.326
  429.164    0.278   53.284    4.860
  429.468    0.291   79.759    3.805
  429.773    0.306   77.249    3.460
  430.078    0.299   73.517    3.392
  430.383    0.289   69.373    3.720
  430.688    0.285   68.496    4.398
  430.992    0.285   67.211    6.386
  431.297    0.295   63.477   14.267
  431.602    0.302   64.239   23.178
  431.907    0.302   72.752   23.150
  432.212    0.292   70.648   20.665
  432.516    0.251   62.427   18.791
  432.821    0.187   55.834   19.483
  433.126    0.082   56.597   20.196
  433.431    0.171   70.007   19.426
  433.736    0.211   91.171   18.346
  434.040    0.229  102.950   15.777
  434.345    0.217   95.132   11.896
  434.650    0.225   95.888    8.804
  434.955    0.242  106.035    8.158
  435.260    0.236  105.150    8.147
  435.565    0.241   89.587    8.608
  435.869    0.250   69.530    9.266
  436.174    0.277   60.080   10.353
  436.479    0.287   61.648   11.356
  436.784    0.186   66.897   12.688
  437.089    0.167   66.423   13.657
  437.393    0.202   61.878   14.696
  437.698    0.235   58.555   14.959
  438.003    0.255   56.449   14.934
  438.308    0.268   58.434   14.640
  438.613    0.267   62.463   14.081
  438.917    0.259   67.696   13.548
  439.222    0.258   64.792   13.035
  439.527    0.267   63.914   12.777
  439.832    0.258   65.898   12.756
  440.137    0.252   65.425   12.743
  440.441    0.249   62.103   12.728
  440.746    0.253   59.996   12.709
  441.051    0.260   63.618   12.931
  441.356    0.252   64.375   13.410
  441.661    0.248   65.534   13.644
  441.966    0.258   60.580   14.148
  442.270    0.267   59.702   14.392
  442.575    0.266   61.689   14.647
  442.880    0.265   65.304   14.359
  443.185    0.259   63.202   13.813
  443.490    0.248   70.490   13.540
  443.794    0.231   71.246   13.521
  444.099    0.241   65.474   13.505
  444.404    0.255   64.179   13.998
  444.709    0.273   63.305   14.517
  445.014    0.256   61.212   15.332
  445.318    0.249   60.735   15.894
  445.623    0.238   62.310   15.583
  445.928    0.228   71.229   15.273
  446.233    0.238   71.588   14.418
  446.538    0.229   75.612   13.616
  446.842    0.226   72.689   12.617
  447.147    0.227   68.138   11.473
  447.452    0.230   71.346   11.035
  447.757    0.242   73.311   11.023
  448.062    0.240   72.037   11.217
  448.367    0.240   71.987   11.412
  448.671    0.240   73.965   10.979
  448.976    0.240   86.562   10.764
  449.281    0.244   84.051   10.352
  449.586    0.215   76.648    9.960
  449.891    0.226   68.424    9.763
  450.195    0.240   70.405    9.567
  450.500    0.228   76.461    9.737
  450.805    0.222   77.217    9.908
  451.110    0.232   79.199    9.711
  451.415    0.216   77.923    9.520
  451.719    0.220   72.559    9.328
  452.024    0.274   76.169    9.494
  452.329    0.300   70.803   10.413
  452.634    0.291   66.661   12.309
  452.939    0.255   65.784   14.546
  453.243    0.274   63.686   15.953
  453.548    0.264   62.811   17.496
  453.853    0.275   65.610   18.834
  454.158    0.262   71.263   19.527
  454.463    0.268   68.348   20.238
  454.768    0.272   65.430   20.598
  455.072    0.276   63.737   20.965
  455.377    0.275   58.780   22.142
  455.682    0.277   48.927   23.838
  455.987    0.300   39.071   28.174
  456.292    0.316   36.560   35.227
  456.596    0.334   38.132   45.720
  456.901    0.342   48.688   61.606
  457.206    0.253   96.671   18.122
  457.511    0.243   95.870   16.141
  457.816    0.248   84.468   16.691
  458.120    0.260   71.028   17.947
  458.425    0.276   61.666   24.573
  458.730    0.299   51.489   46.260
  459.035    0.305   44.577   63.356
  459.340    0.331   44.186   80.503
  459.645    0.329   43.797   80.234
  459.949    0.326   35.249   79.961
  460.254    0.325   35.676   82.763
  460.559    0.318   38.146   87.239
  460.864    0.315   38.570   88.576
  461.169    0.338   31.655   85.012
  461.473    0.341   27.595   83.227
  461.778    0.344   24.351   84.417
  462.083    0.331   25.594   82.645
  462.388    0.332   30.102   80.832
  462.693    0.335   32.565   73.384
  462.997    0.326   38.703   65.415
  463.302    0.324   33.826   62.779
