~VERSION INFORMATION
 VERS.                 2.0:   CWLS LOG ASCII STANDARD -VERSION 2.0
 WRAP.                  NO:   ONE LINE PER DEPTH STEP
~WELL INFORMATION BLOCK
#MNEM.UNIT           DATA                    DESCRIPTION OF MNEMONIC
#---------    -------------------            -------------------------------
# Generated from Intellog Unique Number	CW_76_78/WELL/2822
WELL.         PELICAN EAST 11-36             : Well_name    - WELL
LOC .         00/11-36-078-21W4/0            : Location     - LOCATION
UWI .         00/11-36-078-21W4/0            : Uwi          - UNIQUE WELL ID
ENTR.         JJ                             : Entered      - ENTERED BY
SRVC.         WESTERN ATLAS                  : Scn          - SERVICE COMPANY
DATE.         15 MAR 77                      : Date         - LOG DATE
STRT.M        198.12                         : top_depth    - START DEPTH
STOP.M        399.37                         : bot_depth    - STOP DEPTH
STEP.M        0.25                           : increment    - STEP LENGTH
 NULL. -999.2500:NULL Value
~CURVE INFORMATION BLOCK
#MNEM UNIT       ERCB CURVE CODE    CURVE DESCRIPTION
#-----------   ------------------   ----------------------------------
DEPT.M        00 001 00 00         : DEPTH        - DEPTH
ILD .OHMM     00 120 00 00         : RESD         - DEEP RESISTIVITY (DIL)
CALI.MM       00 280 01 00         : CAL          - CALIPER
GR  .API      00 310 00 00         : GR           - GAMMA RAY
NPHI.V/V      00 330 00 00         : PHIN         - NEUTRON POROSITY (SANDSTONE)
DPHI.V/V      00 890 00 00         : PHID         - DENSITY POROSITY (SANDSTONE)
~PARAMETER INFORMATION
#MNEM.UNIT           DATA             DESCRIPTION OF MNEMONIC
#---------         -----------     ------------------------------
GL  .M        561.35               : gl           - GROUND LEVEL ELEVATION
EREF.M        565.343              : kb           - ELEVATION OF DEPTH REFERENCE
DATM.M        565.343              : datum        - DATUM ELEVATION
TDD .M        508.406              : tdd          - TOTAL DEPTH DRILLER
RUN .         ONE                  : Run          - RUN NUMBER
ENG .         OFFORD               : Engineer     - RECORDING ENGINEER
BASE.         BROOKS               : Branch       - HOME BASE OF LOGGING UNIT
MATR.         SANDSTONE            : Logunit      - NEUTRON MATRIX
TMAX.C        20                   : BHT          - MAXIMUM RECORDED TEMPERATURE
BHTD.M        505.054              : BHTDEP       - MAXIMUM RECORDED TEMPERATURE
RMT .C        20                   : MDTP         - TEMPERATURE OF MUD
MUDD.KG/M     1044                 : MWT          - MUD DENSITY
NEUT.         1                    : NEUTRON      - NEUTRON TYPE
RESI.         0                    : RESIST       - RESISTIVITY TYPE
RM  .OHMM     9                    : RM           - RESISTIVITY OF MUD
RMC .OHMM     0                    : RMC          - RESISTIVITY OF MUD CAKE
RMF .OHMM     0                    : RMF          - RESISTIVITY OF MUD FILTRATE
SUFT.C        5                    : SUFT         - SURFACE TEMPERATURE
~A  DEPTH     RESD      CAL       GR     PHIN     PHID
# ...
  271.120   11.510  209.535   68.326    0.437    0.358
  271.370   11.332  208.754   70.330    0.434    0.357
  271.620   10.935  204.534   72.027    0.429    0.360
  271.870   10.476  194.785   73.045    0.421    0.357
  272.120    9.804  196.091   70.614    0.411    0.332
  272.370    9.156  195.107   71.695    0.407    0.323
  272.620    8.933  192.767   74.750    0.413    0.324
  272.870    9.646  192.832   72.504    0.421    0.322
  273.120   10.046  193.539   71.861    0.433    0.320
  273.370   10.538  193.666   72.818    0.444    0.318
  273.620   10.934  193.617   73.903    0.456    0.318
  273.870   11.203  193.260   74.184    0.457    0.319
  274.120   11.170  191.337   74.090    0.457    0.318
  274.370   10.978  190.034   75.238    0.456    0.318
  274.620   11.370  192.703   75.882    0.447    0.317
  274.870   11.566  192.966   76.281    0.439    0.310
  275.120   11.573  190.012   76.198    0.436    0.306
  275.370   11.498  189.552   75.978    0.442    0.305
  275.620   11.420  189.280   75.342    0.445    0.306
  275.870   11.286  188.935   74.813    0.432    0.312
  276.120   11.293  189.817   73.739    0.421    0.321
  276.370   11.528  190.912   72.730    0.411    0.334
  276.620   11.789  192.102   71.535    0.403    0.352
  276.870   11.969  194.670   70.760    0.396    0.359
  277.120   12.153  197.126   70.240    0.386    0.362
  277.370   12.772  199.155   70.208    0.380    0.366
  277.620   13.350  201.827   68.949    0.377    0.373
  277.870   13.826  201.563   67.693    0.373    0.367
  278.120   14.530  190.979   67.291    0.367    0.327
  278.370   14.886  178.835   67.014    0.319    0.089
  278.620   14.550  179.106   68.464    0.283    0.125
  278.870   13.964  180.406   69.915    0.294    0.210
  279.120   13.354  183.904   71.304    0.350    0.284
  279.370   12.678  189.075   72.572    0.408    0.318
  279.620   12.235  195.079   73.711    0.416    0.332
  279.870   12.134  198.786   72.573    0.419    0.332
  280.120   12.229  200.405   72.363    0.420    0.333
  280.370   12.714  201.611   74.059    0.418    0.334
  280.620   13.531  200.416   75.509    0.413    0.333
  280.870   14.142  194.005   76.714    0.406    0.325
  281.120   14.334  187.695   74.531    0.382    0.306
  281.370   14.370  185.048   72.718    0.355    0.113
  281.620   14.352  186.148   71.454    0.324    0.163
  281.870   14.440  192.471   70.070    0.421    0.277
  282.120   14.372  197.840   70.843    0.434    0.313
  282.370   14.461  201.330   73.276    0.436    0.318
  282.620   15.171  202.948   74.975    0.434    0.317
  282.870   15.318  201.443   75.561    0.434    0.306
  283.120   15.107  195.039   76.217    0.436    0.244
  283.370   14.737  204.793   75.074    0.442    0.232
  283.620   14.299  205.282   77.447    0.436    0.265
  283.870   13.676  205.014   80.684    0.441    0.303
  284.120   13.150  204.760   81.702    0.441    0.305
  284.370   12.691  204.805   83.276    0.438    0.298
  284.620   12.358  204.766   85.968    0.436    0.292
  284.870   11.418  204.516   87.292    0.435    0.287
  285.120   10.702  205.192   89.104    0.436    0.285
  285.370    9.924  205.561   92.342    0.430    0.281
  285.620    9.320  206.446   95.275    0.417    0.300
  285.870    8.832  212.446   94.629    0.425    0.315
  286.120    8.086  222.203   93.428    0.436    0.309
  286.370    8.064  205.156   91.798    0.446    0.304
  286.620    8.201  204.584   89.926    0.451    0.314
  286.870    8.327  206.310   89.339    0.455    0.327
  287.120    8.563  214.298   90.054    0.457    0.323
  287.370    8.599  228.851   91.933    0.458    0.304
  287.620    8.420  228.284   94.369    0.455    0.308
  287.870    8.082  213.637   95.756    0.449    0.317
  288.120    8.086  206.595   94.371    0.444    0.324
  288.370    8.195  203.316   93.488    0.450    0.324
  288.620    8.536  202.021   91.487    0.452    0.306
  288.870    8.683  201.233   88.932    0.452    0.234
  289.120    8.750  202.341   87.421    0.451    0.217
  289.370    8.599  202.809   88.625    0.447    0.244
  289.620    8.435  203.186   90.698    0.444    0.254
  289.870    8.228  203.445   92.207    0.444    0.258
  290.120    7.884  204.754   93.285    0.444    0.282
  290.370    7.580  210.859   94.983    0.447    0.314
  290.620    7.302  215.710   96.247    0.452    0.323
  290.870    7.509  205.025   93.453    0.458    0.278
  291.120    8.137  202.165   90.154    0.456    0.286
  291.370    8.724  202.535   86.801    0.453    0.310
  291.620    9.268  203.221   82.893    0.449    0.321
  291.870    9.776  205.152   80.029    0.441    0.350
  292.120   10.292  209.166   79.695    0.444    0.368
  292.370   10.739  207.135   78.249    0.457    0.318
  292.620   11.021  206.568   77.550    0.464    0.313
  292.870   11.110  207.563   78.079    0.459    0.311
  293.120   11.096  206.996   79.147    0.450    0.306
  293.370   10.669  204.762   81.338    0.440    0.297
  293.620    9.947  201.578   80.884    0.436    0.264
  293.870   10.028  199.144   79.557    0.429    0.282
  294.120   10.499  199.716   78.731    0.428    0.303
  294.370   11.014  201.019   78.021    0.426    0.313
  294.620   11.284  201.078   76.639    0.423    0.321
  294.870   11.292  199.885   75.871    0.419    0.319
  295.120   11.096  198.160   77.012    0.416    0.312
  295.370   10.252  195.100   78.338    0.412    0.305
  295.620    9.201  192.645   80.596    0.409    0.298
  295.870    7.978  190.309   82.414    0.406    0.288
  296.120    7.291  189.424   84.413    0.403    0.222
  296.370    7.416  187.915   84.947    0.400    0.240
  296.620    8.366  187.867   83.988    0.396    0.269
  296.870    9.471  190.109   79.587    0.393    0.337
  297.120   10.585  188.086   73.955    0.387    0.370
  297.370   12.360  192.828   69.006    0.382    0.407
  297.620   13.965  194.249   66.321    0.384    0.430
  297.870   16.274  190.963   63.097    0.399    0.423
  298.120   18.289  164.946   61.091    0.311    0.268
  298.370   20.667  160.937   58.661    0.234    0.273
  298.620   21.718  161.616   60.665    0.174    0.282
  298.870   21.148  164.177   65.626    0.226    0.291
  299.120   19.017  172.893   70.341    0.422    0.306
  299.370   17.284  182.333   75.299    0.442    0.326
  299.620   15.345  189.168   79.590    0.424    0.343
  299.870   12.926  194.542   82.637    0.416    0.332
  300.120   11.539  198.988   82.055    0.431    0.329
  300.370   10.545  202.384   80.423    0.432    0.324
  300.620    9.706  206.093   82.374    0.426    0.313
  300.870    8.743  209.476   84.617    0.406    0.284
  301.120    8.107  213.819   88.040    0.421    0.257
  301.370    7.545  217.101   91.463    0.432    0.262
  301.620    7.112  219.866   93.031    0.442    0.358
  301.870    6.938  226.598   93.318    0.450    0.409
  302.120    6.793  258.050   92.918    0.460    0.421
  302.370    6.773  242.253   91.655    0.451    0.411
  302.620    6.777  248.258   92.058    0.445    0.393
  302.870    6.770  268.652   93.079    0.441    0.379
  303.120    6.724  244.618   93.360    0.442    0.380
  303.370    6.683  256.570   94.257    0.444    0.368
  303.620    6.710  281.337   94.474    0.446    0.358
  303.870    6.678  301.109   95.921    0.451    0.362
  304.120    6.719  236.184   97.438    0.442    0.376
  304.370    6.736  215.485   98.513    0.431    0.360
  304.620    6.951  211.269   99.597    0.414    0.346
  304.870    7.603  212.673   99.933    0.415    0.373
  305.120    8.092  212.634  102.557    0.421    0.357
  305.370    8.676  212.798  101.605    0.417    0.294
  305.620    8.857  213.384   99.547    0.411    0.316
  305.870    8.688  213.329   99.699    0.408    0.328
  306.120    8.522  213.385  100.477    0.408    0.301
  306.370    8.419  213.223   98.963    0.407    0.294
  306.620    8.274  212.239   98.140    0.406    0.291
  306.870    8.220  210.106  100.515    0.402    0.287
  307.120    8.152  207.342  102.328    0.392    0.289
  307.370    8.112  206.355  105.261    0.390    0.284
