~VERSION INFORMATION
 VERS.                 2.0:   CWLS LOG ASCII STANDARD -VERSION 2.0
 WRAP.                  NO:   ONE LINE PER DEPTH STEP
~WELL INFORMATION BLOCK
#MNEM.UNIT           DATA                    DESCRIPTION OF MNEMONIC
#---------    -------------------            -------------------------------
# Generated from Intellog Unique Number	CW_73_75/WELL/1034
WELL.         SUNDANCE MCMORAN MARTEN H 11-0 : Well_name    - WELL
LOC .         00/11-04-074-24W4/0            : Location     - LOCATION
UWI .         00/11-04-074-24W4/0            : Uwi          - UNIQUE WELL ID
ENTR.         JAYE                           : Entered      - ENTERED BY
SRVC.         SCHLUMBERGER                   : Scn          - SERVICE COMPANY
DATE.         2 FEB 73                       : Date         - LOG DATE
STRT.M        381                            : top_depth    - START DEPTH
STOP.M        597.5                          : bot_depth    - STOP DEPTH
STEP.M        0.25                           : increment    - STEP LENGTH
 NULL. -999.2500:NULL Value
~CURVE INFORMATION BLOCK
#MNEM UNIT       ERCB CURVE CODE    CURVE DESCRIPTION
#-----------   ------------------   ----------------------------------
DEPT.M        00 001 00 00         : DEPTH        - DEPTH
ILD .OHMM     00 120 00 00         : RESD         - DEEP RESISTIVITY (DIL)
DPHI.V/V      00 890 00 00         : PHID         - DENSITY POROSITY (SANDSTONE)
NPHI.V/V      00 330 00 00         : PHIN         - NEUTRON POROSITY (SANDSTONE)
CALI.MM       00 280 01 00         : CAL          - CALIPER
GR  .API      00 310 00 00         : GR           - GAMMA RAY
~PARAMETER INFORMATION
#MNEM.UNIT           DATA             DESCRIPTION OF MNEMONIC
#---------         -----------     ------------------------------
GL  .M        642.214              : gl           - GROUND LEVEL ELEVATION
EREF.M        644.5                : kb           - ELEVATION OF DEPTH REFERENCE
DATM.M        642.214              : datum        - DATUM ELEVATION
TDD .M        600.456              : tdd          - TOTAL DEPTH DRILLER
RUN .         ONE                  : Run          - RUN NUMBER
ENG .         DESROCHES            : Engineer     - RECORDING ENGINEER
WIT .         GREEN                : Witness      - WITNESSED BY
BASE.         RD                   : Branch       - HOME BASE OF LOGGING UNIT
MUD .         GEL CHEM             : Mud_type     - MUD TYPE
MATR.         SANDSTONE            : Logunit      - NEUTRON MATRIX
TMAX.C        26.1111              : BHT          - MAXIMUM RECORDED TEMPERATURE
BHTD.M        600.456              : BHTDEP       - MAXIMUM RECORDED TEMPERATURE
RMT .C        26.1111              : MDTP         - TEMPERATURE OF MUD
MUDD.KG/M     1104                 : MWT          - MUD DENSITY
NEUT.         1                    : NEUTRON      - NEUTRON TYPE
RESI.         0                    : RESIST       - RESISTIVITY TYPE
RM  .OHMM     4.6                  : RM           - RESISTIVITY OF MUD
RMC .OHMM     0                    : RMC          - RESISTIVITY OF MUD CAKE
RMF .OHMM     5.47                 : RMF          - RESISTIVITY OF MUD FILTRATE
SUFT.C        -17.7778             : SUFT         - SURFACE TEMPERATURE
~A  DEPTH     RESD     PHID     PHIN      CAL       GR
# ...
  454.000    4.216    0.189    0.366  150.065   43.693
  454.250    3.866    0.220    0.382  149.191   45.348
  454.500    3.533    0.252    0.433  148.419   48.333
  454.750    3.318    0.295    0.461  148.066   49.629
  455.000    3.281    0.290    0.465  147.493   51.348
  455.250    3.322    0.282    0.466  147.536   53.248
  455.500    3.401    0.284    0.466  147.273   53.453
  455.750    3.476    0.295    0.464  147.320   52.152
  456.000    3.591    0.298    0.462  147.066   52.905
  456.250    3.738    0.282    0.461  147.105   55.648
  456.500    3.884    0.265    0.461  147.152   59.779
  456.750    3.812    0.272    0.463  147.105   65.124
  457.000    3.818    0.260    0.466  147.243   68.166
  457.250    3.823    0.248    0.463  147.393   69.523
  457.500    3.850    0.252    0.459  147.542   67.436
  457.750    3.906    0.251    0.459  148.002   64.504
  458.000    4.163    0.252    0.461  148.444   63.264
  458.250    4.529    0.266    0.463  148.797   62.509
  458.500    5.311    0.276    0.463  149.459   61.752
  458.750    6.593    0.257    0.461  149.809   60.809
  459.000    9.256    0.185    0.455  150.468   58.361
  459.250   13.728    0.081    0.439  150.823   55.790
  459.500   20.702    0.056    0.396  151.483   51.472
  459.750   17.067    0.010    0.218  152.756   48.901
  460.000   12.489   -0.005    0.219  154.128   47.780
  460.250    9.006   -0.013    0.237  152.541   48.895
  460.500    6.542    0.021    0.266  153.401   53.994
  460.750    5.238    0.060    0.297  154.980   61.991
  461.000    4.786    0.220    0.326  154.519   69.566
  461.250    4.511    0.232    0.387  154.663   80.158
  461.500    4.363    0.223    0.452  156.962   93.651
  461.750    4.306    0.234    0.471  157.719  101.707
  462.000    4.433    0.221    0.478  154.701  100.225
  462.250    5.227    0.261    0.480  152.188   96.086
  462.500    6.175    0.215    0.479  149.985   89.955
  462.750    6.892    0.148    0.475  146.348   84.969
  463.000    7.965    0.075    0.467  143.429   80.468
  463.250    9.548    0.033    0.456  145.219   72.404
  463.500    9.528   -0.020    0.435  148.432   64.340
  463.750    8.965   -0.006    0.240  153.280   58.813
  464.000    7.984    0.094    0.284  157.623   64.575
  464.250    6.980    0.177    0.347  157.156   72.935
  464.500    6.354    0.200    0.387  154.140   77.611
  464.750    6.237    0.176    0.430  151.524   81.684
  465.000    6.189    0.134    0.408  149.836   84.489
  465.250    6.153    0.111    0.396  152.635   85.485
  465.500    6.050    0.139    0.420  158.001   85.751
  465.750    5.830    0.156    0.451  162.133   86.203
  466.000    5.639    0.164    0.447  161.870   86.588
  466.250    5.424    0.180    0.452  160.086   86.796
  466.500    5.275    0.192    0.462  157.577   87.429
  466.750    5.178    0.199    0.467  155.679   90.473
  467.000    5.054    0.214    0.468  153.976   88.628
  467.250    4.879    0.182    0.467  151.164   90.047
  467.500    4.745    0.163    0.465  149.062   92.486
  467.750    4.615    0.175    0.457  149.825   93.118
  468.000    4.529    0.185    0.450  151.815   93.568
  468.250    4.470    0.181    0.455  154.818   97.881
  468.500    4.493    0.171    0.457  158.136   98.632
  468.750    4.558    0.149    0.456  162.170   99.147
  469.000    4.701    0.173    0.458  163.657  101.164
  469.250    4.858    0.170    0.466  163.288  103.122
  469.500    5.028    0.175    0.467  162.210  102.304
  469.750    5.101    0.188    0.460  159.799   99.975
  470.000    5.194    0.222    0.456  157.491   94.809
  470.250    5.308    0.235    0.461  153.960   86.203
  470.500    5.355    0.238    0.464  150.015   82.908
  470.750    5.324    0.184    0.464  143.928   82.876
  471.000    5.263    0.161    0.463  141.109   86.464
  471.250    5.185    0.173    0.462  146.680   89.330
  471.500    5.136    0.206    0.463  151.629   90.805
  471.750    5.078    0.176    0.463  151.678   90.410
  472.000    5.049    0.190    0.463  147.325   88.750
  472.250    5.029    0.206    0.462  143.897   87.748
  472.500    4.990    0.182    0.461  148.238   89.465
  472.750    4.989    0.182    0.459  152.984   89.853
  473.000    4.969    0.209    0.455  156.300   86.801
  473.250    4.985    0.203    0.451  153.389   87.131
  473.500    5.002    0.185    0.456  149.545   87.884
  473.750    5.000    0.196    0.462  150.205   88.938
  474.000    4.989    0.203    0.461  153.211   89.203
  474.250    4.970    0.206    0.462  155.827   88.387
  474.500    4.932    0.212    0.465  156.582   87.385
  474.750    4.903    0.227    0.468  155.292   85.421
  475.000    4.857    0.244    0.470  152.680   82.549
  475.250    4.784    0.214    0.472  149.248   81.913
  475.500    4.730    0.185    0.473  146.841   83.810
  475.750    4.694    0.214    0.470  149.033   88.005
  476.000    4.607    0.207    0.460  153.887   88.155
  476.250    4.547    0.177    0.453  157.508   87.336
  476.500    4.488    0.191    0.450  159.705   87.119
  476.750    4.478    0.175    0.456  161.383   88.293
  477.000    4.543    0.191    0.460  162.561   89.407
  477.250    4.617    0.178    0.460  163.011   87.200
  477.500    4.709    0.204    0.454  162.441   85.176
  477.750    4.813    0.240    0.448  160.339   83.512
  478.000    4.936    0.238    0.460  152.818   82.270
  478.250    5.054    0.245    0.460  144.582   83.626
  478.500    5.193    0.203    0.461  146.373   88.422
  478.750    5.268    0.199    0.462  149.278   88.510
  479.000    5.335    0.232    0.462  151.469   87.027
  479.250    5.353    0.232    0.462  151.618   83.552
  479.500    5.410    0.235    0.458  150.948   79.594
  479.750    5.549    0.249    0.454  149.974   72.616
  480.000    5.692    0.234    0.458  149.504   65.700
  480.250    5.838    0.210    0.463  149.142   66.814
  480.500    5.966    0.237    0.457  149.391   68.772
  480.750    6.130    0.264    0.460  148.935   67.893
  481.000    6.346    0.252    0.456  148.158   64.600
  481.250    6.703    0.233    0.424  148.098   64.325
  481.500    7.003    0.190    0.400  147.938   64.170
  481.750    7.169    0.164    0.418  149.109   61.722
  482.000    7.075    0.166    0.399  150.796   59.033
  482.250    6.996    0.193    0.382  153.190   58.154
  482.500    7.097    0.210    0.382  154.463   58.663
  482.750    7.199    0.213    0.400  154.610   61.167
  483.000    7.521    0.180    0.437  154.865   61.797
  483.250    7.828    0.151    0.425  155.005   60.860
  483.500    8.269    0.152    0.390  155.159   59.742
  483.750    8.830    0.185    0.369  155.105   59.583
  484.000    9.500    0.188    0.354  155.149   61.120
  484.250   10.127    0.169    0.349  155.193   60.124
  484.500   10.815    0.138    0.345  155.446   58.760
  484.750   11.073    0.124    0.335  155.393   57.156
  485.000   10.612    0.122    0.327  155.330   55.190
  485.250    9.433    0.153    0.311  155.277   55.096
  485.500    7.935    0.183    0.314  154.909   56.089
  485.750    7.198    0.166    0.335  154.849   57.265
  486.000    6.589    0.176    0.358  155.004   58.801
  486.250    6.042    0.184    0.394  155.048   60.820
  486.500    5.644    0.214    0.421  154.884   64.529
  486.750    5.310    0.222    0.452  153.709   69.991
  487.000    5.024    0.255    0.443  152.424   71.226
  487.250    4.806    0.274    0.427  151.243   70.286
  487.500    4.640    0.256    0.451  149.545   69.409
  487.750    4.647    0.263    0.459  148.885   69.193
  488.000    4.801    0.270    0.458  148.724   69.945
  488.250    4.925    0.276    0.466  148.359   72.690
  488.500    5.098    0.254    0.464  147.073   74.466
  488.750    5.277    0.249    0.457  144.151   76.910
  489.000    5.523    0.212    0.457  139.089   81.827
  489.250    5.876    0.216    0.466  135.352   84.632
  489.500    6.094    0.236    0.466  132.531   80.251
  489.750    6.285    0.233    0.463  132.167   76.052
  490.000    6.400    0.239    0.459  130.888   76.261
  490.250    6.397    0.199    0.446  127.249   75.683
