~VERSION INFORMATION
 VERS.                 2.0:   CWLS LOG ASCII STANDARD -VERSION 2.0
 WRAP.                  NO:   ONE LINE PER DEPTH STEP
~WELL INFORMATION BLOCK
#MNEM.UNIT           DATA                    DESCRIPTION OF MNEMONIC
#---------    -------------------            -------------------------------
# Generated from Intellog Unique Number	CW_70_72/WELL/1048
NULL.         -999.25                        : NULL_VALUE
WELL.         SUNDANCE ET AL SMITH 10-33     : Well_name    - WELL              
LOC .         10-33-072-25W4                 : Location     - LOCATION          
UWI .         00/10-33-072-25W4/0            : Uwi          - UNIQUE WELL ID    
ENTR.         JAYE                           : Entered      - ENTERED BY        
SRVC.         SCHLUMBERGER                   : Scn          - SERVICE COMPANY   
DATE.         14 JAN 77                      : Date         - LOG DATE          
STRT.M        441.96                         : top_depth    - START DEPTH       
STOP.M        656.71                         : bot_depth    - STOP DEPTH        
STEP.M        0.25                           : increment    - STEP LENGTH       
~CURVE INFORMATION BLOCK
#MNEM UNIT       ERCB CURVE CODE    CURVE DESCRIPTION
#-----------   ------------------   ----------------------------------
DEPT.M        00 001 00 00         : DEPTH        - DEPTH                       
DPHI.V/V      00 890 00 00         : PHID         - DENSITY POROSITY (SANDSTONE)
NPHI.V/V      00 330 00 00         : PHIN         - NEUTRON POROSITY (SANDSTONE)
GR  .API      00 310 00 00         : GR           - GAMMA RAY                   
CALI.MM       00 280 01 00         : CAL          - CALIPER                     
ILD .OHMM     00 120 00 00         : RESD         - DEEP RESISTIVITY (DIL)      
~PARAMETER INFORMATION       
#MNEM.UNIT           DATA             DESCRIPTION OF MNEMONIC
#---------         -----------     ------------------------------
GL  .M        664.159              : gl           - GROUND LEVEL ELEVATION      
EREF.M        667.817              : kb           - ELEVATION OF DEPTH REFERENCE
DATM.M        664.159              : datum        - DATUM ELEVATION             
TDD .M        670.56               : tdd          - TOTAL DEPTH DRILLER         
RUN .         ONE                  : Run          - RUN NUMBER                  
MATR.         SANDSTONE            : Logunit      - NEUTRON MATRIX              
TMAX.C        -17.7778             : BHT          - MAXIMUM RECORDED TEMPERATURE
BHTD.M        671.17               : BHTDEP       - MAXIMUM RECORDED TEMPERATURE
RMT .C        17.7778              : MDTP         - TEMPERATURE OF MUD          
MUDD.KG/M     0                    : MWT          - MUD DENSITY                 
NEUT.         1                    : NEUTRON      - NEUTRON TYPE                
RESI.         0                    : RESIST       - RESISTIVITY TYPE            
RM  .OHMM     4.02                 : RM           - RESISTIVITY OF MUD          
RMC .OHMM     0                    : RMC          - RESISTIVITY OF MUD CAKE     
RMF .OHMM     3.71                 : RMF          - RESISTIVITY OF MUD FILTRATE 
SUFT.C        -17.7778             : SUFT         - SURFACE TEMPERATURE         
~A  DEPTH     PHID     PHIN       GR      CAL     RESD
  441.960    0.294    0.526   90.012  203.159    2.869
  442.210    0.283    0.494   86.923  185.271    3.010
  442.460    0.263    0.501   86.993  184.565    3.313
  442.710    0.251    0.508   88.403  189.111    3.405
  442.960    0.245    0.491   89.566  175.747    3.198
  443.210    0.205    0.504   90.306  174.530    2.943
  443.460    0.243    0.516   90.072  175.065    2.543
  443.710    0.250    0.532   90.872  175.285    2.323
  443.960    0.248    0.547   92.583  175.815    2.276
  444.210    0.292    0.569   93.444  174.495    2.468
  444.460    0.286    0.589   91.995  170.805    2.819
  444.710    0.299    0.543   87.264  165.059    3.279
  444.960    0.302    0.471   81.318  159.209    3.850
  445.210    0.257    0.445   74.340  154.391    4.503
  445.460    0.247    0.434   70.520  151.833    4.759
  445.710    0.252    0.441   67.126  150.515    4.723
  445.960    0.272    0.450   63.977  149.810    4.518
  446.210    0.269    0.457   62.405  149.413    4.338
  446.460    0.276    0.466   60.531  149.223    4.081
  446.710    0.303    0.459   58.718  149.344    3.860
  446.960    0.322    0.443   58.058  149.052    3.741
  447.210    0.312    0.432   58.676  149.070    3.686
  447.460    0.301    0.434   60.147  148.780    3.631
  447.710    0.297    0.440   60.156  148.691    3.617
  447.960    0.283    0.452   59.071  147.987    3.623
  448.210    0.267    0.458   61.269  146.872    3.663
  448.460    0.272    0.446   64.318  146.581    3.801
  448.710    0.252    0.439   67.792  146.595    3.987
  448.960    0.220    0.454   72.117  147.744    4.152
  449.210    0.226    0.442   77.597  149.719    4.252
  449.460    0.231    0.413   84.170  152.924    4.299
  449.710    0.212    0.421   96.579  162.100    4.022
  449.960    0.230    0.468  107.165  166.235    3.742
  450.210    0.240    0.499  106.932  165.427    3.633
  450.460    0.260    0.529  102.443  176.147    3.566
  450.710    0.286    0.477   94.917  178.840    3.652
  450.960    0.315    0.447   94.805  165.580    3.961
  451.210    0.292    0.440   99.191  156.644    4.147
  451.460    0.266    0.449   99.020  160.880    4.531
  451.710    0.255    0.465   99.272  160.897    4.932
  451.960    0.262    0.464  105.542  157.825    4.886
  452.210    0.263    0.429  106.524  160.108    4.571
  452.460    0.237    0.450  105.865  170.724    4.206
  452.710    0.218    0.472  103.809  183.502    3.979
  452.960    0.249    0.502  101.144  181.358    3.935
  453.210    0.261    0.490   95.502  172.833    4.038
  453.460    0.262    0.439   87.733  164.823    4.173
  453.710    0.230    0.416   81.726  160.001    4.322
  453.960    0.208    0.402   76.022  157.756    4.370
  454.210    0.274    0.408   70.015  159.213    4.313
  454.460    0.293    0.432   68.749  155.421    4.257
  454.710    0.297    0.419   71.859  157.497    4.288
  454.960    0.268    0.420   78.067  158.336    4.375
  455.210    0.243    0.421   82.332  158.975    4.465
  455.460    0.249    0.428   84.165  159.604    4.573
  455.710    0.234    0.431   86.788  160.962    4.666
  455.960    0.244    0.424   93.180  161.285    4.743
  456.210    0.264    0.436   94.527  162.230    4.840
  456.460    0.235    0.450   91.862  162.656    4.857
  456.710    0.227    0.445   85.855  156.705    4.893
  456.960    0.238    0.427   80.516  152.089    4.919
  457.210    0.255    0.414   80.284  150.460    4.928
  457.460    0.269    0.429   83.151  151.094    4.982
  457.710    0.254    0.429   86.928  154.199    5.046
  457.960    0.233    0.421   92.529  158.847    5.168
  458.210    0.218    0.408   87.495  160.303    5.235
  458.460    0.239    0.396   83.251  160.220    5.177
  458.710    0.247    0.384   79.675  158.999    4.979
  458.960    0.244    0.374   74.944  157.269    4.807
  459.210    0.267    0.365   71.003  156.255    4.448
  459.460    0.250    0.360   64.084  155.554    4.003
  459.710    0.256    0.357   58.382  155.361    3.596
  459.960    0.262    0.367   53.043  155.378    3.334
  460.210    0.277    0.370   46.306  155.092    3.224
  460.460    0.292    0.363   44.007  154.795    3.130
  460.710    0.287    0.372   46.144  154.401    3.067
  460.960    0.281    0.386   45.667  154.106    2.988
  461.210    0.267    0.399   33.461  153.610    2.955
  461.460    0.264    0.384   28.304  153.317    2.927
  461.710    0.308    0.368   27.099  153.645    2.906
  461.960    0.294    0.358   27.596  153.763    2.900
  462.210    0.287    0.353   29.429  153.882    2.894
  462.460    0.304    0.343   32.538  154.107    2.899
  462.710    0.308    0.340   36.377  154.537    2.893
  462.960    0.306    0.360   39.183  154.864    2.882
  463.210    0.315    0.363   40.955  154.876    2.893
  463.460    0.315    0.353   42.059  154.898    2.914
  463.710    0.307    0.338   48.146  154.910    2.973
  463.960    0.296    0.400   58.063  154.925    3.131
  464.210    0.297    0.399   65.731  154.737    3.351
  464.460    0.281    0.380   74.068  154.961    3.575
  464.710    0.276    0.367   82.282  155.080    3.792
  464.960    0.242    0.361   90.193  155.200    3.985
  465.210    0.224    0.407   96.159  155.010    4.290
  465.460    0.231    0.397  103.827  155.026    4.601
  465.710    0.231    0.404  109.368  156.589    4.774
  465.960    0.240    0.434  102.085  158.765    4.889
  466.210    0.224    0.434   95.896  162.281    5.016
  466.460    0.285    0.409   92.805  160.755    4.798
  466.710    0.260    0.380   93.848  159.329    4.375
  466.960    0.236    0.370  100.241  159.654    3.930
  467.210    0.231    0.400  106.753  162.451    3.428
  467.460    0.223    0.510  112.415  170.289    3.102
  467.710    0.212    0.522  116.072  178.847    2.701
  467.960    0.257    0.533  114.198  176.188    2.494
  468.210    0.285    0.535  112.384  172.604    2.458
  468.460    0.275    0.546  114.643  168.502    2.517
  468.710    0.224    0.561  119.212  181.487    2.694
  468.960    0.249    0.565  121.774  193.854    2.906
  469.210    0.289    0.534  122.391  193.872    3.222
  469.460    0.320    0.506  120.213  174.026    3.514
  469.710    0.297    0.479  113.355  168.793    3.783
  469.960    0.233    0.464  110.631  169.942    4.034
  470.210    0.225    0.453  108.330  174.383    4.186
  470.460    0.219    0.464  102.810  175.944    4.311
  470.710    0.240    0.479   95.891  166.389    4.415
  470.960    0.254    0.444   79.308  157.042    4.513
  471.210    0.266    0.443   69.959  151.810    4.580
  471.460    0.240    0.452   65.045  150.282    4.605
  471.710    0.230    0.438   63.354  151.433    4.664
  471.960    0.219    0.419   66.585  152.170    4.707
  472.210    0.184    0.422   73.706  152.598    4.776
  472.460    0.223    0.437   79.915  152.614    4.820
  472.710    0.278    0.451   86.124  152.218    4.855
  472.960    0.252    0.463   84.128  151.927    4.696
  473.210    0.273    0.453   78.547  151.328    4.661
  473.460    0.284    0.437   82.629  151.136    4.651
  473.710    0.295    0.456   83.004  151.256    4.659
  473.960    0.286    0.458   77.421  151.171    4.685
  474.210    0.284    0.448   73.116  151.087    4.693
  474.460    0.304    0.444   72.032  150.586    4.701
  474.710    0.307    0.454   71.132  150.812    4.700
  474.960    0.320    0.466   70.412  150.827    4.657
  475.210    0.315    0.455   69.023  150.647    4.596
  475.460    0.291    0.448   67.696  150.552    4.503
  475.710    0.297    0.448   68.679  150.469    4.388
  475.960    0.321    0.444   71.240  150.176    4.252
  476.210    0.324    0.447   71.920  149.989    4.143
  476.460    0.336    0.447   70.592  149.901    4.037
  476.710    0.342    0.432   69.508  149.914    3.970
  476.960    0.331    0.440   70.004  150.239    3.911
  477.210    0.317    0.460   72.384  149.227    3.867
  477.460    0.306    0.451   70.024  146.876    3.846
  477.710    0.326    0.468   67.481  144.425    3.817
  477.960    0.337    0.453   67.005  148.248    3.795
  478.210    0.316    0.446   69.690  153.206    3.774
