~VERSION INFORMATION
 VERS.                 2.0:   CWLS LOG ASCII STANDARD -VERSION 2.0
 WRAP.                  NO:   ONE LINE PER DEPTH STEP
~WELL INFORMATION BLOCK
#MNEM.UNIT           DATA                    DESCRIPTION OF MNEMONIC
#---------    -------------------            -------------------------------
# Generated from Intellog Unique Number	CW_70_72/WELL/1062
NULL.         -999.25                        : NULL_VALUE
WELL.         MIKAS AMOCO CALLLING LAKE 11-3 : Well_name    - WELL              
LOC .         11-34-071-20W4                 : Location     - LOCATION          
UWI .         00/11-34-071-20W4/0            : Uwi          - UNIQUE WELL ID    
ENTR.         JAYE                           : Entered      - ENTERED BY        
SRVC.         SCHLUMBERGER                   : Scn          - SERVICE COMPANY   
DATE.         8 FEB 73                       : Date         - LOG DATE          
STRT.M        320.04                         : top_depth    - START DEPTH       
STOP.M        533.04                         : bot_depth    - STOP DEPTH        
STEP.M        0.25                           : increment    - STEP LENGTH       
~CURVE INFORMATION BLOCK
#MNEM UNIT       ERCB CURVE CODE    CURVE DESCRIPTION
#-----------   ------------------   ----------------------------------
DEPT.M        00 001 00 00         : DEPTH        - DEPTH                       
DPHI.V/V      00 890 00 00         : PHID         - DENSITY POROSITY (SANDSTONE)
NPHI.V/V      00 330 00 00         : PHIN         - NEUTRON POROSITY (SANDSTONE)
GR  .API      00 310 00 00         : GR           - GAMMA RAY                   
CALI.MM       00 280 01 00         : CAL          - CALIPER                     
ILD .OHMM     00 120 00 00         : RESD         - DEEP RESISTIVITY (DIL)      
~PARAMETER INFORMATION       
#MNEM.UNIT           DATA             DESCRIPTION OF MNEMONIC
#---------         -----------     ------------------------------
GL  .M        591.83               : gl           - GROUND LEVEL ELEVATION      
EREF.M        594.97               : kb           - ELEVATION OF DEPTH REFERENCE
DATM.M        591.83               : datum        - DATUM ELEVATION             
TDD .M        541.63               : tdd          - TOTAL DEPTH DRILLER         
RUN .         ONE                  : Run          - RUN NUMBER                  
ENG .         MACIJUK              : Engineer     - RECORDING ENGINEER          
WIT .         LEWIN/CONVENEY       : Witness      - WITNESSED BY                
BASE.         EDM                  : Branch       - HOME BASE OF LOGGING UNIT   
MUD .         GEL                  : Mud_type     - MUD TYPE                    
MATR.         SANDSTONE            : Logunit      - NEUTRON MATRIX              
TMAX.C        25.5556              : BHT          - MAXIMUM RECORDED TEMPERATURE
BHTD.M        540.41               : BHTDEP       - MAXIMUM RECORDED TEMPERATURE
RMT .C        15                   : MDTP         - TEMPERATURE OF MUD          
MUDD.KG/M     1104                 : MWT          - MUD DENSITY                 
NEUT.         1                    : NEUTRON      - NEUTRON TYPE                
RESI.         0                    : RESIST       - RESISTIVITY TYPE            
RM  .OHMM     4.44                 : RM           - RESISTIVITY OF MUD          
RMC .OHMM     0                    : RMC          - RESISTIVITY OF MUD CAKE     
RMF .OHMM     4.5                  : RMF          - RESISTIVITY OF MUD FILTRATE 
SUFT.C        0                    : SUFT         - SURFACE TEMPERATURE         
~A  DEPTH     PHID     PHIN       GR      CAL     RESD
# ...
  502.540    0.121    0.379  117.272  171.422   10.556
  502.790    0.127    0.391  109.691  171.492   10.564
  503.040    0.130    0.401  106.496  171.565   10.712
  503.290    0.118    0.408  104.833  171.099   10.801
  503.540    0.109    0.379  100.113  170.973   10.891
  503.790    0.122    0.366   95.152  170.415   10.823
  504.040    0.136    0.358   94.217  169.756   10.274
  504.290    0.148    0.351   96.088  169.102    9.367
  504.540    0.120    0.353  101.737  168.654    8.100
  504.790    0.108    0.365  110.743  168.305    7.054
  505.040    0.119    0.381  119.930  168.268    5.923
  505.290    0.132    0.407  126.922  168.856    5.461
  505.540    0.149    0.579  138.302  170.370    5.466
  505.790    0.165    0.533  150.236  171.158    5.635
  506.040    0.175    0.488  148.934  171.864    5.713
  506.290    0.155    0.439  140.862  171.918    5.803
  506.540    0.170    0.434  129.930  171.778    5.884
  506.790    0.175    0.438  124.357  171.642    5.967
  507.040    0.151    0.422  113.722  170.876    6.094
  507.290    0.135    0.407  101.207  169.397    6.224
  507.540    0.119    0.396   96.426  167.718    6.369
  507.790    0.138    0.386   94.089  166.434    6.493
  508.040    0.136    0.380   90.650  166.191    6.607
  508.290    0.103    0.372   84.652  166.896    6.712
  508.540    0.100    0.362   79.875  167.056    6.756
  508.790    0.095    0.352   75.467  167.229    6.725
  509.040    0.087    0.339   71.418  166.773    6.647
  509.290    0.081    0.359   71.946  166.124    6.544
  509.540    0.112    0.336   77.664  165.569    6.444
  509.790    0.143    0.327   84.835  165.541    6.463
  510.040    0.135    0.353   97.741  165.397    6.541
  510.290    0.131    0.370  111.930  165.570    6.441
  510.540    0.147    0.354  117.210  165.842    6.249
  510.790    0.153    0.358  103.167  166.017    5.584
  511.040    0.165    0.375   90.336  165.989    5.301
  511.290    0.210    0.371   70.499  165.939    5.258
  511.540    0.240    0.365   63.710  165.395    5.510
  511.790    0.237    0.357   58.686  165.253    5.935
  512.040    0.254    0.356   59.217  164.587    6.521
  512.290    0.267    0.375   61.327  163.628    7.313
  512.540    0.257    0.385   64.237  162.353    8.110
  512.790    0.245    0.387   64.701  162.005    9.044
  513.040    0.261    0.389   59.191  162.081   10.014
  513.290    0.280    0.395   51.364  162.982    9.950
  513.540    0.290    0.407   46.955  163.138    9.139
  513.790    0.266    0.402   47.731  163.720    8.320
  514.040    0.252    0.391   50.205  163.385    8.146
  514.290    0.244    0.377   54.457  162.927    7.962
  514.540    0.238    0.363   59.310  162.180    7.613
  514.790    0.230    0.386   62.953  161.616    7.347
  515.040    0.245    0.424   64.206  160.657    7.700
  515.290    0.262    0.447   63.334  160.106    8.055
  515.540    0.273    0.435   55.203  160.184    8.151
  515.790    0.284    0.396   47.132  160.248    8.129
  516.040    0.282    0.362   46.500  160.303    7.844
  516.290    0.273    0.377   48.675  160.476    7.298
  516.540    0.268    0.386   52.618  160.768    6.765
  516.790    0.272    0.398   55.649  161.029    6.023
  517.040    0.276    0.398   57.157  161.203    5.492
  517.290    0.272    0.394   58.042  161.576    4.980
  517.540    0.262    0.401   59.365  161.956    4.676
  517.790    0.249    0.400   59.708  162.532    4.504
  518.040    0.287    0.396   56.154  163.225    4.339
  518.290    0.307    0.400   57.960  163.287    4.249
  518.540    0.302    0.414   63.372  163.260    4.169
  518.790    0.281    0.399   68.772  163.320    4.149
  519.040    0.256    0.383   80.945  163.407    4.139
  519.290    0.257    0.373   73.547  163.567    4.158
  519.540    0.255    0.362   73.284  163.837    4.239
  519.790    0.245    0.365   75.158  163.698    4.283
  520.040    0.250    0.371   76.533  163.981    4.232
  520.290    0.256    0.365   69.193  163.833    4.092
  520.540    0.246    0.354   77.283  163.805    3.999
  520.790    0.235    0.358   86.230  163.867    3.931
  521.040    0.226    0.381   94.073  168.685    3.921
  521.290    0.206    0.396  105.884  173.090    3.961
  521.540    0.216    0.416  110.252  172.231    4.016
  521.790    0.226    0.398  105.236  168.994    4.071
  522.040    0.230    0.374  104.478  167.419    4.151
  522.290    0.220    0.378  109.582  166.963    4.232
  522.540    0.198    0.371  114.380  167.131    4.236
  522.790    0.206    0.360  118.501  167.298    4.240
  523.040    0.188    0.349  110.676  167.368    4.253
  523.290    0.177    0.340  102.542  167.330    4.288
  523.540    0.153    0.331   96.912  167.607    4.254
  523.790    0.172    0.323  102.076  169.951    4.235
  524.040    0.181    0.338  106.993  174.662    4.208
  524.290    0.176    0.358  111.616  176.481    4.174
  524.540    0.166    0.370  112.928  175.835    4.117
  524.790    0.178    0.379  110.285  174.549    4.032
  525.040    0.173    0.380  111.912  172.352    4.000
  525.290    0.157    0.378  114.572  172.001    3.981
  525.540    0.162    0.390  118.760  172.082    3.913
  525.790    0.169    0.386  116.605  171.934    3.839
  526.040    0.179    0.379  113.416  171.908    3.773
  526.290    0.198    0.369  113.694  171.971    3.655
  526.540    0.188    0.369  115.505  171.828    3.431
  526.790    0.186    0.378  117.558  171.787    3.233
  527.040    0.196    0.393  120.280  171.972    3.087
  527.290    0.212    0.404  118.250  171.927    3.039
  527.540    0.219    0.426  114.261  171.165    3.081
  527.790    0.232    0.450  109.365  169.275    3.258
  528.040    0.255    0.470   99.708  166.448    3.516
  528.290    0.290    0.498   91.820  164.450    3.732
  528.540    0.293    0.468   85.271  163.698    3.840
  528.790    0.266    0.444   77.689  163.044    3.830
  529.040    0.254    0.432   73.155  162.398    3.649
  529.290    0.264    0.416   76.673  162.351    3.052
  529.540    0.282    0.483   73.054  162.421    2.703
  529.790    0.298    0.514   67.605  162.800    2.580
  530.040    0.305    0.484   65.570  162.876    2.550
  530.290    0.317    0.461   67.257  162.727    2.624
  530.540    0.311    0.462   71.754  162.376    2.719
  530.790    0.300    0.462   72.583  161.935    2.918
  531.040    0.283    0.443   72.685  161.895    3.388
  531.290    0.268    0.421   72.662  161.860    3.898
  531.540    0.256    0.403   72.034  162.025    4.484
  531.790    0.211    0.384   70.977  162.405    5.037
  532.040    0.176    0.369   64.247  162.370    5.565
  532.290    0.139    0.382   51.967  162.230    5.821
  532.540    0.123    0.373   34.993  161.686    5.892
  532.790    0.115    0.355   18.569  161.233    5.941
  533.040    0.093    0.347   -0.053  161.092    5.860
