~VERSION INFORMATION
 VERS.                 2.0:   CWLS LOG ASCII STANDARD -VERSION 2.0
 WRAP.                  NO:   ONE LINE PER DEPTH STEP
~WELL INFORMATION BLOCK
#MNEM.UNIT           DATA                    DESCRIPTION OF MNEMONIC
#---------    -------------------            -------------------------------
# Generated from Intellog Unique Number	CW_76_78/WELL/2575
WELL.         10-09-078-26W4                 : Well_name    - WELL
LOC .         00/10-09-078-26W4/0            : Location     - LOCATION
UWI .         00/10-09-078-26W4/0            : Uwi          - UNIQUE WELL ID
ENTR.         MAX                            : Entered      - ENTERED BY
SRVC.         COMPUTALOG                     : Scn          - SERVICE COMPANY
STRT.M        300                            : top_depth    - START DEPTH
STOP.M        525                            : bot_depth    - STOP DEPTH
STEP.M        0.25                           : increment    - STEP LENGTH
 NULL. -999.2500:NULL Value
~CURVE INFORMATION BLOCK
#MNEM UNIT       ERCB CURVE CODE    CURVE DESCRIPTION
#-----------   ------------------   ----------------------------------
DEPT.M        00 001 00 00         : DEPTH        - DEPTH
ILD .OHMM     00 120 00 00         : RESD         - DEEP RESISTIVITY (DIL)
NPHI.V/V      00 330 00 00         : PHIN         - NEUTRON POROSITY (SANDSTONE)
DPHI.V/V      00 890 00 00         : PHID         - DENSITY POROSITY (SANDSTONE)
CALI.MM       00 280 01 00         : CAL          - CALIPER
GR  .API      00 310 00 00         : GR           - GAMMA RAY
~PARAMETER INFORMATION
#MNEM.UNIT           DATA             DESCRIPTION OF MNEMONIC
#---------         -----------     ------------------------------
GL  .M        595                  : gl           - GROUND LEVEL ELEVATION
EREF.M        598.9                : kb           - ELEVATION OF DEPTH REFERENCE
DATM.M        595                  : datum        - DATUM ELEVATION
TDD .M        524                  : tdd          - TOTAL DEPTH DRILLER
RUN .         ONE                  : Run          - RUN NUMBER
ENG .         BILL                 : Engineer     - RECORDING ENGINEER
WIT .         JIM                  : Witness      - WITNESSED BY
MUD .         GEL                  : Mud_type     - MUD TYPE
MATR.         SANDSTONE            : Logunit      - NEUTRON MATRIX
TMAX.C        18                   : BHT          - MAXIMUM RECORDED TEMPERATURE
BHTD.M        524                  : BHTDEP       - MAXIMUM RECORDED TEMPERATURE
RMT .C        15                   : MDTP         - TEMPERATURE OF MUD
MUDD.KG/M     1090                 : MWT          - MUD DENSITY
NEUT.         1                    : NEUTRON      - NEUTRON TYPE
RESI.         0                    : RESIST       - RESISTIVITY TYPE
RM  .OHMM     7                    : RM           - RESISTIVITY OF MUD
RMC .OHMM     0                    : RMC          - RESISTIVITY OF MUD CAKE
RMF .OHMM     8                    : RMF          - RESISTIVITY OF MUD FILTRATE
SUFT.C        -20                  : SUFT         - SURFACE TEMPERATURE
~A  DEPTH     RESD     PHIN     PHID      CAL       GR
# ...
  336.500    6.874    0.378    0.214  192.246   95.570
  336.750    5.951    0.361    0.219  193.221  101.509
  337.000    5.437    0.363    0.241  195.679  101.497
  337.250    5.585    0.404    0.260  197.645   90.774
  337.500    5.892    0.444    0.273  199.111   78.562
  337.750    6.503    0.454    0.270  199.089   74.087
  338.000    7.050    0.418    0.260  197.582   70.801
  338.250    7.306    0.431    0.259  197.066   68.410
  338.500    6.676    0.455    0.259  196.553   64.531
  338.750    5.831    0.430    0.247  195.046   58.568
  339.000    5.523    0.361    0.242  194.032   55.578
  339.250    5.327    0.278    0.234  193.519   62.114
  339.500    5.278    0.287    0.220  193.004   82.038
  339.750    5.519    0.353    0.223  192.982   86.490
  340.000    6.036    0.459    0.236  192.965   71.897
  340.250    6.783    0.480    0.286  192.945   61.472
  340.500    9.043    0.482    0.319  192.926   54.319
  340.750    9.802    0.472    0.333  192.906   52.815
  341.000    9.800    0.439    0.330  192.884   54.592
  341.250    9.450    0.411    0.318  192.862   63.506
  341.500    9.279    0.390    0.311  192.842   70.339
  341.750    9.360    0.365    0.294  192.825   73.896
  342.000    9.528    0.372    0.285  192.801   73.885
  342.250    9.874    0.398    0.286  193.280   72.086
  342.500   10.140    0.430    0.291  193.263   72.970
  342.750   10.229    0.471    0.292  193.737   73.553
  343.000   10.226    0.475    0.285  194.706   74.433
  343.250   10.132    0.441    0.286  194.692   75.910
  343.500    9.949    0.410    0.290  195.662   83.632
  343.750    9.255    0.417    0.289  198.119   90.466
  344.000    8.085    0.413    0.270  198.595  101.166
  344.250    6.813    0.408    0.261  197.586  107.402
  344.500    6.005    0.361    0.249  196.079  109.771
  344.750    5.637    0.330    0.251  195.566  107.972
  345.000    5.687    0.347    0.262  195.547   99.035
  345.250    5.946    0.370    0.264  196.514   92.181
  345.500    6.218    0.389    0.271  196.993   79.073
  345.750    6.863    0.426    0.291  196.968   75.196
  346.000    8.668    0.432    0.310  195.461   67.150
  346.250   10.754    0.453    0.340  194.946   61.782
  346.500   12.084    0.462    0.362  194.929   55.226
  346.750   12.749    0.430    0.361  194.909   53.127
  347.000   12.296    0.418    0.349  195.385   56.094
  347.250   11.135    0.413    0.341  195.368   56.673
  347.500   10.174    0.408    0.336  195.845   55.176
  347.750   10.171    0.432    0.325  196.319   53.677
  348.000   10.353    0.450    0.325  196.795   53.369
  348.250   10.441    0.473    0.324  197.271   54.249
  348.500   10.440    0.463    0.330  197.249   56.318
  348.750   10.532    0.441    0.333  197.235   55.414
  349.000   10.528    0.439    0.333  195.723   55.404
  349.250   10.338    0.412    0.339  194.709   54.501
  349.500    9.880    0.413    0.349  194.198   52.701
  349.750    9.359    0.375    0.358  194.179   51.799
  350.000    9.356    0.373    0.362  195.647   51.788
  350.250   10.142    0.412    0.361  197.113   52.370
  350.500   11.397    0.443    0.355  197.095   54.143
  350.750   13.039    0.425    0.349  196.082   54.427
  351.000   13.271    0.376    0.346  195.566   52.928
  351.250   12.799    0.324    0.342  195.547   52.025
  351.500   11.800    0.304    0.333  195.525   53.202
  351.750   10.880    0.292    0.332  196.006   54.382
  352.000    9.763    0.322    0.333  196.978   56.751
  352.250    8.227    0.398    0.337  197.455   55.251
  352.500    7.585    0.425    0.339  197.433   54.048
  352.750    7.184    0.448    0.335  196.416   56.418
  353.000    6.929    0.454    0.318  195.906   65.627
  353.250    6.743    0.456    0.278  196.382   71.866
  353.500    6.386    0.426    0.246  197.848   76.615
  353.750    5.995    0.421    0.239  199.812   77.493
  354.000    5.678    0.402    0.243  201.282   76.889
  354.250    5.576    0.404    0.242  203.247   75.390
  354.500    5.675    0.395    0.235  207.194   75.079
  354.750    5.881    0.404    0.232  213.123   75.959
  355.000    5.827    0.393    0.236  212.112   78.924
  355.250    5.569    0.398    0.246  206.640   81.889
  355.500    5.043    0.430    0.266  203.144   83.958
  355.750    4.608    0.454    0.277  204.119   81.269
  356.000    4.444    0.479    0.276  202.115   71.141
  356.250    4.606    0.466    0.275  199.616   61.905
  356.500    5.129    0.462    0.280  197.608   57.429
  356.750    5.868    0.439    0.286  197.608   58.907
  357.000    5.919    0.418    0.286  197.078   64.844
  357.250    5.760    0.406    0.283  196.065   67.512
  357.500    5.505    0.439    0.286  195.056   73.451
  357.750    5.214    0.450    0.287  196.028   80.282
  358.000    4.895    0.458    0.290  199.976   90.982
  358.250    4.637    0.487    0.296  205.408   96.624
  358.500    4.553    0.474    0.295  208.860   94.231
  358.750    4.551    0.450    0.296  212.314   90.947
  359.000    4.389    0.436    0.293  214.278   87.363
  359.250    4.195    0.447    0.274  215.246   87.055
  359.500    4.009    0.489    0.249  215.229   83.769
  359.750    3.832    0.488    0.233  213.228   83.162
  360.000    3.729    0.460    0.214  210.233   84.934
  360.250    3.628    0.425    0.205  208.723   87.007
  360.500    3.499    0.399    0.200  207.214   91.457
  360.750    3.344    0.413    0.192  206.197   89.959
  361.000    3.254    0.406    0.194  205.687   89.352
  361.250    3.403    0.404    0.209  205.665   90.828
  361.500    3.623    0.408    0.216  206.637   90.220
  361.750    3.928    0.433    0.220  208.108   91.101
  362.000    4.700    0.474    0.225  208.091   88.411
  362.250    5.004    0.481    0.223  207.077   87.804
  362.500    5.328    0.480    0.223  207.060   86.601
  362.750    5.472    0.475    0.226  206.046   85.105
  363.000    5.774    0.483    0.226  204.536   81.220
  363.250    5.984    0.483    0.227  203.032   78.534
  363.500    6.201    0.486    0.227  200.528   79.116
  363.750    6.201    0.501    0.227  199.020   82.674
  364.000    6.310    0.494    0.230  198.009   85.341
  364.250    6.539    0.501    0.234  197.990   87.711
  364.500    6.538    0.465    0.236  197.479   85.914
  364.750    6.535    0.435    0.235  197.457   84.712
  365.000    6.475    0.414    0.233  197.435   84.697
  365.250    6.415    0.393    0.228  197.420   84.389
  365.500    6.413    0.423    0.228  197.398   84.677
  365.750    6.412    0.430    0.231  197.381   87.936
  366.000    6.410    0.418    0.230  197.362   85.247
  366.250    6.466    0.405    0.229  197.342   84.936
  366.500    6.464    0.399    0.228  197.320   85.225
  366.750    6.347    0.417    0.230  197.301   85.210
  367.000    6.287    0.424    0.232  196.783   87.876
  367.250    6.174    0.422    0.232  196.265   84.296
  367.500    5.954    0.418    0.232  196.250   81.605
  367.750    5.742    0.421    0.234  197.223   83.378
  368.000    5.741    0.440    0.237  198.192   85.151
  368.250    5.896    0.458    0.238  198.173   88.117
  368.500    6.221    0.466    0.233  198.156   85.427
  368.750    6.683    0.502    0.220  197.638   80.655
  369.000    7.376    0.506    0.193  196.133   76.180
  369.250    9.317    0.449    0.146  194.130   72.894
  369.500   10.470    0.298    0.130  194.606   73.178
  369.750    9.917    0.257    0.121  195.578   74.952
  370.000    8.357    0.281    0.162  196.548   78.509
  370.250    7.705    0.355    0.194  197.521   80.285
  370.500    6.977    0.393    0.211  197.503   80.274
  370.750    6.668    0.403    0.232  197.977   74.310
  371.000    6.607    0.443    0.230  198.451   74.893
  371.250    6.605    0.429    0.223  198.429   78.749
  371.500    6.605    0.476    0.222  197.916   84.093
  371.750    6.599    0.466    0.215  197.398   85.868
  372.000    6.659    0.447    0.201  196.888   84.070
  372.250    6.777    0.424    0.195  196.368   83.760
  372.500    6.837    0.420    0.196  196.348   89.106
  372.750    6.896    0.444    0.205  196.829   91.475
