~VERSION INFORMATION
 VERS.                 2.0:   CWLS LOG ASCII STANDARD -VERSION 2.0
 WRAP.                  NO:   ONE LINE PER DEPTH STEP
~WELL INFORMATION BLOCK
#MNEM.UNIT           DATA                    DESCRIPTION OF MNEMONIC
#---------    -------------------            -------------------------------
# Generated from Intellog Unique Number	CS_69_70/WELL/868
WELL.         MANGRAN EXPLORATION CO.        : Well_name    - WELL
LOC .         00/10-16-069-16W4/0            : Location     - LOCATION
UWI .         00/10-16-069-16W4/0            : Uwi          - UNIQUE WELL ID
ENTR.         SP                             : Entered      - ENTERED BY
SRVC.         SCHLUMBERGER                   : Scn          - SERVICE COMPANY
STRT.M        280.416                        : top_depth    - START DEPTH
STOP.M        481.166                        : bot_depth    - STOP DEPTH
STEP.M        0.25                           : increment    - STEP LENGTH
 NULL. -999.2500:NULL Value
~CURVE INFORMATION BLOCK
#MNEM UNIT       ERCB CURVE CODE    CURVE DESCRIPTION
#-----------   ------------------   ----------------------------------
DEPT.M        00 001 00 00         : DEPTH        - DEPTH
GR  .API      00 310 00 00         : GR           - GAMMA RAY
DPHI.V/V      00 890 00 00         : PHID         - DENSITY POROSITY (SANDSTONE)
NPHI.V/V      00 330 00 00         : PHIN         - NEUTRON POROSITY (SANDSTONE)
ILD .OHMM     00 120 00 00         : RESD         - DEEP RESISTIVITY (DIL)
~PARAMETER INFORMATION
#MNEM.UNIT           DATA             DESCRIPTION OF MNEMONIC
#---------         -----------     ------------------------------
GL  .M        558.394              : gl           - GROUND LEVEL ELEVATION
EREF.M        562.051              : kb           - ELEVATION OF DEPTH REFERENCE
DATM.M        558.394              : datum        - DATUM ELEVATION
TDD .M        489.814              : tdd          - TOTAL DEPTH DRILLER
RUN .         ONE                  : Run          - RUN NUMBER
ENG .         BILL                 : Engineer     - RECORDING ENGINEER
WIT .         JIM                  : Witness      - WITNESSED BY
MUD .         GEL                  : Mud_type     - MUD TYPE
MATR.         SANDSTONE            : Logunit      - NEUTRON MATRIX
TMAX.C        28.3333              : BHT          - MAXIMUM RECORDED TEMPERATURE
BHTD.M        489.814              : BHTDEP       - MAXIMUM RECORDED TEMPERATURE
MATR.         1                    : LOGUNIT      - NEUTRON MATRIX
RMT .C        25                   : MDTP         - TEMPERATURE OF MUD
NEUT.         1                    : NEUTRON      - NEUTRON TYPE
RESI.         0                    : RESIST       - RESISTIVITY TYPE
RMC .OHMM     0.25                 : RMC          - RESISTIVITY OF MUD CAKE
RMF .OHMM     0.25                 : RMF          - RESISTIVITY OF MUD FILTRATE
SUFT.C        15                   : SUFT         - SURFACE TEMPERATURE
~A  DEPTH       GR     PHID     PHIN     RESD
# ...
  454.416   81.680    0.228    0.451   11.541
  454.666   78.596    0.215    0.430    9.552
  454.916   75.468    0.213    0.414    8.622
  455.166   76.881    0.202    0.402    8.004
  455.416   80.147    0.207    0.396    7.618
  455.666   82.325    0.221    0.387    7.375
  455.916   85.429    0.217    0.381    7.135
  456.166   86.053    0.211    0.378    6.970
  456.416   85.826    0.205    0.385    6.822
  456.666   86.323    0.199    0.389    6.689
  456.916   87.844    0.185    0.394    6.620
  457.166   89.442    0.165    0.388    6.549
  457.416   90.032    0.159    0.382    6.620
  457.666   89.386    0.158    0.379    6.818
  457.916   86.657    0.153    0.390    6.833
  458.166   82.097    0.190    0.416    6.438
  458.416   75.466    0.200    0.458    6.305
  458.666   71.119    0.211    0.482    7.661
  458.916   69.134    0.226    0.484    8.793
  459.166   80.269    0.273    0.441    9.525
  459.416   89.971    0.230    0.387   10.004
  459.666   95.551    0.197    0.375    9.760
  459.916   98.493    0.200    0.386    8.317
  460.166  104.675    0.260    0.411    6.773
  460.416  115.087    0.317    0.495    5.767
  460.666  120.855    0.343    0.505    5.039
  460.916  123.193    0.324    0.497    4.719
  461.166  121.625    0.326    0.486    4.682
  461.416  121.297    0.309    0.474    4.631
  461.666  121.567    0.335    0.466    4.560
  461.916  121.530    0.335    0.455    4.499
  462.166  118.051    0.443    0.560    4.465
  462.416  110.111    0.445    0.588    4.474
  462.666  106.440    0.241    0.577    4.618
  462.916  102.258    0.155    0.555    4.870
  463.166   93.750    0.126    0.519    5.449
  463.416   87.697    0.109    0.399    6.382
  463.666   85.969    0.099    0.341    7.465
  463.916   84.023    0.102    0.332    8.283
  464.166   74.888    0.094    0.342    8.683
  464.416   64.913    0.048    0.304    9.116
  464.666   60.762    0.021    0.283    9.600
  464.916   60.893    0.158    0.282   10.092
  465.166   63.947    0.197    0.302   10.494
  465.416   66.565    0.237    0.390   10.394
  465.666   65.592    0.274    0.405    9.684
  465.916   63.846    0.283    0.403    9.138
  466.166   62.378    0.198    0.392    9.223
  466.416   61.083    0.150    0.386    9.444
  466.666   59.828    0.126    0.378    9.611
  466.916   58.598    0.114    0.371    9.845
  467.166   56.824    0.104    0.364   10.165
  467.416   56.101    0.100    0.354   10.372
  467.666   55.514    0.125    0.347   10.541
  467.916   55.377    0.117    0.337   10.525
  468.166   55.192    0.121    0.329   10.609
  468.416   54.472    0.103    0.320   10.787
  468.666   52.992    0.105    0.316   10.507
  468.916   51.787    0.126    0.318    9.542
  469.166   50.700    0.125    0.320    8.654
  469.416   49.998    0.118    0.330    8.082
  469.666   50.357    0.134    0.336    7.492
  469.916   50.984    0.138    0.340    7.305
  470.166   51.334    0.126    0.333    7.549
  470.416   51.358    0.118    0.331    7.898
  470.666   51.323    0.107    0.336    8.176
  470.916   50.842    0.137    0.345    8.348
  471.166   50.414    0.145    0.344    8.402
  471.416   50.290    0.139    0.346    8.274
  471.666   50.093    0.142    0.354    7.802
  471.916   50.108    0.150    0.361    7.488
  472.166   48.840    0.153    0.360    7.351
  472.416   47.162    0.153    0.363    7.305
  472.666   46.250    0.134    0.370    7.468
  472.916   45.888    0.113    0.357    7.763
  473.166   45.305    0.099    0.345    8.288
  473.416   45.103    0.106    0.334    8.696
  473.666   42.882    0.085    0.318    9.457
  473.916   39.852    0.076    0.285   10.057
  474.166   39.243    0.070    0.248   11.082
  474.416   38.960    0.072    0.222   12.279
  474.666   38.579    0.066    0.207   13.673
  474.916   36.119    0.043    0.197   15.381
  475.166   35.334    0.042    0.196   15.955
  475.416   37.975    0.045    0.222   15.858
  475.666   39.852    0.086    0.260   13.125
  475.916   41.923    0.107    0.280   11.314
  476.166   39.826    0.116    0.294    9.856
  476.416   34.086    0.105    0.307    9.040
  476.666   27.610    0.095    0.290    9.262
  476.916   22.548    0.073    0.252   11.166
  477.166   21.032    0.053    0.199   15.911
  477.416   19.983    0.037    0.175   19.511
  477.666   19.690    0.046    0.181   19.828
  477.916   19.933    0.065    0.184   19.327
  478.166   20.029    0.031    0.162   19.186
  478.416   19.691    0.007    0.154   20.115
  478.666   20.213    0.017    0.169   22.771
  478.916   22.645    0.026    0.189   23.731
  479.166   25.688    0.013    0.208   23.724
  479.416   29.315    0.009    0.208   24.424
  479.666   30.268    0.017    0.170   26.477
  479.916   25.738    0.025    0.150   28.725
  480.166   21.985    0.034    0.137   31.130
  480.416   20.766    0.029    0.124   34.973
  480.666   20.571    0.015    0.121   40.756
  480.916   21.224    0.024    0.132   45.188
  481.166   19.175    0.006    0.136   48.308
