~VERSION INFORMATION
 VERS.                 2.0:   CWLS LOG ASCII STANDARD -VERSION 2.0
 WRAP.                  NO:   ONE LINE PER DEPTH STEP
~WELL INFORMATION BLOCK
#MNEM.UNIT           DATA                    DESCRIPTION OF MNEMONIC
#---------    -------------------            -------------------------------
# Generated from Intellog Unique Number	CS_77_79/WELL/961
WELL.         PCI PCEJ CHARD                 : Well_name    - WELL
LOC .         00/10-25-079-07W4/0            : Location     - LOCATION
UWI .         00/10-25-079-07W4/0            : Uwi          - UNIQUE WELL ID
ENTR.         JHS                            : Entered      - ENTERED BY
SRVC.         SCHLUMBERGER                   : Scn          - SERVICE COMPANY
STRT.M        125                            : top_depth    - START DEPTH
STOP.M        365                            : bot_depth    - STOP DEPTH
STEP.M        0.25                           : increment    - STEP LENGTH
 NULL. -999.2500:NULL Value
~CURVE INFORMATION BLOCK
#MNEM UNIT       ERCB CURVE CODE    CURVE DESCRIPTION
#-----------   ------------------   ----------------------------------
DEPT.M        00 001 00 00         : DEPTH        - DEPTH
DPHI.V/V      00 890 00 00         : PHID         - DENSITY POROSITY (LIMESTONE)
NPHI.V/V      00 330 00 00         : PHIN         - NEUTRON POROSITY (LIMESTONE)
GR  .API      00 310 00 00         : GR           - GAMMA RAY
ILD .OHMM     00 120 00 00         : RESD         - DEEP RESISTIVITY (DIL)
RHOB.KG/M3    00 350 00 00         : DENS         - BULK DENSITY
~PARAMETER INFORMATION
#MNEM.UNIT           DATA             DESCRIPTION OF MNEMONIC
#---------         -----------     ------------------------------
GL  .M        565.7                : gl           - GROUND LEVEL ELEVATION
EREF.M        569.4                : kb           - ELEVATION OF DEPTH REFERENCE
DATM.M        569.4                : datum        - DATUM ELEVATION
TDD .M        391                  : tdd          - TOTAL DEPTH DRILLER
RUN .         ONE                  : Run          - RUN NUMBER
ENG .         BILL                 : Engineer     - RECORDING ENGINEER
WIT .         JIM                  : Witness      - WITNESSED BY
MUD .         GEL                  : Mud_type     - MUD TYPE
MATR.         LIMESTONE            : Logunit      - NEUTRON MATRIX
TMAX.C        19                   : BHT          - MAXIMUM RECORDED TEMPERATURE
BHTD.M        391                  : BHTDEP       - MAXIMUM RECORDED TEMPERATURE
MATR.         1                    : LOGUNIT      - NEUTRON MATRIX
RMT .C        25                   : MDTP         - TEMPERATURE OF MUD
NEUT.         1                    : NEUTRON      - NEUTRON TYPE
RESI.         0                    : RESIST       - RESISTIVITY TYPE
RMC .OHMM     0.25                 : RMC          - RESISTIVITY OF MUD CAKE
RMF .OHMM     0.25                 : RMF          - RESISTIVITY OF MUD FILTRATE
SUFT.C        15                   : SUFT         - SURFACE TEMPERATURE
~A  DEPTH     PHID     PHIN       GR     RESD     DENS
# ...
  344.000    0.321    0.395   55.560   49.375 2160.570
  344.250    0.326    0.398   51.823   53.338 2152.140
  344.500    0.347    0.401   49.354   56.526 2115.880
  344.750    0.349    0.412   46.879   67.145 2113.880
  345.000    0.350    0.425   45.028   78.233 2111.900
  345.250    0.358    0.439   43.177   94.705 2097.020
  345.500    0.357    0.467   47.007   98.478 2099.300
  345.750    0.350    0.465   50.822   89.695 2112.280
  346.000    0.356    0.471   47.720   83.241 2101.720
  346.250    0.361    0.516   40.197   80.234 2093.290
  346.500    0.362    0.523   37.090   78.847 2091.300
  346.750    0.364    0.512   30.839   82.040 2087.140
  347.000    0.365    0.518   33.407   82.091 2085.140
  347.250    0.355    0.541   34.072   79.146 2102.430
  347.500    0.353    0.521   32.227   79.218 2106.840
  347.750    0.366    0.498   30.376   82.392 2083.420
  348.000    0.368    0.498   28.546   94.200 2081.430
  348.250    0.361    0.508   28.583  114.019 2092.270
  348.500    0.364    0.539   30.509  127.926 2088.130
  348.750    0.365    0.560   33.714  138.180 2086.140
  349.000    0.360    0.536   31.865  138.349 2094.840
  349.250    0.357    0.526   29.393  128.410 2099.250
  349.500    0.360    0.515   28.793  114.730 2095.110
  349.750    0.359    0.492   30.727  100.581 2095.280
  350.000    0.366    0.487   30.778   84.902 2084.690
  350.250    0.381    0.513   30.182   74.441 2059.130
  350.500    0.396    0.517   28.342   71.763 2033.570
  350.750    0.388    0.521   25.863   71.848 2046.590
  351.000    0.380    0.518   28.427   77.625 2059.550
  351.250    0.382    0.499   28.476   82.258 2057.570
  351.500    0.383    0.472   26.622   87.188 2055.550
  351.750    0.383    0.454   24.780   90.690 2055.720
  352.000    0.376    0.460   26.709   90.786 2066.530
  352.250    0.364    0.461   33.064   84.244 2088.100
  352.500    0.359    0.463   33.726   78.214 2096.790
  352.750    0.366    0.476   25.578   81.335 2084.120
  353.000    0.371    0.482   23.120   82.982 2075.680
  353.250    0.372    0.470   25.041   75.554 2073.650
  353.500    0.352    0.443   34.533   58.001 2108.060
  353.750    0.321    0.423   43.396   38.261    0.000
  354.000    0.283    0.374   53.523   24.759    0.000
  354.250    0.240    0.350   57.980   12.285    0.000
  354.500    0.230    0.337   59.278    9.080    0.000
  354.750    0.239    0.348   60.588    8.115    0.000
  355.000    0.223    0.374   62.526    7.114    0.000
  355.250    0.190    0.363   61.310    6.729    0.000
  355.500    0.170    0.349   65.124    6.868    0.000
  355.750    0.161    0.339   73.994    7.417    0.000
  356.000    0.170    0.341   67.741    8.320    0.000
  356.250    0.159    0.394   58.329    9.335    0.000
  356.500    0.117    0.396   57.113   10.880    0.000
  356.750    0.060    0.357   58.416   12.205    0.000
  357.000    0.077    0.313   55.309   13.186    0.000
  357.250    0.058    0.284   53.464   13.711    0.000
  357.500    0.046    0.269   53.505   14.813    0.000
  357.750    0.045    0.255   53.562   16.305    0.000
  358.000    0.040    0.247   52.965   17.955    0.000
  358.250    0.041    0.244   53.637   18.318    0.000
  358.500    0.051    0.249   54.319   18.697    0.000
  358.750    0.053    0.258   54.352   18.367    0.000
  359.000    0.047    0.254   55.663   18.387    0.000
  359.250    0.033    0.265   54.441   18.072    0.000
  359.500    0.027    0.274   51.335   18.084    0.000
  359.750    0.039    0.267   53.897   18.114    0.000
  360.000    0.036    0.263   56.461   18.133    0.000
  360.250    0.037    0.267   59.023   17.813    0.000
  360.500    0.049    0.276   59.068   17.500    0.000
  360.750    0.054    0.277   55.968   17.520    0.000
  361.000    0.049    0.279   54.112   17.212    0.000
  361.250    0.039    0.281   57.310   17.564    0.000
  361.500    0.043    0.268   58.614   18.268    0.000
  361.750    0.074    0.267   56.132   19.361    0.000
  362.000    0.067    0.279   58.075   20.134    0.000
  362.250    0.039    0.254   56.222   20.547    0.000
  362.500    0.021    0.226   50.593   20.963    0.000
  362.750    0.008    0.219   46.856   23.980    0.000
  363.000    0.009    0.252   47.530   26.388    0.000
  363.250    0.019    0.194   37.491   31.941    0.000
  363.500    0.009    0.165   28.087   38.664    0.000
  363.750    0.007    0.148   30.655   45.922    0.000
  364.000    0.018    0.146   33.217   52.515    0.000
  364.250    0.008    0.152   34.519   56.721    0.000
  364.500    0.000    0.162   38.339   55.721    0.000
  364.750    0.000    0.172   41.537   51.720    0.000
  365.000    0.000    0.184   40.962   46.215    0.000
