~VERSION INFORMATION
 VERS.                 2.0:   CWLS LOG ASCII STANDARD -VERSION 2.0
 WRAP.                  NO:   ONE LINE PER DEPTH STEP
~WELL INFORMATION BLOCK
#MNEM.UNIT           DATA                    DESCRIPTION OF MNEMONIC
#---------    -------------------            -------------------------------
# Generated from Intellog Unique Number	CS_77_79/WELL/1014
WELL.         ICGR CHARD                     : Well_name    - WELL
LOC .         00/12-20-079-05W4/0            : Location     - LOCATION
UWI .         00/12-20-079-05W4/0            : Uwi          - UNIQUE WELL ID
ENTR.         JHS                            : Entered      - ENTERED BY
SRVC.         SCHLUMBERGER                   : Scn          - SERVICE COMPANY
STRT.M        105                            : top_depth    - START DEPTH
STOP.M        325                            : bot_depth    - STOP DEPTH
STEP.M        0.25                           : increment    - STEP LENGTH
 NULL. -999.2500:NULL Value
~CURVE INFORMATION BLOCK
#MNEM UNIT       ERCB CURVE CODE    CURVE DESCRIPTION
#-----------   ------------------   ----------------------------------
DEPT.M        00 001 00 00         : DEPTH        - DEPTH
DPHI.V/V      00 890 00 00         : PHID         - DENSITY POROSITY (LIMESTONE)
NPHI.V/V      00 330 00 00         : PHIN         - NEUTRON POROSITY (LIMESTONE)
GR  .API      00 310 00 00         : GR           - GAMMA RAY
ILD .OHMM     00 120 00 00         : RESD         - DEEP RESISTIVITY (DIL)
RHOB.KG/M3    00 350 00 00         : DENS         - BULK DENSITY
~PARAMETER INFORMATION
#MNEM.UNIT           DATA             DESCRIPTION OF MNEMONIC
#---------         -----------     ------------------------------
GL  .M        478.6                : gl           - GROUND LEVEL ELEVATION
EREF.M        481.6                : kb           - ELEVATION OF DEPTH REFERENCE
DATM.M        481.6                : datum        - DATUM ELEVATION
TDD .M        335                  : tdd          - TOTAL DEPTH DRILLER
RUN .         ONE                  : Run          - RUN NUMBER
ENG .         BILL                 : Engineer     - RECORDING ENGINEER
WIT .         JIM                  : Witness      - WITNESSED BY
MUD .         GEL                  : Mud_type     - MUD TYPE
MATR.         LIMESTONE            : Logunit      - NEUTRON MATRIX
TMAX.C        25                   : BHT          - MAXIMUM RECORDED TEMPERATURE
BHTD.M        335                  : BHTDEP       - MAXIMUM RECORDED TEMPERATURE
MATR.         1                    : LOGUNIT      - NEUTRON MATRIX
RMT .C        25                   : MDTP         - TEMPERATURE OF MUD
NEUT.         1                    : NEUTRON      - NEUTRON TYPE
RESI.         0                    : RESIST       - RESISTIVITY TYPE
RMC .OHMM     0.25                 : RMC          - RESISTIVITY OF MUD CAKE
RMF .OHMM     0.25                 : RMF          - RESISTIVITY OF MUD FILTRATE
SUFT.C        15                   : SUFT         - SURFACE TEMPERATURE
~A  DEPTH     PHID     PHIN       GR     RESD     DENS
  105.000    0.242    0.463   85.892   12.288    0.000
  105.250    0.227    0.431   72.007   12.068    0.000
  105.500    0.259    0.419   62.968   12.537    0.000
  105.750    0.287    0.439   59.370   13.267    0.000
  106.000    0.324    0.456   54.563   15.421    0.000
  106.250    0.338    0.420   55.800   17.266    0.000
  106.500    0.358    0.404   67.927   17.601    0.000
  106.750    0.386    0.426   78.245   17.284    0.000
  107.000    0.358    0.452   82.506   16.048    0.000
  107.250    0.298    0.458   84.955   15.466    0.000
  107.500    0.272    0.425   76.523   14.910    0.000
  107.750    0.304    0.423   64.453   15.202    0.000
  108.000    0.329    0.418   58.436   15.788    0.000
  108.250    0.360    0.410   65.729   17.348    0.000
  108.500    0.385    0.413   70.598   19.061    0.000
  108.750    0.363    0.416   66.999   20.556    0.000
  109.000    0.336    0.407   59.777   20.188    0.000
  109.250    0.324    0.378   70.084   17.720    0.000
  109.500    0.335    0.384   85.840   14.981    0.000
  109.750    0.315    0.407   94.340   13.150    0.000
  110.000    0.285    0.433   93.768   11.982    0.000
  110.250    0.268    0.458   95.005   10.322    0.000
  110.500    0.261    0.428  102.297    9.059    0.000
  110.750    0.255    0.431  109.591    8.257    0.000
  111.000    0.247    0.457  110.822    8.262    0.000
  111.250    0.245    0.431  105.415    8.583    0.000
  111.500    0.248    0.426   98.188    8.915    0.000
  111.750    0.243    0.426   93.376    9.259    0.000
  112.000    0.243    0.424   88.570    9.985    0.000
  112.250    0.259    0.411   85.574   10.770    0.000
  112.500    0.284    0.399   86.212   11.187    0.000
  112.750    0.290    0.415   88.059   11.623    0.000
  113.000    0.279    0.432   86.879   11.630    0.000
  113.250    0.272    0.414   80.864   11.421    0.000
  113.500    0.268    0.410   86.332   10.803    0.000
  113.750    0.247    0.433  101.485   10.411    0.000
  114.000    0.253    0.472  106.963    9.850    0.000
  114.250    0.248    0.465  102.160    9.493    0.000
  114.500    0.236    0.443   99.163    8.980    0.000
  114.750    0.240    0.445  105.245    8.655    0.000
  115.000    0.249    0.463  107.687    8.662    0.000
  115.250    0.259    0.491  102.879    8.997    0.000
  115.500    0.269    0.478   89.609    9.702    0.000
  115.750    0.298    0.443   82.384   10.662    0.000
  116.000    0.314    0.430   83.018   11.074    0.000
  116.250    0.314    0.440   90.301   11.505    0.000
  116.500    0.302    0.458   95.177   11.731    0.000
  116.750    0.303    0.459   91.573   11.737    0.000
  117.000    0.314    0.444   83.748   11.743    0.000
  117.250    0.312    0.427   84.984   11.973    0.000
  117.500    0.282    0.423   96.506   11.979    0.000
  117.750    0.261    0.439  105.610   11.764    0.000
  118.000    0.236    0.478  105.645   11.553    0.000
  118.250    0.250    0.492   97.809   11.346    0.000
  118.500    0.256    0.490   85.140   11.354    0.000
  118.750    0.234    0.477   76.102   11.360    0.000
  119.000    0.220    0.452   71.891   11.584    0.000
  119.250    0.218    0.433   66.483   12.033    0.000
  119.500    0.357    0.428   62.276   12.041    0.000
  119.750    0.379    0.433   58.679   12.276    0.000
  120.000    0.358    0.442   58.112   12.282    0.000
  120.250    0.350    0.433   58.151   12.289    0.000
  120.500    0.352    0.422   58.772   12.299    0.000
  120.750    0.341    0.431   60.618   12.306    0.000
  121.000    0.324    0.447   63.678   12.084    0.000
  121.250    0.310    0.412   66.121   11.646    0.000
  121.500    0.288    0.405   70.388   11.018    0.000
  121.750    0.245    0.437   73.446   10.819    0.000
  122.000    0.210    0.468   77.708    9.858    0.000
  122.250    0.163    0.465   88.019    8.654    0.000
  122.500    0.189    0.454   96.523    7.885    0.000
  122.750    0.202    0.475  100.786    7.185    0.000
  123.000    0.207    0.497  101.418    6.671    0.000
  123.250    0.243    0.500   96.615    6.675    0.000
  123.500    0.250    0.454   90.001    7.065    0.000
  123.750    0.261    0.427   90.630    7.477    0.000
  124.000    0.277    0.412   85.818    8.691    0.000
  124.250    0.285    0.419   76.173    9.915    0.000
  124.500    0.302    0.411   70.156   10.692    0.000
  124.750    0.306    0.412   70.192   11.316    0.000
  125.000    0.281    0.420   76.868   11.755    0.000
  125.250    0.263    0.405   84.156   11.544    0.000
  125.500    0.270    0.403   88.431   11.336    0.000
  125.750    0.279    0.442   88.454   11.133    0.000
  126.000    0.276    0.448   80.019   11.351    0.000
  126.250    0.247    0.446   72.787   12.015    0.000
  126.500    0.236    0.490   63.747   12.957    0.000
  126.750    0.184    0.440   53.495   13.713    0.000
  127.000    0.130    0.418   53.527   14.248    0.000
  127.250    0.134    0.442   61.428   13.477    0.000
  127.500    0.311    0.411   65.686   12.280    0.000
  127.750    0.309    0.393   67.533   11.616    0.000
  128.000    0.290    0.388   66.359   11.407    0.000
  128.250    0.273    0.398   68.195   11.629    0.000
  128.500    0.252    0.433   65.819   12.309    0.000
  128.750    0.260    0.453   63.422   13.274    0.000
  129.000    0.310    0.444   64.065   14.049    0.000
  129.250    0.335    0.437   64.086   15.151    0.000
  129.500    0.349    0.432   64.120   16.344    0.000
  129.750    0.353    0.428   65.969   16.350    0.000
  130.000    0.352    0.449   64.184   16.987    0.000
  130.250    0.350    0.455   58.161   16.993    0.000
  130.500    0.340    0.419   50.329   17.004    0.000
  130.750    0.338    0.395   51.575   16.699    0.000
  131.000    0.343    0.392   51.602   16.399    0.000
  131.250    0.354    0.420   51.028   16.106    0.000
  131.500    0.362    0.458   54.083   15.816    0.000
  131.750    0.349    0.442   54.718   15.827    0.000
  132.000    0.333    0.426   53.540   15.835    0.000
  132.250    0.331    0.421   54.782   15.845    0.000
  132.500    0.334    0.404   53.600   16.155    0.000
  132.750    0.332    0.408   51.827   16.165    0.000
  133.000    0.346    0.414   52.453   16.175    0.000
  133.250    0.348    0.417   54.307   16.492    0.000
  133.500    0.346    0.434   55.550   16.198    0.000
  133.750    0.344    0.420   53.755   16.208    0.000
  134.000    0.345    0.413   48.952   15.917    0.000
  134.250    0.347    0.424   52.003   15.632    0.000
  134.500    0.351    0.433   55.059   15.642    0.000
  134.750    0.353    0.423   53.280   15.651    0.000
  135.000    0.352    0.417   48.469   15.370    0.000
  135.250    0.346    0.428   43.053   15.672    0.000
  135.500    0.348    0.447   43.691   15.386    0.000
  135.750    0.363    0.456   49.168   15.395    0.000
  136.000    0.363    0.468   49.202   15.406    0.000
  136.250    0.355    0.462   48.626   15.417    0.000
  136.500    0.355    0.469   51.071   15.426    0.000
  136.750    0.355    0.464   54.742   15.435    0.000
  137.000    0.368    0.452   55.374   15.443    0.000
  137.250    0.372    0.448   54.189   15.453    0.000
  137.500    0.356    0.432   50.598   15.463    0.000
  137.750    0.344    0.422   50.022   15.472    0.000
  138.000    0.337    0.439   54.288   15.196    0.000
  138.250    0.324    0.441   56.733   15.205    0.000
  138.500    0.332    0.428   52.529   14.931    0.000
  138.750    0.356    0.436   53.167   14.941    0.000
  139.000    0.354    0.429   55.619   14.952    0.000
  139.250    0.346    0.418   53.836   14.960    0.000
  139.500    0.338    0.408   49.632   14.969    0.000
  139.750    0.342    0.412   46.635   15.261    0.000
  140.000    0.357    0.411   44.851   15.270    0.000
  140.250    0.357    0.434   46.701   15.281    0.000
  140.500    0.350    0.450   49.759   15.291    0.000
  140.750    0.343    0.425   51.000   15.298    0.000
  141.000    0.338    0.417   52.841   15.310    0.000
  141.250    0.341    0.439   56.498   15.317    0.000
