~VERSION INFORMATION
 VERS.                 2.0:   CWLS LOG ASCII STANDARD -VERSION 2.0
 WRAP.                  NO:   ONE LINE PER DEPTH STEP
~WELL INFORMATION BLOCK
#MNEM.UNIT           DATA                    DESCRIPTION OF MNEMONIC
#---------    -------------------            -------------------------------
# Generated from Intellog Unique Number	CS_71_72/WELL/919
WELL.         AMOCO AEC IPIATIK              : Well_name    - WELL
LOC .         00/12-26-072-05W4/0            : Location     - LOCATION
UWI .         00/12-26-072-05W4/0            : Uwi          - UNIQUE WELL ID
ENTR.         SP                             : Entered      - ENTERED BY
SRVC.         SCHLUMBERGER                   : Scn          - SERVICE COMPANY
STRT.M        315                            : top_depth    - START DEPTH
STOP.M        525                            : bot_depth    - STOP DEPTH
STEP.M        0.25                           : increment    - STEP LENGTH
 NULL. -999.2500:NULL Value
~CURVE INFORMATION BLOCK
#MNEM UNIT       ERCB CURVE CODE    CURVE DESCRIPTION
#-----------   ------------------   ----------------------------------
DEPT.M        00 001 00 00         : DEPTH        - DEPTH
ILD .OHMM     00 120 00 00         : RESD         - DEEP RESISTIVITY (DIL)
DPHI.V/V      00 890 00 00         : PHID         - DENSITY POROSITY (LIMESTONE)
NPHI.V/V      00 330 00 00         : PHIN         - NEUTRON POROSITY (LIMESTONE)
GR  .API      00 310 00 00         : GR           - GAMMA RAY
~PARAMETER INFORMATION
#MNEM.UNIT           DATA             DESCRIPTION OF MNEMONIC
#---------         -----------     ------------------------------
GL  .M        693.7                : gl           - GROUND LEVEL ELEVATION
EREF.M        697.8                : kb           - ELEVATION OF DEPTH REFERENCE
DATM.M        693.7                : datum        - DATUM ELEVATION
TDD .M        628                  : tdd          - TOTAL DEPTH DRILLER
RUN .         ONE                  : Run          - RUN NUMBER
ENG .         BILL                 : Engineer     - RECORDING ENGINEER
WIT .         JIM                  : Witness      - WITNESSED BY
MUD .         GEL                  : Mud_type     - MUD TYPE
MATR.         LIMESTONE            : Logunit      - NEUTRON MATRIX
TMAX.C        15                   : BHT          - MAXIMUM RECORDED TEMPERATURE
BHTD.M        628                  : BHTDEP       - MAXIMUM RECORDED TEMPERATURE
MATR.         1                    : LOGUNIT      - NEUTRON MATRIX
RMT .C        25                   : MDTP         - TEMPERATURE OF MUD
NEUT.         1                    : NEUTRON      - NEUTRON TYPE
RESI.         0                    : RESIST       - RESISTIVITY TYPE
RMC .OHMM     0.25                 : RMC          - RESISTIVITY OF MUD CAKE
RMF .OHMM     0.25                 : RMF          - RESISTIVITY OF MUD FILTRATE
SUFT.C        15                   : SUFT         - SURFACE TEMPERATURE
~A  DEPTH     RESD     PHID     PHIN       GR
# ...
  358.500    4.869    0.232    0.455   99.821
  358.750    4.780    0.250    0.456  100.429
  359.000    4.781    0.226    0.457  100.432
  359.250    4.871    0.233    0.442   97.412
  359.500    4.872    0.249    0.432   93.786
  359.750    4.872    0.258    0.422   90.765
  360.000    4.964    0.262    0.439   88.350
  360.250    4.965    0.252    0.448   88.959
  360.500    5.059    0.249    0.438   90.776
  360.750    5.154    0.245    0.437   92.594
  361.000    5.155    0.235    0.439   95.623
  361.250    5.252    0.227    0.433   98.045
  361.500    5.253    0.234    0.439   99.258
  361.750    5.253    0.244    0.453   96.842
  362.000    5.063    0.235    0.465   92.612
  362.250    4.970    0.233    0.466   89.592
  362.500    4.879    0.228    0.453   87.782
  362.750    4.790    0.240    0.451   85.365
  363.000    4.703    0.250    0.436   79.321
  363.250    4.617    0.262    0.425   76.904
  363.500    4.618    0.257    0.434   79.932
  363.750    4.618    0.267    0.454   81.751
  364.000    4.619    0.274    0.442   77.520
  364.250    4.619    0.275    0.428   72.081
  364.500    4.620    0.273    0.422   71.479
  364.750    4.707    0.264    0.422   69.669
  365.000    4.977    0.247    0.426   68.462
  365.250    5.565    0.205    0.432   67.862
  365.500    6.955    0.111    0.421   67.260
  365.750    9.362    0.041    0.344   65.449
  366.000   12.602    0.021    0.202   62.428
  366.250   16.653   -0.002    0.194   56.988
  366.500   20.054    0.034    0.192   52.758
  366.750   19.325    0.071    0.201   52.156
  367.000   16.052    0.141    0.279   56.999
  367.250   11.281    0.191    0.348   62.446
  367.500    7.499    0.232    0.411   67.893
  367.750    5.470    0.257    0.448   72.131
  368.000    4.297    0.269    0.452   75.159
  368.250    3.569    0.273    0.451   77.582
  368.500    3.077    0.267    0.437   78.794
  368.750    2.911    0.259    0.438   80.009
  369.000    2.857    0.255    0.452   80.616
  369.250    2.858    0.257    0.467   80.015
  369.500    2.806    0.259    0.456   77.599
  369.750    2.958    0.264    0.427   70.951
  370.000    3.023    0.258    0.422   69.138
  370.250    2.913    0.255    0.417   66.119
  370.500    2.756    0.276    0.418   64.913
  370.750    2.607    0.292    0.409   63.706
  371.000    2.512    0.313    0.400   62.499
  371.250    2.421    0.310    0.400   58.875
  371.500    2.376    0.293    0.398   58.878
  371.750    2.377    0.285    0.409   63.721
  372.000    2.422    0.278    0.417   66.143
  372.250    2.467    0.273    0.418   69.171
  372.500    2.514    0.274    0.417   70.991
  372.750    2.562    0.282    0.422   70.993
  373.000    2.610    0.290    0.420   69.183
  373.250    2.610    0.301    0.415   67.976
  373.500    2.610    0.291    0.418   69.794
  373.750    2.611    0.282    0.422   69.798
  374.000    2.611    0.284    0.423   69.196
  374.250    2.563    0.292    0.428   67.991
  374.500    2.564    0.307    0.426   67.995
  374.750    2.564    0.305    0.422   67.998
  375.000    2.565    0.292    0.416   68.606
  375.250    2.814    0.274    0.415   73.448
  375.500    2.976    0.259    0.418   77.081
  375.750    3.089    0.252    0.447   79.505
  376.000    3.147    0.250    0.458   80.112
  376.250    3.207    0.248    0.470   77.092
  376.500    3.267    0.264    0.461   72.256
  376.750    3.268    0.276    0.457   67.421
  377.000    3.268    0.280    0.461   64.401
  377.250    3.091    0.281    0.440   61.381
  377.500    2.818    0.291    0.429   60.174
  377.750    2.568    0.304    0.424   59.573
  378.000    2.385    0.309    0.420   60.181
  378.250    2.341    0.317    0.429   61.395
  378.500    2.298    0.315    0.436   62.003
  378.750    2.299    0.303    0.445   63.822
  379.000    2.299    0.297    0.441   64.430
  379.250    2.299    0.292    0.447   66.248
  379.500    2.299    0.287    0.450   67.461
  379.750    2.343    0.284    0.458   69.884
  380.000    2.387    0.281    0.469   71.703
  380.250    2.387    0.280    0.457   72.916
  380.500    2.525    0.268    0.429   73.524
  380.750    2.572    0.262    0.415   71.108
  381.000    2.621    0.258    0.405   68.692
  381.250    2.670    0.262    0.403   68.697
  381.500    2.721    0.261    0.405   68.700
  381.750    2.721    0.251    0.415   68.097
  382.000    2.772    0.245    0.430   69.916
  382.250    2.773    0.246    0.415   72.945
  382.500    2.773    0.258    0.404   72.947
  382.750    2.773    0.253    0.394   72.951
  383.000    2.826    0.245    0.400   75.374
  383.250    2.826    0.221    0.406   79.611
  383.500    2.934    0.206    0.404   85.058
  383.750    3.045    0.198    0.398   88.692
  384.000    3.220    0.198    0.390   91.115
  384.250    3.342    0.188    0.390   92.329
  384.500    3.405    0.179    0.387   93.541
  384.750    3.343    0.184    0.392   94.754
  385.000    3.282    0.199    0.395   94.757
  385.250    3.105    0.208    0.404   88.713
  385.500    2.992    0.224    0.398   84.483
  385.750    2.937    0.217    0.387   83.277
  386.000    2.937    0.210    0.383   83.281
  386.250    2.938    0.211    0.398   84.494
  386.500    2.993    0.218    0.414   85.101
  386.750    2.994    0.235    0.423   83.895
  387.000    2.939    0.247    0.430   80.875
  387.250    2.832    0.256    0.419   76.645
  387.500    2.729    0.276    0.430   74.835
  387.750    2.534    0.281    0.441   73.023
  388.000    2.144    0.273    0.446   70.003
  388.250    1.883    0.271    0.450   68.796
  388.500    1.781    0.281    0.440   66.986
  388.750    1.594    0.283    0.435   63.965
  389.000    1.508    0.286    0.433   63.364
  389.250    1.508    0.279    0.443   65.787
  389.500    1.508    0.277    0.434   67.000
  389.750    1.537    0.279    0.436   67.004
  390.000    1.595    0.275    0.435   65.798
  390.250    1.566    0.282    0.439   63.986
  390.500    1.537    0.286    0.447   60.361
  390.750    1.509    0.295    0.458   58.550
  391.000    1.428    0.303    0.460   56.134
  391.250    1.350    0.302    0.448   56.138
  391.500    1.277    0.293    0.437   57.956
  391.750    1.254    0.292    0.429   59.774
  392.000    1.208    0.302    0.436   59.778
  392.250    1.186    0.308    0.439   58.572
  392.500    1.165    0.309    0.426   56.760
  392.750    1.143    0.306    0.430   55.556
  393.000    1.144    0.302    0.441   56.768
  393.250    1.232    0.299    0.452   59.797
  393.500    1.327    0.292    0.454   60.404
  393.750    1.540    0.275    0.435   62.224
  394.000    1.754    0.251    0.419   61.621
  394.250    1.961    0.167    0.414   60.415
  394.500    1.821    0.135    0.295   56.789
  394.750    1.659    0.162    0.309   56.189
  395.000    1.328    0.190    0.328   58.007
  395.250    1.188    0.288    0.316   61.034
  395.500    1.083    0.326    0.457   63.457
  395.750    1.044    0.306    0.476   64.670
  396.000    1.006    0.309    0.471   65.279
  396.250    0.969    0.317    0.451   64.073
  396.500    0.934    0.322    0.444   61.657
  396.750    0.934    0.316    0.435   59.241
  397.000    0.952    0.311    0.430   57.431
  397.250    0.988    0.308    0.428   57.435
  397.500    1.026    0.309    0.428   58.042
  397.750    1.045    0.311    0.434   61.069
  398.000    1.065    0.308    0.442   63.493
  398.250    1.065    0.304    0.448   65.311
  398.500    1.045    0.300    0.449   65.920
  398.750    1.007    0.299    0.471   64.109
  399.000    0.989    0.311    0.455   62.298
  399.250    0.953    0.307    0.440   59.883
  399.500    0.953    0.305    0.435   58.677
  399.750    0.936    0.303    0.452   58.074
  400.000    0.936    0.301    0.459   56.868
  400.250    0.953    0.299    0.472   53.848
  400.500    0.954    0.301    0.479   53.247
  400.750    0.954    0.311    0.481   54.460
  401.000    0.954    0.316    0.488   56.883
  401.250    0.954    0.323    0.478   58.702
  401.500    0.954    0.324    0.458   59.915
  401.750    0.954    0.316    0.450   59.917
