~VERSION INFORMATION
 VERS.                 2.0:   CWLS LOG ASCII STANDARD -VERSION 2.0
 WRAP.                  NO:   ONE LINE PER DEPTH STEP
~WELL INFORMATION BLOCK
#MNEM.UNIT           DATA                    DESCRIPTION OF MNEMONIC
#---------    -------------------            -------------------------------
# Generated from Intellog Unique Number	CS_67_68/WELL/2197
WELL.         10-29-067-02W4                 : Well_name    - WELL
LOC .         00/10-29-067-02W4/0            : Location     - LOCATION
UWI .         00/10-29-067-02W4/0            : Uwi          - UNIQUE WELL ID
ENTR.         SP                             : Entered      - ENTERED BY
SRVC.         SCHLUMBERGER                   : Scn          - SERVICE COMPANY
STRT.M        375                            : top_depth    - START DEPTH
STOP.M        638                            : bot_depth    - STOP DEPTH
STEP.M        0.25                           : increment    - STEP LENGTH
 NULL. -999.2500:NULL Value
~CURVE INFORMATION BLOCK
#MNEM UNIT       ERCB CURVE CODE    CURVE DESCRIPTION
#-----------   ------------------   ----------------------------------
DEPT.M        00 001 00 00         : DEPTH        - DEPTH
ILD .OHMM     00 120 00 00         : RESD         - DEEP RESISTIVITY (DIL)
DPHI.V/V      00 890 00 00         : PHID         - DENSITY POROSITY (LIMESTONE)
NPHI.V/V      00 330 00 00         : PHIN         - NEUTRON POROSITY (LIMESTONE)
GR  .API      00 310 00 00         : GR           - GAMMA RAY
CALI.MM       00 280 01 00         : CAL          - CALIPER
~PARAMETER INFORMATION
#MNEM.UNIT           DATA             DESCRIPTION OF MNEMONIC
#---------         -----------     ------------------------------
GL  .M        707.5                : gl           - GROUND LEVEL ELEVATION
EREF.M        710.7                : kb           - ELEVATION OF DEPTH REFERENCE
DATM.M        710.7                : datum        - DATUM ELEVATION
TDD .M        645                  : tdd          - TOTAL DEPTH DRILLER
RUN .         ONE                  : Run          - RUN NUMBER
ENG .         BILL                 : Engineer     - RECORDING ENGINEER
WIT .         JIM                  : Witness      - WITNESSED BY
MUD .         GEL                  : Mud_type     - MUD TYPE
MATR.         LIMESTONE            : Logunit      - NEUTRON MATRIX
TMAX.C        20.5                 : BHT          - MAXIMUM RECORDED TEMPERATURE
BHTD.M        645                  : BHTDEP       - MAXIMUM RECORDED TEMPERATURE
MATR.         1                    : LOGUNIT      - NEUTRON MATRIX
RMT .C        25                   : MDTP         - TEMPERATURE OF MUD
NEUT.         1                    : NEUTRON      - NEUTRON TYPE
RESI.         0                    : RESIST       - RESISTIVITY TYPE
RMC .OHMM     0.25                 : RMC          - RESISTIVITY OF MUD CAKE
RMF .OHMM     0.25                 : RMF          - RESISTIVITY OF MUD FILTRATE
SUFT.C        15                   : SUFT         - SURFACE TEMPERATURE
~A  DEPTH     RESD     PHID     PHIN       GR      CAL
# ...
  557.500    6.739    0.197    0.404   82.973  156.350
  557.750    6.779    0.194    0.415   84.945  157.362
  558.000    6.780    0.191    0.418   85.269  157.455
  558.250    6.718    0.189    0.425   87.121  157.344
  558.500    6.656    0.183    0.425   90.989  157.028
  558.750    6.645    0.178    0.419   95.223  156.816
  559.000    6.621    0.172    0.443   99.394  156.808
  559.250    6.597    0.165    0.455  102.282  156.798
  559.500    6.661    0.161    0.461  100.716  156.586
  559.750    6.750    0.169    0.464   97.501  156.680
  560.000    6.906    0.175    0.456   93.982  157.079
  560.250    6.985    0.178    0.444   93.023  157.275
  560.500    7.052    0.183    0.432   92.683  157.469
  560.750    7.107    0.177    0.429   92.821  157.257
  561.000    7.134    0.168    0.431   92.536  157.248
  561.250    7.163    0.172    0.428   92.678  156.626
  561.500    7.110    0.183    0.426   92.760  155.396
  561.750    7.085    0.184    0.422   92.901  152.534
  562.000    6.928    0.179    0.422   92.741  150.283
  562.250    7.034    0.184    0.416   91.477  150.987
  562.500    7.155    0.181    0.408   86.858  151.488
  562.750    7.238    0.174    0.401   83.521  151.786
  563.000    7.038    0.178    0.391   80.916  152.592
  563.250    7.186    0.185    0.380   79.469  153.907
  563.500    7.324    0.191    0.390   77.658  154.510
  563.750    7.478    0.198    0.405   74.626  154.401
  564.000    7.621    0.206    0.410   70.311  153.576
  564.250    7.694    0.197    0.400   70.271  152.140
  564.500    7.769    0.186    0.393   71.145  151.113
  564.750    7.799    0.192    0.396   72.085  150.594
  565.000    7.800    0.202    0.408   72.472  150.790
  565.250    7.817    0.214    0.401   67.971  150.577
  565.500    7.804    0.221    0.390   71.717  150.772
  565.750    7.805    0.216    0.381   74.913  150.559
  566.000    7.762    0.218    0.413   72.184  150.347
  566.250    7.720    0.221    0.392   71.290  150.746
  566.500    7.663    0.215    0.375   72.653  151.144
  566.750    7.650    0.211    0.377   73.955  152.053
  567.000    7.652    0.216    0.400   73.427  152.758
  567.250    7.567    0.231    0.406   75.399  153.768
  567.500    7.455    0.213    0.410   78.350  153.761
  567.750    7.359    0.195    0.419   81.060  153.547
  568.000    7.264    0.189    0.416   82.421  153.028
  568.250    7.211    0.214    0.408   83.418  152.307
  568.500    7.213    0.203    0.392   84.291  150.565
  568.750    7.310    0.193    0.386   84.190  149.741
  569.000    7.394    0.197    0.413   78.596  149.530
  569.250    7.507    0.208    0.395   72.203  149.929
  569.500    7.622    0.196    0.382   74.727  150.938
  569.750    7.768    0.181    0.383   75.541  151.440
  570.000    7.843    0.195    0.391   72.510  152.552
  570.250    7.933    0.196    0.382   73.631  153.766
  570.500    7.994    0.186    0.381   75.907  154.368
  570.750    8.102    0.180    0.384   76.478  154.462
  571.000    8.195    0.178    0.381   76.437  154.454
  571.250    8.274    0.174    0.370   78.349  153.630
  571.500    8.400    0.168    0.362   83.439  151.787
  571.750    8.449    0.178    0.373   87.121  152.491
  572.000    8.419    0.183    0.386   91.171  154.521
  572.250    8.218    0.187    0.395   90.949  155.735
  572.500    7.991    0.196    0.405   90.603  156.542
  572.750    7.814    0.187    0.416   91.416  156.839
  573.000    7.626    0.180    0.410   93.389  157.440
  573.250    7.416    0.181    0.394   91.822  157.738
  573.500    7.306    0.188    0.381   88.789  157.934
  573.750    7.335    0.188    0.377   86.367  158.333
  574.000    7.504    0.188    0.380   83.581  158.630
  574.250    7.676    0.187    0.384   84.088  158.824
  574.500    7.897    0.181    0.391   85.147  158.916
  574.750    7.988    0.175    0.380   84.434  159.113
  575.000    7.990    0.172    0.368   86.653  159.207
  575.250    7.946    0.179    0.390   90.276  158.788
  575.500    7.858    0.184    0.411   93.044  158.272
  575.750    7.757    0.183    0.422   89.951  155.409
  576.000    7.657    0.181    0.403   86.311  154.278
  576.250    7.558    0.181    0.389   85.962  155.085
  576.500    7.489    0.184    0.381   83.905  155.995
  576.750    7.406    0.199    0.395   83.863  156.800
  577.000    7.338    0.207    0.408   86.326  156.690
  577.250    7.298    0.212    0.419   81.645  156.071
  577.500    7.258    0.219    0.392   74.827  156.062
  577.750    7.259    0.204    0.397   79.854  156.665
  578.000    7.247    0.192    0.414   85.066  157.266
  578.250    7.262    0.194    0.423   88.564  157.361
  578.500    7.277    0.196    0.435   90.111  156.333
  578.750    7.319    0.191    0.429   90.436  154.286
  579.000    7.376    0.189    0.426   87.831  153.768
  579.250    7.419    0.206    0.424   85.837  154.166
  579.500    7.462    0.228    0.403   72.548  154.869
  579.750    7.492    0.231    0.394   67.806  153.232
  580.000    7.550    0.231    0.388   71.799  151.592
  580.250    7.579    0.215    0.379   74.688  152.909
  580.500    7.581    0.191    0.394   76.720  154.938
  580.750    7.596    0.187    0.389   79.246  156.559
  581.000    7.612    0.196    0.380   81.889  158.078
  581.250    7.613    0.195    0.401   85.023  159.396
  581.500    7.586    0.199    0.414   87.548  160.915
  581.750    7.573    0.198    0.426   88.729  161.112
  582.000    7.574    0.187    0.393   84.475  158.962
  582.250    7.590    0.182    0.395   73.933  158.750
  582.500    7.735    0.200    0.412   69.556  158.231
  582.750    7.869    0.217    0.398   65.913  155.472
  583.000    8.004    0.230    0.382   66.607  151.590
  583.250    8.036    0.212    0.379   73.773  150.460
  583.500    8.128    0.187    0.385   77.941  149.433
  583.750    8.191    0.170    0.401   82.296  151.359
  584.000    8.239    0.178    0.421   84.759  151.861
  584.250    8.271    0.179    0.433   86.062  149.508
  584.500    8.304    0.180    0.403   85.654  150.620
  584.750    8.352    0.183    0.369   83.964  153.057
  585.000    8.354    0.192    0.371   83.863  155.699
  585.250    8.293    0.197    0.383   87.180  155.282
  585.500    8.263    0.202    0.400   81.587  149.873
  585.750    8.233    0.193    0.409   78.858  151.290
  586.000    8.204    0.184    0.398   77.596  153.218
  586.250    8.206    0.174    0.390   80.181  154.840
  586.500    8.207    0.166    0.378   83.925  154.322
  586.750    8.147    0.171    0.366   86.143  154.109
  587.000    8.102    0.174    0.373   84.513  154.203
  587.250    8.059    0.178    0.376   77.879  152.767
  587.500    8.060    0.188    0.376   71.734  150.821
  587.750    8.061    0.199    0.376   72.610  148.672
  588.000    8.062    0.199    0.377   77.758  147.337
  588.250    8.049    0.183    0.378   84.192  148.146
  588.500    8.066    0.169    0.380   88.298  153.436
  588.750    8.112    0.158    0.383   92.898  155.161
  589.000    8.114    0.151    0.401   92.858  155.356
  589.250    8.131    0.148    0.409   90.621  155.143
  589.500    8.102    0.154    0.392   89.540  155.338
  589.750    8.088    0.161    0.380   89.134  155.125
  590.000    8.044    0.170    0.373   86.345  154.708
  590.250    7.940    0.245    0.383   74.766  154.701
  590.500    7.794    0.263    0.391   66.117  153.774
  590.750    7.722    0.282    0.373   57.835  153.562
  591.000    7.651    0.292    0.357   52.606  153.350
  591.250    7.739    0.238    0.345   59.586  153.238
  591.500    7.947    0.210    0.344   65.037  153.027
  591.750    8.160    0.181    0.351   71.773  153.528
  592.000    8.348    0.160    0.360   72.772  153.620
  592.250    8.572    0.187    0.374   70.901  152.899
  592.500    8.622    0.211    0.380   71.047  151.463
  592.750    8.623    0.191    0.373   71.367  150.639
  593.000    8.560    0.175    0.355   74.503  151.751
  593.250    8.497    0.165    0.348   77.025  155.003
  593.500    8.499    0.165    0.352   78.145  155.403
  593.750    8.581    0.166    0.353   79.144  153.661
