~VERSION INFORMATION
 VERS.                 2.0:   CWLS LOG ASCII STANDARD -VERSION 2.0
 WRAP.                  NO:   ONE LINE PER DEPTH STEP
~WELL INFORMATION BLOCK
#MNEM.UNIT           DATA                    DESCRIPTION OF MNEMONIC
#---------    -------------------            -------------------------------
# Generated from Intellog Unique Number	CS_71_72/WELL/902
WELL.         BVX PCP WANDER                 : Well_name    - WELL
LOC .         00/11-22-071-14W4/0            : Location     - LOCATION
UWI .         00/11-22-071-14W4/0            : Uwi          - UNIQUE WELL ID
ENTR.         SP                             : Entered      - ENTERED BY
SRVC.         SCHLUMBERGER                   : Scn          - SERVICE COMPANY
STRT.M        335.28                         : top_depth    - START DEPTH
STOP.M        535.28                         : bot_depth    - STOP DEPTH
STEP.M        0.25                           : increment    - STEP LENGTH
 NULL. -999.2500:NULL Value
~CURVE INFORMATION BLOCK
#MNEM UNIT       ERCB CURVE CODE    CURVE DESCRIPTION
#-----------   ------------------   ----------------------------------
DEPT.M        00 001 00 00         : DEPTH        - DEPTH
GR  .API      00 310 00 00         : GR           - GAMMA RAY
DPHI.V/V      00 890 00 00         : PHID         - DENSITY POROSITY (SANDSTONE)
NPHI.V/V      00 330 00 00         : PHIN         - NEUTRON POROSITY (SANDSTONE)
ILD .OHMM     00 120 00 00         : RESD         - DEEP RESISTIVITY (DIL)
~PARAMETER INFORMATION
#MNEM.UNIT           DATA             DESCRIPTION OF MNEMONIC
#---------         -----------     ------------------------------
GL  .M        646.176              : gl           - GROUND LEVEL ELEVATION
EREF.M        649.224              : kb           - ELEVATION OF DEPTH REFERENCE
DATM.M        646.176              : datum        - DATUM ELEVATION
TDD .M        543.154              : tdd          - TOTAL DEPTH DRILLER
RUN .         ONE                  : Run          - RUN NUMBER
ENG .         BILL                 : Engineer     - RECORDING ENGINEER
WIT .         JIM                  : Witness      - WITNESSED BY
MUD .         GEL                  : Mud_type     - MUD TYPE
MATR.         SANDSTONE            : Logunit      - NEUTRON MATRIX
TMAX.C        25                   : BHT          - MAXIMUM RECORDED TEMPERATURE
BHTD.M        543.154              : BHTDEP       - MAXIMUM RECORDED TEMPERATURE
MATR.         1                    : LOGUNIT      - NEUTRON MATRIX
RMT .C        25                   : MDTP         - TEMPERATURE OF MUD
NEUT.         1                    : NEUTRON      - NEUTRON TYPE
RESI.         0                    : RESIST       - RESISTIVITY TYPE
RMC .OHMM     0.25                 : RMC          - RESISTIVITY OF MUD CAKE
RMF .OHMM     0.25                 : RMF          - RESISTIVITY OF MUD FILTRATE
SUFT.C        15                   : SUFT         - SURFACE TEMPERATURE
~A  DEPTH       GR     PHID     PHIN     RESD
# ...
  465.780   90.913    0.260    0.565    4.264
  466.030   91.126    0.251    0.543    4.300
  466.280   91.706    0.232    0.570    4.307
  466.530   92.824    0.220    0.604    4.253
  466.780   93.960    0.240    0.631    4.184
  467.030   94.619    0.231    0.614    3.980
  467.280   92.840    0.232    0.627    3.713
  467.530   92.492    0.240    0.584    3.490
  467.780   93.349    0.242    0.578    3.279
  468.030   93.280    0.251    0.608    3.126
  468.280   92.605    0.240    0.616    3.135
  468.530   91.831    0.250    0.583    3.789
  468.780   87.266    0.261    0.546    4.915
  469.030   78.624    0.272    0.479    5.819
  469.280   74.990    0.248    0.407    6.668
  469.530   70.455    0.183    0.327    7.281
  469.780   71.318    0.138    0.312    6.585
  470.030   76.220    0.180    0.421    7.068
  470.280   81.568    0.246    0.538    7.261
  470.530   88.022    0.277    0.543    7.049
  470.780   91.329    0.240    0.538    6.237
  471.030   92.981    0.259    0.545    5.494
  471.280   93.105    0.270    0.526    5.091
  471.530   91.298    0.247    0.536    4.909
  471.780   85.769    0.227    0.507    4.830
  472.030   82.025    0.215    0.490    4.836
  472.280   83.169    0.210    0.484    4.850
  472.530   83.724    0.213    0.489    4.908
  472.780   84.123    0.220    0.501    4.935
  473.030   84.308    0.231    0.519    5.003
  473.280   84.340    0.235    0.519    5.122
  473.530   84.602    0.213    0.526    5.284
  473.780   85.132    0.197    0.492    5.454
  474.030   85.755    0.199    0.472    5.630
  474.280   85.359    0.168    0.440    5.784
  474.530   85.970    0.148    0.408    5.889
  474.780   89.032    0.130    0.391    5.822
  475.030   92.141    0.163    0.406    5.684
  475.280   95.135    0.212    0.430    5.458
  475.530   96.944    0.232    0.466    5.279
  475.780   96.483    0.245    0.477    5.116
  476.030   93.939    0.232    0.441    5.085
  476.280   92.544    0.226    0.447    5.082
  476.530   89.909    0.223    0.461    5.110
  476.780   86.681    0.234    0.483    5.116
  477.030   87.674    0.216    0.496    5.160
  477.280   88.945    0.235    0.515    5.171
  477.530   85.986    0.212    0.521    5.141
  477.780   81.848    0.190    0.471    5.116
  478.030   80.563    0.177    0.472    5.132
  478.280   77.383    0.180    0.503    5.388
  478.530   70.314    0.120    0.431    6.097
  478.780   62.599    0.009    0.362    6.877
  479.030   55.362    0.019    0.270    7.542
  479.280   63.053    0.051    0.246    7.964
  479.530   69.050    0.127    0.275    7.710
  479.780   75.228    0.163    0.308    6.722
  480.030   80.378    0.149    0.347    5.841
  480.280   83.865    0.141    0.412    5.295
  480.530   86.409    0.210    0.452    4.961
  480.780   85.388    0.223    0.453    4.799
  481.030   84.108    0.202    0.471    4.738
  481.280   83.761    0.200    0.479    4.665
  481.530   85.327    0.241    0.485    4.409
  481.780   86.389    0.233    0.462    3.815
  482.030   86.005    0.233    0.464    3.266
  482.280   87.124    0.258    0.516    2.884
  482.530   89.640    0.290    0.595    2.537
  482.780   91.971    0.295    0.627    2.313
  483.030   92.830    0.273    0.649    2.338
  483.280   90.952    0.262    0.640    2.780
  483.530   90.356    0.254    0.644    3.159
  483.780   92.091    0.238    0.565    3.552
  484.030   90.162    0.229    0.515    3.951
  484.280   87.289    0.219    0.490    4.248
  484.530   88.247    0.214    0.503    4.558
  484.780   87.877    0.221    0.516    4.824
  485.030   82.761    0.196    0.519    5.025
  485.280   76.787    0.141    0.414    5.152
  485.530   77.918    0.105    0.390    5.262
  485.780   81.141    0.168    0.418    5.460
  486.030   82.859    0.192    0.455    5.833
  486.280   81.366    0.192    0.470    6.484
  486.530   69.675    0.140    0.437    7.539
  486.780   54.476    0.047    0.313    9.041
  487.030   51.393    0.022    0.216   10.190
  487.280   57.037    0.021    0.186   11.225
  487.530   67.444    0.034    0.221   12.094
  487.780   76.847    0.074    0.292   10.999
  488.030   84.160    0.127    0.353    8.962
  488.280   86.669    0.141    0.399    7.318
  488.530   88.330    0.156    0.438    5.855
  488.780   91.050    0.183    0.465    4.944
  489.030   93.826    0.184    0.451    4.354
  489.280   95.558    0.195    0.498    3.925
  489.530   92.585    0.204    0.533    3.622
  489.780   90.949    0.202    0.572    3.404
  490.030   92.146    0.204    0.530    3.458
  490.280   93.090    0.202    0.530    3.521
  490.530   93.148    0.188    0.508    3.592
  490.780   92.781    0.178    0.479    3.639
  491.030   93.503    0.198    0.507    3.648
  491.280   95.336    0.204    0.521    3.631
  491.530   98.728    0.212    0.527    3.558
  491.780  101.490    0.222    0.549    3.513
  492.030  101.447    0.189    0.542    3.380
  492.280  100.825    0.179    0.520    3.295
  492.530  100.763    0.213    0.536    3.195
  492.780  101.364    0.215    0.560    3.205
  493.030   99.677    0.212    0.551    3.290
  493.280   99.135    0.195    0.538    3.350
  493.530   98.926    0.184    0.536    3.594
  493.780   97.967    0.181    0.559    3.791
  494.030   96.636    0.177    0.565    3.947
  494.280   96.008    0.170    0.531    4.085
  494.530   94.155    0.188    0.511    4.035
  494.780   91.986    0.189    0.486    3.974
  495.030   93.671    0.197    0.483    3.840
  495.280   97.943    0.207    0.484    3.758
  495.530   99.720    0.203    0.506    3.784
  495.780  100.141    0.187    0.630    3.870
  496.030   97.264    0.180    0.559    3.865
  496.280   96.171    0.185    0.528    3.753
  496.530  101.044    0.206    0.488    3.595
  496.780  104.367    0.224    0.476    3.294
  497.030  106.063    0.213    0.530    3.050
  497.280  106.929    0.210    0.573    2.946
  497.530  104.733    0.206    0.591    3.098
  497.780   99.523    0.186    0.529    3.689
  498.030   76.531    0.125    0.472    5.778
  498.280   65.345    0.096    0.258    7.946
  498.530   60.983    0.074    0.247    9.100
  498.780   72.326    0.108    0.235    9.664
  499.030   80.418    0.136    0.330    9.697
  499.280   79.085    0.174    0.416    9.589
  499.530   64.757    0.127    0.383    9.598
  499.780   65.561    0.133    0.337   10.001
  500.030   68.559    0.217    0.314   10.623
  500.280   70.125    0.235    0.348   11.100
  500.530   68.048    0.243    0.373   11.738
  500.780   65.467    0.269    0.353   12.567
  501.030   65.672    0.280    0.350   13.500
  501.280   65.937    0.286    0.365   14.537
  501.530   66.082    0.278    0.389   15.710
  501.780   65.791    0.254    0.399   16.542
  502.030   64.567    0.234    0.414   17.301
  502.280   63.522    0.214    0.410   17.757
  502.530   62.697    0.207    0.390   18.571
  502.780   60.176    0.197    0.375   19.035
  503.030   61.718    0.206    0.387   19.049
  503.280   63.393    0.197    0.400   18.983
  503.530   65.834    0.192    0.404   18.822
  503.780   71.873    0.185    0.407   18.038
  504.030   77.406    0.192    0.387   14.945
  504.280   82.812    0.211    0.376   12.463
  504.530   88.526    0.209    0.372   11.127
  504.780   93.279    0.206    0.364   10.173
  505.030   96.569    0.206    0.371    9.300
  505.280   98.746    0.220    0.375    8.569
  505.530  102.375    0.218    0.388    7.825
  505.780  109.204    0.209    0.389    7.244
  506.030  114.927    0.189    0.405    6.863
  506.280  117.249    0.197    0.435    6.622
  506.530  118.312    0.195    0.436    6.505
  506.780  116.736    0.187    0.441    6.439
  507.030  112.404    0.188    0.450    6.663
  507.280  108.719    0.193    0.455    7.500
  507.530  105.515    0.207    0.473    8.330
  507.780   97.767    0.192    0.431    9.763
  508.030   89.729    0.214    0.408   11.361
  508.280   84.587    0.232    0.403   13.004
  508.530   79.254    0.251    0.431   13.983
  508.780   74.101    0.237    0.433   14.479
  509.030   75.359    0.210    0.413   14.742
