~VERSION INFORMATION
 VERS.                 2.0:   CWLS LOG ASCII STANDARD -VERSION 2.0
 WRAP.                  NO:   ONE LINE PER DEPTH STEP
~WELL INFORMATION BLOCK
#MNEM.UNIT           DATA                    DESCRIPTION OF MNEMONIC
#---------    -------------------            -------------------------------
# Generated from Intellog Unique Number	CW_82_90/WELL/1037
WELL.         CHEVRON FINA MUSKWA 16-29      : Well_name    - WELL
LOC .         00/16-29-083-02W5/0            : Location     - LOCATION
UWI .         00/16-29-083-02W5/0            : Uwi          - UNIQUE WELL ID
ENTR.         JJ                             : Entered      - ENTERED BY
SRVC.         SCHLUMBERGER                   : Scn          - SERVICE COMPANY
DATE.         9 JAN 74                       : Date         - LOG DATE
STRT.M        286.512                        : top_depth    - START DEPTH
STOP.M        487.762                        : bot_depth    - STOP DEPTH
STEP.M        0.25                           : increment    - STEP LENGTH
 NULL. -999.2500:NULL Value
~CURVE INFORMATION BLOCK
#MNEM UNIT       ERCB CURVE CODE    CURVE DESCRIPTION
#-----------   ------------------   ----------------------------------
DEPT.M        00 001 00 00         : DEPTH        - DEPTH
CALI.MM       00 280 01 00         : CAL          - CALIPER
GR  .API      00 310 00 00         : GR           - GAMMA RAY
DPHI.V/V      00 890 00 00         : PHID         - DENSITY POROSITY (SANDSTONE)
NPHI.V/V      00 330 00 00         : PHIN         - NEUTRON POROSITY (SANDSTONE)
ILD .OHMM     00 120 00 00         : RESD         - DEEP RESISTIVITY (DIL)
~PARAMETER INFORMATION
#MNEM.UNIT           DATA             DESCRIPTION OF MNEMONIC
#---------         -----------     ------------------------------
GL  .M        623.316              : gl           - GROUND LEVEL ELEVATION
EREF.M        627.278              : kb           - ELEVATION OF DEPTH REFERENCE
DATM.M        623.316              : datum        - DATUM ELEVATION
TDD .M        492.252              : tdd          - TOTAL DEPTH DRILLER
RUN .         ONE                  : Run          - RUN NUMBER
ENG .         WOON                 : Engineer     - RECORDING ENGINEER
WIT .         GOLL                 : Witness      - WITNESSED BY
BASE.         EDMONTON             : Branch       - HOME BASE OF LOGGING UNIT
MUD .         GEL CHEM             : Mud_type     - MUD TYPE
MATR.         SANDSTONE            : Logunit      - NEUTRON MATRIX
TMAX.C        30                   : BHT          - MAXIMUM RECORDED TEMPERATURE
BHTD.M        492.252              : BHTDEP       - MAXIMUM RECORDED TEMPERATURE
RMT .C        4.44444              : MDTP         - TEMPERATURE OF MUD
MUDD.KG/M     8600                 : MWT          - MUD DENSITY
NEUT.         1                    : NEUTRON      - NEUTRON TYPE
RESI.         0                    : RESIST       - RESISTIVITY TYPE
RM  .OHMM     9.6                  : RM           - RESISTIVITY OF MUD
RMC .OHMM     5                    : RMC          - RESISTIVITY OF MUD CAKE
RMF .OHMM     7.1                  : RMF          - RESISTIVITY OF MUD FILTRATE
SUFT.C        -17.7778             : SUFT         - SURFACE TEMPERATURE
~A  DEPTH      CAL       GR     PHID     PHIN     RESD
# ...
  396.012  203.113   74.949    0.261    0.450   17.385
  396.262  203.963   77.724    0.233    0.422   17.823
  396.512  204.491   79.932    0.195    0.400   17.963
  396.762  204.487   79.297    0.159    0.382   18.000
  397.012  204.375   81.504    0.147    0.374   18.314
  397.262  204.583   84.849    0.194    0.399   18.493
  397.512  203.722   87.119    0.227    0.450   17.775
  397.762  202.647   85.410    0.210    0.463   16.543
  398.012  204.566   85.218    0.216    0.470   15.602
  398.262  205.310   85.593    0.250    0.470   15.754
  398.512  204.128   84.706    0.229    0.485   16.059
  398.762  202.946   80.155    0.230    0.514   16.032
  399.012  204.224   77.878    0.252    0.496   15.236
  399.262  206.358   78.949    0.271    0.469   13.268
  399.512  219.079   85.514    0.239    0.447   11.578
  399.762  231.586   89.048    0.229    0.460   10.493
  400.012  240.564   90.750    0.222    0.484    9.933
  400.262  202.272   84.936    0.213    0.474    9.992
  400.512  201.838   80.133    0.190    0.454   11.242
  400.762  201.940   74.825    0.161    0.395   13.036
  401.012  201.614   69.706    0.096    0.316   17.594
  401.262  201.821   66.734    0.066    0.298   21.558
  401.512  202.245   69.446    0.064    0.291   22.566
  401.762  202.453   72.917    0.074    0.284   21.242
  402.012  201.485   77.588    0.081    0.290   18.084
  402.262  200.730   80.489    0.160    0.322   13.636
  402.512  204.147   82.507    0.231    0.345   11.091
  402.762  201.576   85.536    0.224    0.406    7.961
  403.012  198.683   87.743    0.214    0.423    6.550
  403.262  200.709   88.750    0.220    0.448    5.959
  403.512  203.591   89.568    0.240    0.478    5.421
  403.762  203.692   88.365    0.271    0.513    5.152
  404.012  203.901   86.277    0.285    0.549    5.027
  404.262  204.537   87.222    0.265    0.569    5.057
  404.512  205.922   91.324    0.228    0.583    5.344
  404.762  207.841   91.068    0.241    0.570    6.081
  405.012  208.691   76.917    0.226    0.546    7.025
  405.262  209.328   68.577    0.206    0.517    8.070
  405.512  210.606   64.279    0.148    0.479    9.812
  405.762  211.778   60.739    0.029    0.265   13.019
  406.012  212.626   60.357    0.061    0.289   14.399
  406.262  212.835   63.954    0.101    0.356   14.567
  406.512  212.403   70.708    0.117    0.371   13.278
  406.762  213.146   74.558    0.135    0.363   11.261
  407.012  215.492   80.428    0.173    0.418    9.623
  407.262  216.985   87.309    0.226    0.503    8.239
  407.512  218.583   89.011    0.198    0.521    7.697
  407.762  218.792   89.008    0.201    0.497    6.716
  408.012  218.894   89.131    0.200    0.471    6.203
  408.262  219.316   86.981    0.191    0.467    5.884
  408.512  220.059   84.830    0.172    0.486    5.667
  408.762  220.802   88.995    0.162    0.509    5.614
  409.012  222.081   91.960    0.189    0.522    5.604
  409.262  224.963   92.462    0.190    0.528    5.745
  409.512  218.433   91.006    0.193    0.509    5.924
  409.762  217.037   88.983    0.203    0.490    6.119
  410.012  215.853   90.937    0.207    0.515    6.249
  410.262  215.635   90.239    0.201    0.473    6.456
  410.512  216.059   88.973    0.187    0.449    6.771
  410.762  216.267   89.854    0.167    0.480    6.954
  411.012  215.513   90.797    0.176    0.465    7.321
  411.262  215.507   90.479    0.188    0.438    7.563
  411.512  218.497   90.602    0.196    0.425    7.754
  411.762  231.111   95.272    0.204    0.412    7.919
  412.012  241.266   96.974    0.214    0.509    8.103
  412.262  210.352   96.593    0.240    0.509    8.291
  412.512  207.136   94.631    0.210    0.446    8.500
  412.762  208.309   95.954    0.250    0.450    8.598
  413.012  201.673   96.583    0.212    0.447    8.832
  413.262  199.849   91.780    0.193    0.442    9.158
  413.512  199.630   89.187    0.191    0.463    9.424
  413.762  200.053   87.415    0.188    0.474   10.131
  414.012  200.582   83.054    0.164    0.426   10.706
  414.262  201.325   75.914    0.130    0.410   11.400
  414.512  201.213   76.984    0.136    0.396   11.843
  414.762  202.277   81.339    0.164    0.387   12.026
  415.012  203.126   86.388    0.170    0.487   12.121
  415.262  203.333   90.238    0.204    0.513   12.123
  415.512  203.222   90.740    0.201    0.484   12.127
  415.762  203.216   83.979    0.192    0.450   12.129
  416.012  203.105   80.186    0.186    0.411   12.040
  416.262  202.671   77.846    0.194    0.407   12.019
  416.512  204.804   77.590    0.196    0.423   11.999
  416.762  207.794   76.008    0.185    0.428   11.956
  417.012  211.745   74.931    0.155    0.436   13.001
  417.262  213.345   73.033    0.129    0.366   13.764
  417.512  214.515   70.188    0.076    0.335   15.992
  417.762  214.938   67.026    0.076    0.316   18.510
  418.012  215.574   68.349    0.071    0.312   19.785
  418.262  216.425   70.557    0.095    0.353   20.168
  418.512  218.023   75.859    0.131    0.381   18.877
  418.762  219.729   80.530    0.170    0.427   16.596
  419.012  220.686   85.074    0.174    0.430   14.102
  419.262  221.750   91.513    0.164    0.406   13.075
  419.512  221.959   90.562    0.174    0.391   12.168
  419.762  221.310   87.843    0.156    0.384   11.563
  420.012  220.770   86.577    0.144    0.376   11.501
  420.262  220.445   87.521    0.127    0.368   11.657
  420.512  221.294   89.981    0.144    0.399   11.996
  420.762  221.717   93.009    0.147    0.413   12.228
  421.012  222.033   91.301    0.142    0.408   12.418
  421.262  222.027   91.992    0.147    0.404   12.515
  421.512  221.701   92.747    0.136    0.404   12.494
  421.762  220.947   91.228    0.157    0.421   12.497
  422.012  218.910   92.045    0.157    0.420   12.428
  422.262  218.262   92.611    0.144    0.422   12.291
  422.512  218.257   92.229    0.150    0.427   12.154
  422.762  217.610   89.952    0.163    0.435   11.906
  423.012  217.389   89.127    0.164    0.430   11.774
  423.262  217.492   89.124    0.154    0.429   11.468
  423.512  215.134   86.532    0.164    0.436   11.234
  423.762  212.561   83.181    0.181    0.452   11.088
  424.012  211.272   83.935    0.182    0.476   10.944
  424.262  210.946   87.217    0.184    0.482   10.864
  424.512  210.620   87.087    0.156    0.476   11.095
  424.762  209.971   81.337    0.131    0.461   11.859
  425.012  209.860   74.639    0.071    0.401   13.418
  425.262  209.212   66.172   -0.002    0.292   15.530
  425.512  208.994   59.032   -0.004    0.251   19.615
  425.762  208.989   53.282    0.016    0.231   22.446
  426.012  208.876   58.584    0.064    0.256   23.677
  426.262  209.405   66.981    0.135    0.324   21.295
  426.512  210.470   83.146    0.168    0.428   16.241
  426.762  211.748   91.037    0.161    0.483   14.691
  427.012  214.416   93.561    0.147    0.444   12.771
  427.262  216.550   95.768    0.152    0.411   12.113
  427.512  216.972   95.196    0.145    0.396   11.252
  427.762  216.966   95.509    0.146    0.398   11.001
  428.012  216.853   97.653    0.162    0.407   10.817
  428.262  216.635  101.628    0.177    0.423   10.556
  428.512  215.774  101.120    0.161    0.453   10.380
  428.762  215.874   97.327    0.141    0.462   10.324
  429.012  216.190   95.998    0.122    0.454   10.267
  429.262  217.576   94.037    0.110    0.432   10.269
  429.512  218.104   95.485    0.131    0.425   10.252
  429.762  217.884   99.525    0.156    0.422   10.274
  430.012  217.985  102.616    0.170    0.436   10.238
  430.262  218.195  102.929    0.162    0.445   10.201
  430.512  218.401  105.578    0.147    0.415   10.223
  430.762  218.612  105.386    0.150    0.392   10.225
  431.012  218.928  103.298    0.155    0.424   10.207
  431.262  217.959   98.558    0.150    0.446   10.210
  431.512  216.777   98.365    0.137    0.485   10.348
  431.762  214.525   95.520    0.128    0.497   10.710
  432.012  212.809   92.865    0.113    0.480   12.186
  432.262  211.199   80.482    0.095    0.442   14.512
