~VERSION INFORMATION
 VERS.                 2.0:   CWLS LOG ASCII STANDARD -VERSION 2.0
 WRAP.                  NO:   ONE LINE PER DEPTH STEP
~WELL INFORMATION BLOCK
#MNEM.UNIT           DATA                    DESCRIPTION OF MNEMONIC
#---------    -------------------            -------------------------------
# Generated from Intellog Unique Number	CS_73_76/WELL/2193
WELL.         AMOCO CONKLIN                  : Well_name    - WELL
LOC .         00/10-25-074-07W4/0            : Location     - LOCATION
UWI .         00/10-25-074-07W4/0            : Uwi          - UNIQUE WELL ID
ENTR.         SP                             : Entered      - ENTERED BY
SRVC.         SCHLUMBERGER                   : Scn          - SERVICE COMPANY
STRT.M        252.984                        : top_depth    - START DEPTH
STOP.M        471.484                        : bot_depth    - STOP DEPTH
STEP.M        0.25                           : increment    - STEP LENGTH
 NULL. -999.2500:NULL Value
~CURVE INFORMATION BLOCK
#MNEM UNIT       ERCB CURVE CODE    CURVE DESCRIPTION
#-----------   ------------------   ----------------------------------
DEPT.M        00 001 00 00         : DEPTH        - DEPTH
GR  .API      00 310 00 00         : GR           - GAMMA RAY
DPHI.V/V      00 890 00 00         : PHID         - DENSITY POROSITY (SANDSTONE)
NPHI.V/V      00 330 00 00         : PHIN         - NEUTRON POROSITY (SANDSTONE)
ILD .OHMM     00 120 00 00         : RESD         - DEEP RESISTIVITY (DIL)
~PARAMETER INFORMATION
#MNEM.UNIT           DATA             DESCRIPTION OF MNEMONIC
#---------         -----------     ------------------------------
GL  .M        646.877              : gl           - GROUND LEVEL ELEVATION
EREF.M        650.138              : kb           - ELEVATION OF DEPTH REFERENCE
DATM.M        646.877              : datum        - DATUM ELEVATION
TDD .M        618.744              : tdd          - TOTAL DEPTH DRILLER
RUN .         ONE                  : Run          - RUN NUMBER
ENG .         BILL                 : Engineer     - RECORDING ENGINEER
WIT .         JIM                  : Witness      - WITNESSED BY
MUD .         GEL                  : Mud_type     - MUD TYPE
MATR.         SANDSTONE            : Logunit      - NEUTRON MATRIX
TMAX.C        26.1111              : BHT          - MAXIMUM RECORDED TEMPERATURE
BHTD.M        618.744              : BHTDEP       - MAXIMUM RECORDED TEMPERATURE
MATR.         1                    : LOGUNIT      - NEUTRON MATRIX
RMT .C        25                   : MDTP         - TEMPERATURE OF MUD
NEUT.         1                    : NEUTRON      - NEUTRON TYPE
RESI.         0                    : RESIST       - RESISTIVITY TYPE
RMC .OHMM     0.25                 : RMC          - RESISTIVITY OF MUD CAKE
RMF .OHMM     0.25                 : RMF          - RESISTIVITY OF MUD FILTRATE
SUFT.C        15                   : SUFT         - SURFACE TEMPERATURE
~A  DEPTH       GR     PHID     PHIN     RESD
# ...
  339.984   76.068    0.251    0.466    3.908
  340.234   74.971    0.256    0.442    3.548
  340.484   72.239    0.247    0.437    3.384
  340.734   70.562    0.238    0.448    3.362
  340.984   73.253    0.244    0.459    3.628
  341.234   75.508    0.240    0.469    3.811
  341.484   72.987    0.228    0.467    3.990
  341.734   70.887    0.221    0.460    4.329
  341.984   68.848    0.215    0.447    4.503
  342.234   69.408    0.216    0.427    4.687
  342.484   73.022    0.219    0.438    4.783
  342.734   75.993    0.224    0.467    4.776
  342.984   77.704    0.228    0.471    4.788
  343.234   79.440    0.231    0.468    4.678
  343.484   81.923    0.236    0.526    4.551
  343.734   82.918    0.240    0.533    4.355
  343.984   79.696    0.241    0.510    4.276
  344.234   75.038    0.231    0.489    4.214
  344.484   72.357    0.236    0.485    4.126
  344.734   69.525    0.243    0.500    4.138
  344.984   71.758    0.245    0.492    4.141
  345.234   74.020    0.237    0.463    4.139
  345.484   74.983    0.227    0.460    4.222
  345.734   74.750    0.221    0.466    4.269
  345.984   72.558    0.211    0.461    4.422
  346.234   69.850    0.204    0.466    4.706
  346.484   67.969    0.198    0.463    5.159
  346.734   64.704    0.203    0.448    5.665
  346.984   67.971    0.206    0.443    6.337
  347.234   70.975    0.205    0.440    6.803
  347.484   71.299    0.201    0.436    7.319
  347.734   68.029    0.211    0.442    7.589
  347.984   68.083    0.206    0.460    7.785
  348.234   70.842    0.203    0.455    8.034
  348.484   71.993    0.202    0.439    8.135
  348.734   70.493    0.213    0.445    8.189
  348.984   69.124    0.226    0.432    8.212
  349.234   68.477    0.227    0.427    8.060
  349.484   66.803    0.230    0.446    7.903
  349.734   64.260    0.226    0.469    7.818
  349.984   63.367    0.213    0.480    7.480
  350.234   66.368    0.203    0.482    7.344
  350.484   66.828    0.199    0.472    7.127
  350.734   70.253    0.195    0.472    6.867
  350.984   72.824    0.182    0.455    6.587
  351.234   75.898    0.177    0.462    6.143
  351.484   76.662    0.195    0.445    5.953
  351.734   74.076    0.208    0.441    5.598
  351.984   73.380    0.224    0.448    5.049
  352.234   73.335    0.241    0.468    4.682
  352.484   72.337    0.248    0.482    4.195
  352.734   70.485    0.239    0.509    3.744
  352.984   71.768    0.242    0.521    3.428
  353.234   73.188    0.237    0.508    3.226
  353.484   73.638    0.232    0.506    3.119
  353.734   72.195    0.238    0.508    3.091
  353.984   71.466    0.245    0.492    3.139
  354.234   71.966    0.249    0.483    3.174
  354.484   74.112    0.231    0.479    3.214
  354.734   74.770    0.217    0.485    3.338
  354.984   74.738    0.219    0.450    3.492
  355.234   74.809    0.226    0.430    3.664
  355.484   72.917    0.229    0.426    3.860
  355.734   70.251    0.226    0.440    4.161
  355.984   67.384    0.222    0.429    4.718
  356.234   63.154    0.197    0.387    5.280
  356.484   59.801    0.166    0.321    6.041
  356.734   56.116    0.129    0.296    6.582
  356.984   55.571    0.164    0.306    7.569
  357.234   59.071    0.194    0.332    8.101
  357.484   65.776    0.215    0.389    9.131
  357.734   72.977    0.239    0.407   10.071
  357.984   72.491    0.265    0.354   10.890
  358.234   69.452    0.301    0.348   12.577
  358.484   63.793    0.300    0.352   14.204
  358.734   61.607    0.302    0.355   16.075
  358.984   59.301    0.302    0.358   17.475
  359.234   57.013    0.296    0.374   18.985
  359.484   55.491    0.286    0.382   20.213
  359.734   54.583    0.277    0.387   20.127
  359.984   56.753    0.264    0.400   17.701
  360.234   58.814    0.265    0.411   12.898
  360.484   59.083    0.266    0.423   10.058
  360.734   59.088    0.272    0.422    8.642
  360.984   61.874    0.275    0.413    7.433
  361.234   62.120    0.280    0.407    6.310
  361.484   62.196    0.286    0.410    5.981
  361.734   59.837    0.288    0.409    5.624
  361.984   58.347    0.286    0.424    5.437
  362.234   56.242    0.281    0.432    5.363
  362.484   55.208    0.280    0.430    5.239
  362.734   54.204    0.275    0.418    5.248
  362.984   53.169    0.270    0.433    4.929
  363.234   53.097    0.267    0.424    4.890
  363.484   53.098    0.271    0.413    4.886
  363.734   54.210    0.276    0.410    4.985
  363.984   54.647    0.281    0.418    4.983
  364.234   56.123    0.289    0.425    4.987
  364.484   59.247    0.299    0.431    5.051
  364.734   59.535    0.308    0.414    5.099
  364.984   58.623    0.312    0.404    5.281
  365.234   57.689    0.302    0.409    5.333
  365.484   56.763    0.296    0.411    5.521
  365.734   57.198    0.293    0.411    5.883
  365.984   59.904    0.290    0.409    6.278
  366.234   61.082    0.287    0.406    6.397
  366.484   60.446    0.283    0.412    6.538
  366.734   60.334    0.282    0.414    6.393
  366.984   59.296    0.289    0.418    6.286
  367.234   59.999    0.282    0.429    5.857
  367.484   63.083    0.262    0.436    5.669
  367.734   65.966    0.237    0.437    5.531
  367.984   68.397    0.224    0.439    5.409
  368.234   68.947    0.209    0.443    5.542
  368.484   68.508    0.208    0.434    5.626
  368.734   71.074    0.212    0.426    5.809
  368.984   75.278    0.218    0.415    5.994
  369.234   74.781    0.221    0.416    6.188
  369.484   73.966    0.223    0.425    6.427
  369.734   74.028    0.229    0.434    6.705
  369.984   73.969    0.229    0.430    6.716
  370.234   74.716    0.216    0.433    6.551
  370.484   74.659    0.208    0.453    6.240
  370.734   74.665    0.206    0.467    5.873
  370.984   74.676    0.206    0.503    5.523
  371.234   74.683    0.197    0.475    5.292
  371.484   74.692    0.188    0.455    4.928
  371.734   74.702    0.191    0.444    4.704
  371.984   74.710    0.197    0.455    4.479
  372.234   74.730    0.205    0.459    4.469
  372.484   74.759    0.212    0.464    4.568
  372.734   75.816    0.219    0.459    4.615
  372.984   77.005    0.231    0.445    4.851
  373.234   78.413    0.242    0.442    4.838
  373.484   78.442    0.253    0.458    4.733
  373.734   77.432    0.261    0.473    4.441
  373.984   76.595    0.257    0.486    4.262
  374.234   76.613    0.258    0.480    3.918
  374.484   76.654    0.265    0.469    3.753
  374.734   76.057    0.255    0.455    3.577
  374.984   75.239    0.260    0.445    3.881
  375.234   71.998    0.269    0.452    4.319
  375.484   67.912    0.287    0.441    5.137
  375.734   64.419    0.301    0.436    5.899
  375.984   63.262    0.315    0.432    6.611
  376.234   64.280    0.292    0.439    7.548
  376.484   66.237    0.175    0.421    8.650
  376.734   66.355    0.132    0.398    9.555
  376.984   62.587    0.106    0.368   11.200
  377.234   58.193    0.107    0.342   13.975
  377.484   55.373    0.116    0.328   16.346
  377.734   55.396    0.128    0.317   17.598
  377.984   55.433    0.144    0.304   19.345
  378.234   57.475    0.162    0.315   19.439
  378.484   60.217    0.191    0.345   15.558
  378.734   62.856    0.229    0.430   12.642
  378.984   64.227    0.257    0.446   10.549
  379.234   66.349    0.254    0.461    9.353
  379.484   67.028    0.250    0.458    8.143
  379.734   67.066    0.245    0.416    7.571
  379.984   67.235    0.231    0.429    7.079
  380.234   67.642    0.226    0.442    6.785
  380.484   69.624    0.219    0.427    6.649
  380.734   71.523    0.211    0.425    6.662
  380.984   72.522    0.211    0.416    6.670
  381.234   72.602    0.208    0.426    6.688
  381.484   71.822    0.204    0.445    6.559
  381.734   69.762    0.202    0.460    6.693
  381.984   68.750    0.205    0.448    6.741
  382.234   67.057    0.209    0.434    6.815
  382.484   66.079    0.209    0.420    6.905
  382.734   64.888    0.210    0.449    7.103
  382.984   67.135    0.210    0.452    7.093
  383.234   69.512    0.203    0.448    7.226
