~VERSION INFORMATION
 VERS.                 2.0:   CWLS LOG ASCII STANDARD -VERSION 2.0
 WRAP.                  NO:   ONE LINE PER DEPTH STEP
~WELL INFORMATION BLOCK
#MNEM.UNIT           DATA                    DESCRIPTION OF MNEMONIC
#---------    -------------------            -------------------------------
# Generated from Intellog Unique Number	CS_73_76/WELL/2202
WELL.         AMOCO CANADA PETROLEUM         : Well_name    - WELL
LOC .         00/11-22-074-12W4/0            : Location     - LOCATION
UWI .         00/11-22-074-12W4/0            : Uwi          - UNIQUE WELL ID
ENTR.         SP                             : Entered      - ENTERED BY
SRVC.         SCHLUMBERGER                   : Scn          - SERVICE COMPANY
STRT.M        289.56                         : top_depth    - START DEPTH
STOP.M        508.81                         : bot_depth    - STOP DEPTH
STEP.M        0.25                           : increment    - STEP LENGTH
 NULL. -999.2500:NULL Value
~CURVE INFORMATION BLOCK
#MNEM UNIT       ERCB CURVE CODE    CURVE DESCRIPTION
#-----------   ------------------   ----------------------------------
DEPT.M        00 001 00 00         : DEPTH        - DEPTH
GR  .API      00 310 00 00         : GR           - GAMMA RAY
DPHI.V/V      00 890 00 00         : PHID         - DENSITY POROSITY (SANDSTONE)
NPHI.V/V      00 330 00 00         : PHIN         - NEUTRON POROSITY (SANDSTONE)
ILD .OHMM     00 120 00 00         : RESD         - DEEP RESISTIVITY (DIL)
~PARAMETER INFORMATION
#MNEM.UNIT           DATA             DESCRIPTION OF MNEMONIC
#---------         -----------     ------------------------------
GL  .M        10                   : gl           - GROUND LEVEL ELEVATION
EREF.M        656.265              : kb           - ELEVATION OF DEPTH REFERENCE
DATM.M        10                   : datum        - DATUM ELEVATION
TDD .M        511.759              : tdd          - TOTAL DEPTH DRILLER
RUN .         ONE                  : Run          - RUN NUMBER
ENG .         BILL                 : Engineer     - RECORDING ENGINEER
WIT .         JIM                  : Witness      - WITNESSED BY
MUD .         GEL                  : Mud_type     - MUD TYPE
MATR.         SANDSTONE            : Logunit      - NEUTRON MATRIX
TMAX.C        15.5556              : BHT          - MAXIMUM RECORDED TEMPERATURE
BHTD.M        511.759              : BHTDEP       - MAXIMUM RECORDED TEMPERATURE
MATR.         1                    : LOGUNIT      - NEUTRON MATRIX
RMT .C        25                   : MDTP         - TEMPERATURE OF MUD
NEUT.         1                    : NEUTRON      - NEUTRON TYPE
RESI.         0                    : RESIST       - RESISTIVITY TYPE
RMC .OHMM     0.25                 : RMC          - RESISTIVITY OF MUD CAKE
RMF .OHMM     0.25                 : RMF          - RESISTIVITY OF MUD FILTRATE
SUFT.C        15                   : SUFT         - SURFACE TEMPERATURE
~A  DEPTH       GR     PHID     PHIN     RESD
  289.560  119.521    0.196    0.537    3.162
  289.810  119.945    0.214    0.525    3.393
  290.060  120.100    0.220    0.507    3.408
  290.310  120.676    0.211    0.509    3.352
  290.560  120.873    0.202    0.525    3.288
  290.810  118.092    0.193    0.543    3.214
  291.060  116.159    0.199    0.550    3.174
  291.310  115.324    0.206    0.550    3.083
  291.560  116.090    0.220    0.539    3.060
  291.810  117.385    0.205    0.529    3.151
  292.060  120.684    0.206    0.522    3.279
  292.310  120.152    0.204    0.513    3.490
  292.560  116.123    0.197    0.511    3.514
  292.810  112.933    0.188    0.521    3.406
  293.060  109.538    0.195    0.527    3.307
  293.310  106.833    0.192    0.520    3.206
  293.560  104.352    0.162    0.493    3.190
  293.810  101.883    0.141    0.505    3.234
  294.060  102.231    0.131    0.520    3.623
  294.310  111.116    0.210    0.533    4.262
  294.560  113.500    0.202    0.535    5.202
  294.810  111.031    0.222    0.545    6.161
  295.060  107.027    0.240    0.526    7.624
  295.310  103.625    0.263    0.500    8.656
  295.560  101.788    0.281    0.500    8.978
  295.810  100.624    0.321    0.526    9.083
  296.060   92.601    0.359    0.546    9.106
  296.310   76.918    0.375    0.557    8.911
  296.560   64.560    0.322    0.489    8.933
  296.810   59.794    0.306    0.456    8.938
  297.060   57.492    0.316    0.409    8.943
  297.310   57.475    0.323    0.393    8.943
  297.560   60.078    0.325    0.410    8.872
  297.810   63.541    0.320    0.415    8.796
  298.060   68.079    0.312    0.423    8.798
  298.310   70.222    0.306    0.434    8.803
  298.560   69.039    0.312    0.442    8.807
  298.810   71.239    0.306    0.437    8.911
  299.060   71.850    0.298    0.428    9.137
  299.310   71.467    0.284    0.419    9.483
  299.560   75.721    0.281    0.413    9.788
  299.810   80.542    0.274    0.418    9.829
  300.060   81.165    0.261    0.414    9.363
  300.310   83.391    0.248    0.415    8.997
  300.560   89.336    0.256    0.422    8.664
  300.810   94.106    0.258    0.431    8.382
  301.060  100.693    0.243    0.424    8.542
  301.310  103.436    0.228    0.416    8.709
  301.560  106.580    0.225    0.434    8.606
  301.810  108.262    0.217    0.455    8.169
  302.060  110.489    0.220    0.465    7.948
  302.310  113.066    0.202    0.452    7.477
  302.560  115.022    0.204    0.459    7.237
  302.810  116.967    0.195    0.467    6.894
  303.060  119.967    0.191    0.461    6.701
  303.310  121.133    0.190    0.460    6.549
  303.560  118.455    0.195    0.468    6.987
  303.810  117.039    0.211    0.465    7.416
  304.060  112.606    0.226    0.468    7.866
  304.310  108.915    0.248    0.466    8.227
  304.560  103.442    0.266    0.459    8.510
  304.810  100.322    0.286    0.453    8.783
  305.060  102.027    0.276    0.450    9.206
  305.310  106.383    0.253    0.447    9.690
  305.560  111.154    0.244    0.442    9.974
  305.810  114.479    0.249    0.437    9.877
  306.060  108.814    0.256    0.439    9.583
  306.310   99.245    0.246    0.451    9.304
  306.560   94.305    0.231    0.459    9.016
  306.810   88.668    0.215    0.455    8.947
  307.060   84.293    0.216    0.459    8.673
  307.310   83.400    0.227    0.456    8.423
  307.560   80.582    0.237    0.450    7.981
  307.810   78.745    0.249    0.443    7.132
  308.060   77.013    0.228    0.441    6.776
  308.310   79.725    0.167    0.454    6.462
  308.560   86.859    0.106    0.453    6.041
  308.810   92.338    0.083    0.460    6.109
  309.060   94.522    0.143    0.469    6.584
  309.310   98.067    0.219    0.489    7.369
  309.560   96.116    0.291    0.502    7.876
  309.810   86.069    0.318    0.489    8.643
  310.060   77.203    0.326    0.471    9.121
  310.310   75.456    0.313    0.475    9.398
  310.560   75.065    0.306    0.485    9.551
  310.810   75.368    0.301    0.472    9.551
  311.060   77.420    0.310    0.459    9.555
  311.310   77.076    0.311    0.451    9.566
  311.560   76.789    0.318    0.458    9.627
  311.810   76.768    0.312    0.463    9.747
  312.060   75.408    0.301    0.466    9.926
  312.310   74.320    0.293    0.478   10.131
  312.560   74.999    0.279    0.490   10.300
  312.810   72.515    0.269    0.493   10.310
  313.060   69.388    0.261    0.480   10.294
  313.310   67.454    0.253    0.460   10.138
  313.560   67.064    0.266    0.453   10.164
  313.810   69.882    0.279    0.456    9.958
  314.060   72.680    0.270    0.458    9.977
  314.310   69.379    0.262    0.470    9.978
  314.560   67.891    0.249    0.476    9.981
  314.810   66.899    0.231    0.477    9.803
  315.060   67.080    0.185    0.480    9.877
  315.310   68.493    0.237    0.488    9.827
  315.560   70.902    0.283    0.487    9.962
  315.810   70.181    0.303    0.472    9.809
  316.060   69.704    0.295    0.455    9.837
  316.310   71.885    0.290    0.458    9.840
  316.560   73.964    0.294    0.473    9.845
  316.810   72.892    0.304    0.482    9.868
  317.060   72.041    0.303    0.492    9.659
  317.310   69.723    0.294    0.500    9.684
  317.560   68.606    0.303    0.486    9.683
  317.810   70.923    0.312    0.490    9.635
  318.060   73.427    0.306    0.487    9.523
  318.310   75.209    0.303    0.489    9.527
  318.560   72.618    0.309    0.494    9.534
  318.810   72.068    0.294    0.498    9.538
  319.060   73.170    0.285    0.483    9.539
  319.310   72.391    0.287    0.464    9.519
  319.560   73.890    0.285    0.449    9.378
  319.810   74.383    0.276    0.450    8.964
  320.060   74.778    0.265    0.456    8.524
  320.310   78.779    0.259    0.453    8.037
  320.560   83.387    0.254    0.443    7.091
  320.810   92.267    0.187    0.440    6.391
  321.060  102.407    0.114    0.441    6.014
  321.310  112.697    0.087    0.452    5.971
  321.560  119.490    0.148    0.470    6.523
  321.810  123.812    0.186    0.458    7.000
  322.060  124.728    0.207    0.452    7.680
  322.310  121.057    0.215    0.449    8.279
  322.560  118.426    0.208    0.464    8.545
  322.810  115.822    0.222    0.482    8.578
  323.060  113.304    0.242    0.496    8.208
  323.310  111.254    0.255    0.490    7.584
  323.560  107.516    0.259    0.472    7.157
  323.810  104.079    0.264    0.455    6.721
  324.060   99.606    0.265    0.438    6.409
  324.310  103.624    0.212    0.433    6.698
  324.560  113.655    0.194    0.438    7.003
  324.810  120.222    0.193    0.461    7.108
  325.060  123.333    0.218    0.457    7.217
  325.310  122.634    0.228    0.452    7.205
  325.560  123.571    0.228    0.444    7.363
  325.810  124.994    0.241    0.435    7.475
  326.060  124.395    0.230    0.434    7.777
  326.310  119.676    0.223    0.452    8.089
  326.560  113.078    0.242    0.458    8.345
  326.810  106.675    0.257    0.459    8.610
  327.060  100.348    0.262    0.451    8.694
  327.310   94.719    0.251    0.440    8.435
  327.560   99.956    0.239    0.431    8.182
  327.810  104.840    0.224    0.419    8.101
  328.060  104.585    0.208    0.420    7.948
  328.310  108.671    0.197    0.428    7.992
  328.560  111.333    0.184    0.430    8.117
  328.810  115.294    0.204    0.440    8.202
  329.060  109.217    0.226    0.448    8.285
  329.310  108.256    0.248    0.460    8.555
  329.560  105.283    0.264    0.472    8.820
  329.810  103.081    0.245    0.478    9.093
  330.060  102.412    0.236    0.481    9.371
  330.310   97.425    0.222    0.492    9.628
  330.560   95.382    0.198    0.484    9.428
  330.810   91.966    0.164    0.461    9.219
  331.060   90.501    0.140    0.444    8.900
  331.310   89.348    0.147    0.441    8.484
  331.560   97.152    0.189    0.491    8.079
  331.810  103.646    0.228    0.508    7.661
  332.060  109.494    0.232    0.504    7.339
  332.310  112.193    0.235    0.494    7.128
  332.560  113.915    0.243    0.504    6.923
  332.810  111.723    0.236    0.519    6.713
