~VERSION INFORMATION
 VERS.                 2.0:   CWLS LOG ASCII STANDARD -VERSION 2.0
 WRAP.                  NO:   ONE LINE PER DEPTH STEP
~WELL INFORMATION BLOCK
#MNEM.UNIT           DATA                    DESCRIPTION OF MNEMONIC
#---------    -------------------            -------------------------------
# Generated from Intellog Unique Number	CN_91_93/WELL/1169
WELL.         11-15-091-17W4                 : Well_name    - WELL
LOC .         00/11-15-091-17W4/0            : Location     - LOCATION
UWI .         00/11-15-091-17W400            : Uwi          - UNIQUE WELL ID
ENTR.         JOETTE                         : Entered      - ENTERED BY
SRVC.         SCHLUMBERGER                   : Scn          - SERVICE COMPANY
DATE.         01/30/92                       : Date         - LOG DATE
STRT.F        344.488                        : top_depth    - START DEPTH
STOP.F        803.806                        : bot_depth    - STOP DEPTH
STEP.F        0.82                           : increment    - STEP LENGTH
 NULL. -999.2500:NULL Value
~CURVE INFORMATION BLOCK
#MNEM UNIT       ERCB CURVE CODE    CURVE DESCRIPTION
#-----------   ------------------   ----------------------------------
DEPT.F        00 001 00 00         : DEPTH        - DEPTH
ILD .OHMM     00 120 00 00         : RESD         - DEEP RESISTIVITY (DIL)
DPHI.V/V      00 890 00 00         : PHID         - DENSITY POROSITY (SANDSTONE)
NPHI.V/V      00 330 00 00         : PHIN         - NEUTRON POROSITY (SANDSTONE)
CALI.IN       00 280 01 00         : CAL          - CALIPER
GR  .API      00 310 00 00         : GR           - GAMMA RAY
~PARAMETER INFORMATION
#MNEM.UNIT           DATA             DESCRIPTION OF MNEMONIC
#---------         -----------     ------------------------------
GL  .M        504                  : gl           - GROUND LEVEL ELEVATION
EREF.M        507.8                : kb           - ELEVATION OF DEPTH REFERENCE
DATM.M        507.8                : datum        - DATUM ELEVATION
TDD .M        246                  : tdd          - TOTAL DEPTH DRILLER
RUN .         ONE                  : Run          - RUN NUMBER
ENG .         BILL                 : Engineer     - RECORDING ENGINEER
WIT .         JIM                  : Witness      - WITNESSED BY
MUD .         GEL                  : Mud_type     - MUD TYPE
MATR.         SANDSTONE            : Logunit      - NEUTRON MATRIX
TMAX.F        69.8                 : BHT          - MAXIMUM RECORDED TEMPERATURE
BHTD.F        807.087              : BHTDEP       - MAXIMUM RECORDED TEMPERATURE
RMT .F        47                   : MDTP         - TEMPERATURE OF MUD
MUDD.LB/G     10                   : MWT          - MUD DENSITY
NEUT.         1                    : NEUTRON      - NEUTRON TYPE
RESI.         0                    : RESIST       - RESISTIVITY TYPE
RM  .OHMM     2.8                  : RM           - RESISTIVITY OF MUD
RMC .OHMM     7.42                 : RMC          - RESISTIVITY OF MUD CAKE
RMF .OHMM     2.28                 : RMF          - RESISTIVITY OF MUD FILTRATE
SUFT.F        39.2                 : SUFT         - SURFACE TEMPERATURE
~A  DEPTH     RESD     PHID     PHIN      CAL       GR
# ...
  583.990   23.771    0.066    0.322    8.007   78.224
  584.810   23.383    0.111    0.323    8.089   77.508
  585.630   21.749    0.138    0.345    8.170   81.693
  586.450   19.683    0.195    0.372    8.250   86.490
  587.270   17.971    0.212    0.419    8.391   90.062
  588.091   16.724    0.213    0.420    8.452   93.021
  588.911   16.763    0.217    0.425    8.514   94.755
  589.731   16.328    0.217    0.437    8.496   91.537
  590.551   15.195    0.216    0.456    8.459   90.847
  591.371   13.741    0.221    0.486    8.383   93.194
  592.192   13.268    0.223    0.513    8.287   96.740
  593.012   11.787    0.204    0.525    8.192   92.962
  593.832   10.273    0.151    0.517    8.077   86.707
  594.652   10.488    0.127    0.481    7.942   85.378
  595.472   12.899    0.159    0.444    7.826   92.626
  596.293   13.168    0.196    0.449    7.692   96.784
  597.113   12.718    0.210    0.449    7.576   96.681
  597.933   11.826    0.205    0.445    7.441   96.577
  598.753   11.108    0.146    0.439    7.287   95.861
  599.573   12.098    0.085    0.402    7.054   95.732
  600.394   12.941    0.120    0.415    7.076   98.666
  601.214   12.386    0.145    0.446    7.294  101.651
  602.034   11.950    0.170    0.451    7.434  103.998
  602.854   11.985    0.199    0.463    7.142  104.507
  603.675   11.145    0.214    0.442    6.771  104.352
  604.495   12.141    0.238    0.155    6.459  104.248
  605.315   28.347    0.335    0.141    5.932  105.957
  606.135   45.203    0.365    0.139    5.837  107.079
  606.955   69.474    0.369    0.150    5.819  107.614
  607.776   90.292    0.351    0.153    5.821  103.222
  608.596  167.135    0.343    0.159    5.844   98.193
  609.416  159.845    0.345    0.163    5.886   97.425
  610.236  148.713    0.332    0.149    5.908  101.635
  611.056  154.705    0.325    0.138    5.930  105.820
  611.877  146.667    0.309    0.156    5.952  108.167
  612.697  137.653    0.322    0.179    5.994  106.200
  613.517  108.354    0.329    0.200    6.055  103.646
  614.337  103.736    0.328    0.212    6.078  101.705
  615.157  107.831    0.322    0.222    6.080  102.801
  615.978  112.118    0.310    0.225    6.083  101.472
  616.798  116.635    0.307    0.237    6.085   78.652
  617.618   88.439    0.305    0.249    6.087   64.434
  618.438   61.112    0.309    0.260    6.109   44.065
  619.259   42.229    0.316    0.274    6.132   34.134
  620.079   23.782    0.314    0.309    6.154   25.429
  620.899   20.352    0.311    0.318    6.196   19.174
  621.719   20.025    0.320    0.327    6.257   17.233
  622.539   19.881    0.328    0.333    6.319   15.853
  623.360   19.371    0.326    0.332    6.360   15.724
  624.180   18.369    0.321    0.330    6.402   15.672
  625.000   17.892    0.316    0.332    6.443   15.517
  625.820   17.281    0.317    0.335    6.466   16.026
  626.640   16.690    0.322    0.335    6.468   16.509
  627.461   16.409    0.327    0.336    6.490   16.993
  628.281   16.908    0.327    0.348    6.493   17.528
  629.101   18.086    0.326    0.352    6.515   18.063
  629.921   19.709    0.327    0.356    6.518   18.546
  630.741   21.868    0.324    0.354    6.539   18.365
  631.562   28.166    0.322    0.364    6.581   18.314
  632.382   33.680    0.327    0.372    6.643   18.184
  633.202   38.795    0.331    0.377    6.940   18.107
  634.022   46.403    0.333    0.383    7.296   17.977
  634.843   51.514    0.330    0.386    7.259   17.874
  635.663   55.589    0.330    0.383    7.026   18.383
  636.483   61.126    0.327    0.384    6.871   18.280
  637.303   67.860    0.318    0.384    6.913   18.125
  638.123   73.968    0.317    0.384    6.975   18.047
  638.944   76.908    0.318    0.383    6.977   17.892
  639.764   79.247    0.321    0.386    6.979   17.789
  640.584   79.413    0.326    0.391    6.982   18.298
  641.404   75.990    0.329    0.387    7.043   19.394
  642.224   74.057    0.324    0.373    7.164   19.929
  643.045   72.866    0.319    0.369    7.461   20.438
  643.865   72.866    0.316    0.383    7.738   22.785
  644.685   72.515    0.319    0.396    7.878   26.357
  645.505   71.274    0.322    0.400    7.878   30.541
  646.325   70.782    0.321    0.408    6.862   34.113
  647.146   67.695    0.318    0.411    6.864   35.209
  647.966   62.414    0.318    0.395    6.867   33.242
  648.786   59.156    0.315    0.393    6.871   32.526
  649.606   55.535    0.308    0.399    6.872   31.784
  650.427   52.636    0.306    0.409    6.872   32.268
  651.247   50.366    0.309    0.417    6.877   32.828
  652.067   49.992    0.312    0.420    6.880   33.924
  652.887   50.111    0.318    0.414    6.882   34.434
  653.707   50.671    0.315    0.403    6.885   36.142
  654.528   51.743    0.304    0.420    6.926   38.489
  655.348   52.851    0.292    0.427    6.948   39.610
  656.168   52.445    0.286    0.427    6.990   39.507
  656.988   49.707    0.299    0.425    6.994   38.791
  657.808   45.382    0.309    0.413    6.995   38.049
  658.629   41.456    0.312    0.427    7.017   37.894
  659.449   35.798    0.313    0.416    7.118   38.429
  660.269   30.351    0.324    0.443    7.199   39.551
  661.089   26.707    0.325    0.440    7.299   40.647
  661.909   27.013    0.326    0.418    7.440   41.182
  662.730   28.887    0.332    0.443    7.501   42.864
  663.550   32.061    0.331    0.457    7.543   43.986
  664.370   38.338    0.325    0.456    7.545   45.720
  665.190   44.184    0.302    0.433    7.528   46.842
  666.010   46.368    0.258    0.410    7.531   47.377
  666.831   46.036    0.198    0.395    7.533   47.860
  667.651   33.634    0.167    0.318    7.536   47.144
  668.471   23.241    0.131    0.354    7.559   47.015
  669.291   16.060    0.252    0.366    7.580   46.886
  670.112   13.744    0.268    0.371    7.681   47.395
  670.932   10.718    0.288    0.411    7.840   47.930
  671.752    9.695    0.285    0.443    8.059   49.026
  672.572    7.561    0.298    0.462    8.238   50.148
  673.392    7.164    0.300    0.445    8.299   51.269
  674.213    6.426    0.311    0.420    8.145   53.004
  675.033    6.032    0.357    0.448    8.324   54.099
  675.853    5.406    0.377    0.494    8.248   55.195
  676.673    4.845    0.379    0.497    6.915   58.181
  677.493    6.069    0.374    0.474    6.701   63.590
  678.314    8.498    0.349    0.380    6.429   69.000
  679.134   13.306    0.305    0.380    6.294   73.771
  679.954   17.302    0.302    0.373    6.238   77.982
  680.774   16.394    0.324    0.349    6.238   80.941
  681.594   15.108    0.344    0.381    6.186   83.900
  682.415   13.797    0.391    0.417    6.147   85.583
  683.235   20.437    0.431    0.430    6.147   85.480
  684.055   22.893    0.436    0.399    6.113   85.376
  684.875   25.885    0.430    0.362    6.076   83.435
  685.696   27.954    0.438    0.336    6.040   79.044
  686.516   28.789    0.441    0.320    6.022   66.025
  687.336   25.576    0.447    0.305    6.025   63.471
  688.156   24.460    0.458    0.308    6.047   65.818
  688.976   24.747    0.463    0.388    6.050   67.526
  689.797   25.977    0.470    0.401    6.071   68.036
  690.617   28.308    0.470    0.389    6.094   67.932
  691.437   34.148    0.474    0.386    6.135   65.965
  692.257   39.722    0.478    0.407    6.178   62.187
  693.077   44.075    0.480    0.418    6.199   57.157
  693.898   50.326    0.305    0.420    6.241   50.264
  694.718   55.840    0.300    0.424    6.342   51.385
  695.538   63.154    0.296    0.408    6.541   51.894
  696.358   73.442    0.300    0.408    6.720   52.990
  697.178   80.758    0.305    0.398    6.565   52.887
  697.999   87.982    0.310    0.386    6.430   51.558
  698.819   90.681    0.314    0.379    6.295   48.366
  699.639   72.045    0.317    0.367    6.220   47.012
  700.459   55.638    0.318    0.362    6.202   47.495
  701.280   26.273    0.312    0.352    6.204   47.444
  702.100   22.899    0.325    0.416    6.227   47.340
  702.920   14.687    0.357    0.445    6.229   40.447
