~VERSION INFORMATION
 VERS.                 2.0:   CWLS LOG ASCII STANDARD -VERSION 2.0
 WRAP.                  NO:   ONE LINE PER DEPTH STEP
~WELL INFORMATION BLOCK
#MNEM.UNIT           DATA                    DESCRIPTION OF MNEMONIC
#---------    -------------------            -------------------------------
# Generated from Intellog Unique Number	CS_73_76/WELL/2198
WELL.         BOW VALLEY EXPLORATION         : Well_name    - WELL
LOC .         00/11-07-074-15W4/0            : Location     - LOCATION
UWI .         00/11-07-074-15W4/0            : Uwi          - UNIQUE WELL ID
ENTR.         SP                             : Entered      - ENTERED BY
SRVC.         SCHLUMBERGER                   : Scn          - SERVICE COMPANY
STRT.M        286.512                        : top_depth    - START DEPTH
STOP.M        505.762                        : bot_depth    - STOP DEPTH
STEP.M        0.25                           : increment    - STEP LENGTH
 NULL. -999.2500:NULL Value
~CURVE INFORMATION BLOCK
#MNEM UNIT       ERCB CURVE CODE    CURVE DESCRIPTION
#-----------   ------------------   ----------------------------------
DEPT.M        00 001 00 00         : DEPTH        - DEPTH
GR  .API      00 310 00 00         : GR           - GAMMA RAY
DPHI.V/V      00 890 00 00         : PHID         - DENSITY POROSITY (SANDSTONE)
NPHI.V/V      00 330 00 00         : PHIN         - NEUTRON POROSITY (SANDSTONE)
ILD .OHMM     00 120 00 00         : RESD         - DEEP RESISTIVITY (DIL)
~PARAMETER INFORMATION
#MNEM.UNIT           DATA             DESCRIPTION OF MNEMONIC
#---------         -----------     ------------------------------
GL  .M        639.623              : gl           - GROUND LEVEL ELEVATION
EREF.M        640.69               : kb           - ELEVATION OF DEPTH REFERENCE
DATM.M        639.623              : datum        - DATUM ELEVATION
TDD .M        512.064              : tdd          - TOTAL DEPTH DRILLER
RUN .         ONE                  : Run          - RUN NUMBER
ENG .         BILL                 : Engineer     - RECORDING ENGINEER
WIT .         JIM                  : Witness      - WITNESSED BY
MUD .         GEL                  : Mud_type     - MUD TYPE
MATR.         SANDSTONE            : Logunit      - NEUTRON MATRIX
TMAX.C        16.6667              : BHT          - MAXIMUM RECORDED TEMPERATURE
BHTD.M        512.369              : BHTDEP       - MAXIMUM RECORDED TEMPERATURE
MATR.         1                    : LOGUNIT      - NEUTRON MATRIX
RMT .C        25                   : MDTP         - TEMPERATURE OF MUD
NEUT.         1                    : NEUTRON      - NEUTRON TYPE
RESI.         0                    : RESIST       - RESISTIVITY TYPE
RMC .OHMM     0.25                 : RMC          - RESISTIVITY OF MUD CAKE
RMF .OHMM     0.25                 : RMF          - RESISTIVITY OF MUD FILTRATE
SUFT.C        15                   : SUFT         - SURFACE TEMPERATURE
~A  DEPTH       GR     PHID     PHIN     RESD
# ...
  460.512   92.289    0.217    0.489    3.301
  460.762   93.476    0.208    0.512    3.112
  461.012   93.935    0.199    0.530    3.038
  461.262   89.707    0.220    0.546    3.219
  461.512   85.198    0.200    0.502    3.504
  461.762   80.186    0.190    0.473    3.753
  462.012   75.751    0.188    0.459    4.266
  462.262   78.711    0.140    0.462    4.751
  462.512   80.431    0.194    0.470    5.112
  462.762   81.892    0.218    0.475    5.236
  463.012   80.314    0.206    0.485    5.225
  463.262   80.152    0.215    0.486    5.220
  463.512   82.024    0.224    0.482    5.206
  463.762   84.634    0.236    0.475    5.307
  464.012   87.373    0.239    0.487    5.288
  464.262   86.734    0.223    0.495    5.396
  464.512   86.314    0.193    0.477    5.488
  464.762   84.628    0.194    0.488    5.370
  465.012   81.899    0.198    0.486    5.358
  465.262   79.126    0.151    0.472    5.279
  465.512   81.017    0.131    0.455    5.161
  465.762   80.611    0.171    0.460    5.157
  466.012   79.488    0.198    0.469    5.070
  466.262   80.534    0.225    0.480    5.105
  466.512   79.412    0.185    0.481    5.157
  466.762   76.132    0.170    0.479    5.315
  467.012   72.003    0.138    0.479    5.478
  467.262   75.782    0.095    0.475    5.528
  467.512   81.345    0.167    0.483    5.810
  467.762   82.876    0.185    0.472    5.987
  468.012   81.300    0.195    0.486    6.372
  468.262   78.332    0.199    0.503    6.427
  468.512   75.293    0.193    0.499    6.617
  468.762   77.477    0.149    0.452    6.608
  469.012   82.136    0.099    0.418    6.366
  469.262   86.721    0.124    0.441    6.113
  469.512   88.334    0.162    0.472    5.923
  469.762   87.817    0.182    0.481    5.980
  470.012   85.201    0.160    0.474    6.701
  470.262   79.452    0.176    0.489    7.530
  470.512   69.826    0.218    0.442    9.384
  470.762   61.733    0.241    0.417   11.677
  471.012   63.996    0.252    0.402   16.195
  471.262   65.939    0.264    0.405   20.922
  471.512   65.209    0.253    0.411   23.745
  471.762   67.737    0.243    0.421   24.504
  472.012   74.259    0.257    0.421   20.500
  472.262   81.659    0.267    0.404   18.591
  472.512   87.843    0.249    0.390   15.600
  472.762   95.129    0.226    0.395   13.428
  473.012  102.661    0.217    0.413   11.166
  473.262  105.994    0.209    0.423    9.945
  473.512  103.158    0.221    0.443    9.017
  473.762   95.353    0.205    0.462    8.369
  474.012   72.869    0.210    0.422    9.864
  474.262   58.012    0.248    0.366   12.348
  474.512   60.868    0.269    0.328   15.240
  474.762   64.087    0.228    0.385   19.333
  475.012   58.784    0.207    0.411   23.460
  475.262   55.740    0.201    0.415   25.608
  475.512   63.947    0.224    0.379   24.840
  475.762   74.575    0.236    0.391   22.659
  476.012   83.630    0.209    0.411   21.525
  476.262   85.942    0.216    0.428   19.555
  476.512   83.999    0.227    0.423   17.541
  476.762   80.307    0.216    0.405   15.669
  477.012   79.802    0.223    0.390   14.593
  477.262   83.048    0.221    0.380   13.956
  477.512   86.857    0.209    0.374   13.694
  477.762   88.265    0.208    0.375   13.047
  478.012   87.634    0.217    0.386   12.644
  478.262   87.960    0.209    0.397   12.240
  478.512   92.076    0.187    0.413   11.667
  478.762   95.568    0.178    0.420   11.316
  479.012   99.015    0.176    0.427   10.972
  479.262   94.569    0.200    0.442   10.787
  479.512   81.093    0.218    0.445   10.959
  479.762   75.371    0.234    0.415   11.797
  480.012   74.847    0.200    0.380   13.124
  480.262   78.572    0.189    0.354   14.616
  480.512   74.896    0.169    0.358   15.171
  480.762   76.389    0.128    0.361   15.354
  481.012   78.979    0.096    0.368   14.896
  481.262   78.387    0.205    0.379   14.424
  481.512   78.970    0.201    0.385   14.033
  481.762   73.393    0.197    0.382   14.346
  482.012   66.354    0.189    0.381   14.926
  482.262   63.178    0.243    0.393   16.671
  482.512   61.159    0.264    0.424   18.196
  482.762   57.625    0.284    0.457   20.618
  483.012   54.552    0.285    0.461   24.662
  483.262   58.644    0.276    0.408   27.493
  483.512   63.282    0.263    0.373   28.120
  483.762   63.941    0.247    0.400   28.511
  484.012   63.396    0.271    0.422   27.521
  484.262   66.773    0.273    0.398   25.980
  484.512   67.601    0.271    0.393   23.450
  484.762   67.476    0.263    0.393   21.335
  485.012   70.247    0.220    0.388   20.650
  485.262   73.004    0.199    0.391   19.605
  485.512   68.445    0.179    0.395   19.390
  485.762   61.506    0.162    0.390   18.889
  486.012   63.404    0.195    0.401   18.527
  486.262   68.917    0.258    0.378   17.532
  486.512   74.311    0.239    0.362   16.244
  486.762   78.322    0.223    0.364   14.869
  487.012   80.854    0.204    0.357   13.705
  487.262   83.576    0.170    0.347   12.945
  487.512   86.092    0.165    0.344   12.584
  487.762   91.498    0.173    0.362   11.729
  488.012   92.743    0.181    0.386   11.182
  488.262   91.177    0.199    0.375   11.007
  488.512   89.704    0.191    0.391   10.765
  488.762   89.120    0.191    0.412   10.776
  489.012   85.315    0.192    0.412   10.771
  489.262   84.187    0.200    0.396   10.817
  489.512   87.230    0.214    0.390   10.946
  489.762   91.798    0.205    0.389   11.070
  490.012   95.421    0.190    0.408   11.166
  490.262   95.712    0.195    0.422   11.325
  490.512   94.954    0.198    0.418   11.428
  490.762   95.778    0.208    0.391   11.526
  491.012   96.169    0.220    0.388   11.892
  491.262   96.433    0.210    0.391   12.339
  491.512   92.671    0.194    0.396   12.825
  491.762   85.369    0.176    0.391   13.229
  492.012   79.874    0.173    0.366   13.263
  492.262   81.681    0.169    0.349   12.995
  492.512   85.054    0.166    0.362   12.242
  492.762   91.614    0.167    0.389   11.261
  493.012   97.157    0.155    0.414   10.634
  493.262  101.247    0.142    0.459    9.686
  493.512   99.517    0.175    0.466    9.425
  493.762   83.301    0.188    0.476    9.429
  494.012   63.011    0.208    0.473   10.067
  494.262   49.750    0.244    0.411   11.282
  494.512   58.636    0.267    0.388   13.136
  494.762   68.239    0.256    0.369   15.639
  495.012   80.015    0.232    0.358   17.938
  495.262   91.124    0.203    0.369   17.142
  495.512   97.321    0.179    0.376   15.069
  495.762  103.057    0.176    0.381   13.079
  496.012  101.894    0.179    0.393   11.437
  496.262   97.404    0.164    0.408   10.298
  496.512   86.831    0.177    0.424    9.890
  496.762   81.346    0.188    0.353    9.965
  497.012   93.244    0.198    0.321   10.248
  497.262  103.230    0.185    0.338   10.399
  497.512  105.436    0.170    0.358   10.404
  497.762  109.905    0.167    0.372   10.392
  498.012  115.342    0.163    0.385   10.069
  498.262  117.629    0.149    0.396    9.828
  498.512  109.701    0.172    0.415    9.640
  498.762   90.104    0.178    0.400    9.627
  499.012   83.245    0.161    0.369    9.929
  499.262   77.515    0.154    0.348   11.104
  499.512   74.356    0.138    0.334   12.152
  499.762   69.154    0.124    0.333   13.825
  500.012   63.360    0.073    0.297   15.539
  500.262   54.622    0.004    0.258   18.334
  500.512   43.267   -0.000    0.249   22.221
  500.762   31.578    0.008    0.246   29.307
  501.012   27.384    0.035    0.259   56.573
  501.262   25.998    0.063    0.275  106.198
  501.512   18.494    0.034    0.285  152.112
  501.762   17.625    0.067    0.294  193.918
  502.012   17.275    0.085    0.311  243.450
  502.262   17.234    0.086    0.324  277.564
  502.512   17.087    0.067    0.326  288.282
  502.762   16.596    0.053    0.316  286.895
  503.012   16.587    0.062    0.304  267.468
  503.262   16.591    0.073    0.305  250.820
  503.512   16.013    0.083    0.310  250.988
  503.762   15.938    0.078    0.320  261.554
