~VERSION INFORMATION
 VERS.                 2.0:   CWLS LOG ASCII STANDARD -VERSION 2.0
 WRAP.                  NO:   ONE LINE PER DEPTH STEP
~WELL INFORMATION BLOCK
#MNEM.UNIT           DATA                    DESCRIPTION OF MNEMONIC
#---------    -------------------            -------------------------------
# Generated from Intellog Unique Number	CC_80_83/WELL/2415
NULL.         -999.25                        : NULL_VALUE
WELL.         BAYSEL PHILLIPS                : Well_name    - WELL              
LOC .         11-29-081-08W4                 : Location     - LOCATION          
UWI .         00/11-29-081-08W4/0            : Uwi          - UNIQUE WELL ID    
ENTR.         DW                             : Entered      - ENTERED BY        
SRVC.         SCHLUMBERGER                   : Scn          - SERVICE COMPANY   
DATE.         03 MAR 76                      : Date         - LOG DATE
STRT.M        265.176                        : top_depth    - START DEPTH       
STOP.M        490.735                        : bot_depth    - STOP DEPTH        
STEP.M        0.305                          : increment    - STEP LENGTH       
~CURVE INFORMATION BLOCK
#MNEM UNIT       ERCB CURVE CODE    CURVE DESCRIPTION
#-----------   ------------------   ----------------------------------
DEPT.M        00 001 00 00         : DEPTH        - DEPTH                       
DPHI.V/V      00 890 00 00         : PHID         - DENSITY POROSITY (LIMESTONE)
GR  .API      00 310 00 00         : GR           - GAMMA RAY                   
ILD .OHMM     00 120 00 00         : RESD         - DEEP RESISTIVITY (DIL)      
~PARAMETER INFORMATION       
#MNEM.UNIT           DATA             DESCRIPTION OF MNEMONIC
#---------         -----------     ------------------------------
GL  .M        708.965              : gl           - GROUND LEVEL ELEVATION      
EREF.M        712.622              : kb           - ELEVATION OF DEPTH REFERENCE
DATM.M        712.622              : datum        - DATUM ELEVATION             
TDD .M        496.824              : tdd          - TOTAL DEPTH DRILLER         
RUN .         ONE                  : Run          - RUN NUMBER                  
ENG .         BILL                 : Engineer     - RECORDING ENGINEER          
WIT .         JIM                  : Witness      - WITNESSED BY                
MUD .         GEL                  : Mud_type     - MUD TYPE                    
MATR.         LIMESTONE            : Logunit      - NEUTRON MATRIX              
TMAX.C        23.8889              : BHT          - MAXIMUM RECORDED TEMPERATURE
BHTD.M        496.824              : BHTDEP       - MAXIMUM RECORDED TEMPERATURE
MATR.         1                    : LOGUNIT      - NEUTRON MATRIX              
RMT .C        25                   : MDTP         - TEMPERATURE OF MUD          
NEUT.         1                    : NEUTRON      - NEUTRON TYPE                
RESI.         0                    : RESIST       - RESISTIVITY TYPE            
RMC .OHMM     0.25                 : RMC          - RESISTIVITY OF MUD CAKE     
RMF .OHMM     0.25                 : RMF          - RESISTIVITY OF MUD FILTRATE 
SUFT.C        4                    : SUFT         - SURFACE TEMPERATURE         
~A  DEPTH     PHID       GR     RESD
# ...
  331.320    0.249   96.064    4.459
  331.624    0.246   92.329    4.289
  331.929    0.248   88.600    4.364
  332.234    0.269   78.742    4.441
  332.539    0.277   63.579    4.963
  332.844    0.302   54.541    6.090
  333.149    0.363   45.091    8.520
  333.453    0.371   47.073   12.374
  333.758    0.351   50.680   19.367
  334.063    0.338   50.208   22.049
  334.368    0.333   49.754   21.608
  334.673    0.348   49.697   20.785
  334.977    0.333   48.813   20.001
  335.282    0.318   47.121   19.968
  335.587    0.330   48.285   20.703
  335.892    0.354   50.271   21.060
  336.197    0.364   44.492   20.655
  336.501    0.363   47.705   20.243
  336.806    0.369   51.321   20.217
  337.111    0.358   51.256   20.193
  337.416    0.372   41.809   21.324
  337.721    0.359   41.747   21.707
  338.025    0.356   47.000   22.090
  338.330    0.359   45.709   23.327
  338.635    0.353   41.575   24.190
  338.940    0.328   43.139   25.550
  339.245    0.311   42.680   26.497
  339.550    0.277   44.651   26.964
  339.854    0.233   44.596   26.429
  340.159    0.326   42.089   24.951
  340.464    0.355   41.621   22.694
  340.769    0.374   46.867   21.829
  341.074    0.373   48.855   21.390
  341.378    0.365   48.381   21.758
  341.683    0.362   45.464   21.743
  341.988    0.359   39.286   22.122
  342.293    0.352   41.269   22.503
  342.598    0.342   46.517   22.058
  342.902    0.350   46.451   21.625
  343.207    0.362   42.314   21.594
  343.512    0.365   42.251   21.968
  343.817    0.373   46.687   21.954
  344.122    0.376   44.171   21.114
  344.426    0.372   43.709   19.571
  344.731    0.359   45.282   17.144
  345.036    0.346   50.122   13.175
  345.341    0.325   61.080    9.571
  345.646    0.264   78.982    7.217
  345.951    0.247   87.902    6.205
  346.255    0.246   90.700    5.857
  346.560    0.258   85.742    5.852
  346.865    0.259   86.888    6.180
  347.170    0.249   87.658    6.408
  347.475    0.226   87.194    6.050
  347.779    0.231   85.502    4.649
  348.084    0.244   81.360    3.442
  348.389    0.255   83.752    3.248
  348.694    0.247   84.505    3.306
  348.999    0.241   87.308    3.836
  349.303    0.264   87.236    4.886
  349.608    0.262   83.507    6.108
  349.913    0.247   78.148    6.215
  350.218    0.254   78.900    6.091
  350.523    0.247   78.432    5.862
  350.827    0.257   77.152    5.532
  351.132    0.269   81.173    5.322
  351.437    0.275   83.970    5.216
  351.742    0.274   84.725    5.211
  352.047    0.278   80.578    5.715
  352.352    0.284   75.629    7.145
  352.656    0.289   63.323   10.186
  352.961    0.310   65.715   12.037
  353.266    0.302   75.045   12.249
  353.571    0.292   74.576   11.137
  353.876    0.286   79.009    9.576
  354.180    0.287   74.050    8.550
  354.485    0.309   68.273    7.215
  354.790    0.284   72.298    6.088
  355.095    0.257   83.665    5.135
  355.400    0.263   75.446    4.500
  355.704    0.261   77.014    3.524
  356.009    0.255   83.082    2.045
  356.314    0.234   92.000    1.693
  356.619    0.238   93.981    1.723
  356.924    0.255   94.739    1.820
  357.228    0.279   87.741    2.363
  357.533    0.284   76.251    3.698
  357.838    0.289   68.843    7.111
  358.143    0.295   67.149    6.346
  358.448    0.299   70.356    5.356
  358.753    0.293   81.728    4.194
  359.057    0.254   91.052    3.345
  359.362    0.263   90.170    2.770
  359.667    0.254   88.082    2.664
  359.972    0.253   86.386    2.660
  360.277    0.250   93.267    2.658
  360.581    0.245   91.157    2.808
  360.886    0.252   89.069    2.910
  361.191    0.259   89.009    2.963
  361.496    0.265   85.274    2.959
  361.801    0.273   83.579    3.068
  362.105    0.277   81.475    3.241
  362.410    0.265   90.812    3.553
  362.715    0.251   89.935    3.825
  363.020    0.263   86.187    4.355
  363.325    0.273   84.913    4.867
  363.629    0.278   81.997    5.336
  363.934    0.284   74.992    5.429
  364.239    0.291   74.940    5.320
  364.544    0.293   81.823    5.416
  364.849    0.273   79.724    5.308
  365.154    0.258   74.350    5.300
  365.458    0.274   76.331    5.296
  365.763    0.286   84.442    5.388
  366.068    0.278   81.931    5.484
  366.373    0.266   81.871    5.683
  366.678    0.266   81.403    6.004
  366.982    0.273   71.552    6.343
  367.287    0.287   73.928    6.702
  367.592    0.288   72.234    7.214
  367.897    0.303   69.725    7.622
  368.202    0.299   61.511    8.204
  368.506    0.301   63.894    8.664
  368.811    0.311   66.698    8.818
  369.116    0.317   65.006    8.641
  369.421    0.312   60.870    8.470
  369.726    0.312   61.625    8.460
  370.030    0.303   68.501    8.769
  370.335    0.280   67.221    9.621
  370.640    0.250   58.182   11.158
  370.945    0.154   52.405   11.145
  371.250    0.200   58.877   10.722
  371.555    0.242   63.309    9.750
  371.859    0.315   61.615    9.204
  372.164    0.323   61.965    9.023
  372.469    0.320   62.313    8.844
  372.774    0.307   61.843    8.832
  373.079    0.303   61.790    8.822
  373.383    0.318   64.176    8.646
  373.688    0.319   66.977    8.473
  373.993    0.317   66.915    8.305
  374.298    0.317   60.319    8.294
  374.603    0.335   60.268    8.442
  374.907    0.336   62.649    8.590
  375.212    0.331   63.403    8.907
  375.517    0.316   61.302    9.587
  375.822    0.326   59.210   11.121
  376.127    0.316   56.296   12.196
  376.431    0.183   54.584   11.951
  376.736    0.101   53.726   11.284
  377.041    0.178   57.342   10.459
  377.346    0.215   62.589    9.335
  377.651    0.329   65.782    8.649
  377.956    0.330   64.909    8.636
  378.260    0.311   62.406    8.627
  378.565    0.317   59.086    8.778
  378.870    0.314   57.798    8.934
  379.175    0.312   60.187    8.922
  379.480    0.319   65.844    9.245
  379.784    0.326   62.516    9.234
  380.089    0.336   53.070    9.225
  380.394    0.334   55.461    9.214
  380.699    0.326   61.118    9.371
  381.004    0.321   61.039    9.361
  381.308    0.325   60.584    9.350
  381.613    0.318   57.661    9.340
  381.918    0.324   55.980    9.323
  382.223    0.329   54.283    9.313
  382.528    0.319   52.170    9.479
  382.832    0.266   52.537   10.591
  383.137    0.217   52.065   15.098
  383.442    0.078   39.766   19.966
  383.747    0.141   38.072   20.701
  384.052    0.235   51.076   19.543
  384.357    0.270   57.131   14.740
  384.661    0.306   60.752    7.502
  384.966    0.309   68.854    5.451
  385.271    0.264   85.117    4.599
  385.576    0.259   80.567    4.506
  385.881    0.287   76.016    4.762
  386.185    0.287   77.188    5.421
  386.490    0.258   81.618    5.946
  386.795    0.240   79.513    5.939
  387.100    0.240   79.861    5.607
  387.405    0.247   81.433    5.599
  387.709    0.238   83.005    5.914
  388.014    0.243   89.894    5.908
  388.319    0.241   89.000    5.683
  388.624    0.252   86.100    4.976
  388.929    0.266   86.035    4.443
  389.233    0.271   87.599    3.821
  389.538    0.267   87.960    3.164
  389.843    0.260   87.084    2.720
  390.148    0.255   89.061    2.428
  390.453    0.276   91.047    2.292
  390.758    0.277   91.397    2.247
  391.062    0.260   89.690    2.286
  391.367    0.278   88.410    2.415
  391.672    0.278   85.506    2.750
  391.977    0.279   81.765    3.438
  392.282    0.271   80.082    4.464
  392.586    0.258   84.098    5.579
  392.891    0.249   83.219    6.119
  393.196    0.251   82.758    6.465
  393.501    0.261   79.843    6.701
  393.806    0.266   76.513    6.821
  394.110    0.274   71.968    7.070
  394.415    0.286   82.114    7.470
  394.720    0.270   86.130    8.191
  395.025    0.210   86.478    9.325
  395.330    0.193   85.605   10.423
  395.634    0.178   74.117   11.431
  395.939    0.131   71.601   11.630
  396.244    0.163   80.941   11.190
  396.549    0.210   83.728   10.369
  396.854    0.219   81.619    8.584
  397.159    0.223   84.843    7.664
