~VERSION INFORMATION
 VERS.                 2.0:   CWLS LOG ASCII STANDARD -VERSION 2.0
 WRAP.                  NO:   ONE LINE PER DEPTH STEP
~WELL INFORMATION BLOCK
#MNEM.UNIT           DATA                    DESCRIPTION OF MNEMONIC
#---------    -------------------            -------------------------------
# Generated from Intellog Unique Number	CS_71_72/WELL/922
WELL.         SULPETRO BRENDA IPIATIK        : Well_name    - WELL
LOC .         00/14-01-072-10W4/0            : Location     - LOCATION
UWI .         00/14-01-072-10W4/0            : Uwi          - UNIQUE WELL ID
ENTR.         SP                             : Entered      - ENTERED BY
SRVC.         SCHLUMBERGER                   : Scn          - SERVICE COMPANY
STRT.M        310.25                         : top_depth    - START DEPTH
STOP.M        510                            : bot_depth    - STOP DEPTH
STEP.M        0.25                           : increment    - STEP LENGTH
 NULL. -999.2500:NULL Value
~CURVE INFORMATION BLOCK
#MNEM UNIT       ERCB CURVE CODE    CURVE DESCRIPTION
#-----------   ------------------   ----------------------------------
DEPT.M        00 001 00 00         : DEPTH        - DEPTH
ILD .OHMM     00 120 00 00         : RESD         - DEEP RESISTIVITY (DIL)
DPHI.V/V      00 890 00 00         : PHID         - DENSITY POROSITY (LIMESTONE)
NPHI.V/V      00 330 00 00         : PHIN         - NEUTRON POROSITY (LIMESTONE)
GR  .API      00 310 00 00         : GR           - GAMMA RAY
~PARAMETER INFORMATION
#MNEM.UNIT           DATA             DESCRIPTION OF MNEMONIC
#---------         -----------     ------------------------------
GL  .M        664.9                : gl           - GROUND LEVEL ELEVATION
EREF.M        667.5                : kb           - ELEVATION OF DEPTH REFERENCE
DATM.M        664.9                : datum        - DATUM ELEVATION
TDD .M        521                  : tdd          - TOTAL DEPTH DRILLER
RUN .         ONE                  : Run          - RUN NUMBER
ENG .         BILL                 : Engineer     - RECORDING ENGINEER
WIT .         JIM                  : Witness      - WITNESSED BY
MUD .         GEL                  : Mud_type     - MUD TYPE
MATR.         LIMESTONE            : Logunit      - NEUTRON MATRIX
TMAX.C        25                   : BHT          - MAXIMUM RECORDED TEMPERATURE
BHTD.M        521                  : BHTDEP       - MAXIMUM RECORDED TEMPERATURE
MATR.         1                    : LOGUNIT      - NEUTRON MATRIX
RMT .C        25                   : MDTP         - TEMPERATURE OF MUD
NEUT.         1                    : NEUTRON      - NEUTRON TYPE
RESI.         0                    : RESIST       - RESISTIVITY TYPE
RMC .OHMM     0.25                 : RMC          - RESISTIVITY OF MUD CAKE
RMF .OHMM     0.25                 : RMF          - RESISTIVITY OF MUD FILTRATE
SUFT.C        15                   : SUFT         - SURFACE TEMPERATURE
~A  DEPTH     RESD     PHID     PHIN       GR
# ...
  353.750   11.627    0.239    0.405   89.103
  354.000   12.301    0.237    0.427   83.041
  354.250   14.549    0.232    0.510   87.308
  354.500   16.891    0.215    0.164   84.890
  354.750   18.543    0.008    0.128   72.757
  355.000   20.361   -0.003    0.112   67.908
  355.250   21.541    0.014    0.117   72.176
  355.500   21.959    0.117    0.365   77.044
  355.750   20.404    0.251    0.399   84.347
  356.000   18.607    0.277    0.425   80.716
  356.250   17.613    0.281    0.439   74.049
  356.500   17.294    0.262    0.444   75.883
  356.750   16.678    0.218    0.427   77.111
  357.000   15.207    0.055    0.395   79.553
  357.250   13.362    0.038    0.359   88.067
  357.500   11.526    0.034    0.355   97.189
  357.750   10.318    0.132    0.476   98.417
  358.000    9.408    0.188    0.465   93.573
  358.250    8.741    0.225    0.415   99.659
  358.500    8.431    0.222    0.393  109.997
  358.750    8.435    0.216    0.410  113.043
  359.000    8.440    0.216    0.429  112.449
  359.250    8.604    0.211    0.414  106.388
  359.500    8.608    0.214    0.368  100.936
  359.750    8.942    0.231    0.355  102.163
  360.000    9.113    0.235    0.361  108.252
  360.250    9.121    0.229    0.376  111.905
  360.500    9.298    0.218    0.369  111.311
  360.750    9.303    0.214    0.348  107.073
  361.000    9.308    0.211    0.326  108.300
  361.250    9.313    0.212    0.357  108.925
  361.500    9.855    0.218    0.371  110.756
  361.750   10.046    0.229    0.387   98.019
  362.000   10.431    0.235    0.385   95.603
  362.250   10.836    0.228    0.379   95.004
  362.500   10.841    0.219    0.368   95.627
  362.750   10.851    0.214    0.364   98.674
  363.000   10.855    0.210    0.393  103.554
  363.250   10.469    0.205    0.408  104.776
  363.500   10.280    0.214    0.396  103.571
  363.750    9.553    0.204    0.404   97.513
  364.000    9.039    0.202    0.421   94.486
  364.250    8.093    0.211    0.383  113.934
  364.500    7.517    0.196    0.365  125.485
  364.750    6.729    0.182    0.378  132.786
  365.000    6.990    0.180    0.400  132.193
  365.250    7.393    0.219    0.397  120.058
  365.500    7.821    0.231    0.374  111.570
  365.750    8.587    0.227    0.361  108.548
  366.000    9.428    0.216    0.398  105.521
  366.250   10.948    0.237    0.427   95.210
  366.500   12.018    0.261    0.434   86.117
  366.750   13.445    0.272    0.442   82.486
  367.000   14.225    0.282    0.448   81.283
  367.250   14.774    0.282    0.440   80.686
  367.500   15.061    0.281    0.434   79.486
  367.750   15.067    0.285    0.431   79.497
  368.000   14.528    0.272    0.428   89.840
  368.250   14.272    0.259    0.424   92.885
  368.500   14.020    0.250    0.421   94.719
  368.750   13.768    0.241    0.426   91.695
  369.000   13.029    0.235    0.430   93.532
  369.250   12.331    0.239    0.417   96.580
  369.500   11.674    0.227    0.397  100.844
  369.750   11.465    0.211    0.400  109.967
  370.000   11.261    0.205    0.419  113.017
  370.250   11.482    0.214    0.411  109.384
  370.500   11.703    0.223    0.356  103.323
  370.750   12.383    0.229    0.334   91.191
  371.000   13.100    0.223    0.308   83.308
  371.250   13.604    0.216    0.358   83.322
  371.500   13.865    0.228    0.377   90.624
  371.750   14.137    0.234    0.370   96.100
  372.000   13.631    0.222    0.356   91.864
  372.250   13.387    0.224    0.359   90.664
  372.500   12.441    0.219    0.372   91.282
  372.750   11.774    0.208    0.362   95.546
  373.000   11.351    0.201    0.368  100.420
  373.250   10.942    0.215    0.354  102.861
  373.500   10.358    0.220    0.351   99.836
  373.750    9.805    0.210    0.356   93.777
  374.000    9.629    0.193    0.369  101.075
  374.250    9.282    0.185    0.395  113.842
  374.500    9.117    0.175    0.373  122.356
  374.750    8.792    0.185    0.371  113.869
  375.000    8.634    0.208    0.394  101.734
  375.250    8.481    0.221    0.402   94.462
  375.500    8.809    0.247    0.425   87.793
  375.750    9.147    0.255    0.453   80.519
  376.000   10.044    0.258    0.502   73.243
  376.250   10.826    0.277    0.398   67.181
  376.500   11.242    0.288    0.369   78.739
  376.750   13.054    0.296    0.360   84.824
  377.000   14.333    0.300    0.365   87.261
  377.250   15.162    0.289    0.371   87.887
  377.500   15.744    0.281    0.414   84.858
  377.750   15.754    0.281    0.456   75.157
  378.000   15.478    0.284    0.455   71.523
  378.250   15.491    0.289    0.427   69.716
  378.500   15.496    0.306    0.395   67.298
  378.750   14.668    0.314    0.381   72.781
  379.000   13.878    0.311    0.384   74.611
  379.250   12.894    0.315    0.368   75.839
  379.500   11.981    0.307    0.360   83.141
  379.750   11.766    0.288    0.348   88.621
  380.000   11.774    0.266    0.370   83.170
  380.250   12.456    0.296    0.390   77.714
  380.500   14.195    0.315    0.410   71.653
  380.750   16.482    0.329    0.448   64.379
  381.000   17.111    0.346    0.437   57.713
  381.250   19.142    0.321    0.402   53.474
  381.500   21.022    0.306    0.376   52.271
  381.750   21.827    0.307    0.357   54.106
  382.000   23.102    0.318    0.394   54.728
  382.250   23.992    0.317    0.430   53.523
  382.500   24.456    0.301    0.447   52.929
  382.750   25.393    0.291    0.463   54.158
  383.000   25.405    0.289    0.449   57.208
  383.250   25.898    0.297    0.403   55.397
  383.500   25.913    0.298    0.375   49.945
  383.750   25.929    0.289    0.368   49.349
  384.000   25.946    0.286    0.376   53.011
  384.250   26.453    0.284    0.391   54.233
  384.500   25.986    0.284    0.400   56.679
  384.750   26.005    0.287    0.415   54.870
  385.000   26.018    0.296    0.420   51.851
  385.250   26.034    0.297    0.409   51.249
  385.500   25.569    0.292    0.395   55.513
  385.750   25.129    0.292    0.388   60.385
  386.000   25.140    0.298    0.384   56.147
  386.250   24.688    0.304    0.376   53.122
  386.500   24.248    0.308    0.362   54.960
  386.750   22.952    0.308    0.353   50.723
  387.000   22.540    0.318    0.342   47.697
  387.250   21.738    0.336    0.388   50.745
  387.500   21.746    0.346    0.424   55.619
  387.750   22.170    0.314    0.430   56.844
  388.000   22.601    0.293    0.387   53.825
  388.250   23.041    0.287    0.380   52.619
  388.500   23.925    0.287    0.375   53.244
  388.750   24.395    0.293    0.364   55.075
  389.000   24.409    0.292    0.367   58.130
  389.250   23.977    0.292    0.393   58.743
  389.500   23.549    0.298    0.412   59.971
  389.750   22.705    0.305    0.408   58.769
  390.000   22.298    0.306    0.408   56.355
  390.250   21.114    0.306    0.414   58.795
  390.500   21.124    0.304    0.423   59.418
  390.750   20.747    0.304    0.431   56.398
  391.000   20.762    0.305    0.418   55.798
  391.250   20.776    0.315    0.407   59.453
  391.500   20.792    0.322    0.392   67.368
  391.750   20.807    0.313    0.385   70.412
  392.000   20.440    0.309    0.377   75.282
  392.250   20.827    0.304    0.382   63.759
  392.500   20.464    0.310    0.404   58.910
  392.750   20.473    0.318    0.417   58.315
  393.000   20.482    0.313    0.428   60.155
  393.250   20.503    0.315    0.418   61.383
  393.500   20.512    0.324    0.425   62.605
  393.750   20.522    0.321    0.446   66.874
  394.000   20.542    0.317    0.468   69.313
  394.250   20.552    0.321    0.471   70.539
  394.500   20.186    0.316    0.445   66.910
  394.750   20.196    0.310    0.412   60.852
  395.000   20.217    0.305    0.400   57.221
  395.250   20.226    0.306    0.423   54.803
  395.500   20.235    0.307    0.434   52.997
  395.750   20.257    0.303    0.422   52.397
  396.000   20.267    0.306    0.407   54.842
  396.250   20.277    0.311    0.392   56.067
  396.500   20.292    0.304    0.390   57.293
  396.750   19.931    0.301    0.387   60.344
  397.000   19.944    0.304    0.390   65.215
