~VERSION INFORMATION
 VERS.                 2.0:   CWLS LOG ASCII STANDARD -VERSION 2.0
 WRAP.                  NO:   ONE LINE PER DEPTH STEP
~WELL INFORMATION BLOCK
#MNEM.UNIT           DATA                    DESCRIPTION OF MNEMONIC
#---------    -------------------            -------------------------------
# Generated from Intellog Unique Number	CS_73_76/WELL/3272
WELL.         TOTAL PETROLEUM (N.A.) LTD     : Well_name    - WELL
LOC .         00/12-14-075-08W4/0            : Location     - LOCATION
UWI .         00/12-14-075-08W4/0            : Uwi          - UNIQUE WELL ID
ENTR.         SP                             : Entered      - ENTERED BY
SRVC.         SCHLUMBERGER                   : Scn          - SERVICE COMPANY
STRT.M        250                            : top_depth    - START DEPTH
STOP.M        495                            : bot_depth    - STOP DEPTH
STEP.M        0.25                           : increment    - STEP LENGTH
 NULL. -999.2500:NULL Value
~CURVE INFORMATION BLOCK
#MNEM UNIT       ERCB CURVE CODE    CURVE DESCRIPTION
#-----------   ------------------   ----------------------------------
DEPT.M        00 001 00 00         : DEPTH        - DEPTH
ILD .OHMM     00 120 00 00         : RESD         - DEEP RESISTIVITY (DIL)
DPHI.V/V      00 890 00 00         : PHID         - DENSITY POROSITY (LIMESTONE)
NPHI.V/V      00 330 00 00         : PHIN         - NEUTRON POROSITY (LIMESTONE)
GR  .API      00 310 00 00         : GR           - GAMMA RAY
~PARAMETER INFORMATION
#MNEM.UNIT           DATA             DESCRIPTION OF MNEMONIC
#---------         -----------     ------------------------------
GL  .M        668.17               : gl           - GROUND LEVEL ELEVATION
EREF.M        671.17               : kb           - ELEVATION OF DEPTH REFERENCE
DATM.M        668.17               : datum        - DATUM ELEVATION
TDD .M        504                  : tdd          - TOTAL DEPTH DRILLER
RUN .         ONE                  : Run          - RUN NUMBER
ENG .         BILL                 : Engineer     - RECORDING ENGINEER
WIT .         JIM                  : Witness      - WITNESSED BY
MUD .         GEL                  : Mud_type     - MUD TYPE
MATR.         LIMESTONE            : Logunit      - NEUTRON MATRIX
TMAX.C        23.5                 : BHT          - MAXIMUM RECORDED TEMPERATURE
BHTD.M        504                  : BHTDEP       - MAXIMUM RECORDED TEMPERATURE
MATR.         1                    : LOGUNIT      - NEUTRON MATRIX
RMT .C        25                   : MDTP         - TEMPERATURE OF MUD
NEUT.         1                    : NEUTRON      - NEUTRON TYPE
RESI.         0                    : RESIST       - RESISTIVITY TYPE
RMC .OHMM     0.25                 : RMC          - RESISTIVITY OF MUD CAKE
RMF .OHMM     0.25                 : RMF          - RESISTIVITY OF MUD FILTRATE
SUFT.C        15                   : SUFT         - SURFACE TEMPERATURE
~A  DEPTH     RESD     PHID     PHIN       GR
# ...
  380.500    7.616    0.305    0.419   51.614
  380.750    7.763    0.305    0.434   52.228
  381.000    7.764    0.318    0.439   51.618
  381.250    7.766    0.329    0.445   52.231
  381.500    7.767    0.341    0.455   53.457
  381.750    7.770    0.340    0.456   54.071
  382.000    7.771    0.336    0.434   52.848
  382.250    7.772    0.336    0.425   52.237
  382.500    7.775    0.336    0.425   52.239
  382.750    7.776    0.336    0.429   54.077
  383.000    7.778    0.332    0.430   55.916
  383.250    7.780    0.345    0.449   56.529
  383.500    7.781    0.352    0.460   55.919
  383.750    7.783    0.350    0.447   57.144
  384.000    7.784    0.338    0.438   58.983
  384.250    7.640    0.330    0.445   57.148
  384.500    7.643    0.328    0.445   60.211
  384.750    7.644    0.336    0.428   63.273
  385.000    7.646    0.336    0.447   64.499
  385.250    7.505    0.334    0.473   64.501
  385.500    7.506    0.334    0.488   63.890
  385.750    7.367    0.334    0.498   63.892
  386.000    7.369    0.334    0.505   63.281
  386.250    7.371    0.347    0.471   61.445
  386.500    7.235    0.361    0.455   57.774
  386.750    7.236    0.365    0.482   56.551
  387.000    7.103    0.368    0.495   56.552
  387.250    7.104    0.360    0.479   56.553
  387.500    7.106    0.360    0.477   53.494
  387.750    7.107    0.361    0.464   52.271
  388.000    7.109    0.356    0.455   52.273
  388.250    7.111    0.355    0.456   52.274
  388.500    7.247    0.354    0.463   50.439
  388.750    7.248    0.355    0.475   49.828
  389.000    7.251    0.349    0.471   52.891
  389.250    7.252    0.341    0.451   55.954
  389.500    7.253    0.336    0.441   57.180
  389.750    7.393    0.332    0.453   57.181
  390.000    7.394    0.335    0.450   55.958
  390.250    7.396    0.340    0.445   58.409
  390.500    7.538    0.349    0.447   59.635
  390.750    7.540    0.360    0.460   59.636
  391.000    7.541    0.360    0.467   57.189
  391.250    7.542    0.355    0.442   54.129
  391.500    7.404    0.350    0.430   55.967
  391.750    7.405    0.349    0.434   62.092
  392.000    7.408    0.346    0.444   61.480
  392.250    7.271    0.358    0.452   57.809
  392.500    7.272    0.340    0.458   59.035
  392.750    7.273    0.332    0.442   57.199
  393.000    7.275    0.333    0.434   54.752
  393.250    7.276    0.338    0.445   52.916
  393.500    7.417    0.340    0.453   51.081
  393.750    7.419    0.335    0.458   51.695
  394.000    7.420    0.327    0.460   53.534
  394.250    7.421    0.327    0.461   54.147
  394.500    7.563    0.332    0.455   56.598
  394.750    7.709    0.333    0.442   54.151
  395.000    8.006    0.312    0.431   54.764
  395.250    8.315    0.277    0.452   55.990
  395.500    8.636    0.114    0.446   55.380
  395.750    8.638    0.069    0.341   54.769
  396.000    8.479    0.076    0.250   54.158
  396.250    8.167    0.152    0.284   54.160
  396.500    7.576    0.222    0.430   54.161
  396.750    7.029    0.273    0.468   53.550
  397.000    6.899    0.307    0.479   54.776
  397.250    6.772    0.345    0.479   55.390
  397.500    6.902    0.362    0.473   55.392
  397.750    7.034    0.351    0.471   55.393
  398.000    7.169    0.346    0.486   53.558
  398.250    7.307    0.340    0.489   56.009
  398.500    7.734    0.335    0.444   57.847
  398.750    8.184    0.336    0.439   58.461
  399.000    9.697    0.346    0.445   57.238
  399.250   12.863    0.335    0.447   55.402
  399.500   16.126    0.322    0.448   53.567
  399.750   16.748    0.291    0.392   50.508
  400.000   14.684    0.048    0.184   46.835
  400.250   12.167    0.057    0.174   43.776
  400.500   10.870    0.169    0.200   48.675
  400.750    9.008    0.231    0.300   53.575
  401.000    8.514    0.280    0.442   54.189
  401.250    7.607    0.345    0.483   53.578
  401.500    7.328    0.339    0.461   55.416
  401.750    7.329    0.335    0.450   57.867
  402.000    7.331    0.328    0.444   60.317
  402.250    7.333    0.324    0.452   62.155
  402.500    7.334    0.330    0.457   62.157
  402.750    7.474    0.333    0.461   58.485
  403.000    7.477    0.327    0.445   57.262
  403.250    7.478    0.327    0.450   55.427
  403.500    7.622    0.327    0.466   54.817
  403.750    7.623    0.316    0.466   56.042
  404.000    7.769    0.314    0.450   60.942
  404.250    8.069    0.319    0.441   61.556
  404.500    8.703    0.320    0.442   60.945
  404.750    9.209    0.319    0.461   59.722
  405.000   10.121    0.279    0.470   53.601
  405.250   10.315    0.225    0.451   49.929
  405.500    9.751    0.202    0.326   52.379
  405.750    9.392    0.257    0.361   51.157
  406.000    9.047    0.168    0.414   51.158
  406.250    8.552    0.174    0.328   55.445
  406.500    8.395    0.262    0.253   58.508
  406.750    8.556    0.312    0.428   60.959
  407.000    8.721    0.331    0.470   60.348
  407.250    8.888    0.339    0.456   60.349
  407.500    8.890    0.336    0.435   57.290
  407.750    8.892    0.314    0.415   53.618
  408.000    8.728    0.308    0.399   53.619
  408.250    8.407    0.320    0.409   54.233
  408.500    8.098    0.333    0.430   54.847
  408.750    7.513    0.339    0.426   56.685
  409.000    7.237    0.331    0.417   57.298
  409.250    6.841    0.329    0.426   56.076
  409.500    6.346    0.344    0.432   58.526
  409.750    6.113    0.338    0.430   60.977
  410.000    5.888    0.295    0.430   64.652
  410.250    5.672    0.237    0.444   70.163
  410.500    5.673    0.232    0.459   79.349
  410.750    5.782    0.237    0.477   81.799
  411.000    6.005    0.235    0.488   78.127
  411.250    6.476    0.229    0.458   75.680
  411.500    6.726    0.231    0.442   79.355
  411.750    6.985    0.232    0.448   78.744
  412.000    6.987    0.229    0.453   75.072
  412.250    6.730    0.228    0.461   79.359
  412.500    6.606    0.229    0.470   79.361
  412.750    6.608    0.225    0.473   83.036
  413.000    6.609    0.218    0.458   84.874
  413.250    6.736    0.217    0.451   86.100
  413.500    6.738    0.204    0.467   83.041
  413.750    6.867    0.193    0.472   83.042
  414.000    7.132    0.192    0.469   87.330
  414.250    7.269    0.199    0.453   91.005
  414.500    7.408    0.203    0.446   92.231
  414.750    7.410    0.204    0.456   92.844
  415.000    7.411    0.206    0.467   92.234
  415.250    7.413    0.215    0.458   94.685
  415.500    7.277    0.218    0.450   95.298
  415.750    7.143    0.218    0.462   96.524
  416.000    7.011    0.225    0.472   93.464
  416.250    6.882    0.230    0.466   91.629
  416.500    6.882    0.220    0.437   89.794
  416.750    6.884    0.210    0.437   89.183
  417.000    6.886    0.225    0.453   87.960
  417.250    6.887    0.243    0.463   83.064
  417.500    7.153    0.269    0.475   80.616
  417.750    7.154    0.276    0.479   80.005
  418.000    7.431    0.279    0.466   79.395
  418.250    7.432    0.284    0.447   75.723
  418.500    7.433    0.287    0.413   72.663
  418.750    7.296    0.280    0.419   75.114
  419.000    7.162    0.234    0.445   80.013
  419.250    6.520    0.197    0.458   82.463
  419.500    5.716    0.182    0.421   84.914
  419.750    5.107    0.188    0.402   83.691
  420.000    4.394    0.199    0.434   80.019
  420.250    3.925    0.219    0.470   78.184
  420.500    3.192    0.220    0.490   78.185
  420.750    2.906    0.210    0.475   79.412
  421.000    2.548    0.231    0.483   78.801
  421.250    2.363    0.286    0.521   78.802
  421.500    2.277    0.329    0.552   80.028
  421.750    2.235    0.337    0.562   80.642
  422.000    2.235    0.268    0.563   81.256
  422.250    2.236    0.265    0.566   81.257
  422.500    2.279    0.278    0.583   81.259
  422.750    2.323    0.281    0.583   84.934
  423.000    2.367    0.276    0.521   86.772
  423.250    2.413    0.275    0.522   89.836
  423.500    2.553    0.273    0.530   91.061
  423.750    2.806    0.265    0.538   90.450
