~VERSION INFORMATION
 VERS.                 2.0:   CWLS LOG ASCII STANDARD -VERSION 2.0
 WRAP.                  NO:   ONE LINE PER DEPTH STEP
~WELL INFORMATION BLOCK
#MNEM.UNIT           DATA                    DESCRIPTION OF MNEMONIC
#---------    -------------------            -------------------------------
# Generated from Intellog Unique Number	CW_76_78/WELL/994
WELL.         11-06-076-22W4                 : Well_name    - WELL
LOC .         00/11-06-076-22W4/0            : Location     - LOCATION
UWI .         00/11-06-076-22W4/0            : Uwi          - UNIQUE WELL ID
ENTR.         JAYE                           : Entered      - ENTERED BY
SRVC.         SCHLUMBERGER                   : Scn          - SERVICE COMPANY
DATE.         19 DEC 72                      : Date         - LOG DATE
STRT.M        405.384                        : top_depth    - START DEPTH
STOP.M        643.134                        : bot_depth    - STOP DEPTH
STEP.M        0.25                           : increment    - STEP LENGTH
 NULL. -999.2500:NULL Value
~CURVE INFORMATION BLOCK
#MNEM UNIT       ERCB CURVE CODE    CURVE DESCRIPTION
#-----------   ------------------   ----------------------------------
DEPT.M        00 001 00 00         : DEPTH        - DEPTH
ILD .OHMM     00 120 00 00         : RESD         - DEEP RESISTIVITY (DIL)
NPHI.V/V      00 330 00 00         : PHIN         - NEUTRON POROSITY (SANDSTONE)
DPHI.V/V      00 890 00 00         : PHID         - DENSITY POROSITY (SANDSTONE)
GR  .API      00 310 00 00         : GR           - GAMMA RAY
CALI.MM       00 280 01 00         : CAL          - CALIPER
~PARAMETER INFORMATION
#MNEM.UNIT           DATA             DESCRIPTION OF MNEMONIC
#---------         -----------     ------------------------------
GL  .M        697.809              : gl           - GROUND LEVEL ELEVATION
EREF.M        701.04               : kb           - ELEVATION OF DEPTH REFERENCE
DATM.M        697.809              : datum        - DATUM ELEVATION
TDD .M        644.957              : tdd          - TOTAL DEPTH DRILLER
RUN .         ONE                  : Run          - RUN NUMBER
MATR.         SANDSTONE            : Logunit      - NEUTRON MATRIX
TMAX.C        30                   : BHT          - MAXIMUM RECORDED TEMPERATURE
BHTD.M        644.957              : BHTDEP       - MAXIMUM RECORDED TEMPERATURE
RMT .C        17.7778              : MDTP         - TEMPERATURE OF MUD
MUDD.KG/M     0                    : MWT          - MUD DENSITY
NEUT.         1                    : NEUTRON      - NEUTRON TYPE
RESI.         0                    : RESIST       - RESISTIVITY TYPE
RM  .OHMM     2.33                 : RM           - RESISTIVITY OF MUD
RMC .OHMM     0                    : RMC          - RESISTIVITY OF MUD CAKE
RMF .OHMM     2.71                 : RMF          - RESISTIVITY OF MUD FILTRATE
SUFT.C        -17.7778             : SUFT         - SURFACE TEMPERATURE
~A  DEPTH     RESD     PHIN     PHID       GR      CAL
  405.384    2.825    0.556    0.185   87.215  242.787
  405.634    2.757    0.550    0.196   87.312  244.495
  405.884    2.710    0.607    0.199   88.863  245.580
  406.134    2.659    0.614    0.176   90.295  245.938
  406.384    2.653    0.597    0.190   89.236  245.585
  406.634    2.666    0.591    0.190   83.922  243.902
  406.884    2.763    0.629    0.184   86.937  241.999
  407.134    3.110    0.622    0.206   88.429  242.471
  407.384    3.527    0.592    0.217   84.026  241.085
  407.634    4.631    0.519    0.185   73.424  234.761
  407.884    6.273    0.357    0.157   62.886  226.693
  408.134    9.398    0.330    0.252   50.824  222.119
  408.384   12.138    0.314    0.314   51.891  218.888
  408.634   14.462    0.302    0.302   53.081  217.092
  408.884   14.747    0.287    0.317   49.956  216.015
  409.134   15.148    0.282    0.332   47.075  215.765
  409.384   15.558    0.278    0.282   49.845  215.209
  409.634   16.548    0.269    0.306   51.213  214.955
  409.884   18.627    0.261    0.332   50.214  215.115
  410.134   19.776    0.253    0.344   46.057  215.596
  410.384   18.671    0.240    0.383   44.995  216.058
  410.634   16.902    0.223    0.396   44.789  216.422
  410.884   14.749    0.234    0.389   46.343  216.797
  411.134   12.872    0.273    0.347   50.206  216.955
  411.384   12.086    0.331    0.285   54.251  217.122
  411.634   11.267    0.433    0.273   54.587  217.597
  411.884    9.443    0.429    0.289   53.469  218.262
  412.134    8.121    0.429    0.305   51.070  219.249
  412.384    7.009    0.463    0.244   52.140  219.831
  412.634    6.207    0.492    0.210   59.526  219.772
  412.884    5.598    0.536    0.202   66.854  219.733
  413.134    6.131    0.563    0.199   73.816  219.795
  413.384    6.593    0.482    0.230   70.386  219.948
  413.634    6.648    0.452    0.267   66.593  220.417
  413.884    6.429    0.475    0.233   71.489  220.891
  414.134    6.262    0.514    0.210   78.088  220.848
  414.384    6.468    0.519    0.195   79.398  220.710
  414.634    7.749    0.533    0.201   79.130  220.350
  414.884    9.648    0.548    0.203   74.243  220.103
  415.134   11.687    0.541    0.210   69.051  219.652
  415.384   15.486    0.467    0.232   64.282  219.382
  415.634   19.854    0.477    0.244   59.393  219.029
  415.884   22.349    0.442    0.261   54.321  219.109
  416.134   24.033    0.439    0.257   47.917  219.248
  416.384   24.506    0.448    0.261   45.335  219.414
  416.634   23.266    0.419    0.273   43.243  219.780
  416.884   18.903    0.428    0.285   41.456  220.251
  417.134   15.329    0.435    0.293   41.548  220.621
  417.384   13.136    0.410    0.303   45.842  220.680
  417.634   10.402    0.414    0.313   51.346  220.525
  417.884    9.468    0.420    0.248   56.242  220.285
  418.134    8.841    0.399    0.206   61.804  220.034
  418.384    8.596    0.477    0.201   68.462  219.993
  418.634    8.328    0.486    0.243   63.150  219.833
  418.884    8.022    0.424    0.256   60.269  219.271
  419.134    7.687    0.399    0.225   60.484  218.716
  419.384    7.257    0.442    0.209   63.435  218.057
  419.634    7.030    0.470    0.222   64.805  217.702
  419.884    7.143    0.465    0.198   65.508  217.761
  420.134    7.500    0.449    0.196   67.062  217.918
  420.384    8.154    0.533    0.221   65.642  218.496
  420.634    9.128    0.547    0.277   61.721  218.758
  420.884    9.463    0.424    0.305   53.251  218.816
  421.134    9.388    0.419    0.300   47.326  218.884
  421.384    9.159    0.453    0.286   46.813  218.630
  421.634    8.955    0.456    0.266   51.529  218.268
  421.884    8.659    0.437    0.277   56.303  217.721
  422.134    8.281    0.429    0.275   60.593  217.459
  422.384    7.934    0.419    0.262   63.057  217.216
  422.634    7.602    0.495    0.257   66.497  217.069
  422.884    7.351    0.495    0.253   66.468  217.017
  423.134    7.160    0.451    0.228   64.984  217.180
  423.384    6.923    0.438    0.223   62.586  217.544
  423.634    6.645    0.452    0.231   62.868  218.631
  423.884    6.344    0.463    0.255   65.511  220.850
  424.134    5.924    0.454    0.267   65.549  223.282
  424.384    5.594    0.478    0.234   68.380  225.288
  424.634    5.243    0.528    0.197   74.367  227.924
  424.884    4.905    0.522    0.185   78.900  230.036
  425.134    4.555    0.540    0.208   80.332  232.673
  425.384    4.381    0.543    0.216   81.947  234.581
  425.634    4.298    0.516    0.202   89.030  236.598
  425.884    4.572    0.514    0.180   90.038  238.205
  426.134    5.328    0.531    0.231   83.631  238.767
  426.384    5.987    0.634    0.266   76.676  236.053
  426.634    6.196    0.614    0.303   68.199  232.298
  426.884    5.860    0.512    0.295   60.698  229.170
  427.134    5.304    0.413    0.263   61.524  228.400
  427.384    4.715    0.421    0.196   73.289  229.195
  427.634    4.593    0.482    0.212   81.222  230.075
  427.884    5.030    0.496    0.218   80.894  230.331
  428.134    5.652    0.505    0.238   72.846  228.122
  428.384    6.624    0.499    0.243   68.440  224.991
  428.634    7.268    0.486    0.224   62.762  222.882
  428.884    7.575    0.448    0.202   61.038  221.721
  429.134    7.668    0.442    0.255   59.671  221.458
  429.384    7.676    0.434    0.270   59.037  221.205
  429.634    7.630    0.444    0.292   58.099  221.372
  429.884    7.500    0.486    0.306   57.404  221.635
  430.134    7.333    0.445    0.293   58.047  222.002
  430.384    7.000    0.462    0.259   58.992  223.194
  430.634    6.682    0.462    0.243   62.980  223.872
  430.884    6.678    0.442    0.211   70.002  224.448
  431.134    6.822    0.436    0.229   84.742  226.146
  431.384    7.175    0.438    0.213   87.939  228.985
  431.634    7.371    0.429    0.189   87.186  232.329
  431.884    7.627    0.446    0.198   92.444  241.650
  432.134    8.127    0.446    0.203   89.993  231.112
  432.384    8.425    0.394    0.219   85.346  227.160
  432.634    8.265    0.369    0.228   80.211  225.988
  432.884    8.261    0.364    0.210   75.137  225.219
  433.134    8.240    0.371    0.207   69.402  224.259
  433.384    8.130    0.379    0.213   67.245  223.794
  433.634    7.976    0.389    0.201   67.708  223.331
  433.884    7.957    0.399    0.218   69.016  223.493
  434.134    8.097    0.417    0.210   64.310  223.660
  434.384    8.243    0.424    0.207   56.930  223.731
  434.634    8.391    0.427    0.247   46.149  223.768
  434.884    8.618    0.401    0.283   39.619  223.535
  435.134    8.725    0.373    0.291   35.153  223.587
  435.384    8.544    0.358    0.288   34.950  223.848
  435.634    8.368    0.377    0.265   35.225  224.111
  435.884    8.271    0.370    0.278   35.136  224.271
  436.134    8.027    0.359    0.262   32.191  224.327
  436.384    7.819    0.353    0.251   32.653  220.382
  436.634    7.491    0.353    0.274   38.162  219.294
  436.884    7.217    0.364    0.278   44.702  216.166
  437.134    6.979    0.378    0.273   48.801  215.196
  437.384    6.686    0.398    0.260   53.515  215.358
  437.634    6.465    0.416    0.263   58.047  216.336
  437.884    6.320    0.403    0.252   64.279  219.293
  438.134    6.078    0.385    0.217   72.214  222.119
  438.384    5.563    0.386    0.187   78.147  225.160
  438.634    5.045    0.407    0.174   83.590  228.097
  438.884    4.402    0.428    0.161   90.005  232.064
  439.134    3.993    0.455    0.170   91.257  232.228
  439.384    3.542    0.506    0.186   91.044  227.142
  439.634    3.074    0.621    0.159   93.939  233.684
  439.884    2.777    0.623    0.172  101.386  240.329
  440.134    2.666    0.605    0.153  103.792  230.614
  440.384    2.650    0.614    0.143  103.156  227.373
  440.634    2.643    0.604    0.160  102.279  240.810
  440.884    2.613    0.636    0.173  106.144  232.327
  441.134    2.540    0.618    0.185  108.487  229.828
  441.384    2.474    0.610    0.170  110.041  229.874
  441.634    2.500    0.616    0.179  111.897  230.757
