~VERSION INFORMATION
 VERS.                 2.0:   CWLS LOG ASCII STANDARD -VERSION 2.0
 WRAP.                  NO:   ONE LINE PER DEPTH STEP
~WELL INFORMATION BLOCK
#MNEM.UNIT           DATA                    DESCRIPTION OF MNEMONIC
#---------    -------------------            -------------------------------
# Generated from Intellog Unique Number	CS_77_79/WELL/974
WELL.         AMOCO B-3 LEISMER              : Well_name    - WELL
LOC .         00/10-27-078-09W4/0            : Location     - LOCATION
UWI .         00/10-27-078-09W4/0            : Uwi          - UNIQUE WELL ID
ENTR.         JHS                            : Entered      - ENTERED BY
SRVC.         SCHLUMBERGER                   : Scn          - SERVICE COMPANY
STRT.M        192.024                        : top_depth    - START DEPTH
STOP.M        420.274                        : bot_depth    - STOP DEPTH
STEP.M        0.25                           : increment    - STEP LENGTH
 NULL. -999.2500:NULL Value
~CURVE INFORMATION BLOCK
#MNEM UNIT       ERCB CURVE CODE    CURVE DESCRIPTION
#-----------   ------------------   ----------------------------------
DEPT.M        00 001 00 00         : DEPTH        - DEPTH
GR  .API      00 310 00 00         : GR           - GAMMA RAY
DPHI.V/V      00 890 00 00         : PHID         - DENSITY POROSITY (SANDSTONE)
NPHI.V/V      00 330 00 00         : PHIN         - NEUTRON POROSITY (SANDSTONE)
ILD .OHMM     00 120 00 00         : RESD         - DEEP RESISTIVITY (DIL)
~PARAMETER INFORMATION
#MNEM.UNIT           DATA             DESCRIPTION OF MNEMONIC
#---------         -----------     ------------------------------
GL  .M        625.693              : gl           - GROUND LEVEL ELEVATION
EREF.M        629.26               : kb           - ELEVATION OF DEPTH REFERENCE
DATM.M        629.26               : datum        - DATUM ELEVATION
TDD .M        419.1                : tdd          - TOTAL DEPTH DRILLER
RUN .         ONE                  : Run          - RUN NUMBER
ENG .         BILL                 : Engineer     - RECORDING ENGINEER
WIT .         JIM                  : Witness      - WITNESSED BY
MUD .         GEL                  : Mud_type     - MUD TYPE
MATR.         SANDSTONE            : Logunit      - NEUTRON MATRIX
TMAX.C        60                   : BHT          - MAXIMUM RECORDED TEMPERATURE
BHTD.M        419.1                : BHTDEP       - MAXIMUM RECORDED TEMPERATURE
MATR.         1                    : LOGUNIT      - NEUTRON MATRIX
RMT .C        25                   : MDTP         - TEMPERATURE OF MUD
NEUT.         1                    : NEUTRON      - NEUTRON TYPE
RESI.         0                    : RESIST       - RESISTIVITY TYPE
RMC .OHMM     0.25                 : RMC          - RESISTIVITY OF MUD CAKE
RMF .OHMM     0.25                 : RMF          - RESISTIVITY OF MUD FILTRATE
SUFT.C        15                   : SUFT         - SURFACE TEMPERATURE
~A  DEPTH       GR     PHID     PHIN     RESD
  192.024   94.138    0.323    0.502    2.837
  192.274   92.810    0.308    0.492    2.782
  192.524   89.279    0.305    0.515    2.784
  192.774   89.192    0.312    0.560    2.784
  193.024   91.906    0.310    0.581    2.784
  193.274   94.450    0.302    0.593    2.784
  193.524   95.439    0.297    0.602    2.779
  193.774   95.174    0.300    0.586    2.840
  194.024   94.090    0.302    0.558    2.834
  194.274   92.530    0.287    0.546    2.877
  194.524   91.694    0.276    0.560    2.881
  194.774   92.435    0.279    0.598    2.943
  195.024   93.685    0.287    0.608    2.974
  195.274   95.067    0.291    0.602    3.054
  195.524   95.507    0.289    0.577    3.108
  195.774   95.963    0.282    0.557    3.210
  196.024   95.496    0.266    0.546    3.236
  196.274   94.484    0.248    0.546    3.343
  196.524   92.760    0.256    0.549    3.453
  196.774   91.839    0.235    0.540    3.482
  197.024   92.848    0.251    0.513    3.596
  197.274   94.484    0.238    0.514    3.706
  197.524   93.674    0.249    0.499    3.820
  197.774   91.741    0.246    0.474    3.939
  198.024   87.822    0.235    0.493    4.060
  198.274   87.119    0.224    0.506    4.186
  198.524   91.119    0.211    0.500    4.325
  198.774   90.724    0.224    0.482    4.363
  199.024   87.235    0.248    0.477    4.426
  199.274   86.898    0.253    0.490    4.430
  199.524   93.084    0.235    0.486    4.310
  199.774   96.938    0.248    0.499    4.119
  200.024   95.577    0.260    0.507    3.868
  200.274   95.737    0.254    0.495    3.804
  200.524   93.673    0.238    0.494    3.795
  200.774   91.476    0.234    0.500    3.830
  201.024   90.833    0.246    0.500    3.956
  201.274   89.613    0.238    0.511    3.999
  201.524   90.032    0.221    0.511    4.108
  201.774   94.478    0.249    0.502    4.105
  202.024   97.281    0.263    0.519    4.030
  202.274   96.692    0.240    0.542    3.949
  202.524   94.733    0.259    0.531    3.885
  202.774   91.793    0.239    0.524    3.842
  203.024   88.886    0.229    0.535    3.806
  203.274   86.862    0.232    0.526    3.871
  203.524   86.797    0.233    0.504    3.936
  203.774   89.905    0.236    0.493    4.105
  204.024   89.268    0.263    0.483    4.304
  204.274   89.122    0.276    0.476    4.332
  204.524   93.493    0.281    0.472    4.336
  204.774   95.075    0.244    0.477    4.321
  205.024   97.694    0.234    0.474    4.552
  205.274   93.649    0.225    0.460    4.915
  205.524   87.465    0.239    0.423    5.974
  205.774   79.433    0.279    0.403    7.055
  206.024   80.417    0.265    0.420    7.950
  206.274   93.544    0.274    0.442    8.556
  206.524   93.455    0.265    0.430    8.981
  206.774   99.224    0.248    0.425    8.925
  207.024  102.111    0.259    0.445    9.391
  207.274  104.614    0.259    0.449    9.664
  207.524  108.230    0.248    0.460   10.401
  207.774  110.759    0.256    0.471   11.341
  208.024  105.282    0.273    0.478   12.271
  208.274   93.853    0.293    0.477   13.337
  208.524   90.716    0.308    0.463   13.847
  208.774   84.386    0.376    0.460   14.743
  209.024   75.017    0.415    0.491   15.672
  209.274   61.069    0.450    0.543   16.656
  209.524   51.562    0.441    0.521   17.705
  209.774   50.589    0.336    0.437   18.857
  210.024   53.012    0.349    0.417   19.621
  210.274   56.136    0.363    0.409   20.561
  210.524   61.685    0.356    0.408   21.653
  210.774   68.925    0.329    0.415   22.278
  211.024   74.334    0.314    0.408   22.253
  211.274   77.644    0.314    0.404   22.169
  211.524   73.875    0.320    0.400   21.482
  211.774   67.110    0.318    0.400   20.169
  212.024   61.180    0.283    0.395   19.397
  212.274   63.993    0.295    0.415   18.508
  212.524   69.868    0.300    0.423   17.775
  212.774   69.346    0.294    0.431   17.511
  213.024   66.887    0.292    0.422   18.101
  213.274   62.447    0.297    0.415   18.362
  213.524   53.938    0.297    0.418   19.582
  213.774   45.354    0.308    0.418   20.882
  214.024   39.794    0.311    0.408   21.016
  214.274   41.611    0.303    0.413   21.039
  214.524   45.340    0.302    0.416   20.412
  214.774   50.815    0.315    0.407   19.885
  215.024   59.626    0.309    0.397   19.544
  215.274   60.463    0.312    0.413   19.367
  215.524   61.551    0.314    0.426   18.785
  215.774   66.344    0.303    0.418   18.808
  216.024   65.975    0.323    0.426   18.814
  216.274   61.538    0.329    0.441   18.836
  216.524   61.430    0.314    0.431   19.138
  216.774   67.909    0.308    0.429   19.552
  217.024   77.062    0.322    0.453   19.509
  217.274   79.783    0.336    0.454   19.768
  217.524   83.067    0.346    0.450   19.864
  217.774   84.332    0.334    0.441   19.874
  218.024   83.966    0.336    0.437   19.902
  218.274   88.338    0.333    0.442   19.407
  218.524   92.691    0.333    0.452   18.846
  218.774   94.902    0.325    0.447   17.712
  219.024   94.107    0.317    0.436   17.032
  219.274   97.205    0.318    0.430   16.231
  219.524   99.439    0.306    0.437   15.758
  219.774   95.218    0.291    0.439   15.293
  220.024   98.784    0.289    0.427   15.301
  220.274   98.984    0.270    0.427   15.255
  220.524   87.434    0.253    0.443   15.880
  220.774   74.885    0.246    0.431   16.007
  221.024   66.213    0.229    0.388   16.918
  221.274   64.830    0.226    0.376   17.118
  221.524   69.934    0.246    0.410   16.628
  221.774   78.365    0.260    0.431   15.720
  222.024   85.803    0.262    0.419   14.086
  222.274   89.294    0.277    0.416   12.793
  222.524   87.966    0.289    0.403   12.199
  222.774   83.053    0.285    0.407   12.037
  223.024   77.618    0.268    0.407   11.579
  223.274   72.936    0.275    0.390   12.005
  223.524   70.120    0.262    0.383   12.709
  223.774   61.833    0.280    0.397   14.238
  224.024   53.212    0.317    0.414   16.731
  224.274   42.142    0.344    0.424   19.307
  224.524   41.718    0.343    0.420   21.116
  224.774   44.367    0.354    0.436   21.733
  225.024   45.874    0.345    0.426   21.744
  225.274   45.042    0.344    0.409   21.716
  225.524   46.448    0.350    0.414   21.026
  225.774   50.880    0.341    0.435   20.234
  226.024   55.239    0.335    0.439   19.420
  226.274   61.786    0.333    0.433   19.113
  226.524   67.251    0.316    0.437   18.704
  226.774   70.102    0.287    0.440   18.741
  227.024   70.755    0.299    0.428   19.578
  227.274   69.774    0.316    0.418   20.299
  227.524   67.803    0.320    0.413   20.577
  227.774   64.002    0.327    0.405   19.922
  228.024   57.648    0.321    0.400   19.751
  228.274   50.848    0.325    0.404   19.428
  228.524   43.655    0.304    0.393   19.409
  228.774   42.795    0.317    0.384   19.857
  229.024   43.183    0.333    0.384   20.457
  229.274   45.537    0.331    0.397   20.937
  229.524   48.467    0.318    0.411   21.345
  229.774   50.687    0.320    0.415   21.070
  230.024   50.758    0.338    0.416   20.467
  230.274   51.374    0.308    0.393   19.096
  230.524   55.140    0.311    0.376   17.860
  230.774   64.175    0.293    0.379   15.105
  231.024   68.811    0.278    0.392   13.460
  231.274   71.368    0.262    0.398   12.395
  231.524   75.426    0.297    0.413   11.373
  231.774   76.321    0.282    0.434   10.508
  232.024   77.362    0.302    0.453   10.501
  232.274   80.906    0.267    0.454   10.494
  232.524   86.807    0.269    0.421   10.051
  232.774   87.006    0.265    0.417    9.218
  233.024   87.356    0.247    0.432    9.228
  233.274   88.050    0.251    0.462   10.333
  233.524   91.179    0.256    0.465   10.563
  233.774   94.465    0.246    0.436    9.624
  234.024  101.091    0.235    0.433    7.948
  234.274  111.320    0.220    0.462    6.854
  234.524  117.259    0.208    0.479    5.981
  234.774  122.656    0.216    0.491    5.437
  235.024  123.324    0.205    0.506    4.843
  235.274  122.932    0.199    0.479    4.542
