~VERSION INFORMATION
 VERS.                 2.0:   CWLS LOG ASCII STANDARD -VERSION 2.0
 WRAP.                  NO:   ONE LINE PER DEPTH STEP
~WELL INFORMATION BLOCK
#MNEM.UNIT           DATA                    DESCRIPTION OF MNEMONIC
#---------    -------------------            -------------------------------
# Generated from Intellog Unique Number	CW_73_75/WELL/1036
WELL.         ICGR FRANCIS 11-10             : Well_name    - WELL
LOC .         00/11-10-074-22W4/0            : Location     - LOCATION
UWI .         00/11-10-074-22W4/0            : Uwi          - UNIQUE WELL ID
ENTR.         JAYE                           : Entered      - ENTERED BY
SRVC.         SCHLUMBERGER                   : Scn          - SERVICE COMPANY
DATE.         27 MAR 82                      : Date         - LOG DATE
STRT.M        350                            : top_depth    - START DEPTH
STOP.M        555                            : bot_depth    - STOP DEPTH
STEP.M        0.25                           : increment    - STEP LENGTH
 NULL. -999.2500:NULL Value
~CURVE INFORMATION BLOCK
#MNEM UNIT       ERCB CURVE CODE    CURVE DESCRIPTION
#-----------   ------------------   ----------------------------------
DEPT.M        00 001 00 00         : DEPTH        - DEPTH
NPHI.V/V      00 330 00 00         : PHIN         - NEUTRON POROSITY (SANDSTONE)
DPHI.V/V      00 890 00 00         : PHID         - DENSITY POROSITY (SANDSTONE)
GR  .API      00 310 00 00         : GR           - GAMMA RAY
CALI.MM       00 280 01 00         : CAL          - CALIPER
ILD .OHMM     00 120 00 00         : RESD         - DEEP RESISTIVITY (DLL)
~PARAMETER INFORMATION
#MNEM.UNIT           DATA             DESCRIPTION OF MNEMONIC
#---------         -----------     ------------------------------
GL  .M        646.2                : gl           - GROUND LEVEL ELEVATION
EREF.M        648.7                : kb           - ELEVATION OF DEPTH REFERENCE
DATM.M        646.2                : datum        - DATUM ELEVATION
TDD .M        600                  : tdd          - TOTAL DEPTH DRILLER
RUN .         ONE                  : Run          - RUN NUMBER
ENG .         HOLDE                : Engineer     - RECORDING ENGINEER
WIT .         COOK                 : Witness      - WITNESSED BY
BASE.         EDMONTON             : Branch       - HOME BASE OF LOGGING UNIT
MUD .         GEL CHEM             : Mud_type     - MUD TYPE
MATR.         SANDSTONE            : Logunit      - NEUTRON MATRIX
TMAX.C        25                   : BHT          - MAXIMUM RECORDED TEMPERATURE
BHTD.M        600.5                : BHTDEP       - MAXIMUM RECORDED TEMPERATURE
RMT .C        20                   : MDTP         - TEMPERATURE OF MUD
MUDD.KG/M     9.5                  : MWT          - MUD DENSITY
NEUT.         1                    : NEUTRON      - NEUTRON TYPE
RESI.         1                    : RESIST       - RESISTIVITY TYPE
RM  .OHMM     5.105                : RM           - RESISTIVITY OF MUD
RMC .OHMM     2.13                 : RMC          - RESISTIVITY OF MUD CAKE
RMF .OHMM     7.23                 : RMF          - RESISTIVITY OF MUD FILTRATE
SUFT.C        0                    : SUFT         - SURFACE TEMPERATURE
~A  DEPTH     PHIN     PHID       GR      CAL     RESD
  350.000    0.535    0.215  103.993  176.971    3.026
  350.250    0.523    0.222  103.500  177.559    3.031
  350.500    0.504    0.220  102.099  178.952    3.030
  350.750    0.463    0.218  100.579  178.838    3.029
  351.000    0.504    0.217   97.972  181.636    3.044
  351.250    0.511    0.219   96.874  180.414    3.112
  351.500    0.486    0.216  102.364  177.376    3.223
  351.750    0.481    0.212  107.976  176.454    3.301
  352.000    0.498    0.208  109.173  177.653    3.324
  352.250    0.518    0.208  103.606  177.536    3.348
  352.500    0.529    0.215   98.038  177.516    3.328
  352.750    0.516    0.223   95.791  178.106    3.277
  353.000    0.499    0.228   98.502  178.497    3.257
  353.250    0.499    0.221   99.761  178.378    3.256
  353.500    0.503    0.216   96.914  178.159    3.514
  353.750    0.511    0.223   84.213  177.446    4.018
  354.000    0.423    0.154   64.808  170.474    4.832
  354.250    0.326    0.093   50.480  160.893    6.168
  354.500    0.343    0.223   56.392  156.748    7.253
  354.750    0.360    0.265   71.006  155.430    7.306
  355.000    0.376    0.256   79.818  154.910    7.316
  355.250    0.379    0.237   81.560  151.971    7.205
  355.500    0.387    0.208   79.077  150.147    7.029
  355.750    0.383    0.225   81.058  150.326    6.870
  356.000    0.369    0.244   82.260  156.256    6.615
  356.250    0.370    0.235   80.677  161.579    6.068
  356.500    0.369    0.228   79.158  164.782    5.484
  356.750    0.381    0.241   76.247  166.486    4.855
  357.000    0.497    0.283   76.906  169.485    4.589
  357.250    0.520    0.314   89.524  174.807    4.639
  357.500    0.505    0.359   98.999  183.653    4.895
  357.750    0.479    0.353   93.191  180.015    5.402
  358.000    0.431    0.286   83.633  168.415    6.119
  358.250    0.386    0.278   74.200  160.145    6.616
  358.500    0.381    0.315   67.179  154.995    6.802
  358.750    0.384    0.327   68.747  153.771    6.862
  359.000    0.382    0.307   73.265  152.845    6.925
  359.250    0.369    0.249   75.309  155.354    6.986
  359.500    0.352    0.220   76.573  158.555    6.983
  359.750    0.370    0.236   78.857  161.070    6.902
  360.000    0.384    0.242   82.352  159.636    6.824
  360.250    0.378    0.249   86.210  155.191    6.757
  360.500    0.372    0.257   89.106  154.468    6.703
  360.750    0.371    0.277   91.451  157.571    6.419
  361.000    0.393    0.298   94.047  168.135    6.044
  361.250    0.428    0.304   95.844  181.010    5.735
  361.500    0.456    0.302   97.763  187.537    5.667
  361.750    0.468    0.310   99.690  191.751    5.687
  362.000    0.468    0.304   90.677  194.465    5.728
  362.250    0.441    0.288   79.734  184.366    5.966
  362.500    0.387    0.271   73.135  164.818    6.177
  362.750    0.378    0.270   67.027  155.539    6.375
  363.000    0.384    0.287   63.992  152.409    6.505
  363.250    0.382    0.292   67.249  153.997    6.550
  363.500    0.371    0.268   72.797  158.609    6.486
  363.750    0.386    0.243   81.308  165.057    6.388
  364.000    0.405    0.256   89.275  169.455    6.279
  364.250    0.410    0.283   94.097  172.964    6.046
  364.500    0.441    0.309   91.855  172.753    5.888
  364.750    0.459    0.273   90.332  169.611    5.918
  365.000    0.454    0.247   89.478  162.445    5.994
  365.250    0.433    0.257   82.522  159.617    6.104
  365.500    0.401    0.266   79.912  158.186    6.263
  365.750    0.389    0.274   80.446  158.077    6.512
  366.000    0.390    0.274   82.440  159.766    6.758
  366.250    0.392    0.255   84.486  162.173    6.959
  366.500    0.389    0.226   89.603  166.584    7.181
  366.750    0.389    0.238   98.113  171.909    7.381
  367.000    0.393    0.244   97.199  170.893    7.602
  367.250    0.374    0.231   90.723  168.754    7.918
  367.500    0.362    0.221   89.869  164.609    8.278
  367.750    0.379    0.228   86.598  163.282    8.573
  368.000    0.381    0.232   79.942  160.566    8.812
  368.250    0.374    0.244   68.994  159.746    9.109
  368.500    0.374    0.266   59.256  159.311    9.649
  368.750    0.375    0.287   59.489  158.597   10.451
  369.000    0.392    0.304   63.047  158.274   11.470
  369.250    0.406    0.286   62.312  157.757   12.681
  369.500    0.377    0.277   54.569  155.122   13.942
  369.750    0.360    0.300   42.475  153.594   15.357
  370.000    0.362    0.324   35.758  153.980   16.388
  370.250    0.368    0.326   36.479  156.884   16.784
  370.500    0.363    0.321   37.615  159.189   17.029
  370.750    0.376    0.317   37.481  161.694   16.866
  371.000    0.376    0.324   35.780  162.884   17.083
  371.250    0.370    0.337   35.954  162.870   17.046
  371.500    0.412    0.345   37.337  162.145   17.003
  371.750    0.412    0.347   36.480  161.332   16.805
  372.000    0.373    0.337   36.893  160.909   16.800
  372.250    0.351    0.319   38.820  161.300   16.823
  372.500    0.342    0.311   36.514  162.488   16.756
  372.750    0.359    0.312   32.454  163.789   16.685
  373.000    0.353    0.316   25.804  164.872   15.947
  373.250    0.348    0.321   26.512  166.074   14.385
  373.500    0.346    0.307   42.153  166.665   12.759
  373.750    0.341    0.273   60.816  167.250   10.760
  374.000    0.348    0.238   74.763  167.539    9.247
  374.250    0.336    0.225   84.606  167.619    7.930
  374.500    0.351    0.218   91.119  168.415    7.073
  374.750    0.368    0.210   95.706  170.305    6.476
  375.000    0.383    0.207  101.495  172.917    5.745
  375.250    0.418    0.213  115.624  174.912    4.927
  375.500    0.504    0.217  113.623  176.399    4.056
  375.750    0.539    0.217  111.438  178.000    3.524
  376.000    0.555    0.216  111.186  179.492    3.167
  376.250    0.559    0.211  111.115  180.493    2.971
  376.500    0.545    0.225  110.684  181.073    2.953
  376.750    0.507    0.240  111.281  184.083    2.974
  377.000    0.524    0.243  111.211  186.586    2.984
  377.250    0.544    0.233  112.833  187.874    2.989
  377.500    0.551    0.224  115.968  188.162    3.022
  377.750    0.553    0.235  119.642  187.846    3.077
  378.000    0.500    0.258  122.229  187.323    3.283
  378.250    0.467    0.275  118.659  183.884    3.569
  378.500    0.450    0.284  114.356  182.063    4.021
  378.750    0.434    0.257  108.788  178.821    4.693
  379.000    0.410    0.232  104.551  175.681    5.316
  379.250    0.386    0.255  103.695  174.864    5.621
  379.500    0.392    0.260  108.761  174.342    5.597
  379.750    0.432    0.222  113.947  174.538    5.460
  380.000    0.458    0.233  117.926  174.828    5.171
  380.250    0.443    0.238  115.205  175.102    5.092
  380.500    0.427    0.235  107.516  173.274    5.158
  380.750    0.409    0.227   99.227  170.135    5.194
  381.000    0.395    0.220   88.343  161.762    5.339
  381.250    0.375    0.212   78.363  153.890    5.602
  381.500    0.399    0.185   76.603  148.856    5.695
  381.750    0.403    0.221   82.694  147.816    5.703
  382.000    0.416    0.256   86.674  150.420    5.669
  382.250    0.430    0.274   83.825  152.622    5.583
  382.500    0.431    0.256   81.519  154.418    5.654
  382.750    0.430    0.241   80.487  158.534    5.812
  383.000    0.428    0.257   76.548  157.209    5.788
  383.250    0.408    0.272   76.116  151.460    5.533
  383.500    0.398    0.275   79.975  149.328    5.327
  383.750    0.436    0.267   86.187  149.708    5.101
  384.000    0.432    0.264   91.312  151.709    4.903
  384.250    0.438    0.265   95.835  156.729    4.731
  384.500    0.506    0.270   91.837  162.652    4.658
  384.750    0.492    0.274   84.820  161.327    4.665
  385.000    0.488    0.279   85.659  156.383    4.751
  385.250    0.484    0.287   85.647  154.249    4.902
  385.500    0.443    0.299   83.161  153.832    5.058
  385.750    0.425    0.304   85.451  155.530    5.229
  386.000    0.407    0.305   94.743  158.836    5.335
  386.250    0.387    0.270  103.194  161.437    5.465
