~VERSION INFORMATION
 VERS.                 2.0:   CWLS LOG ASCII STANDARD -VERSION 2.0
 WRAP.                  NO:   ONE LINE PER DEPTH STEP
~WELL INFORMATION BLOCK
#MNEM.UNIT           DATA                    DESCRIPTION OF MNEMONIC
#---------    -------------------            -------------------------------
# Generated from Intellog Unique Number	CW_73_75/WELL/1034
WELL.         SUNDANCE MCMORAN MARTEN H 11-0 : Well_name    - WELL
LOC .         00/11-04-074-24W4/0            : Location     - LOCATION
UWI .         00/11-04-074-24W4/0            : Uwi          - UNIQUE WELL ID
ENTR.         JAYE                           : Entered      - ENTERED BY
SRVC.         SCHLUMBERGER                   : Scn          - SERVICE COMPANY
DATE.         2 FEB 73                       : Date         - LOG DATE
STRT.M        381                            : top_depth    - START DEPTH
STOP.M        597.5                          : bot_depth    - STOP DEPTH
STEP.M        0.25                           : increment    - STEP LENGTH
 NULL. -999.2500:NULL Value
~CURVE INFORMATION BLOCK
#MNEM UNIT       ERCB CURVE CODE    CURVE DESCRIPTION
#-----------   ------------------   ----------------------------------
DEPT.M        00 001 00 00         : DEPTH        - DEPTH
ILD .OHMM     00 120 00 00         : RESD         - DEEP RESISTIVITY (DIL)
DPHI.V/V      00 890 00 00         : PHID         - DENSITY POROSITY (SANDSTONE)
NPHI.V/V      00 330 00 00         : PHIN         - NEUTRON POROSITY (SANDSTONE)
CALI.MM       00 280 01 00         : CAL          - CALIPER
GR  .API      00 310 00 00         : GR           - GAMMA RAY
~PARAMETER INFORMATION
#MNEM.UNIT           DATA             DESCRIPTION OF MNEMONIC
#---------         -----------     ------------------------------
GL  .M        642.214              : gl           - GROUND LEVEL ELEVATION
EREF.M        644.5                : kb           - ELEVATION OF DEPTH REFERENCE
DATM.M        642.214              : datum        - DATUM ELEVATION
TDD .M        600.456              : tdd          - TOTAL DEPTH DRILLER
RUN .         ONE                  : Run          - RUN NUMBER
ENG .         DESROCHES            : Engineer     - RECORDING ENGINEER
WIT .         GREEN                : Witness      - WITNESSED BY
BASE.         RD                   : Branch       - HOME BASE OF LOGGING UNIT
MUD .         GEL CHEM             : Mud_type     - MUD TYPE
MATR.         SANDSTONE            : Logunit      - NEUTRON MATRIX
TMAX.C        26.1111              : BHT          - MAXIMUM RECORDED TEMPERATURE
BHTD.M        600.456              : BHTDEP       - MAXIMUM RECORDED TEMPERATURE
RMT .C        26.1111              : MDTP         - TEMPERATURE OF MUD
MUDD.KG/M     1104                 : MWT          - MUD DENSITY
NEUT.         1                    : NEUTRON      - NEUTRON TYPE
RESI.         0                    : RESIST       - RESISTIVITY TYPE
RM  .OHMM     4.6                  : RM           - RESISTIVITY OF MUD
RMC .OHMM     0                    : RMC          - RESISTIVITY OF MUD CAKE
RMF .OHMM     5.47                 : RMF          - RESISTIVITY OF MUD FILTRATE
SUFT.C        -17.7778             : SUFT         - SURFACE TEMPERATURE
~A  DEPTH     RESD     PHID     PHIN      CAL       GR
# ...
  527.000   13.851    0.238    0.471  159.844   69.873
  527.250   13.032    0.213    0.472  159.887   71.709
  527.500   12.512    0.222    0.452  160.031   72.340
  527.750   11.991    0.232    0.455  160.087   72.126
  528.000   11.705    0.237    0.468  160.328   73.482
  528.250   11.679    0.255    0.472  160.274   74.474
  528.500   12.179    0.232    0.473  160.215   76.614
  528.750   12.630    0.199    0.466  160.165   73.138
  529.000   12.719    0.204    0.449  160.204   70.993
  529.250   12.692    0.225    0.442  160.559   74.040
  529.500   12.298    0.241    0.448  160.504   74.612
  529.750   11.873    0.222    0.452  160.956   74.219
  530.000   11.631    0.215    0.456  161.720   73.938
  530.250   11.800    0.205    0.460  162.581   74.628
  530.500   12.418    0.216    0.468  163.136   75.440
  530.750   12.878    0.211    0.467  163.184   74.865
  531.000   13.380    0.190    0.455  163.336   74.047
  531.250   13.875    0.154    0.435  163.277   69.906
  531.500   14.495    0.181    0.429  163.527   70.781
  531.750   14.786    0.175    0.431  163.573   72.376
  532.000   14.195    0.168    0.423  163.515   70.834
  532.250   14.011    0.194    0.419  163.456   72.007
  532.500   14.826    0.211    0.424  163.405   73.483
  532.750   15.630    0.201    0.418  162.735   73.209
  533.000   16.003    0.204    0.403  162.472   70.578
  533.250   16.325    0.190    0.401  162.213   68.613
  533.500   16.620    0.171    0.421  162.254   69.787
  533.750   16.708    0.159    0.438  162.303   70.240
  534.000   16.702    0.168    0.452  162.353   69.901
  534.250   16.758    0.185    0.434  162.697   67.756
  534.500   16.938    0.176    0.433  162.746   66.034
  534.750   16.995    0.143    0.438  162.998   64.975
  535.000   17.083    0.135    0.442  163.040   64.636
  535.250   16.492    0.147    0.440  162.579   69.071
  535.500   15.632    0.164    0.417  162.111   72.780
  535.750   14.926    0.190    0.407  161.746   77.275
  536.000   14.044    0.189    0.414  161.487   79.659
  536.250   13.485    0.167    0.413  161.427   78.780
  536.500   12.805    0.140    0.390  161.472   80.439
  536.750   12.159    0.135    0.369  161.518   79.860
  537.000   11.420    0.150    0.374  161.464   77.531
  537.250   10.647    0.150    0.417  161.208   79.008
  537.500   10.037    0.187    0.439  161.761   81.932
  537.750    9.273    0.199    0.454  162.424   85.464
  538.000    8.693    0.140    0.448  162.973   89.838
  538.250    8.164    0.118    0.453  163.943   89.201
  538.500    7.556    0.095    0.440  164.711   90.194
  538.750    7.032    0.117    0.428  164.853   94.508
  539.000    6.592    0.162    0.409  164.694   98.520
  539.250    6.364    0.140    0.417  165.153  101.022
  539.500    6.269    0.140    0.442  165.709  102.317
  539.750    6.245    0.142    0.453  166.466  104.097
  540.000    6.220    0.144    0.429  167.124  105.994
  540.250    6.172    0.146    0.422  167.479  107.651
  540.500    6.182    0.134    0.436  167.936  108.099
  540.750    6.202    0.113    0.430  168.082  107.221
  541.000    6.350    0.131    0.409  168.331  104.832
  541.250    6.525    0.117    0.414  168.071  108.302
  541.500    6.994    0.123    0.422  168.010  111.348
  541.750    7.621    0.127    0.417  167.445  112.824
  542.000    8.110    0.125    0.396  167.079  108.866
  542.250    9.151    0.102    0.366  166.832  104.969
  542.500   10.101    0.069    0.336  166.560  100.528
  542.750   10.417    0.041    0.328  166.200   96.811
  543.000   10.357    0.102    0.346  165.935   96.175
  543.250   10.036    0.164    0.383  165.685   93.906
  543.500    9.814    0.165    0.381  165.519   89.223
  543.750    9.739    0.143    0.370  165.357   91.550
  544.000    9.825    0.118    0.359  165.095   94.474
  544.250    9.949    0.122    0.336  164.935   96.972
  544.500    9.327    0.141    0.329  164.887   99.415
  544.750    8.955    0.148    0.346  165.135  100.530
  545.000    9.135    0.107    0.366  164.671  101.825
  545.250    9.490    0.083    0.382  164.714  105.775
  545.500    9.988    0.029    0.394  164.755  103.025
  545.750   10.964    0.006    0.297  164.807   96.772
  546.000   11.992    0.046    0.297  165.055   84.360
  546.250   13.532    0.059    0.318  165.000   88.675
  546.500   12.709   -0.009    0.343  164.940   87.856
  546.750   10.382    0.010    0.293  164.685   85.832
  547.000    9.195    0.095    0.300  164.316   89.118
  547.250    8.684    0.109    0.359  164.767   99.168
  547.500    8.291    0.126    0.406  165.021  110.911
  547.750    8.019    0.129    0.433  165.178  107.494
  548.000    7.814    0.113    0.438  165.212  101.966
  548.250    7.627    0.080    0.393  165.269   96.802
  548.500    7.610    0.112    0.379  165.509   96.283
  548.750    7.664    0.130    0.389  165.664  101.202
  549.000    7.732    0.118    0.392  165.808   96.884
  549.250    7.743    0.105    0.391  166.056   99.625
  549.500    7.755    0.107    0.389  166.103  103.578
  549.750    7.725    0.128    0.382  166.656  101.309
  550.000    7.693    0.112    0.377  166.707   98.981
  550.250    7.690    0.108    0.374  166.754  100.459
  550.500    7.632    0.124    0.382  166.595  103.928
  550.750    7.630    0.138    0.394  166.442  108.063
  551.000    7.627    0.133    0.406  166.687  110.985
  551.250    7.738    0.125    0.421  166.731  109.261
  551.500    7.864    0.105    0.391  166.884  103.855
  551.750    8.096    0.073    0.377  166.922   98.568
  552.000    8.694    0.057    0.357  167.072   93.644
  552.250    8.982    0.082    0.338  167.120   93.369
  552.500    8.784    0.118    0.362  167.160  101.486
  552.750    8.496    0.120    0.382  167.217  107.854
  553.000    8.187    0.135    0.393  167.053  111.321
  553.250    7.903    0.146    0.416  167.093  109.055
  553.500    7.757    0.115    0.427  167.143  109.203
  553.750    7.656    0.090    0.411  167.296  111.462
  554.000    7.653    0.086    0.371  167.436  113.482
  554.250    7.721    0.073    0.361  167.486  109.464
  554.500    7.790    0.099    0.363  167.529  105.024
  554.750    7.917    0.081    0.373  167.575  100.219
  555.000    7.900    0.073    0.369  167.321   96.685
  555.250    7.740    0.065    0.354  167.258   97.436
  555.500    7.111    0.093    0.351  167.102  100.182
  555.750    5.735    0.129    0.369  167.040  102.443
  556.000    4.370    0.136    0.414  166.986  109.290
  556.250    3.454    0.124    0.447  166.722  117.410
  556.500    2.948    0.142    0.439  166.364  124.138
  556.750    2.714    0.158    0.423  165.895  121.871
  557.000    2.535    0.143    0.399  165.948  117.006
  557.250    2.474    0.151    0.388  165.984  115.345
  557.500    2.662    0.143    0.400  166.237  118.509
  557.750    2.853    0.126    0.404  166.387  117.813
  558.000    3.167    0.105    0.393  166.325  112.225
  558.250    3.646    0.081    0.378  166.475  103.859
  558.500    4.412    0.094    0.364  166.627  100.564
  558.750    5.231    0.081    0.373  166.975  105.243
  559.000    6.079    0.079    0.381  167.129  110.098
  559.250    5.657    0.087    0.384  167.379  113.747
  559.500    5.481    0.076    0.380  167.628  109.852
  559.750    5.550    0.096    0.383  167.770  107.100
  560.000    5.777    0.090    0.388  167.819  101.452
  560.250    6.024    0.034    0.356  167.452   93.628
  560.500    6.078    0.070    0.367  162.182   89.671
  560.750    5.987    0.076    0.385  164.477   98.452
  561.000    5.844    0.089    0.395  169.124   98.483
  561.250    5.907    0.106    0.362  168.968   97.057
  561.500    6.148    0.124    0.317  167.589   89.356
  561.750    6.774    0.215    0.249  166.295   74.107
  562.000    6.528    0.292    0.210  163.889   62.963
  562.250    5.803    0.285    0.233  163.217   40.348
  562.500    4.972    0.258    0.276  161.832   35.425
  562.750    4.501    0.240    0.368  160.140   33.037
  563.000    4.275    0.220    0.372  160.187   31.254
  563.250    4.015    0.198    0.348  160.955   32.365
