~VERSION INFORMATION
 VERS.                 2.0:   CWLS LOG ASCII STANDARD -VERSION 2.0
 WRAP.                  NO:   ONE LINE PER DEPTH STEP
~WELL INFORMATION BLOCK
#MNEM.UNIT           DATA                    DESCRIPTION OF MNEMONIC
#---------    -------------------            -------------------------------
# Generated from Intellog Unique Number	CW_70_72/WELL/1066
NULL.         -999.25                        : NULL_VALUE
WELL.         LARIO ET AL MITSUE 12-20       : Well_name    - WELL              
LOC .         12-20-071-03W5                 : Location     - LOCATION          
UWI .         00/12-20-071-03W5/0            : Uwi          - UNIQUE WELL ID    
ENTR.         JAYE                           : Entered      - ENTERED BY        
SRVC.         SCHLUMBERGER                   : Scn          - SERVICE COMPANY   
DATE.         9 JAN 82                       : Date         - LOG DATE          
STRT.M        475                            : top_depth    - START DEPTH       
STOP.M        740                            : bot_depth    - STOP DEPTH        
STEP.M        0.25                           : increment    - STEP LENGTH       
~CURVE INFORMATION BLOCK
#MNEM UNIT       ERCB CURVE CODE    CURVE DESCRIPTION
#-----------   ------------------   ----------------------------------
DEPT.M        00 001 00 00         : DEPTH        - DEPTH                       
DPHI.V/V      00 890 00 00         : PHID         - DENSITY POROSITY (SANDSTONE)
NPHI.V/V      00 330 00 00         : PHIN         - NEUTRON POROSITY (SANDSTONE)
GR  .API      00 310 00 00         : GR           - GAMMA RAY                   
CALI.MM       00 280 01 00         : CAL          - CALIPER                     
ILD .OHMM     00 120 00 00         : RESD         - DEEP RESISTIVITY (DIL)      
~PARAMETER INFORMATION       
#MNEM.UNIT           DATA             DESCRIPTION OF MNEMONIC
#---------         -----------     ------------------------------
GL  .M        676                  : gl           - GROUND LEVEL ELEVATION      
EREF.M        679.9                : kb           - ELEVATION OF DEPTH REFERENCE
DATM.M        676                  : datum        - DATUM ELEVATION             
TDD .M        750                  : tdd          - TOTAL DEPTH DRILLER         
RUN .         ONE                  : Run          - RUN NUMBER                  
ENG .         BOHN                 : Engineer     - RECORDING ENGINEER          
WIT .         MYERS                : Witness      - WITNESSED BY                
BASE.         EDSON                : Branch       - HOME BASE OF LOGGING UNIT   
MUD .         GEL CHEM             : Mud_type     - MUD TYPE                    
MATR.         SANDSTONE            : Logunit      - NEUTRON MATRIX              
TMAX.C        31.1                 : BHT          - MAXIMUM RECORDED TEMPERATURE
BHTD.M        749                  : BHTDEP       - MAXIMUM RECORDED TEMPERATURE
RMT .C        30.5                 : MDTP         - TEMPERATURE OF MUD          
MUDD.KG/M     1200                 : MWT          - MUD DENSITY                 
NEUT.         1                    : NEUTRON      - NEUTRON TYPE                
RESI.         0                    : RESIST       - RESISTIVITY TYPE            
RM  .OHMM     3.19                 : RM           - RESISTIVITY OF MUD          
RMC .OHMM     0                    : RMC          - RESISTIVITY OF MUD CAKE     
RMF .OHMM     2.52                 : RMF          - RESISTIVITY OF MUD FILTRATE 
SUFT.C        0                    : SUFT         - SURFACE TEMPERATURE         
~A  DEPTH     PHID     PHIN       GR      CAL     RESD
# ...
  511.500    0.197    0.457   92.630  200.749    2.986
  511.750    0.190    0.479  102.675  200.696    2.802
  512.000    0.196    0.494  110.480  200.658    2.812
  512.250    0.176    0.455  102.994  200.616    3.058
  512.500    0.197    0.418   93.270  200.672    3.258
  512.750    0.257    0.373   85.288  200.523    3.420
  513.000    0.261    0.359   77.616  200.688    3.536
  513.250    0.246    0.380   71.996  200.957    3.670
  513.500    0.229    0.377   69.795  201.231    3.753
  513.750    0.188    0.358   87.110  201.693    3.773
  514.000    0.170    0.376   97.589  201.661    3.794
  514.250    0.171    0.444   95.698  202.028    3.850
  514.500    0.202    0.425   85.228  202.402    4.071
  514.750    0.196    0.380   82.342  203.185    4.202
  515.000    0.195    0.368   84.680  203.660    4.201
  515.250    0.206    0.416   90.433  202.064    4.039
  515.500    0.216    0.438   97.120  199.530    3.890
  515.750    0.225    0.449  102.066  198.759    3.831
  516.000    0.221    0.456   97.255  198.511    3.831
  516.250    0.208    0.453   83.801  198.264    3.808
  516.500    0.199    0.415   77.559  198.106    3.787
  516.750    0.202    0.418   70.757  198.169    3.593
  517.000    0.243    0.424   59.481  198.131    3.296
  517.250    0.292    0.379   48.204  198.084    2.968
  517.500    0.296    0.354   31.644  198.243    2.575
  517.750    0.299    0.337   26.768  198.310    2.163
  518.000    0.295    0.336   27.115  198.674    1.948
  518.250    0.245    0.330   37.656  199.254    1.842
  518.500    0.221    0.318   74.614  199.827    2.003
  518.750    0.149    0.365   94.977  200.518    2.261
  519.000    0.131    0.416  108.313  201.194    2.505
  519.250    0.136    0.447  108.039  201.979    2.684
  519.500    0.230    0.454   97.507  202.661    2.807
  519.750    0.258    0.440   87.972  203.244    2.930
  520.000    0.236    0.405   88.190  203.612    3.081
  520.250    0.221    0.385   88.910  204.084    3.325
  520.500    0.221    0.381   79.375  204.561    3.590
  520.750    0.227    0.370   72.575  205.138    3.867
  521.000    0.172    0.334   81.623  205.817    4.044
  521.250    0.171    0.363  104.038  206.087    4.174
  521.500    0.182    0.380  104.257  205.838    4.212
  521.750    0.195    0.379   98.701  205.482    4.227
  522.000    0.208    0.364   90.966  204.702    4.290
  522.250    0.238    0.351   85.096  204.459    4.411
  522.500    0.285    0.403   80.657  204.204    4.519
  522.750    0.270    0.434   76.591  204.169    4.476
  523.000    0.187    0.359   76.751  204.122    4.295
  523.250    0.184    0.344   81.075  204.178    4.113
  523.500    0.181    0.345   87.452  204.241    3.984
  523.750    0.218    0.385   95.569  204.402    3.954
  524.000    0.226    0.405   93.367  204.458    4.043
  524.250    0.163    0.380   91.351  204.315    4.157
  524.500    0.161    0.385   90.020  204.069    4.266
  524.750    0.204    0.400   76.133  204.020    4.273
  525.000    0.228    0.376   62.120  204.080    4.085
  525.250    0.232    0.337   61.720  203.931    3.949
  525.500    0.158    0.327   76.364  203.679    3.934
  525.750    0.133    0.325   84.045  203.525    4.007
  526.000    0.152    0.329   86.009  203.492    4.190
  526.250    0.176    0.329   81.195  203.243    4.325
  526.500    0.189    0.325   77.813  203.299    4.497
  526.750    0.188    0.315   81.267  203.256    4.219
  527.000    0.182    0.344   95.227  203.112    3.646
  527.250    0.203    0.449  102.721  202.854    3.163
  527.500    0.232    0.495   95.546  202.607    2.929
  527.750    0.263    0.468   86.011  202.769    2.769
  528.000    0.239    0.438   87.911  202.938    2.821
  528.250    0.222    0.455   96.588  204.756    2.960
  528.500    0.253    0.465   86.678  207.406    3.084
  528.750    0.270    0.464   75.028  205.807    3.237
  529.000    0.284    0.458   64.869  198.720    3.020
  529.250    0.291    0.427   58.068  194.840    2.771
  529.500    0.273    0.396   62.145  194.481    2.664
  529.750    0.269    0.432   67.588  194.651    2.614
  530.000    0.269    0.454   64.018  195.121    2.623
  530.250    0.266    0.456   63.371  195.493    2.657
  530.500    0.251    0.448   66.762  196.179    2.687
  530.750    0.230    0.428   70.839  196.549    2.732
  531.000    0.192    0.432   76.344  196.818    2.793
  531.250    0.197    0.451   82.596  196.766    2.835
  531.500    0.223    0.456   79.212  196.413    2.824
  531.750    0.250    0.432   73.406  196.059    2.787
  532.000    0.273    0.417   65.982  195.695    2.724
  532.250    0.284    0.421   61.420  195.447    2.673
  532.500    0.287    0.438   61.703  195.508    2.623
  532.750    0.287    0.451   64.164  195.672    2.565
  533.000    0.283    0.430   61.466  195.838    2.545
  533.250    0.278    0.412   64.173  195.797    2.554
  533.500    0.278    0.406   64.955  195.860    2.597
  533.750    0.290    0.426   62.504  195.809    2.700
  534.000    0.284    0.454   62.787  195.665    2.792
  534.250    0.262    0.432   64.252  195.508    2.876
  534.500    0.248    0.417   65.718  195.475    2.887
  534.750    0.260    0.410   67.124  195.322    2.859
  535.000    0.275    0.401   64.545  195.282    2.780
  535.250    0.278    0.398   60.606  195.348    2.672
  535.500    0.281    0.428   56.789  195.093    2.540
  535.750    0.285    0.429   52.163  194.740    2.419
  536.000    0.290    0.426   53.628  194.375    2.361
  536.250    0.298    0.436   58.450  194.026    2.321
  536.500    0.293    0.442   55.377  193.782    2.303
  536.750    0.281    0.434   55.165  193.840    2.303
  537.000    0.282    0.425   61.045  193.901    2.298
  537.250    0.276    0.423   63.254  193.958    2.298
  537.500    0.273    0.423   62.607  194.124    2.332
  537.750    0.275    0.426   62.830  193.768    2.375
  538.000    0.275    0.433   64.668  193.724    2.442
  538.250    0.273    0.450   65.388  193.574    2.516
  538.500    0.261    0.458   68.967  193.431    2.534
  538.750    0.252    0.457   65.088  193.276    2.534
  539.000    0.258    0.446   66.675  192.825    2.519
  539.250    0.252    0.439   71.311  193.296    2.500
  539.500    0.235    0.446   77.006  193.773    2.458
  539.750    0.240    0.460   78.782  193.622    2.435
  540.000    0.255    0.456   71.048  193.372    2.434
  540.250    0.277    0.445   66.855  192.807    2.498
  540.500    0.257    0.427   70.247  192.653    2.603
  540.750    0.236    0.427   71.901  192.618    2.742
  541.000    0.241    0.447   67.274  192.564    2.799
  541.250    0.268    0.444   65.321  192.526    2.803
  541.500    0.284    0.434   64.921  192.274    2.797
  541.750    0.293    0.426   64.833  192.025    2.725
  542.000    0.297    0.420   64.311  191.776    2.664
  542.250    0.298    0.432   62.541  191.633    2.648
  542.500    0.299    0.429   60.093  191.479    2.658
  542.750    0.301    0.417   61.184  191.229    2.667
  543.000    0.303    0.420   64.079  190.772    2.647
  543.250    0.304    0.437   64.117  190.523    2.593
  543.500    0.302    0.436   61.289  190.896    2.544
  543.750    0.293    0.426   61.826  190.952    2.525
  544.000    0.273    0.417   68.078  190.913    2.615
  544.250    0.254    0.442   73.087  190.963    2.771
  544.500    0.236    0.452   76.417  190.922    2.919
  544.750    0.214    0.432   71.230  191.089    3.041
  545.000    0.231    0.444   65.362  190.934    3.204
  545.250    0.276    0.448   57.815  190.892    3.357
  545.500    0.290    0.443   50.453  190.843    3.432
  545.750    0.308    0.417   46.075  190.693    3.190
  546.000    0.339    0.432   45.553  190.666    2.825
  546.250    0.340    0.444   46.395  190.617    2.539
  546.500    0.340    0.423   48.607  190.574    2.299
  546.750    0.356    0.417   50.882  190.740    2.177
  547.000    0.375    0.430   53.524  190.801    2.141
  547.250    0.359    0.441   54.744  190.957    2.164
  547.500    0.338    0.444   51.796  191.225    2.230
  547.750    0.362    0.484   46.486  191.580    2.297
