~VERSION INFORMATION
 VERS.                 2.0:   CWLS LOG ASCII STANDARD -VERSION 2.0
 WRAP.                  NO:   ONE LINE PER DEPTH STEP
~WELL INFORMATION BLOCK
#MNEM.UNIT           DATA                    DESCRIPTION OF MNEMONIC
#---------    -------------------            -------------------------------
# Generated from Intellog Unique Number	CC_80_83/WELL/2383
NULL.         -999.25                        : NULL_VALUE
WELL.         SIEBENS PONY                   : Well_name    - WELL
LOC .         10-29-080-09W4                 : Location     - LOCATION          
UWI .         00/10-29-080-09W400            : Uwi          - UNIQUE WELL ID    
ENTR.         DW                             : Entered      - ENTERED BY        
SRVC.         SCHLUMBERGER                   : Scn          - SERVICE COMPANY   
DATE.         02 FEB 75                      : Date         - LOG DATE
STRT.M        265.176                        : top_depth    - START DEPTH       
STOP.M        484.639                        : bot_depth    - STOP DEPTH        
STEP.M        0.305                          : increment    - STEP LENGTH       
~CURVE INFORMATION BLOCK
#MNEM UNIT       ERCB CURVE CODE    CURVE DESCRIPTION
#-----------   ------------------   ----------------------------------
DEPT.M        00 001 00 00         : DEPTH        - DEPTH                       
DPHI.V/V      00 890 00 00         : PHID         - DENSITY POROSITY (LIMESTONE)
NPHI.V/V      00 330 00 00         : PHIN         - NEUTRON POROSITY (LIMESTONE)
GR  .API      00 310 00 00         : GR           - GAMMA RAY                   
ILD .OHMM     00 120 00 00         : RESD         - DEEP RESISTIVITY (DIL)      
~PARAMETER INFORMATION       
#MNEM.UNIT           DATA             DESCRIPTION OF MNEMONIC
#---------         -----------     ------------------------------
GL  .M        698.906              : gl           - GROUND LEVEL ELEVATION      
EREF.M        702.564              : kb           - ELEVATION OF DEPTH REFERENCE
DATM.M        702.564              : datum        - DATUM ELEVATION             
TDD .M        496.824              : tdd          - TOTAL DEPTH DRILLER         
RUN .         ONE                  : Run          - RUN NUMBER                  
ENG .         BILL                 : Engineer     - RECORDING ENGINEER          
WIT .         JIM                  : Witness      - WITNESSED BY                
MUD .         GEL                  : Mud_type     - MUD TYPE                    
MATR.         LIMESTONE            : Logunit      - NEUTRON MATRIX              
TMAX.C        23.3333              : BHT          - MAXIMUM RECORDED TEMPERATURE
BHTD.M        496.824              : BHTDEP       - MAXIMUM RECORDED TEMPERATURE
MATR.         1                    : LOGUNIT      - NEUTRON MATRIX              
RMT .C        25                   : MDTP         - TEMPERATURE OF MUD          
NEUT.         1                    : NEUTRON      - NEUTRON TYPE                
RESI.         0                    : RESIST       - RESISTIVITY TYPE            
RMC .OHMM     0.25                 : RMC          - RESISTIVITY OF MUD CAKE     
RMF .OHMM     0.25                 : RMF          - RESISTIVITY OF MUD FILTRATE 
SUFT.C        15                   : SUFT         - SURFACE TEMPERATURE         
~A  DEPTH     PHID     PHIN       GR     RESD
  265.176    0.227    0.523  113.632    4.158
  265.481    0.238    0.535  114.229    4.155
  265.786    0.234    0.535  111.806    4.230
  266.090    0.221    0.528  111.799    4.306
  266.395    0.215    0.517  114.810    4.382
  266.700    0.220    0.529  115.406    4.380
  267.005    0.231    0.520  109.965    4.297
  267.310    0.242    0.517  109.353    4.217
  267.614    0.256    0.534  112.969    3.913
  267.919    0.259    0.562  111.754    3.768
  268.224    0.253    0.564  109.333    3.837
  268.529    0.250    0.545  106.307    4.205
  268.834    0.228    0.544  109.318    4.281
  269.139    0.220    0.551  112.932    4.278
  269.443    0.224    0.556  111.717    4.120
  269.748    0.226    0.558  107.485    4.041
  270.053    0.233    0.556  100.838    4.192
  270.358    0.245    0.542   84.532    5.040
  270.663    0.194    0.416   70.641    5.325
  270.967    0.241    0.471   97.797    5.322
  271.272    0.262    0.535  108.051    5.126
  271.577    0.258    0.527  105.628    4.757
  271.882    0.249    0.516  106.225    4.496
  272.187    0.243    0.533  103.200    4.494
  272.491    0.252    0.512  103.797    4.575
  272.796    0.273    0.543  103.788    4.924
  273.101    0.243    0.547   98.952    6.259
  273.406    0.223    0.524   88.683    8.567
  273.711    0.187    0.464   77.206   10.302
  274.015    0.240    0.440   76.595   11.506
  274.320    0.272    0.429   83.831   12.613
  274.625    0.245    0.430   86.842   12.841
  274.930    0.287    0.458   77.781   11.914
  275.235    0.325    0.436   69.926   10.460
  275.540    0.269    0.451   83.198    9.529
  275.844    0.247    0.474   94.656    8.680
  276.149    0.251    0.467   94.651    8.517
  276.454    0.262    0.474   88.607    8.357
  276.759    0.271    0.446   88.601    8.992
  277.064    0.287    0.462   97.043    9.499
  277.368    0.387    0.510   97.641    9.494
  277.673    0.440    0.557   78.921    8.812
  277.978    0.474    0.586   54.768   10.596
  278.283    0.309    0.608   54.760   15.910
  278.588    0.334    0.443   57.772   22.600
  278.892    0.340    0.440   65.005   25.707
  279.197    0.327    0.448   70.432   24.307
  279.502    0.327    0.468   72.839   22.978
  279.807    0.349    0.489   68.606   23.393
  280.112    0.380    0.516   57.734   27.101
  280.416    0.333    0.507   39.617   28.639
  280.721    0.320    0.416   37.795   32.578
  281.026    0.319    0.411   38.396   35.059
  281.331    0.304    0.413   43.216   37.024
  281.636    0.321    0.412   38.983   38.406
  281.941    0.329    0.401   41.390   37.679
  282.245    0.309    0.409   46.816   34.962
  282.550    0.315    0.406   57.071   32.445
  282.855    0.320    0.402   70.343   30.682
  283.160    0.295    0.403   72.147   29.549
  283.465    0.308    0.406   67.309   26.920
  283.769    0.308    0.406   69.718   24.076
  284.074    0.293    0.402   75.142   19.625
  284.379    0.273    0.420   76.947   18.902
  284.684    0.254    0.437   78.750   19.240
  284.989    0.270    0.415   79.346   21.092
  285.293    0.290    0.418   78.131   22.287
  285.598    0.302    0.430   73.292   23.541
  285.903    0.336    0.452   70.270   23.962
  286.208    0.316    0.464   63.018   23.953
  286.513    0.312    0.472   61.198   25.298
  286.817    0.310    0.460   63.004   26.241
  287.122    0.310    0.438   65.411   28.232
  287.427    0.308    0.443   70.232   29.283
  287.732    0.304    0.467   69.016   29.259
  288.037    0.323    0.482   67.199   29.248
  288.342    0.346    0.465   75.038   29.227
  288.646    0.326    0.443   79.257   27.632
  288.951    0.321    0.453   84.683   25.171
  289.256    0.323    0.469   88.295   23.793
  289.561    0.317    0.477   85.875   23.784
  289.866    0.317    0.448   85.868   24.660
  290.170    0.325    0.453   90.085   25.107
  290.475    0.338    0.464   84.040   25.564
  290.780    0.338    0.458   80.411   25.071
  291.085    0.308    0.443   82.216   24.150
  291.390    0.299    0.429   94.281   23.257
  291.694    0.310    0.427  100.913   22.401
  291.999    0.304    0.442  103.925   21.173
  292.304    0.289    0.451  109.350   20.395
  292.609    0.278    0.460  109.946   19.277
  292.914    0.272    0.467  108.128   19.269
  293.218    0.260    0.453  105.706   18.555
  293.523    0.251    0.441  112.337   17.219
  293.828    0.243    0.452  115.349   15.982
  294.133    0.240    0.463  114.739   14.031
  294.438    0.251    0.470  106.279   13.262
  294.743    0.257    0.433   97.219   12.539
  295.047    0.242    0.424   97.209   11.637
  295.352    0.166    0.429  102.033   10.409
  295.657    0.150    0.458  121.945    8.486
  295.962    0.194    0.501  131.596    6.791
  296.267    0.213    0.527  133.400    5.746
  296.571    0.192    0.509  133.391    4.952
  296.876    0.215    0.509  130.970    4.112
  297.181    0.194    0.532  124.323    3.747
  297.486    0.192    0.545  117.070    3.542
  297.791    0.170    0.567  116.461    3.674
  298.095    0.159    0.556  126.111    3.953
  298.400    0.234    0.580  129.725    4.497
  298.705    0.283    0.590  127.907    6.508
  299.010    0.300    0.535   94.097   14.149
  299.315    0.321    0.457   78.395   19.011
  299.619    0.318    0.448   75.369   21.233
  299.924    0.310    0.444   79.586   22.846
  300.229    0.309    0.437   87.427   22.828
  300.534    0.302    0.443   94.662   22.814
  300.839    0.310    0.454   97.672   22.806
  301.144    0.350    0.459   99.477   23.647
  301.448    0.351    0.463   99.469   24.069
  301.753    0.343    0.461   86.182   24.508
  302.058    0.339    0.468   56.597   24.488
  302.363    0.337    0.448   42.705   24.027
  302.668    0.331    0.430   40.284   22.713
  302.972    0.313    0.447   43.294   20.318
  303.277    0.292    0.433   54.755   12.319
  303.582    0.281    0.417   81.913    7.896
  303.887    0.268    0.437  117.519    5.761
  304.192    0.213    0.466  130.791    5.346
  304.496    0.179    0.510  132.595    5.861
  304.801    0.179    0.513  131.984    6.545
  305.106    0.194    0.489  126.543    8.166
  305.411    0.262    0.476  124.121   10.381
  305.716    0.287    0.461  115.664   14.213
  306.020    0.267    0.438  116.864   17.409
  306.325    0.283    0.453  122.289   18.054
  306.630    0.295    0.459  112.624   15.851
  306.935    0.295    0.459   98.129   11.565
  307.240    0.257    0.459  104.157   10.535
  307.545    0.237    0.484  106.564   11.129
  307.849    0.268    0.499   98.107   12.430
  308.154    0.292    0.481   86.026   15.798
  308.459    0.307    0.452   74.550   18.995
  308.764    0.319    0.448   72.731   20.447
  309.069    0.326    0.434   69.102   22.413
  309.373    0.332    0.440   67.283   22.816
  309.678    0.329    0.465   73.311   21.974
  309.983    0.317    0.466   78.738   19.653
  310.288    0.303    0.448   87.180   15.156
  310.593    0.283    0.452   91.398   11.477
  310.897    0.260    0.450   93.202   10.076
  311.202    0.270    0.452   94.402   11.892
  311.507    0.258    0.439   96.205   12.801
  311.812    0.231    0.463   98.009   14.031
  312.117    0.220    0.473  102.229   14.022
  312.421    0.224    0.467  110.067   13.256
  312.726    0.252    0.451  114.890   11.010
  313.031    0.252    0.450  119.710    8.812
  313.336    0.217    0.469  122.722    7.318
  313.641    0.214    0.487  125.129    7.314
  313.946    0.232    0.503  118.482    8.957
  314.250    0.261    0.513  103.383   10.381
  314.555    0.298    0.494   88.888   12.955
  314.860    0.306    0.473   86.466   20.949
  315.165    0.311    0.463   87.063   22.124
  315.470    0.316    0.463   89.471   20.920
  315.774    0.309    0.460   90.669   16.436
  316.079    0.291    0.447   95.491   14.167
  316.384    0.254    0.467   99.709   11.986
  316.689    0.265    0.445  102.116   10.330
  316.994    0.250    0.445  105.128    8.578
  317.298    0.235    0.464  112.967    7.815
  317.603    0.217    0.487  122.618    7.526
  317.908    0.207    0.507  125.026    7.806
