~VERSION INFORMATION
 VERS.                 2.0:   CWLS LOG ASCII STANDARD -VERSION 2.0
 WRAP.                  NO:   ONE LINE PER DEPTH STEP
~WELL INFORMATION BLOCK
#MNEM.UNIT           DATA                    DESCRIPTION OF MNEMONIC
#---------    -------------------            -------------------------------
# Generated from Intellog Unique Number	CW_82_90/WELL/3442
WELL.         SHERRITT LIEGE 10-25           : Well_name    - WELL
LOC .         00/10-25-089-20W4/0            : Location     - LOCATION
UWI .         00/10-25-089-20W4/0            : Uwi          - UNIQUE WELL ID
ENTR.         JJ                             : Entered      - ENTERED BY
SRVC.         WESTERN ATLAS                  : Scn          - SERVICE COMPANY
DATE.         10 FEB 89                      : Date         - LOG DATE
STRT.M        100                            : top_depth    - START DEPTH
STOP.M        260                            : bot_depth    - STOP DEPTH
STEP.M        0.25                           : increment    - STEP LENGTH
 NULL. -999.2500:NULL Value
~CURVE INFORMATION BLOCK
#MNEM UNIT       ERCB CURVE CODE    CURVE DESCRIPTION
#-----------   ------------------   ----------------------------------
DEPT.M        00 001 00 00         : DEPTH        - DEPTH
DPHI.V/V      00 890 00 00         : PHID         - DENSITY POROSITY (SANDSTONE)
NPHI.V/V      00 330 00 00         : PHIN         - NEUTRON POROSITY (SANDSTONE)
GR  .API      00 310 00 00         : GR           - GAMMA RAY
CALI.MM       00 280 01 00         : CAL          - CALIPER
ILD .OHMM     00 120 00 00         : RESD         - DEEP RESISTIVITY (DIL)
~PARAMETER INFORMATION
#MNEM.UNIT           DATA             DESCRIPTION OF MNEMONIC
#---------         -----------     ------------------------------
GL  .M        514.3                : gl           - GROUND LEVEL ELEVATION
EREF.M        518.4                : kb           - ELEVATION OF DEPTH REFERENCE
DATM.M        518.4                : datum        - DATUM ELEVATION
TDD .M        262.6                : tdd          - TOTAL DEPTH DRILLER
RUN .         ONE                  : Run          - RUN NUMBER
ENG .         SMYTHE/CHAPMAN       : Engineer     - RECORDING ENGINEER
WIT .         WILLIAMS             : Witness      - WITNESSED BY
BASE.         MED. HAT             : Branch       - HOME BASE OF LOGGING UNIT
MUD .         GEL CAUSTIC          : Mud_type     - MUD TYPE
MATR.         SANDSTONE            : Logunit      - NEUTRON MATRIX
TMAX.C        20                   : BHT          - MAXIMUM RECORDED TEMPERATURE
BHTD.M        262.5                : BHTDEP       - MAXIMUM RECORDED TEMPERATURE
RMT .C        18                   : MDTP         - TEMPERATURE OF MUD
MUDD.KG/M     1150                 : MWT          - MUD DENSITY
NEUT.         1                    : NEUTRON      - NEUTRON TYPE
RESI.         0                    : RESIST       - RESISTIVITY TYPE
RM  .OHMM     5.3                  : RM           - RESISTIVITY OF MUD
RMC .OHMM     4.7                  : RMC          - RESISTIVITY OF MUD CAKE
RMF .OHMM     5                    : RMF          - RESISTIVITY OF MUD FILTRATE
SUFT.C        5                    : SUFT         - SURFACE TEMPERATURE
~A  DEPTH     PHID     PHIN       GR      CAL     RESD
# ...
  136.500    0.286    0.427   92.739  174.036    7.259
  136.750    0.270    0.403   87.524  169.716    7.846
  137.000    0.240    0.361   76.519  169.346    8.636
  137.250    0.254    0.374   65.151  170.911    9.696
  137.500    0.280    0.404   70.233  175.626   10.608
  137.750    0.288    0.417   73.730  176.378   11.582
  138.000    0.283    0.412   76.498  173.470   12.076
  138.250    0.276    0.411   79.996  172.917   12.341
  138.500    0.242    0.404   71.914  173.261   12.289
  138.750    0.233    0.384   70.541  174.208   11.850
  139.000    0.285    0.380   73.061  176.491   11.312
  139.250    0.286    0.402   76.681  177.432   10.735
  139.500    0.254    0.405   84.324  179.406   10.249
  139.750    0.195    0.412   90.747  179.650    9.400
  140.000    0.219    0.427   96.741  176.953    8.233
  140.250    0.212    0.431   97.251  174.656    7.225
  140.500    0.221    0.442   97.522  174.400    6.587
  140.750    0.232    0.454   99.253  174.952    6.090
  141.000    0.241    0.475  100.685  175.187    5.803
  141.250    0.240    0.471  102.407  175.538    5.595
  141.500    0.218    0.452  105.418  175.467    5.341
  141.750    0.253    0.466  102.458  175.011    5.079
  142.000    0.285    0.465   98.582  174.538    4.830
  142.250    0.284    0.465   96.475  173.477    4.546
  142.500    0.282    0.467   95.037  173.397    4.366
  142.750    0.302    0.477   94.881  173.147    4.202
  143.000    0.314    0.495   94.414  172.574    4.012
  143.250    0.324    0.503   92.856  171.592    3.822
  143.500    0.298    0.490   93.062  171.133    3.671
  143.750    0.273    0.457   91.076  171.272    3.533
  144.000    0.286    0.490   85.801  172.335    3.441
  144.250    0.322    0.518   91.192  172.570    3.530
  144.500    0.327    0.512   92.125  172.310    3.652
  144.750    0.311    0.498   86.671  172.144    3.979
  145.000    0.299    0.455   84.376  172.284    4.531
  145.250    0.291    0.420   87.509  172.333    5.149
  145.500    0.284    0.404   86.438  172.375    5.971
  145.750    0.276    0.401   82.134  172.508    7.177
  146.000    0.272    0.408   83.443  172.248    8.541
  146.250    0.277    0.402   83.041  171.676   10.103
  146.500    0.279    0.381   79.163  171.109   11.975
  146.750    0.244    0.409   72.427  169.626   13.940
  147.000    0.206    0.394   69.647  168.145   15.220
  147.250    0.263    0.381   66.691  165.245   16.094
  147.500    0.285    0.368   64.212  163.558   16.250
  147.750    0.171    0.366   61.312  162.897   15.025
  148.000    0.114    0.313   61.397  164.252   13.643
  148.250    0.267    0.330   66.176  168.684   11.949
  148.500    0.293    0.357   71.133  169.928   10.300
  148.750    0.288    0.368   69.148  171.174    9.390
  149.000    0.276    0.376   72.647  171.174    8.612
  149.250    0.266    0.388   77.365  175.036    8.075
  149.500    0.261    0.401   80.677  175.166    7.928
  149.750    0.267    0.411   81.984  174.394    8.103
  150.000    0.266    0.393   80.426  173.411    8.953
  150.250    0.264    0.386   77.889  172.342    9.563
  150.500    0.276    0.381   71.697  171.870   10.378
  150.750    0.292    0.378   69.345  172.026   11.196
  151.000    0.291    0.386   71.078  172.279   12.150
  151.250    0.299    0.368   72.746  172.514   13.319
  151.500    0.297    0.352   66.254  172.443   14.571
  151.750    0.272    0.350   58.844  172.891   16.166
  152.000    0.238    0.360   53.811  173.761   17.936
  152.250    0.272    0.372   57.490  174.084   19.859
  152.500    0.298    0.367   59.525  175.053   20.873
  152.750    0.297    0.330   56.689  175.053   21.162
  153.000    0.279    0.305   55.189  175.053   20.860
  153.250    0.213    0.330   59.112  179.342   19.955
  153.500    0.216    0.348   66.878  179.776   18.047
  153.750    0.252    0.348   73.058  179.776   15.998
  154.000    0.272    0.352   76.371  181.620   14.097
  154.250    0.256    0.362   80.112  181.630   12.421
  154.500    0.234    0.373   83.306  182.275   11.279
  154.750    0.219    0.377   86.133  184.992   10.018
  155.000    0.235    0.383   88.043  185.002    8.916
  155.250    0.252    0.397   92.335  183.412    7.920
  155.500    0.261    0.416   95.038  180.718    7.192
  155.750    0.266    0.402   97.075  179.148    6.413
  156.000    0.262    0.395   91.675  178.581    5.765
  156.250    0.265    0.401   85.546  178.612    5.471
  156.500    0.217    0.412   85.329  178.850    5.244
  156.750    0.218    0.444   88.826  178.994    5.612
  157.000    0.250    0.415   86.474  179.133    6.164
  157.250    0.263    0.379   77.787  179.993    7.205
  157.500    0.202    0.344   70.619  179.631    9.087
  157.750    0.235    0.347   76.554  178.045   10.750
  158.000    0.258    0.367   83.775  176.553   12.665
  158.250    0.265    0.373   81.356  174.079   13.856
  158.500    0.265    0.371   74.069  173.385   14.303
  158.750    0.265    0.366   72.085  171.715   13.357
  159.000    0.267    0.359   75.096  170.042   11.239
  159.250    0.270    0.362   73.599  168.951    9.983
  159.500    0.287    0.359   69.964  168.078    9.323
  159.750    0.299    0.340   65.421  168.078    9.878
  160.000    0.203    0.330   58.680  168.166   13.716
  160.250    0.190    0.359   55.476  167.994   17.684
  160.500    0.212    0.338   59.766  168.237   21.342
  160.750    0.255    0.314   56.501  168.599   24.549
  161.000    0.193    0.314   52.444  168.725   26.062
  161.250    0.216    0.347   60.026  168.766   19.681
  161.500    0.237    0.374   71.683  168.397   12.361
  161.750    0.284    0.402   84.443  168.439    9.447
  162.000    0.294    0.401   86.909  168.196    8.840
  162.250    0.303    0.380   78.219  168.115    8.944
  162.500    0.312    0.374   63.559  166.435    9.553
  162.750    0.287    0.361   58.955  165.764   12.243
  163.000    0.292    0.346   55.505  166.526   16.040
  163.250    0.244    0.297   53.581  167.579   18.748
  163.500    0.219    0.326   55.127  168.739   18.856
  163.750    0.225    0.371   62.769  169.379   14.881
  164.000    0.258    0.391   66.266  170.236   11.581
  164.250    0.293    0.416   73.116  170.573    9.438
  164.500    0.278    0.384   75.392  170.921    7.862
  164.750    0.282    0.350   77.675  170.656    7.068
  165.000    0.280    0.419   78.677  170.196    6.788
  165.250    0.272    0.455   76.929  170.029    6.786
  165.500    0.277    0.507   72.139  169.698    7.409
  165.750    0.285    0.482   73.078  169.815    8.387
  166.000    0.255    0.460   73.895  169.444    9.607
  166.250    0.219    0.397   72.641  169.924   11.830
  166.500    0.256    0.387   72.178  169.936   14.624
  166.750    0.266    0.345   69.283  170.475   20.185
  167.000    0.228    0.327   66.564  171.843   27.583
  167.250    0.201    0.299   62.685  173.311   32.110
  167.500    0.182    0.313   58.812  174.570   37.680
  167.750    0.159    0.326   57.437  175.525   39.604
  168.000    0.156    0.336   57.581  176.074   39.119
  168.250    0.187    0.322   59.739  176.074   35.450
  168.500    0.226    0.323   63.908  176.976   29.004
  168.750    0.219    0.351   68.684  176.696   21.512
  169.000    0.244    0.401   76.814  175.730   17.046
  169.250    0.247    0.415   80.491  175.460   18.169
  169.500    0.180    0.314   69.004  174.993   19.797
  169.750    0.134    0.288   60.618  174.344   24.037
  170.000    0.198    0.309   51.806  174.380   25.983
  170.250    0.255    0.328   59.876  174.414   26.130
  170.500    0.282    0.339   68.429  174.751   25.147
  170.750    0.270    0.354   75.462  174.751   20.289
  171.000    0.265    0.349   79.632  175.659   11.832
  171.250    0.266    0.381   81.662  175.995    9.413
  171.500    0.263    0.398   83.336  175.934    8.496
  171.750    0.249    0.390   85.555  174.861    8.275
  172.000    0.235    0.392   89.720  173.376    8.141
  172.250    0.238    0.395   88.527  171.286    8.221
  172.500    0.245    0.405   86.665  171.286    8.503
  172.750    0.257    0.402   83.882  164.785    9.027
