~VERSION INFORMATION
 VERS.                 2.0:   CWLS LOG ASCII STANDARD -VERSION 2.0
 WRAP.                  NO:   ONE LINE PER DEPTH STEP
~WELL INFORMATION BLOCK
#MNEM.UNIT           DATA                    DESCRIPTION OF MNEMONIC
#---------    -------------------            -------------------------------
# Generated from Intellog Unique Number	CS_77_79/WELL/957
WELL.         MESA HB LEISMER                : Well_name    - WELL
LOC .         00/10-18-078-10W4/0            : Location     - LOCATION
UWI .         00/10-18-078-10W4/0            : Uwi          - UNIQUE WELL ID
ENTR.         JHS                            : Entered      - ENTERED BY
SRVC.         SCHLUMBERGER                   : Scn          - SERVICE COMPANY
STRT.M        243.84                         : top_depth    - START DEPTH
STOP.M        475.34                         : bot_depth    - STOP DEPTH
STEP.M        0.25                           : increment    - STEP LENGTH
 NULL. -999.2500:NULL Value
~CURVE INFORMATION BLOCK
#MNEM UNIT       ERCB CURVE CODE    CURVE DESCRIPTION
#-----------   ------------------   ----------------------------------
DEPT.M        00 001 00 00         : DEPTH        - DEPTH
RHOB.KG/M3    00 350 00 00         : DENS         - BULK DENSITY
GR  .API      00 310 00 00         : GR           - GAMMA RAY
DPHI.V/V      00 890 00 00         : PHID         - DENSITY POROSITY (SANDSTONE)
NPHI.V/V      00 330 00 00         : PHIN         - NEUTRON POROSITY (SANDSTONE)
ILD .OHMM     00 120 00 00         : RESD         - DEEP RESISTIVITY (DIL)
~PARAMETER INFORMATION
#MNEM.UNIT           DATA             DESCRIPTION OF MNEMONIC
#---------         -----------     ------------------------------
GL  .M        662.33               : gl           - GROUND LEVEL ELEVATION
EREF.M        666.293              : kb           - ELEVATION OF DEPTH REFERENCE
DATM.M        666.293              : datum        - DATUM ELEVATION
TDD .M        487.68               : tdd          - TOTAL DEPTH DRILLER
RUN .         ONE                  : Run          - RUN NUMBER
ENG .         BILL                 : Engineer     - RECORDING ENGINEER
WIT .         JIM                  : Witness      - WITNESSED BY
MUD .         GEL                  : Mud_type     - MUD TYPE
MATR.         SANDSTONE            : Logunit      - NEUTRON MATRIX
TMAX.C        22.2222              : BHT          - MAXIMUM RECORDED TEMPERATURE
BHTD.M        487.68               : BHTDEP       - MAXIMUM RECORDED TEMPERATURE
MATR.         1                    : LOGUNIT      - NEUTRON MATRIX
RMT .C        25                   : MDTP         - TEMPERATURE OF MUD
NEUT.         1                    : NEUTRON      - NEUTRON TYPE
RESI.         0                    : RESIST       - RESISTIVITY TYPE
RMC .OHMM     0.25                 : RMC          - RESISTIVITY OF MUD CAKE
RMF .OHMM     0.25                 : RMF          - RESISTIVITY OF MUD FILTRATE
SUFT.C        15                   : SUFT         - SURFACE TEMPERATURE
~A  DEPTH     DENS       GR     PHID     PHIN     RESD
# ...
  389.840   -0.000   81.924    0.320    0.458    5.454
  390.090   -0.006   82.663    0.310    0.449    5.233
  390.340   -0.045   83.216    0.308    0.447    5.060
  390.590    0.167   88.944    0.297    0.460    5.069
  390.840    4.426   91.897    0.290    0.479    5.165
  391.090   21.635   89.938    0.284    0.495    5.385
  391.340 -181.540   86.046    0.295    0.476    5.710
  391.590 2423.310   81.178    0.304    0.477    6.332
  391.840 2148.340   76.285    0.333    0.476    6.856
  392.090 2157.610   73.844    0.322    0.455    7.307
  392.340 2187.620   73.779    0.305    0.447    7.481
  392.590 2202.760   77.726    0.297    0.444    7.471
  392.840 2224.680   75.585    0.284    0.456    7.119
  393.090 2186.770   74.068    0.306    0.471    6.771
  393.340 2202.780   71.684    0.297    0.462    6.462
  393.590 2225.540   72.731    0.283    0.460    6.267
  393.840 2226.690   73.010    0.283    0.479    6.076
  394.090 2203.600   73.488    0.296    0.470    5.983
  394.340 2178.190   74.409    0.311    0.458    6.119
  394.590 2161.220   75.341    0.321    0.461    6.119
  394.840 2178.200   75.315    0.311    0.467    6.214
  395.090 2199.210   75.543    0.299    0.465    6.347
  395.340 2231.380   75.886    0.280    0.443    6.332
  395.590 2208.020   76.808    0.294    0.450    6.224
  395.840 2163.050   77.209    0.320    0.472    6.063
  396.090 2171.200   74.740    0.315    0.483    5.997
  396.340 2134.060   71.998    0.337    0.463    6.121
  396.590 2146.440   74.616    0.330    0.481    6.119
  396.840 2159.560   77.638    0.322    0.483    6.008
  397.090 2154.710   78.336    0.325    0.493    6.016
  397.340 2199.490   79.975    0.299    0.500    5.882
  397.590 2208.870   85.438    0.293    0.479    5.903
  397.840 2269.180   92.379    0.258    0.456    5.786
  398.090 2317.770   92.207    0.229    0.444    5.676
  398.340 2331.840   91.842    0.221    0.440    5.602
  398.590 2305.630   93.549    0.236    0.449    5.592
  398.840 2289.580   89.947    0.246    0.453    5.477
  399.090 2331.460   94.975    0.221    0.456    5.595
  399.340 2329.170   97.800    0.223    0.468    5.643
  399.590 2338.360   97.251    0.217    0.465    5.787
  399.840 2364.460   99.611    0.202    0.446    6.089
  400.090 2365.320  100.482    0.202    0.432    6.269
  400.340 2374.050  102.666    0.196    0.430    6.350
  400.590 2371.050  102.650    0.198    0.421    6.550
  400.840 2365.350  101.080    0.202    0.434    6.607
  401.090 2365.460  101.407    0.201    0.436    6.713
  401.340 2319.390   99.021    0.228    0.418    6.869
  401.590 2340.220  101.286    0.216    0.419    6.714
  401.840 2348.070  102.935    0.212    0.433    6.735
  402.090 2311.100  102.150    0.233    0.432    6.592
  402.340 2350.430  104.849    0.210    0.433    6.478
  402.590 2354.000  103.593    0.208    0.434    6.236
  402.840 2331.040   99.951    0.222    0.435    5.759
  403.090 2344.040   97.178    0.214    0.462    5.419
  403.340 2313.170   96.512    0.232    0.491    4.796
  403.590 2330.760   97.694    0.222    0.498    4.222
  403.840 2308.960   99.911    0.235    0.510    3.502
  404.090 2261.700   96.022    0.262    0.545    3.077
  404.340 2226.950   92.040    0.282    0.572    2.634
  404.590 2168.580   89.481    0.317    0.568    2.214
  404.840 2207.240   94.677    0.294    0.591    1.972
  405.090 2217.570   92.421    0.288    0.608    1.880
  405.340 2192.630   90.465    0.303    0.569    1.846
  405.590 2191.450   90.529    0.303    0.554    1.855
  405.840 2192.240   94.878    0.303    0.548    1.917
  406.090 2183.360   96.978    0.308    0.570    1.932
  406.340 2244.620   97.278    0.272    0.584    2.044
  406.590 2268.230  100.917    0.258    0.560    2.209
  406.840 2272.570  102.500    0.256    0.536    2.459
  407.090 2283.390   99.969    0.249    0.507    2.866
  407.340 2287.990   96.766    0.247    0.483    3.393
  407.590 2288.090   99.067    0.247    0.467    3.957
  407.840 2306.270  100.765    0.236    0.461    4.607
  408.090 2355.640  103.124    0.207    0.455    5.288
  408.340 2382.170   97.338    0.192    0.437    5.887
  408.590 2408.670   95.283    0.176    0.401    5.923
  408.840 2405.010   97.393    0.178    0.408    5.856
  409.090 2321.710  101.481    0.227    0.432    5.640
  409.340 2336.660  104.793    0.218    0.431    5.130
  409.590 2305.250  108.101    0.237    0.434    4.551
  409.840 2363.660  104.369    0.203    0.456    3.976
  410.090 2320.380  101.961    0.228    0.474    3.629
  410.340 2307.010  105.001    0.236    0.470    3.438
  410.590 2325.980  108.895    0.225    0.489    3.347
  410.840 2360.250  110.612    0.205    0.514    3.408
  411.090 2344.250  107.576    0.214    0.502    3.526
  411.340 2350.760  103.286    0.210    0.466    3.674
  411.590 2380.390  100.731    0.193    0.451    3.867
  411.840 2378.980  104.779    0.194    0.466    3.874
  412.090 2318.460  110.098    0.229    0.502    3.949
  412.340 2283.410  106.032    0.249    0.484    4.069
  412.590 2306.570  102.487    0.236    0.458    4.184
  412.840 2334.790  104.219    0.219    0.462    4.178
  413.090 2341.240  110.092    0.216    0.489    4.181
  413.340 2309.450  112.983    0.234    0.504    4.191
  413.590 2283.010  111.617    0.250    0.492    4.248
  413.840 2290.210  103.265    0.245    0.450    4.450
  414.090 2364.820   99.390    0.202    0.423    4.775
  414.340 2396.550   98.851    0.183    0.408    4.943
  414.590 2413.680   99.914    0.173    0.403    5.623
  414.840 2475.360  101.980    0.137    0.414    6.058
  415.090 2422.060  100.448    0.168    0.438    6.817
  415.340 2376.550   93.923    0.195    0.403    7.455
  415.590 2374.280   81.374    0.196    0.373    8.107
  415.840 2299.270   78.043    0.240    0.350    9.044
  416.090 2228.120   79.222    0.282    0.337   10.131
  416.340 2229.590   78.997    0.281    0.342   11.450
  416.590 2253.760   82.480    0.267    0.350   12.594
  416.840 2272.460   82.839    0.256    0.363   13.200
  417.090 2283.430   84.763    0.249    0.368   14.102
  417.340 2293.130   87.788    0.244    0.381   14.315
  417.590 2282.500   84.668    0.250    0.397   15.595
  417.840 2262.520   81.959    0.262    0.401   16.866
  418.090 2232.800   79.886    0.279    0.408   18.590
  418.340 2209.490   81.810    0.293    0.411   20.868
  418.590 2208.610   88.165    0.293    0.409   23.599
  418.840 2225.120   94.382    0.284    0.410   25.968
  419.090 2212.790   98.102    0.291    0.417   28.049
  419.340 2247.070  100.908    0.271    0.421   28.648
  419.590 2250.330   99.573    0.269    0.422   29.121
  419.840 2218.860   97.899    0.287    0.385   29.185
  420.090 2229.600   91.913    0.281    0.369   28.228
  420.340 2238.830   91.412    0.276    0.357   25.381
  420.590 2256.220   94.065    0.265    0.359   22.704
  420.840 2332.860  102.224    0.221    0.379   19.855
  421.090 2350.190  105.660    0.210    0.392   16.129
  421.340 2328.070  103.472    0.223    0.386   14.748
  421.590 2308.260  101.363    0.235    0.381   13.489
  421.840 2288.670   99.200    0.246    0.377   13.175
  422.090 2303.100  101.017    0.238    0.397   13.426
  422.340 2330.240  108.259    0.222    0.392   13.698
  422.590 2335.870  116.746    0.219    0.391   12.782
  422.840 2329.480  120.661    0.223    0.397   12.018
  423.090 2349.270  123.857    0.211    0.392   10.026
  423.340 2335.090  128.551    0.219    0.404    9.151
  423.590 2358.800  128.074    0.205    0.414    8.751
  423.840 2352.110  121.903    0.209    0.408    8.980
  424.090 2337.790  113.734    0.218    0.406    9.817
  424.340 2330.160  108.443    0.222    0.411   11.338
  424.590 2267.840   94.127    0.259    0.388   13.426
  424.840 2257.190   81.836    0.265    0.377   16.916
  425.090 2271.730   84.260    0.256    0.377   20.763
  425.340 2281.550   76.493    0.251    0.384   23.751
  425.590 2237.010   71.350    0.277    0.384   24.660
  425.840 2288.920   74.281    0.246    0.392   23.809
  426.090 2319.770   80.658    0.228    0.369   22.876
