~VERSION INFORMATION
 VERS.                 2.0:   CWLS LOG ASCII STANDARD -VERSION 2.0
 WRAP.                  NO:   ONE LINE PER DEPTH STEP
~WELL INFORMATION BLOCK
#MNEM.UNIT           DATA                    DESCRIPTION OF MNEMONIC
#---------    -------------------            -------------------------------
# Generated from Intellog Unique Number	CN_94_101/WELL/3782
WELL.         10-25-095-18W4                 : Well_name    - WELL
LOC .         00/10-25-095-18W4/0            : Location     - LOCATION
UWI .         00/10-25-095-18W400            : Uwi          - UNIQUE WELL ID
ENTR.         T                              : Entered      - ENTERED BY
SRVC.         SCHLUMBERGER                   : Scn          - SERVICE COMPANY
DATE.         04/12/92                       : Date         - LOG DATE
STRT.M        200                            : top_depth    - START DEPTH
STOP.M        394.75                         : bot_depth    - STOP DEPTH
STEP.M        0.25                           : increment    - STEP LENGTH
 NULL. -999.2500:NULL Value
~CURVE INFORMATION BLOCK
#MNEM UNIT       ERCB CURVE CODE    CURVE DESCRIPTION
#-----------   ------------------   ----------------------------------
DEPT.M        00 001 00 00         : DEPTH        - DEPTH
GR  .API      00 310 00 00         : GR           - GAMMA RAY
CALI.MM       00 280 01 00         : CAL          - CALIPER
NPHI.V/V      00 330 00 00         : PHIN         - NEUTRON POROSITY (SANDSTONE)
DPHI.V/V      00 890 00 00         : PHID         - DENSITY POROSITY (SANDSTONE)
ILD .OHMM     00 120 00 00         : RESD         - DEEP RESISTIVITY (DIL)
~PARAMETER INFORMATION
#MNEM.UNIT           DATA             DESCRIPTION OF MNEMONIC
#---------         -----------     ------------------------------
GL  .M        665                  : gl           - GROUND LEVEL ELEVATION
EREF.M        668                  : kb           - ELEVATION OF DEPTH REFERENCE
DATM.M        668                  : datum        - DATUM ELEVATION
TDD .M        399                  : tdd          - TOTAL DEPTH DRILLER
RUN .         0.000000             : Run          - RUN NUMBER
MUD .         GEL                  : Mud_type     - MUD TYPE
MATR.         SANDSTONE            : Logunit      - NEUTRON MATRIX
TMAX.C        15                   : BHT          - MAXIMUM RECORDED TEMPERATURE
BHTD.M        253.4                : BHTDEP       - MAXIMUM RECORDED TEMPERATURE
RMT .C        17.3                 : MDTP         - TEMPERATURE OF MUD
MUDD.KG/M     1130                 : MWT          - MUD DENSITY
NEUT.         1                    : NEUTRON      - NEUTRON TYPE
RESI.         0                    : RESIST       - RESISTIVITY TYPE
RM  .OHMM     8.25                 : RM           - RESISTIVITY OF MUD
RMC .OHMM     7.89                 : RMC          - RESISTIVITY OF MUD CAKE
RMF .OHMM     3.5                  : RMF          - RESISTIVITY OF MUD FILTRATE
SUFT.C        4                    : SUFT         - SURFACE TEMPERATURE
BTZC.MM       0                    : BITZC        - BIT SIZE CONSTANT
MDW .KG/M     0                    : MDW          - MUD WEIGHT
~A  DEPTH       GR      CAL     PHIN     PHID     RESD
# ...
  309.500   70.661  159.232    0.408    0.235    7.316
  309.750   69.421  160.270    0.409    0.245    7.457
  310.000   79.046  163.382    0.413    0.257    6.908
  310.250   89.004  170.643    0.446    0.264    6.399
  310.500   89.004  170.643    0.452    0.270    6.042
  310.750   90.249  171.680    0.446    0.275    6.158
  311.000   88.382  162.344    0.422    0.289    7.041
  311.250   79.046  160.270    0.413    0.303    9.563
  311.500   67.220  160.270    0.399    0.306    9.748
  311.750   68.465  160.270    0.409    0.289    9.936
  312.000   77.801  165.456    0.432    0.270    6.777
  312.250   87.759  171.680    0.452    0.270    5.386
  312.500   90.871  168.568    0.488    0.270    4.448
  312.750   93.983  170.643    0.510    0.272    3.966
  313.000   93.361  170.643    0.532    0.269    3.966
  313.250   95.228  169.606    0.537    0.272    4.200
  313.500   91.494  162.344    0.522    0.289    4.990
  313.750   84.025  161.307    0.459    0.247    5.815
  314.000   68.465  161.307    0.358    0.134    6.777
  314.250   58.506  161.307    0.324    0.112    7.898
  314.500   59.751  160.270    0.385    0.176    9.030
  314.750   64.730  160.270    0.373    0.169   10.128
  315.000   65.975  160.270    0.373    0.159    9.748
  315.250   68.465  161.307    0.372    0.187    8.364
  315.500   75.934  160.270    0.427    0.236    7.898
  315.750   79.668  170.643    0.438    0.249    6.522
  316.000   85.892  168.568    0.441    0.249    5.597
  316.250   89.004  166.494    0.461    0.251    5.597
  316.500   90.249  167.531    0.464    0.255    5.491
  316.750   89.004  166.494    0.464    0.250    5.491
  317.000   85.892  166.494    0.451    0.242    5.597
  317.250   84.025  168.568    0.447    0.236    5.815
  317.500   86.515  167.531    0.436    0.238    6.399
  317.750   87.137  170.643    0.447    0.246    7.041
  318.000   87.759  165.456    0.466    0.259    7.748
  318.250   85.270  161.307    0.452    0.250    8.364
  318.500   82.158  160.270    0.388    0.220    9.204
  318.750   80.290  161.307    0.392    0.169    9.748
  319.000   84.647  166.494    0.407    0.188    8.859
  319.250   90.871  172.718    0.418    0.211    7.748
  319.500   90.871  175.830    0.421    0.244    6.777
  319.750   90.871  174.793    0.419    0.260    6.908
  320.000   90.871  167.531    0.432    0.277    7.316
  320.250   89.627  170.643    0.432    0.262    7.601
  320.500   84.647  163.382    0.412    0.230    8.691
  320.750   87.759  161.307    0.427    0.230    8.691
  321.000   90.249  165.456    0.458    0.249    5.284
  321.250   91.494  171.680    0.469    0.253    5.184
  321.500   92.739  173.755    0.471    0.243    4.990
  321.750   96.473  170.643    0.456    0.234    4.802
  322.000   98.340  175.830    0.452    0.228    4.711
  322.250   97.718  159.232    0.479    0.224    4.364
  322.500  100.207  159.232    0.507    0.222    4.121
  322.750  103.942  173.755    0.507    0.219    4.042
  323.000  106.432  173.755    0.512    0.213    3.966
  323.250  105.187  173.755    0.505    0.183    4.448
  323.500  103.320  173.755    0.452    0.137    5.086
  323.750   91.494  166.494    0.355    0.099    5.927
  324.000   76.556  166.494    0.419    0.122    5.597
  324.250   82.780  170.643    0.454    0.172    6.042
  324.500   98.963  165.456    0.451    0.202    6.522
  324.750  101.452  159.232    0.419    0.237    6.908
  325.000  101.875  160.270    0.364    0.225    7.457
  325.250  101.875  178.942    0.364    0.213    8.050
  325.500  101.875  174.793    0.378    0.213    8.691
  325.750  104.375  177.905    0.377    0.215    9.382
  326.000  106.250  176.867    0.372    0.220    9.936
  326.250  103.125  170.643    0.392    0.228   10.128
  326.500   98.536  175.830    0.398    0.230   10.324
  326.750   95.397  168.568    0.393    0.224   10.727
  327.000   94.770  161.307    0.388    0.212   11.145
  327.250   94.142  160.270    0.373    0.182   11.580
  327.500   89.749  172.718    0.331    0.142   12.989
  327.750   85.983  162.344    0.335    0.143   11.804
  328.000   87.238  165.456    0.393    0.193   10.727
  328.250   90.756  173.755    0.412    0.224    9.748
  328.500   93.277  178.942    0.418    0.223    9.030
  328.750   95.798  177.905    0.420    0.213    9.030
  329.000   97.689  182.054    0.430    0.208    9.030
  329.250  100.840  185.166    0.435    0.217    9.030
  329.500   98.950  185.166    0.421    0.237    9.204
  329.750   91.387  164.419    0.367    0.246    9.382
  330.000   88.494  160.270    0.362    0.243   10.128
  330.250   88.494  161.307    0.412    0.230   10.128
  330.500   89.749  166.494    0.412    0.189   10.128
  330.750   89.121  171.680    0.372    0.130    9.936
  331.000   82.218  170.643    0.272    0.005   13.496
  331.250   69.665  162.344    0.237    0.010   14.293
  331.500   67.500  161.307    0.234    0.018   14.851
  331.750   72.500  161.307    0.274    0.036   14.022
  332.000   84.375  161.307    0.391    0.203   12.989
  332.250   88.125  163.382    0.401    0.223   11.804
  332.500   88.750  165.456    0.410    0.234   10.524
  332.750   88.750  159.232    0.410    0.238   10.524
  333.000   91.875  161.307    0.410    0.229   10.524
  333.250   94.606  163.382    0.410    0.217    9.936
  333.500   93.983  170.643    0.408    0.225    9.563
  333.750   93.983  173.755    0.390    0.241    9.382
  334.000   96.473  177.905    0.393    0.235    9.204
  334.250  100.207  182.054    0.412    0.222    9.204
  334.500  102.075  184.129    0.412    0.217    9.030
  334.750   97.718  173.755    0.395    0.215    9.030
  335.000   93.125  174.793    0.379    0.220    8.859
  335.250   91.250  169.606    0.374    0.225    8.859
  335.500   91.250  170.643    0.374    0.225    8.691
  335.750   92.500  169.606    0.390    0.222    8.691
  336.000   95.000  173.755    0.431    0.218    8.526
  336.250  102.500  177.905    0.442    0.214    8.364
  336.500  103.750  177.905    0.445    0.208    8.364
  336.750   98.750  177.905    0.425    0.204    8.526
  337.000   89.375  177.905    0.392    0.179    8.526
  337.250   83.125  169.606    0.337    0.130    8.691
  337.500   84.100  162.344    0.363    0.147    8.206
  337.750   94.142  172.718    0.407    0.190    7.601
  338.000   99.163  169.606    0.411    0.215    6.908
  338.250   96.025  169.606    0.415    0.222    5.705
  338.500   89.749  172.718    0.425    0.227    5.184
  338.750   93.515  174.793    0.524    0.238    4.711
  339.000  103.556  167.531    0.532    0.258    4.042
  339.250  106.695  166.494    0.546    0.267    3.674
  339.500  106.067  163.382    0.531    0.262    3.604
  339.750  100.418  167.531    0.515    0.251    3.604
  340.000   92.500  170.643    0.461    0.230    3.966
  340.250   90.625  176.867    0.451    0.219    4.622
  340.500   89.375  173.755    0.443    0.209    5.386
  340.750   89.375  169.606    0.431    0.207    6.399
  341.000   89.375  167.531    0.406    0.205    7.457
  341.250   82.500  167.531    0.334    0.168    8.691
  341.500   81.250  163.382    0.356    0.119    9.936
  341.750   88.125  164.419    0.383    0.144    9.204
  342.000   96.875  166.494    0.457    0.203    8.364
  342.250  103.750  174.793    0.471    0.208    7.898
  342.500  103.942  172.718    0.470    0.210    7.177
  342.750  102.697  175.830    0.448    0.212    6.522
  343.000   98.340  171.680    0.427    0.214    7.177
  343.250   93.983  161.307    0.402    0.212    7.898
  343.500   95.851  164.419    0.405    0.205    8.691
  343.750   95.851  161.307    0.393    0.190    9.563
  344.000   96.473  160.270    0.356    0.154   10.934
  344.250   97.718  164.419    0.302    0.095   12.032
  344.500   91.494  161.307    0.312    0.104   12.743
  344.750   88.382  160.270    0.368    0.129   12.032
  345.000   92.975  161.307    0.402    0.188   11.580
  345.250   95.455  161.307    0.396    0.184   10.727
  345.500   96.074  163.382    0.391    0.167   10.934
  345.750   95.455  163.382    0.356    0.139   12.032
