~VERSION INFORMATION
 VERS.                 2.0:   CWLS LOG ASCII STANDARD -VERSION 2.0
 WRAP.                  NO:   ONE LINE PER DEPTH STEP
~WELL INFORMATION BLOCK
#MNEM.UNIT           DATA                    DESCRIPTION OF MNEMONIC
#---------    -------------------            -------------------------------
# Generated from Intellog Unique Number	CS_67_68/WELL/844
WELL.         DOME PETROLEUM LIMITED         : Well_name    - WELL
LOC .         00/11-29-068-02W4/0            : Location     - LOCATION
UWI .         00/11-29-068-02W4/0            : Uwi          - UNIQUE WELL ID
ENTR.         SP                             : Entered      - ENTERED BY
SRVC.         SCHLUMBERGER                   : Scn          - SERVICE COMPANY
STRT.M        390                            : top_depth    - START DEPTH
STOP.M        630                            : bot_depth    - STOP DEPTH
STEP.M        0.25                           : increment    - STEP LENGTH
 NULL. -999.2500:NULL Value
~CURVE INFORMATION BLOCK
#MNEM UNIT       ERCB CURVE CODE    CURVE DESCRIPTION
#-----------   ------------------   ----------------------------------
DEPT.M        00 001 00 00         : DEPTH        - DEPTH
ILD .OHMM     00 120 00 00         : RESD         - DEEP RESISTIVITY (DIL)
DPHI.V/V      00 890 00 00         : PHID         - DENSITY POROSITY (LIMESTONE)
NPHI.V/V      00 330 00 00         : PHIN         - NEUTRON POROSITY (LIMESTONE)
GR  .API      00 310 00 00         : GR           - GAMMA RAY
~PARAMETER INFORMATION
#MNEM.UNIT           DATA             DESCRIPTION OF MNEMONIC
#---------         -----------     ------------------------------
GL  .M        724.6                : gl           - GROUND LEVEL ELEVATION
EREF.M        729.1                : kb           - ELEVATION OF DEPTH REFERENCE
DATM.M        724.6                : datum        - DATUM ELEVATION
TDD .M        637                  : tdd          - TOTAL DEPTH DRILLER
RUN .         ONE                  : Run          - RUN NUMBER
ENG .         BILL                 : Engineer     - RECORDING ENGINEER
WIT .         JIM                  : Witness      - WITNESSED BY
MUD .         GEL                  : Mud_type     - MUD TYPE
MATR.         LIMESTONE            : Logunit      - NEUTRON MATRIX
TMAX.C        28.3                 : BHT          - MAXIMUM RECORDED TEMPERATURE
BHTD.M        6372                 : BHTDEP       - MAXIMUM RECORDED TEMPERATURE
MATR.         1                    : LOGUNIT      - NEUTRON MATRIX
RMT .C        25                   : MDTP         - TEMPERATURE OF MUD
NEUT.         1                    : NEUTRON      - NEUTRON TYPE
RESI.         0                    : RESIST       - RESISTIVITY TYPE
RMC .OHMM     0.25                 : RMC          - RESISTIVITY OF MUD CAKE
RMF .OHMM     0.25                 : RMF          - RESISTIVITY OF MUD FILTRATE
SUFT.C        15                   : SUFT         - SURFACE TEMPERATURE
~A  DEPTH     RESD     PHID     PHIN       GR
# ...
  477.000    4.623    0.316    0.414   49.282
  477.250    4.657    0.317    0.416   48.796
  477.500    4.815    0.324    0.412   48.493
  477.750    5.138    0.326    0.421   47.641
  478.000    5.332    0.333    0.428   46.666
  478.250    5.638    0.333    0.415   46.118
  478.500    5.873    0.303    0.428   46.365
  478.750    5.626    0.245    0.322   49.054
  479.000    4.909    0.172    0.277   50.887
  479.250    4.650    0.194    0.414   53.942
  479.500    4.405    0.253    0.444   55.226
  479.750    4.188    0.311    0.454   52.908
  480.000    4.072    0.327    0.458   49.125
  480.250    4.033    0.335    0.445   52.180
  480.500    4.025    0.343    0.436   55.845
  480.750    3.965    0.336    0.431   53.710
  481.000    3.964    0.320    0.430   55.666
  481.250    3.986    0.314    0.439   58.049
  481.500    4.037    0.313    0.449   58.967
  481.750    4.059    0.309    0.444   58.297
  482.000    4.135    0.304    0.432   56.590
  482.250    4.196    0.299    0.438   55.921
  482.500    4.282    0.304    0.425   55.496
  482.750    4.338    0.310    0.409   54.949
  483.000    4.394    0.306    0.420   53.974
  483.250    4.468    0.303    0.432   52.206
  483.500    4.492    0.303    0.431   54.039
  483.750    4.491    0.305    0.435   57.216
  484.000    4.499    0.307    0.424   58.500
  484.250    4.515    0.310    0.417   59.113
  484.500    4.539    0.303    0.409   58.749
  484.750    4.564    0.286    0.402   58.445
  485.000    4.572    0.276    0.402   61.623
  485.250    4.596    0.276    0.407   64.433
  485.500    4.613    0.265    0.397   67.732
  485.750    4.629    0.251    0.408   70.298
  486.000    4.689    0.239    0.416   72.010
  486.250    4.723    0.249    0.420   72.073
  486.500    4.749    0.265    0.441   65.298
  486.750    4.766    0.283    0.458   57.730
  487.000    4.739    0.296    0.438   54.435
  487.250    4.565    0.310    0.418   52.179
  487.500    4.372    0.324    0.407   51.570
  487.750    4.204    0.336    0.400   49.558
  488.000    4.125    0.346    0.397   45.958
  488.250    4.102    0.351    0.403   47.242
  488.500    4.116    0.355    0.413   50.114
  488.750    4.154    0.359    0.425   48.712
  489.000    4.232    0.365    0.434   48.348
  489.250    4.318    0.366    0.438   50.364
  489.500    4.415    0.358    0.448   52.076
  489.750    4.472    0.350    0.455   53.605
  490.000    4.488    0.345    0.459   52.935
  490.250    4.487    0.341    0.435   51.411
  490.500    4.470    0.333    0.408   50.375
  490.750    4.461    0.334    0.393   51.965
  491.000    4.427    0.336    0.385   56.973
  491.250    4.377    0.314    0.391   66.255
  491.500    4.312    0.278    0.409   75.353
  491.750    4.224    0.252    0.435   79.324
  492.000    4.199    0.232    0.442   79.753
  492.250    4.214    0.221    0.453   77.924
  492.500    4.221    0.213    0.455   81.284
  492.750    4.220    0.225    0.439   82.568
  493.000    4.196    0.235    0.431   80.189
  493.250    4.157    0.240    0.424   81.535
  493.500    4.087    0.237    0.437   82.147
  493.750    4.003    0.233    0.460   81.539
  494.000    3.965    0.240    0.473   80.259
  494.250    3.950    0.250    0.453   78.674
  494.500    3.971    0.242    0.446   77.638
  494.750    4.053    0.231    0.444   75.870
  495.000    4.129    0.225    0.457   72.575
  495.250    4.221    0.226    0.469   66.411
  495.500    4.324    0.256    0.464   61.285
  495.750    4.413    0.285    0.468   56.586
  496.000    4.528    0.303    0.465   52.559
  496.250    4.579    0.321    0.444   49.509
  496.500    4.629    0.342    0.427   47.740
  496.750    4.620    0.339    0.416   51.772
  497.000    4.610    0.334    0.440   54.521
  497.250    4.567    0.333    0.449   56.416
  497.500    4.532    0.330    0.436   55.380
  497.750    4.464    0.322    0.429   53.856
  498.000    4.430    0.319    0.422   52.576
  498.250    4.397    0.338    0.423   52.823
  498.500    4.347    0.351    0.439   54.718
  498.750    4.164    0.356    0.443   56.185
  499.000    4.155    0.353    0.426   56.736
  499.250    4.170    0.352    0.427   55.639
  499.500    4.177    0.342    0.431   54.054
  499.750    4.232    0.331    0.422   56.194
  500.000    4.318    0.327    0.410   56.867
  500.250    4.399    0.322    0.401   56.320
  500.500    4.456    0.315    0.407   54.796
  500.750    4.488    0.308    0.417   54.737
  501.000    4.521    0.306    0.429   55.471
  501.250    4.571    0.311    0.438   55.840
  501.500    4.588    0.316    0.436   55.415
  501.750    4.638    0.319    0.437   54.318
  502.000    4.663    0.328    0.436   53.099
  502.250    4.697    0.336    0.423   52.369
  502.500    4.714    0.339    0.411   51.699
  502.750    4.731    0.328    0.412   51.152
  503.000    4.739    0.322    0.411   50.971
  503.250    4.756    0.312    0.405   50.668
  503.500    4.791    0.306    0.399   50.914
  503.750    4.853    0.318    0.401   52.687
  504.000    4.980    0.330    0.407   48.477
  504.250    5.285    0.322    0.410   45.976
  504.500    5.768    0.312    0.409   48.481
  504.750    6.378    0.308    0.414   49.826
  505.000    6.806    0.323    0.419   49.584
  505.250    7.037    0.330    0.407   48.243
  505.500    6.518    0.319    0.376   46.902
  505.750    5.850    0.314    0.353   45.683
  506.000    5.239    0.314    0.322   44.831
  506.250    4.936    0.315    0.363   45.199
  506.500    4.538    0.320    0.402   47.460
  506.750    4.412    0.325    0.429   50.271
  507.000    4.313    0.331    0.432   53.264
  507.250    4.265    0.334    0.430   55.281
  507.500    4.240    0.334    0.431   56.138
  507.750    4.255    0.334    0.441   55.285
  508.000    4.069    0.334    0.452   53.212
  508.250    4.121    0.335    0.444   50.894
  508.500    4.151    0.340    0.432   48.332
  508.750    4.174    0.351    0.425   46.075
  509.000    4.220    0.355    0.427   46.810
  509.250    4.275    0.353    0.430   52.734
  509.500    4.322    0.346    0.415   55.727
  509.750    4.394    0.336    0.406   54.936
  510.000    4.468    0.329    0.416   53.229
  510.250    4.526    0.326    0.411   52.864
  510.500    4.576    0.328    0.419   51.951
  510.750    4.643    0.335    0.438   47.863
  511.000    4.686    0.348    0.430   45.484
  511.250    4.730    0.354    0.419   51.164
  511.500    4.853    0.345    0.428   54.096
  511.750    4.935    0.293    0.418   57.456
  512.000    5.018    0.227    0.403   59.229
  512.250    5.159    0.239    0.413   60.636
  512.500    5.255    0.274    0.434   59.538
  512.750    5.128    0.298    0.447   57.282
  513.000    4.986    0.313    0.440   55.941
  513.250    4.812    0.328    0.435   55.577
  513.500    4.609    0.336    0.437   55.518
  513.750    4.515    0.343    0.448   57.046
  514.000    4.522    0.332    0.456   61.749
  514.250    4.530    0.320    0.460   64.865
  514.500    4.546    0.327    0.457   65.905
  514.750    4.597    0.334    0.451   65.602
  515.000    4.604    0.324    0.443   66.215
  515.250    4.621    0.313    0.452   67.560
  515.500    4.646    0.308    0.462   69.088
  515.750    4.654    0.301    0.452   70.861
  516.000    4.644    0.292    0.455   71.718
  516.250    4.618    0.280    0.467   71.537
  516.500    4.557    0.273    0.457   70.257
  516.750    4.301    0.284    0.449   65.131
  517.000    3.976    0.296    0.445   62.996
  517.250    3.690    0.307    0.447   63.120
  517.500    3.469    0.308    0.449   66.664
  517.750    3.183    0.293    0.468   68.436
  518.000    3.107    0.280    0.498   70.392
  518.250    3.072    0.272    0.528   72.531
  518.500    3.071    0.281    0.539   74.120
  518.750    3.037    0.289    0.511   75.832
  519.000    2.969    0.295    0.494   78.337
  519.250    2.908    0.282    0.509   83.895
  519.500    2.817    0.264    0.533   89.635
  519.750    2.698    0.249    0.557   90.615
  520.000    2.542    0.237    0.537   89.579
  520.250    2.435    0.229    0.500   89.093
