~VERSION INFORMATION
 VERS.                 2.0:   CWLS LOG ASCII STANDARD -VERSION 2.0
 WRAP.                  NO:   ONE LINE PER DEPTH STEP
~WELL INFORMATION BLOCK
#MNEM.UNIT           DATA                    DESCRIPTION OF MNEMONIC
#---------    -------------------            -------------------------------
# Generated from Intellog Unique Number	CW_70_72/WELL/1072
NULL.         -999.25                        : NULL_VALUE
WELL.         CABRE ET AL MITSUE 16-07       : Well_name    - WELL              
LOC .         16-07-072-03W5                 : Location     - LOCATION          
UWI .         00/16-07-072-03W5/0            : Uwi          - UNIQUE WELL ID    
ENTR.         JAYE                           : Entered      - ENTERED BY        
SRVC.         COMPUTALOG                     : Scn          - SERVICE COMPANY   
DATE.         21 DEC 84                      : Date         - LOG DATE          
STRT.M        500                            : top_depth    - START DEPTH       
STOP.M        710                            : bot_depth    - STOP DEPTH        
STEP.M        0.25                           : increment    - STEP LENGTH       
~CURVE INFORMATION BLOCK
#MNEM UNIT       ERCB CURVE CODE    CURVE DESCRIPTION
#-----------   ------------------   ----------------------------------
DEPT.M        00 001 00 00         : DEPTH        - DEPTH                       
DPHI.V/V      00 890 00 00         : PHID         - DENSITY POROSITY (SANDSTONE)
NPHI.V/V      00 330 00 00         : PHIN         - NEUTRON POROSITY (SANDSTONE)
GR  .API      00 310 00 00         : GR           - GAMMA RAY                   
CALI.MM       00 280 01 00         : CAL          - CALIPER                     
ILD .OHMM     00 120 00 00         : RESD         - DEEP RESISTIVITY (DIL)      
~PARAMETER INFORMATION       
#MNEM.UNIT           DATA             DESCRIPTION OF MNEMONIC
#---------         -----------     ------------------------------
GL  .M        694.7                : gl           - GROUND LEVEL ELEVATION      
EREF.M        699.4                : kb           - ELEVATION OF DEPTH REFERENCE
DATM.M        694.7                : datum        - DATUM ELEVATION             
TDD .M        724                  : tdd          - TOTAL DEPTH DRILLER         
RUN .         ONE                  : Run          - RUN NUMBER                  
BASE.         EDM                  : Branch       - HOME BASE OF LOGGING UNIT   
MUD .         GEL CHEN             : Mud_type     - MUD TYPE                    
MATR.         SANDSTONE            : Logunit      - NEUTRON MATRIX              
TMAX.C        32                   : BHT          - MAXIMUM RECORDED TEMPERATURE
BHTD.M        720.7                : BHTDEP       - MAXIMUM RECORDED TEMPERATURE
RMT .C        20                   : MDTP         - TEMPERATURE OF MUD          
MUDD.KG/M     1100                 : MWT          - MUD DENSITY                 
NEUT.         1                    : NEUTRON      - NEUTRON TYPE                
RESI.         0                    : RESIST       - RESISTIVITY TYPE            
RM  .OHMM     5                    : RM           - RESISTIVITY OF MUD          
RMC .OHMM     3.4                  : RMC          - RESISTIVITY OF MUD CAKE     
RMF .OHMM     6.7                  : RMF          - RESISTIVITY OF MUD FILTRATE 
SUFT.C        0                    : SUFT         - SURFACE TEMPERATURE         
~A  DEPTH     PHID     PHIN       GR      CAL     RESD
  500.000    0.232    0.435  100.818  203.518    2.335
  500.250    0.228    0.428   99.574  203.543    2.330
  500.500    0.218    0.419  101.913  198.855    2.329
  500.750    0.190    0.465  104.628  198.356    2.355
  501.000    0.194    0.483  108.600  199.953    2.389
  501.250    0.196    0.443  112.382  201.126    2.421
  501.500    0.191    0.431  105.298  201.885    2.434
  501.750    0.198    0.425   96.582  202.225    2.451
  502.000    0.209    0.421   99.109  202.347    2.473
  502.250    0.208    0.410  109.299  201.954    2.510
  502.500    0.203    0.401  113.396  200.407    2.558
  502.750    0.198    0.448  108.008  196.977    2.610
  503.000    0.198    0.451  100.989  193.127    2.685
  503.250    0.194    0.405   97.045  188.857    2.756
  503.500    0.179    0.380   98.315  185.009    2.868
  503.750    0.182    0.400  102.163  183.150    3.030
  504.000    0.185    0.427  105.568  181.914    3.170
  504.250    0.183    0.435  108.157  179.529    3.361
  504.500    0.176    0.412  105.470  175.159    3.739
  504.750    0.157    0.353   93.425  170.682    4.096
  505.000    0.142    0.298   82.760  165.572    4.678
  505.250    0.195    0.308   57.397  154.709    5.019
  505.500    0.222    0.327   53.959  146.462    4.810
  505.750    0.248    0.345   55.167  145.963    4.413
  506.000    0.259    0.368   62.528  147.767    3.794
  506.250    0.274    0.382   61.287  148.419    3.401
  506.500    0.287    0.384   55.461  147.708    3.114
  506.750    0.294    0.351   57.295  145.850    2.973
  507.000    0.281    0.331   60.578  144.201    3.001
  507.250    0.272    0.344   62.790  144.012    3.063
  507.500    0.267    0.348   64.499  145.295    3.127
  507.750    0.262    0.338   67.467  147.203    3.192
  508.000    0.251    0.346   70.936  149.737    3.240
  508.250    0.240    0.354   74.340  152.168    3.237
  508.500    0.229    0.362   77.686  153.658    3.205
  508.750    0.217    0.375   79.962  154.415    3.066
  509.000    0.207    0.396   81.986  155.804    2.939
  509.250    0.205    0.408   83.819  157.500    2.680
  509.500    0.217    0.424   86.534  161.605    2.408
  509.750    0.230    0.439   93.521  169.061    2.269
  510.000    0.248    0.458   95.734  182.275    2.329
  510.250    0.266    0.441   85.196  189.733    2.621
  510.500    0.282    0.339   77.358  188.186    2.931
  510.750    0.292    0.305   69.710  169.785    3.342
  511.000    0.306    0.304   63.129  157.664    3.703
  511.250    0.314    0.321   60.379  150.782    3.831
  511.500    0.299    0.351   65.104  149.865    3.843
  511.750    0.271    0.366   66.188  149.679    3.879
  512.000    0.256    0.372   67.457  149.702    3.907
  512.250    0.235    0.363   72.559  150.141    3.951
  512.500    0.201    0.363   78.855  151.529    3.993
  512.750    0.194    0.382   77.237  152.702    4.055
  513.000    0.246    0.391   72.790  153.562    4.090
  513.250    0.267    0.371   67.215  152.962    4.144
  513.500    0.274    0.352   64.841  152.462    4.197
  513.750    0.268    0.386   67.683  152.063    4.277
  514.000    0.260    0.400   75.109  151.881    4.315
  514.250    0.251    0.377   74.872  152.008    4.346
  514.500    0.235    0.340   69.737  152.241    4.319
  514.750    0.218    0.350   70.505  152.476    4.204
  515.000    0.208    0.362   73.784  152.602    3.968
  515.250    0.204    0.379   80.269  153.360    3.760
  515.500    0.206    0.410   86.816  155.478    3.549
  515.750    0.211    0.427   95.624  158.540    3.306
  516.000    0.217    0.443   99.218  160.972    3.091
  516.250    0.224    0.447  100.363  162.771    2.969
  516.500    0.226    0.443   97.300  164.368    2.911
  516.750    0.225    0.421  100.139  165.856    2.994
  517.000    0.221    0.438  108.885  166.298    3.127
  517.250    0.218    0.402  112.167  164.331    3.380
  517.500    0.214    0.367  107.156  159.749    3.667
  517.750    0.217    0.355   99.696  154.016    4.056
  518.000    0.228    0.352   89.470  149.746    4.260
  518.250    0.235    0.357   76.859  147.783    4.298
  518.500    0.232    0.373   63.431  148.643    3.943
  518.750    0.229    0.389   64.828  152.124    3.666
  519.000    0.237    0.375   68.171  154.344    3.435
  519.250    0.247    0.338   71.453  155.310    3.355
  519.500    0.268    0.319   68.641  152.403    3.334
  519.750    0.276    0.305   63.439  149.076    3.423
  520.000    0.268    0.323   55.665  147.844    3.501
  520.250    0.252    0.341   63.030  147.138    3.553
  520.500    0.235    0.356   69.765  146.428    3.607
  520.750    0.226    0.370   75.872  146.345    3.660
  521.000    0.240    0.379   80.220  146.368    3.708
  521.250    0.263    0.358   80.989  146.496    3.770
  521.500    0.266    0.328   76.103  147.152    3.900
  521.750    0.235    0.330   80.639  147.590    4.105
  522.000    0.214    0.357   89.008  148.034    4.254
  522.250    0.238    0.369   87.766  148.478    4.342
  522.500    0.258    0.337   81.939  149.127    4.390
  522.750    0.242    0.346   87.482  149.154    4.193
  523.000    0.213    0.356   91.579  149.596    4.018
  523.250    0.206    0.347   95.549  149.932    3.793
  523.500    0.213    0.317   80.552  150.375    3.594
  523.750    0.204    0.303   71.835  151.240    3.405
  524.000    0.190    0.309   90.001  153.983    3.214
  524.250    0.173    0.338  117.653  158.403    3.046
  524.500    0.160    0.418  129.540  162.195    3.010
  524.750    0.183    0.468  132.067  164.417    3.108
  525.000    0.208    0.473  123.350  162.662    3.258
  525.250    0.261    0.445  110.425  157.975    3.442
  525.500    0.278    0.398   97.688  152.138    3.706
  525.750    0.259    0.320   87.527  147.240    4.013
  526.000    0.248    0.321   78.244  145.802    4.152
  526.250    0.243    0.327   70.910  146.033    4.040
  526.500    0.242    0.322   66.025  146.473    3.700
  526.750    0.243    0.307   61.139  147.029    3.355
  527.000    0.250    0.293   58.390  147.471    3.054
  527.250    0.257    0.283   61.734  147.807    2.823
  527.500    0.265    0.291   66.584  148.037    2.838
  527.750    0.278    0.309   61.322  148.267    2.942
  528.000    0.283    0.317   63.662  148.396    3.008
  528.250    0.265    0.310   69.895  148.634    3.059
  528.500    0.236    0.310   76.314  148.758    3.128
  528.750    0.220    0.330   86.443  148.888    3.193
  529.000    0.223    0.340   80.362  147.865    3.248
  529.250    0.251    0.338   71.897  145.272    3.283
  529.500    0.278    0.322   61.610  142.888    3.319
  529.750    0.270    0.329   69.602  141.552    3.370
  530.000    0.249    0.340   75.082  141.470    3.400
  530.250    0.239    0.345   76.037  142.542    3.470
  530.500    0.243    0.344   74.921  143.609    3.597
  530.750    0.237    0.340   76.255  144.891    3.829
  531.000    0.228    0.324   85.628  145.544    4.115
  531.250    0.220    0.345  104.109  146.299    4.281
  531.500    0.233    0.371  115.052  147.896    4.135
  531.750    0.255    0.381  107.470  150.846    3.624
  532.000    0.243    0.362  101.891  153.593    3.121
  532.250    0.229    0.345   92.546  151.421    2.719
  532.500    0.220    0.382   94.759  151.234    2.471
  532.750    0.219    0.455  107.084  153.666    2.427
  533.000    0.248    0.487  120.667  158.085    2.614
  533.250    0.275    0.443  123.632  164.075    2.986
  533.500    0.268    0.413  116.237  169.335    3.271
  533.750    0.234    0.389  109.466  163.391    3.383
  534.000    0.212    0.369  108.664  158.183    3.325
  534.250    0.207    0.357   99.820  156.953    3.241
  534.500    0.246    0.340   78.604  155.821    3.113
  534.750    0.276    0.355   67.375  153.542    3.019
  535.000    0.299    0.371   59.474  150.426    2.994
  535.250    0.311    0.387   56.287  147.097    2.993
  535.500    0.299    0.378   58.561  144.818    3.019
  535.750    0.277    0.369   62.155  144.113    3.024
  536.000    0.253    0.384   66.568  144.134    3.052
  536.250    0.274    0.376   64.572  144.261    3.079
