~VERSION INFORMATION
 VERS.                 2.0:   CWLS LOG ASCII STANDARD -VERSION 2.0
 WRAP.                  NO:   ONE LINE PER DEPTH STEP
~WELL INFORMATION BLOCK
#MNEM.UNIT           DATA                    DESCRIPTION OF MNEMONIC
#---------    -------------------            -------------------------------
# Generated from Intellog Unique Number	CC_84_87/WELL/2330
NULL.         -999.25                        : NULL_VALUE
WELL.         PETROREP ET AL GRANOR          : Well_name    - WELL
LOC .         11-18-085-16W4                 : Location     - LOCATION          
UWI .         00/11-18-085-16W400            : Uwi          - UNIQUE WELL ID    
ENTR.         DW                             : Entered      - ENTERED BY        
SRVC.         SCHLUMBERGER                   : Scn          - SERVICE COMPANY   
DATE.         26 MAR 80                      : Date         - LOG DATE
STRT.M        100                            : top_depth    - START DEPTH       
STOP.M        277.901                        : bot_depth    - STOP DEPTH        
STEP.M        0.3                            : increment    - STEP LENGTH       
~CURVE INFORMATION BLOCK
#MNEM UNIT       ERCB CURVE CODE    CURVE DESCRIPTION
#-----------   ------------------   ----------------------------------
DEPT.M        00 001 00 00         : DEPTH        - DEPTH                       
DPHI.V/V      00 890 00 00         : PHID         - DENSITY POROSITY (LIMESTONE)
NPHI.V/V      00 330 00 00         : PHIN         - NEUTRON POROSITY (LIMESTONE)
GR  .API      00 310 00 00         : GR           - GAMMA RAY                   
ILD .OHMM     00 120 00 00         : RESD         - DEEP RESISTIVITY (DIL)      
~PARAMETER INFORMATION       
#MNEM.UNIT           DATA             DESCRIPTION OF MNEMONIC
#---------         -----------     ------------------------------
GL  .M        510                  : gl           - GROUND LEVEL ELEVATION      
EREF.M        515.3                : kb           - ELEVATION OF DEPTH REFERENCE
DATM.M        515.3                : datum        - DATUM ELEVATION             
TDD .M        278                  : tdd          - TOTAL DEPTH DRILLER         
RUN .         ONE                  : Run          - RUN NUMBER                  
ENG .         BILL                 : Engineer     - RECORDING ENGINEER          
WIT .         JIM                  : Witness      - WITNESSED BY                
MUD .         GEL                  : Mud_type     - MUD TYPE                    
MATR.         LIMESTONE            : Logunit      - NEUTRON MATRIX              
TMAX.C        20                   : BHT          - MAXIMUM RECORDED TEMPERATURE
BHTD.M        278                  : BHTDEP       - MAXIMUM RECORDED TEMPERATURE
MATR.         1                    : LOGUNIT      - NEUTRON MATRIX              
RMT .C        25                   : MDTP         - TEMPERATURE OF MUD          
NEUT.         1                    : NEUTRON      - NEUTRON TYPE                
RESI.         0                    : RESIST       - RESISTIVITY TYPE            
RMC .OHMM     0.25                 : RMC          - RESISTIVITY OF MUD CAKE     
RMF .OHMM     0.25                 : RMF          - RESISTIVITY OF MUD FILTRATE 
SUFT.C        15                   : SUFT         - SURFACE TEMPERATURE         
~A  DEPTH     PHID     PHIN       GR     RESD
# ...
  152.201    0.303    0.454   63.910    9.909
  152.501    0.307    0.458   68.842   10.093
  152.801    0.307    0.472   70.689   10.285
  153.101    0.313    0.480   72.536   10.087
  153.401    0.309    0.478   73.765    9.892
  153.701    0.304    0.486   75.611    9.337
  154.001    0.298    0.485   77.458    8.985
  154.301    0.309    0.480   81.158    8.010
  154.601    0.297    0.490   87.325    6.491
  154.901    0.219    0.540   97.813    2.968
  155.201    0.229    0.582  101.511    2.696
  155.501    0.228    0.551  102.124    2.800
  155.801    0.214    0.560  105.823    2.964
  156.101    0.234    0.574  108.903    3.321
  156.401    0.244    0.551  108.897    3.583
  156.701    0.221    0.503  107.658    3.866
  157.001    0.217    0.500  107.035    4.171
  157.301    0.229    0.491  107.031    4.415
  157.601    0.249    0.486  107.643    4.497
  157.901    0.239    0.491  108.873    4.496
  158.201    0.238    0.505  111.952    4.581
  158.501    0.233    0.519  112.565    4.579
  158.801    0.227    0.521  111.325    4.665
  159.101    0.202    0.504  109.469    4.753
  159.401    0.206    0.516  110.698    4.661
  159.701    0.203    0.529  112.545    4.571
  160.001    0.220    0.534  110.688    4.484
  160.301    0.236    0.554  110.065    4.152
  160.601    0.261    0.571  105.739    4.072
  160.901    0.301    0.584  100.179    3.993
  161.201    0.284    0.558   93.383    4.069
  161.501    0.266    0.544   88.440    4.390
  161.801    0.278    0.512   89.050    5.111
  162.101    0.231    0.484   90.281    5.839
  162.401    0.257    0.483   92.127    6.671
  162.701    0.221    0.460   92.739    7.768
  163.001    0.228    0.472   91.500    9.218
  163.301    0.226    0.479   84.705    9.945
  163.601    0.223    0.453   81.613    9.568
  163.901    0.228    0.447   80.991    9.207
  164.201    0.209    0.465   84.073    8.526
  164.501    0.206    0.475   88.388    8.363
  164.801    0.212    0.470   92.703    7.893
  165.101    0.231    0.431   95.166    7.890
  165.401    0.220    0.441   96.397    7.887
  165.701    0.225    0.472   96.392    7.884
  166.001    0.221    0.468   88.979    7.881
  166.301    0.222    0.446   83.418    8.028
  166.601    0.229    0.446   83.413    7.874
  166.901    0.191    0.449   85.259    7.871
  167.201    0.209    0.454   85.873    7.866
  167.501    0.185    0.449   84.632    8.015
  167.801    0.159    0.453   75.368    8.647
  168.101    0.118    0.448   70.424    9.154
  168.401    0.079    0.285   71.037   10.259
  168.701    0.174    0.330   80.909   10.856
  169.001    0.226    0.407   85.223   10.648
  169.301    0.240    0.463   85.218   10.246
  169.601    0.244    0.473   85.212    6.604
  169.901    0.276    0.486   87.060    6.234
  170.201    0.256    0.472   85.203    6.231
  170.501    0.295    0.460   75.938    6.471
  170.801    0.257    0.441   77.785    6.719
  171.101    0.215    0.440   82.100    6.717
  171.401    0.225    0.462   79.627    6.587
  171.701    0.271    0.473   75.918    6.585
  172.001    0.299    0.487   73.443    5.983
  172.301    0.300    0.480   76.524    5.541
  172.601    0.275    0.488   78.988    5.539
  172.901    0.270    0.475   79.600    5.536
  173.201    0.239    0.486   78.361    5.535
  173.501    0.283    0.532   75.269    5.532
  173.801    0.255    0.450   75.264    5.322
  174.101    0.240    0.473   80.197    5.321
  174.401    0.251    0.462   84.513    5.318
  174.701    0.234    0.467   84.507    5.522
  175.001    0.211    0.497   83.886    5.958
  175.301    0.205    0.505   85.731    6.552
  175.601    0.238    0.477   88.813    6.935
  175.901    0.244    0.473   88.807    6.801
  176.201    0.244    0.467   89.420    6.669
  176.501    0.241    0.473   91.884    6.542
  176.801    0.233    0.501   94.965    6.175
  177.101    0.214    0.528   96.810    6.056
  177.401    0.224    0.538   96.806    5.938
  177.701    0.214    0.510   95.567    5.936
  178.001    0.228    0.489   93.093    5.934
  178.301    0.218    0.482   91.852    6.044
  178.601    0.215    0.475   92.464    6.042
  178.901    0.210    0.456   90.607    6.157
  179.201    0.208    0.444   86.900    6.901
  179.501    0.209    0.435   77.635    8.036
  179.801    0.225    0.429   80.099    8.031
  180.101    0.257    0.431   84.413    7.877
  180.401    0.237    0.452   86.261    8.023
  180.701    0.258    0.474   86.874    8.021
  181.001    0.273    0.456   76.992    8.172
  181.301    0.259    0.450   76.370    8.487
  181.601    0.267    0.474   83.770    8.813
  181.901    0.290    0.461   78.210    9.328
  182.201    0.265    0.491   68.946    9.875
  182.501    0.289    0.485   67.705   11.281
  182.801    0.300    0.486   70.785   13.136
  183.101    0.303    0.459   72.014   17.152
  183.401    0.303    0.436   73.245   20.748
  183.701    0.294    0.419   74.476   21.139
  184.001    0.278    0.424   74.471   19.207
  184.301    0.298    0.481   71.996   15.271
  184.601    0.285    0.464   70.139   10.827
  184.901    0.274    0.451   67.665    9.839
  185.201    0.267    0.463   66.425    9.111
  185.501    0.258    0.459   67.038    8.436
  185.801    0.263    0.469   70.736    8.434
  186.101    0.268    0.470   72.583    8.594
  186.401    0.246    0.459   68.256   10.396
  186.701    0.201    0.441   63.929   15.812
  187.001    0.049    0.229   65.776   17.058
  187.301    0.047    0.246   70.710   15.799
  187.601    0.150    0.337   80.581   11.637
  187.901    0.213    0.465   86.749    8.410
  188.201    0.207    0.484   84.890    7.940
  188.501    0.200    0.490   83.651    7.492
  188.801    0.187    0.484   84.881    7.491
  189.101    0.185    0.448   89.196    7.778
  189.401    0.202    0.447   88.574    8.079
  189.701    0.202    0.454   84.865    8.388
  190.001    0.198    0.454   84.860    8.547
  190.301    0.211    0.453   84.237    8.543
  190.601    0.222    0.453   82.998    8.379
  190.901    0.206    0.463   88.548    8.217
  191.201    0.216    0.480   88.543    8.214
  191.501    0.227    0.462   90.388    8.369
  191.801    0.226    0.482   92.236    8.364
  192.101    0.208    0.454   94.084    8.202
  192.401    0.213    0.435   92.843    8.044
  192.701    0.220    0.429   89.752    8.041
  193.001    0.203    0.439   94.685    7.886
  193.301    0.201    0.455   96.531    7.883
  193.601    0.201    0.459   92.206    7.730
  193.901    0.197    0.467   92.818    7.727
  194.201    0.211    0.442   87.874    7.434
  194.501    0.217    0.442   86.634    7.432
  194.801    0.226    0.453   90.332    7.288
  195.101    0.242    0.453   89.711    7.427
  195.401    0.251    0.441   86.002    7.711
  195.701    0.226    0.442   87.230    8.161
  196.001    0.225    0.441   88.461    8.317
  196.301    0.220    0.418   88.455    8.802
  196.601    0.212    0.426   87.832    9.141
  196.901    0.210    0.422   89.061    9.314
  197.201    0.212    0.418   90.909    9.134
  197.501    0.224    0.424   88.434    8.787
  197.801    0.244    0.439   87.811    8.785
  198.101    0.217    0.443   94.596    8.780
  198.401    0.221    0.443   99.529    9.292
  198.701    0.214    0.439  100.759    9.468
  199.001    0.225    0.437   90.877    9.648
  199.301    0.217    0.441   87.167    9.829
  199.601    0.209    0.433   86.546    9.823
  199.901    0.218    0.435   87.775    9.635
  200.201    0.206    0.443   87.153    9.449
  200.501    0.228    0.441   84.678    9.268
  200.801    0.239    0.433   87.143    9.264
  201.101    0.228    0.426   82.198    9.436
  201.401    0.229    0.422   84.045    9.614
  201.701    0.231    0.422   85.275    9.796
  202.001    0.234    0.423   83.418    9.607
  202.301    0.234    0.430   84.030    9.068
  202.601    0.191    0.437   87.111    8.726
  202.901    0.225    0.477   85.871    8.558
  203.201    0.201    0.448   89.570    8.077
  203.501    0.198    0.447   96.355    7.201
  203.801    0.218    0.466   98.201    6.299
  204.101    0.225    0.485   97.579    5.945
