~VERSION INFORMATION
 VERS.                 2.0:   CWLS LOG ASCII STANDARD -VERSION 2.0
 WRAP.                  NO:   ONE LINE PER DEPTH STEP
~WELL INFORMATION BLOCK
#MNEM.UNIT           DATA                    DESCRIPTION OF MNEMONIC
#---------    -------------------            -------------------------------
# Generated from Intellog Unique Number	CW_70_72/WELL/1040
NULL.         -999.25                        : NULL_VALUE
WELL.         BRASCAN AMOCO MEYER 10-18      : Well_name    - WELL              
LOC .         10-18-071-25W4                 : Location     - LOCATION          
UWI .         00/10-18-071-25W4/0            : Uwi          - UNIQUE WELL ID    
ENTR.         JAYE                           : Entered      - ENTERED BY        
SRVC.         SCHLUMBERGER                   : Scn          - SERVICE COMPANY   
DATE.         25 NOV 73                      : Date         - LOG DATE          
STRT.M        435.864                        : top_depth    - START DEPTH       
STOP.M        646.114                        : bot_depth    - STOP DEPTH        
STEP.M        0.25                           : increment    - STEP LENGTH       
~CURVE INFORMATION BLOCK
#MNEM UNIT       ERCB CURVE CODE    CURVE DESCRIPTION
#-----------   ------------------   ----------------------------------
DEPT.M        00 001 00 00         : DEPTH        - DEPTH                       
DPHI.V/V      00 890 00 00         : PHID         - DENSITY POROSITY (SANDSTONE)
NPHI.V/V      00 330 00 00         : PHIN         - NEUTRON POROSITY (SANDSTONE)
GR  .API      00 310 00 00         : GR           - GAMMA RAY                   
CALI.MM       00 280 01 00         : CAL          - CALIPER                     
ILD .OHMM     00 120 00 00         : RESD         - DEEP RESISTIVITY (DIL)      
~PARAMETER INFORMATION       
#MNEM.UNIT           DATA             DESCRIPTION OF MNEMONIC
#---------         -----------     ------------------------------
GL  .M        609.905              : gl           - GROUND LEVEL ELEVATION      
EREF.M        612.953              : kb           - ELEVATION OF DEPTH REFERENCE
DATM.M        609.905              : datum        - DATUM ELEVATION             
TDD .M        644.652              : tdd          - TOTAL DEPTH DRILLER         
RUN .         ONE                  : Run          - RUN NUMBER                  
MATR.         SANDSTONE            : Logunit      - NEUTRON MATRIX              
TMAX.C        28.8889              : BHT          - MAXIMUM RECORDED TEMPERATURE
BHTD.M        645.566              : BHTDEP       - MAXIMUM RECORDED TEMPERATURE
RMT .C        20                   : MDTP         - TEMPERATURE OF MUD          
MUDD.KG/M     0                    : MWT          - MUD DENSITY                 
NEUT.         1                    : NEUTRON      - NEUTRON TYPE                
RESI.         0                    : RESIST       - RESISTIVITY TYPE            
RM  .OHMM     2.72                 : RM           - RESISTIVITY OF MUD          
RMC .OHMM     0                    : RMC          - RESISTIVITY OF MUD CAKE     
RMF .OHMM     2.56                 : RMF          - RESISTIVITY OF MUD FILTRATE 
SUFT.C        0                    : SUFT         - SURFACE TEMPERATURE         
~A  DEPTH     PHID     PHIN       GR      CAL     RESD
# ...
  545.364    0.149    0.365   88.011  163.861    5.384
  545.614    0.158    0.365   91.725  163.484    5.389
  545.864    0.158    0.388   96.472  163.933    5.423
  546.114    0.151    0.395   91.341  164.069    5.437
  546.364    0.147    0.394   88.330  164.100    5.412
  546.614    0.142    0.392   86.774  163.002    5.406
  546.864    0.133    0.388   85.763  162.111    5.460
  547.114    0.125    0.385   84.752  161.530    5.526
  547.364    0.114    0.383   83.862  161.457    5.582
  547.614    0.095    0.382   82.245  161.288    5.607
  547.864    0.080    0.382   85.358  160.910    5.540
  548.114    0.095    0.385   87.981  161.249    5.463
  548.364    0.118    0.395   93.031  162.925    5.339
  548.614    0.127    0.402   97.780  164.496    5.188
  548.864    0.133    0.405   95.191  164.016    5.069
  549.114    0.142    0.402   96.545  163.331    4.971
  549.364    0.147    0.396  100.442  162.645    4.823
  549.614    0.151    0.440  103.370  161.138    4.695
  549.864    0.149    0.458  102.905  160.865    4.665
  550.114    0.148    0.433  105.471  161.930    4.703
  550.364    0.147    0.418  108.824  163.498    4.785
  550.614    0.138    0.409  107.268  164.560    4.914
  550.864    0.128    0.402  102.257  164.490    5.037
  551.114    0.124    0.396   96.945  163.595    5.230
  551.364    0.122    0.391   91.326  162.295    5.361
  551.614    0.114    0.383   86.194  161.099    5.435
  551.864    0.133    0.383   90.396  160.717    5.489
  552.114    0.140    0.393   95.809  161.473    5.555
  552.364    0.132    0.380   97.950  166.019    5.550
  552.614    0.120    0.393   91.546  166.053    5.503
  552.864    0.112    0.389   88.717  162.085    5.467
  553.114    0.103    0.375   88.433  159.963    5.401
  553.364    0.109    0.380   91.422  159.487    5.288
  553.614    0.123    0.390   94.896  159.822    5.177
  553.864    0.126    0.395   99.157  161.395    5.153
  554.114    0.128    0.399  100.207  163.480    5.185
  554.364    0.134    0.399  101.136  164.642    5.276
  554.614    0.141    0.397  102.610  165.087    5.358
  554.864    0.133    0.395  103.478  165.123    5.483
  555.114    0.147    0.395  101.499  165.154    5.558
  555.364    0.144    0.394   99.215  164.982    5.563
  555.614    0.134    0.389   99.355  165.220    5.486
  555.864    0.121    0.380  100.889  165.559    5.361
  556.114    0.113    0.371  103.939  165.693    5.296
  556.364    0.116    0.369  106.990  165.730    5.272
  556.614    0.123    0.371  107.978  166.069    5.335
  556.864    0.121    0.375  107.211  167.333    5.349
  557.114    0.135    0.368  102.685  162.646    5.373
  557.364    0.158    0.372   93.128  157.853    5.348
  557.614    0.167    0.385   85.088  154.505    5.381
  557.864    0.160    0.381   78.502  152.788    5.405
  558.114    0.151    0.375   74.945  151.798    5.582
  558.364    0.138    0.363   71.509  152.548    5.785
  558.614    0.132    0.354   71.954  153.709    5.952
  558.864    0.121    0.348   76.336  155.488    6.180
  559.114    0.124    0.349   79.387  157.061    6.358
  559.364    0.119    0.350   78.315  157.708    6.482
  559.614    0.119    0.343   77.366  158.049    6.558
  559.864    0.127    0.338   79.993  157.366    6.760
  560.114    0.123    0.333   80.919  157.808    6.980
  560.364    0.125    0.330   79.120  158.153    7.076
  560.614    0.123    0.326   77.746  158.904    6.940
  560.864    0.117    0.322   79.283  159.243    6.720
  561.114    0.110    0.317   82.877  159.274    6.639
  561.364    0.119    0.324   85.925  159.621    6.681
  561.614    0.114    0.344   91.521  159.958    7.001
  561.864    0.104    0.337   94.934  160.606    7.378
  562.114    0.089    0.325   88.833  160.639    7.962
  562.364    0.072    0.321   79.943  160.979    8.816
  562.614    0.049    0.309   72.691  161.318   10.072
  562.864    0.029    0.294   65.378  161.045   11.593
  563.114    0.017    0.247   56.003  160.361   13.491
  563.364    0.009    0.230   49.781  160.187   16.020
  563.614    0.005    0.245   46.407  160.123   13.340
  563.864    0.020    0.272   51.759  159.946   10.396
  564.114    0.039    0.293   63.051  160.188    8.014
  564.364    0.067    0.328   69.373  160.322    6.492
  564.614    0.118    0.366   76.847  160.357    5.850
  564.864    0.113    0.370   79.897  160.080    5.263
  565.114    0.100    0.374   82.825  160.120    4.975
  565.364    0.084    0.384   86.784  160.457    4.998
  565.614    0.064    0.362   91.530  160.586    5.354
  565.864    0.045    0.331   83.915  161.030    6.083
  566.114    0.026    0.293   75.571  160.656    7.331
  566.364    0.011    0.274   63.711  161.200    8.118
  566.614    0.040    0.360   63.367  162.161    8.305
  566.864    0.066    0.372   82.599  162.709    7.895
  567.114    0.089    0.362   90.739  163.148    6.909
  567.364    0.108    0.350   96.334  163.488    6.102
  567.614    0.103    0.362   95.385  163.736    5.601
  567.864    0.107    0.378   94.920  164.070    5.353
  568.114    0.114    0.387   94.757  164.002    5.174
  568.364    0.118    0.393   95.382  163.825    5.122
  568.614    0.122    0.391   94.371  163.351    5.154
  568.864    0.134    0.383   93.542  163.175    5.187
  569.114    0.139    0.363   93.803  163.417    5.229
  569.364    0.131    0.359   93.823  163.557    5.283
  569.614    0.116    0.360   94.873  163.481    5.424
  569.864    0.105    0.362   89.925  163.103    5.663
  570.114    0.096    0.359   84.125  163.550    6.111
  570.364    0.086    0.356   81.599  163.582    6.620
  570.614    0.079    0.359   82.953  163.412    6.849
  570.864    0.079    0.369   85.456  163.141    6.917
  571.114    0.091    0.368   90.628  162.556    6.785
  571.364    0.089    0.360   94.162  162.175    6.691
  571.614    0.085    0.358   94.606  161.384    6.623
  571.864    0.079    0.363   94.141  161.317    6.556
  572.114    0.106    0.365   94.404  161.960    6.549
  572.364    0.123    0.362   94.119  165.174    6.603
  572.614    0.130    0.360   92.927  163.465    6.669
  572.864    0.128    0.359   90.642  162.577    6.811
  573.114    0.125    0.356   87.146  162.308    7.176
  573.364    0.099    0.345   85.229  162.233    8.199
  573.614    0.074    0.330   84.337  162.576    8.996
  573.864    0.056    0.292   83.630  163.115    9.070
  574.114    0.036    0.293   84.922  163.252    8.814
  574.364    0.034    0.310   86.880  162.776    8.286
  574.614    0.076    0.335   92.354  162.497    7.510
  574.864    0.088    0.329   96.252  162.635    6.956
  575.114    0.082    0.320   99.789  161.744    6.456
  575.364    0.073    0.324  102.111  160.852    5.916
  575.614    0.064    0.342  103.281  160.373    6.143
  575.864    0.056    0.333  102.634  160.410    6.605
  576.114    0.057    0.311   95.865  161.053    7.395
  576.364    0.040    0.294   85.279  164.374    8.204
  576.614    0.030    0.306   80.512  162.969    8.425
  576.864    0.069    0.316   84.652  160.228    7.648
  577.114    0.070    0.307   87.703  158.519    5.767
  577.364    0.045    0.321   89.721  158.653    4.308
  577.614    0.111    0.344   92.710  158.788    3.254
  577.864    0.139    0.382   96.124  163.029    2.745
  578.114    0.169    0.485  100.145  170.761    2.451
  578.364    0.170    0.468  102.769  176.336    2.330
  578.614    0.169    0.458  102.485  170.005    2.328
  578.864    0.186    0.473  103.540  172.192    2.377
  579.114    0.187    0.488  104.524  178.792    2.397
  579.364    0.178    0.492  105.818  181.907    2.615
  579.614    0.182    0.440  107.291  184.914    2.933
  579.864    0.171    0.406  107.674  182.075    3.213
  580.114    0.116    0.360  105.937  169.795    3.416
  580.364    0.061    0.364  100.259  156.895    3.547
  580.614    0.087    0.379   95.793  158.672    3.570
  580.864    0.068    0.393   94.480  163.428    3.579
  581.114    0.045    0.400   94.136  158.431    3.696
  581.364    0.028    0.395   92.216  155.490    3.982
  581.614    0.033    0.389   94.297  155.316    4.289
