~VERSION INFORMATION
 VERS.                 2.0:   CWLS LOG ASCII STANDARD -VERSION 2.0
 WRAP.                  NO:   ONE LINE PER DEPTH STEP
~WELL INFORMATION BLOCK
#MNEM.UNIT           DATA                    DESCRIPTION OF MNEMONIC
#---------    -------------------            -------------------------------
# Generated from Intellog Unique Number	CW_70_72/WELL/1071
NULL.         -999.25                        : NULL_VALUE
WELL.         SCEPTER ET AL FRANCIS 15-20    : Well_name    - WELL              
LOC .         15-20-072-21W4                 : Location     - LOCATION          
UWI .         00/15-20-072-21W4/0            : Uwi          - UNIQUE WELL ID    
ENTR.         JAYE                           : Entered      - ENTERED BY        
SRVC.         WESTERN ATLAS                  : Scn          - SERVICE COMPANY   
DATE.         20 FEB 88                      : Date         - LOG DATE          
STRT.M        345                            : top_depth    - START DEPTH       
STOP.M        544                            : bot_depth    - STOP DEPTH        
STEP.M        0.25                           : increment    - STEP LENGTH       
~CURVE INFORMATION BLOCK
#MNEM UNIT       ERCB CURVE CODE    CURVE DESCRIPTION
#-----------   ------------------   ----------------------------------
DEPT.M        00 001 00 00         : DEPTH        - DEPTH                       
DPHI.V/V      00 890 00 00         : PHID         - DENSITY POROSITY (SANDSTONE)
NPHI.V/V      00 330 00 00         : PHIN         - NEUTRON POROSITY (SANDSTONE)
GR  .API      00 310 00 00         : GR           - GAMMA RAY                   
CALI.MM       00 280 01 00         : CAL          - CALIPER                     
ILD .OHMM     00 120 00 00         : RESD         - DEEP RESISTIVITY (DIL)      
~PARAMETER INFORMATION       
#MNEM.UNIT           DATA             DESCRIPTION OF MNEMONIC
#---------         -----------     ------------------------------
GL  .M        620.4                : gl           - GROUND LEVEL ELEVATION      
EREF.M        624                  : kb           - ELEVATION OF DEPTH REFERENCE
DATM.M        620.4                : datum        - DATUM ELEVATION             
TDD .M        547                  : tdd          - TOTAL DEPTH DRILLER         
RUN .         ONE                  : Run          - RUN NUMBER                  
ENG .         HUTCHEON             : Engineer     - RECORDING ENGINEER          
WIT .         TALLMAN              : Witness      - WITNESSED BY                
BASE.         SLAVE LAKE           : Branch       - HOME BASE OF LOGGING UNIT   
MUD .         GEL CHEM             : Mud_type     - MUD TYPE                    
MATR.         SANDSTONE            : Logunit      - NEUTRON MATRIX              
TMAX.C        24                   : BHT          - MAXIMUM RECORDED TEMPERATURE
BHTD.M        548.6                : BHTDEP       - MAXIMUM RECORDED TEMPERATURE
RMT .C        15                   : MDTP         - TEMPERATURE OF MUD          
MUDD.KG/M     1030                 : MWT          - MUD DENSITY                 
NEUT.         1                    : NEUTRON      - NEUTRON TYPE                
RESI.         0                    : RESIST       - RESISTIVITY TYPE            
RM  .OHMM     3.6                  : RM           - RESISTIVITY OF MUD          
RMC .OHMM     4                    : RMC          - RESISTIVITY OF MUD CAKE     
RMF .OHMM     3.5                  : RMF          - RESISTIVITY OF MUD FILTRATE 
SUFT.C        0                    : SUFT         - SURFACE TEMPERATURE         
~A  DEPTH     PHID     PHIN       GR      CAL     RESD
# ...
  381.500    0.192    0.228   59.678  206.134   11.705
  381.750    0.081    0.171   47.639  206.305   21.756
  382.000    0.018    0.153   45.058  206.788   21.077
  382.250    0.002    0.185   66.339  207.470   13.346
  382.500    0.061    0.229   78.405  208.050   10.046
  382.750    0.274    0.418   80.706  208.530    8.400
  383.000    0.276    0.419   80.872  208.808    7.562
  383.250    0.259    0.404   80.428  208.476    7.544
  383.500    0.269    0.391   78.275  206.617    7.539
  383.750    0.260    0.378   72.338  206.484    7.372
  384.000    0.242    0.372   75.434  211.645    7.090
  384.250    0.294    0.390   79.627  214.971    6.746
  384.500    0.276    0.396   79.427  214.843    6.543
  384.750    0.250    0.385   82.095  215.213    6.435
  385.000    0.232    0.401   81.346  215.497    6.468
  385.250    0.215    0.401   90.239  215.774    6.608
  385.500    0.207    0.387   87.414  215.738    6.719
  385.750    0.197    0.372   82.027  215.715    6.714
  386.000    0.183    0.367   83.046  215.480    6.648
  386.250    0.241    0.383   81.442  214.742    6.440
  386.500    0.257    0.391   79.960  213.596    6.106
  386.750    0.272    0.374   77.564  212.956    5.754
  387.000    0.284    0.380   72.115  214.351    5.302
  387.250    0.403    0.391   68.193  239.650    4.906
  387.500    0.412    0.421   74.766  287.528    4.590
  387.750    0.347    0.457   80.302  303.162    4.578
  388.000    0.299    0.421   84.862  210.170    4.774
  388.250    0.248    0.395   78.010  210.444    5.185
  388.500    0.214    0.393   77.078  211.535    5.570
  388.750    0.219    0.395   77.854  212.932    5.723
  389.000    0.239    0.380   82.901  215.342    5.728
  389.250    0.213    0.381   84.165  218.774    5.642
  389.500    0.254    0.393   85.675  225.559    5.578
  389.750    0.228    0.380   85.779  232.852    5.608
  390.000    0.205    0.364   83.441  242.284    5.689
  390.250    0.379    0.402   79.947  250.699    5.822
  390.500    0.401    0.417   79.442  245.788    6.083
  390.750    0.286    0.389   60.507  203.447    6.509
  391.000    0.279    0.365   44.622  203.211    6.777
  391.250    0.268    0.352   38.503  203.791    6.835
  391.500    0.279    0.354   37.204  204.271    6.811
  391.750    0.289    0.370   39.139  204.753    6.781
  392.000    0.299    0.381   42.783  205.032    6.762
  392.250    0.271    0.387   47.954  205.303    6.838
  392.500    0.264    0.385   49.767  205.381    6.847
  392.750    0.267    0.382   46.637  205.349    6.848
  393.000    0.274    0.376   45.094  205.523    6.830
  393.250    0.282    0.366   45.200  206.110    6.739
  393.500    0.294    0.361   46.709  206.584    6.590
  393.750    0.300    0.368   46.935  206.963    6.479
  394.000    0.308    0.362   45.149  207.245    6.377
  394.250    0.317    0.365   42.874  207.418    6.269
  394.500    0.320    0.370   42.125  207.487    6.095
  394.750    0.321    0.366   42.595  207.665    5.951
  395.000    0.331    0.360   43.675  207.839    5.848
  395.250    0.334    0.367   44.452  207.904    5.731
  395.500    0.339    0.375   45.107  207.887    5.655
  395.750    0.335    0.392   44.601  207.756    5.569
  396.000    0.324    0.398   47.574  207.524    5.505
  396.250    0.327    0.394   47.069  207.189    5.461
  396.500    0.318    0.392   48.883  206.959    5.414
  396.750    0.310    0.382   56.555  206.115    5.361
  397.000    0.310    0.389   56.232  205.885    5.299
  397.250    0.317    0.400   52.066  206.363    5.247
  397.500    0.318    0.389   48.143  206.634    5.223
  397.750    0.320    0.373   46.598  206.810    5.184
  398.000    0.319    0.379   46.152  207.091    5.143
  398.250    0.321    0.389   45.833  207.671    5.074
  398.500    0.324    0.392   43.680  208.559    5.020
  398.750    0.323    0.385   44.455  209.137    4.969
  399.000    0.325    0.378   46.330  209.418    4.894
  399.250    0.324    0.409   47.655  209.590    4.777
  399.500    0.320    0.393   48.065  209.667    4.827
  399.750    0.317    0.370   48.231  209.536    4.878
  400.000    0.317    0.362   47.788  209.505    4.922
  400.250    0.320    0.354   45.451  209.478    4.964
  400.500    0.326    0.345   43.543  209.039    4.975
  400.750    0.331    0.334   41.756  209.012    4.972
  401.000    0.336    0.326   41.738  208.884    4.986
  401.250    0.338    0.315   42.819  208.853    4.986
  401.500    0.340    0.315   40.118  208.927    4.991
  401.750    0.335    0.325   38.025  208.894    4.972
  402.000    0.337    0.341   40.694  208.562    4.968
  402.250    0.340    0.355   45.496  208.430    4.915
  402.500    0.335    0.364   46.212  208.093    4.892
  402.750    0.330    0.360   50.468  208.065    4.865
  403.000    0.331    0.353   47.826  208.449    4.869
  403.250    0.327    0.351   46.160  209.234    5.022
  403.500    0.319    0.360   46.815  209.405    5.326
  403.750    0.318    0.369   44.601  208.773    5.667
  404.000    0.326    0.367   46.597  208.439    6.371
  404.250    0.185    0.288   43.895  208.612    7.640
  404.500    0.130    0.180   40.522  208.786   11.792
  404.750    0.049    0.154   37.330  209.267   17.349
  405.000    0.038    0.129   36.398  209.639   22.154
  405.250    0.036    0.129   38.578  210.119   25.519
  405.500    0.045    0.133   41.307  210.088   28.591
  405.750    0.042    0.135   42.510  209.753   29.702
  406.000    0.036    0.128   41.395  209.429   30.202
  406.250    0.027    0.122   40.097  208.993   30.635
  406.500    0.017    0.115   39.408  208.759   30.952
  406.750    0.009    0.113   38.597  208.731   31.106
  407.000   -0.005    0.116   40.960  208.503   29.480
  407.250   -0.029    0.124   41.736  208.472   26.380
  407.500   -0.049    0.133   39.888  208.341   17.238
  407.750    0.131    0.151   42.252  208.213   10.852
  408.000    0.341    0.284   48.520  207.877    7.171
  408.250    0.381    0.318   41.484  207.846    5.746
  408.500    0.382    0.340   39.149  207.717    4.632
  408.750    0.375    0.337   42.305  207.381    4.214
  409.000    0.368    0.343   45.400  206.948    4.113
  409.250    0.360    0.357   42.636  206.617    4.015
  409.500    0.350    0.368   44.206  206.179    3.948
  409.750    0.349    0.360   43.517  205.948    3.922
  410.000    0.350    0.355   40.937  205.515    3.928
  410.250    0.346    0.358   40.127  204.769    3.934
  410.500    0.342    0.373   40.474  204.233    3.932
  410.750    0.341    0.382   42.472  203.591    3.908
  411.000    0.337    0.389   43.675  203.058    3.893
  411.250    0.354    0.399   40.728  202.624    3.894
  411.500    0.347    0.402   41.628  202.392    3.904
  411.750    0.352    0.402   39.901  202.359    3.901
  412.000    0.355    0.401   38.784  202.539    3.916
  412.250    0.351    0.397   38.524  202.916    3.912
  412.500    0.345    0.387   39.849  203.295    3.912
  412.750    0.342    0.379   42.518  203.469    3.924
  413.000    0.342    0.381   42.195  203.644    3.930
  413.250    0.347    0.401   42.299  203.512    3.934
  413.500    0.358    0.403   42.466  203.077    3.940
  413.750    0.367    0.404   42.753  202.436    3.970
  414.000    0.362    0.411   42.981  202.412    3.974
  414.250    0.358    0.401   43.025  202.078    3.965
  414.500    0.356    0.388   41.543  201.946    3.971
  414.750    0.347    0.382   36.888  201.401    3.970
  415.000    0.339    0.383   35.223  200.967    3.976
  415.250    0.341    0.372   36.244  200.843    3.996
  415.500    0.336    0.385   39.217  201.320    4.024
  415.750    0.335    0.415   38.345  201.802    4.073
  416.000    0.351    0.395   38.571  201.564    4.107
  416.250    0.349    0.363   39.590  201.544    4.127
  416.500    0.343    0.369   39.697  203.947    4.149
  416.750    0.340    0.393   37.115  203.615    4.134
  417.000    0.333    0.418   37.343  203.894    4.126
  417.250    0.332    0.418   40.195  204.275    4.135
  417.500    0.334    0.408   42.191  204.246    4.128
  417.750    0.338    0.410   42.845  204.219    4.120
