~VERSION INFORMATION
 VERS.                 2.0:   CWLS LOG ASCII STANDARD -VERSION 2.0
 WRAP.                  NO:   ONE LINE PER DEPTH STEP
~WELL INFORMATION BLOCK
#MNEM.UNIT           DATA                    DESCRIPTION OF MNEMONIC
#---------    -------------------            -------------------------------
# Generated from Intellog Unique Number	CW_70_72/WELL/1071
NULL.         -999.25                        : NULL_VALUE
WELL.         SCEPTER ET AL FRANCIS 15-20    : Well_name    - WELL              
LOC .         15-20-072-21W4                 : Location     - LOCATION          
UWI .         00/15-20-072-21W4/0            : Uwi          - UNIQUE WELL ID    
ENTR.         JAYE                           : Entered      - ENTERED BY        
SRVC.         WESTERN ATLAS                  : Scn          - SERVICE COMPANY   
DATE.         20 FEB 88                      : Date         - LOG DATE          
STRT.M        345                            : top_depth    - START DEPTH       
STOP.M        544                            : bot_depth    - STOP DEPTH        
STEP.M        0.25                           : increment    - STEP LENGTH       
~CURVE INFORMATION BLOCK
#MNEM UNIT       ERCB CURVE CODE    CURVE DESCRIPTION
#-----------   ------------------   ----------------------------------
DEPT.M        00 001 00 00         : DEPTH        - DEPTH                       
DPHI.V/V      00 890 00 00         : PHID         - DENSITY POROSITY (SANDSTONE)
NPHI.V/V      00 330 00 00         : PHIN         - NEUTRON POROSITY (SANDSTONE)
GR  .API      00 310 00 00         : GR           - GAMMA RAY                   
CALI.MM       00 280 01 00         : CAL          - CALIPER                     
ILD .OHMM     00 120 00 00         : RESD         - DEEP RESISTIVITY (DIL)      
~PARAMETER INFORMATION       
#MNEM.UNIT           DATA             DESCRIPTION OF MNEMONIC
#---------         -----------     ------------------------------
GL  .M        620.4                : gl           - GROUND LEVEL ELEVATION      
EREF.M        624                  : kb           - ELEVATION OF DEPTH REFERENCE
DATM.M        620.4                : datum        - DATUM ELEVATION             
TDD .M        547                  : tdd          - TOTAL DEPTH DRILLER         
RUN .         ONE                  : Run          - RUN NUMBER                  
ENG .         HUTCHEON             : Engineer     - RECORDING ENGINEER          
WIT .         TALLMAN              : Witness      - WITNESSED BY                
BASE.         SLAVE LAKE           : Branch       - HOME BASE OF LOGGING UNIT   
MUD .         GEL CHEM             : Mud_type     - MUD TYPE                    
MATR.         SANDSTONE            : Logunit      - NEUTRON MATRIX              
TMAX.C        24                   : BHT          - MAXIMUM RECORDED TEMPERATURE
BHTD.M        548.6                : BHTDEP       - MAXIMUM RECORDED TEMPERATURE
RMT .C        15                   : MDTP         - TEMPERATURE OF MUD          
MUDD.KG/M     1030                 : MWT          - MUD DENSITY                 
NEUT.         1                    : NEUTRON      - NEUTRON TYPE                
RESI.         0                    : RESIST       - RESISTIVITY TYPE            
RM  .OHMM     3.6                  : RM           - RESISTIVITY OF MUD          
RMC .OHMM     4                    : RMC          - RESISTIVITY OF MUD CAKE     
RMF .OHMM     3.5                  : RMF          - RESISTIVITY OF MUD FILTRATE 
SUFT.C        0                    : SUFT         - SURFACE TEMPERATURE         
~A  DEPTH     PHID     PHIN       GR      CAL     RESD
  345.000    0.431    0.445   83.849  273.883    3.080
  345.250    0.394    0.411   86.946  250.665    3.125
  345.500    0.367    0.429   85.586  246.974    3.123
  345.750    0.336    0.443   81.113  255.897    3.105
  346.000    0.312    0.461   80.118  247.629    3.036
  346.250    0.339    0.472   80.530  245.666    2.968
  346.500    0.412    0.491   81.245  254.283    2.897
  346.750    0.389    0.476   82.265  250.288    2.869
  347.000    0.350    0.547   83.590  255.446    2.976
  347.250    0.255    0.492   86.501  253.281    3.080
  347.500    0.304    0.495   89.109  244.202    3.182
  347.750    0.311    0.493   91.350  238.479    3.210
  348.000    0.318    0.510   88.769  243.025    3.138
  348.250    0.341    0.531   85.640  236.895    3.018
  348.500    0.366    0.496   80.925  247.953    2.926
  348.750    0.324    0.486   79.809  257.079    2.886
  349.000    0.315    0.490   81.439  262.948    2.843
  349.250    0.311    0.475   81.421  250.003    2.840
  349.500    0.456    0.450   82.562  245.499    2.871
  349.750    0.430    0.492   83.157  251.981    2.939
  350.000    0.374    0.507   82.163  246.358    3.003
  350.250    0.388    0.483   77.631  258.838    3.097
  350.500    0.437    0.442   77.064  264.201    3.284
  350.750    0.504    0.493   73.325  265.901    3.559
  351.000    0.470    0.367   64.337  207.894    3.995
  351.250    0.401    0.322   61.390  207.969    4.485
  351.500    0.256    0.341   64.850  209.160    4.933
  351.750    0.266    0.360   66.116  209.233    5.134
  352.000    0.271    0.367   62.742  209.507    4.874
  352.250    0.281    0.379   58.819  210.192    4.839
  352.500    0.293    0.391   57.276  211.680    4.997
  352.750    0.295    0.381   59.273  212.368    5.116
  353.000    0.288    0.377   63.955  212.644    5.133
  353.250    0.272    0.371   65.403  213.023    4.661
  353.500    0.260    0.364   61.846  213.299    4.321
  353.750    0.294    0.364   60.180  212.972    4.368
  354.000    0.297    0.390   64.985  212.534    4.596
  354.250    0.315    0.367   64.540  212.200    4.946
  354.500    0.296    0.361   69.038  211.869    5.253
  354.750    0.261    0.350   73.293  213.469    5.498
  355.000    0.214    0.306   79.319  229.816    5.701
  355.250    0.112    0.344   81.803  315.428    5.564
  355.500    0.346    0.415   79.345  357.406    5.273
  355.750    0.746    0.465   69.930  340.593    5.043
  356.000    0.694    0.469   63.627  348.601    4.876
  356.250    0.666    0.474   67.516  386.308    4.887
  356.500    0.621    0.462   71.525  414.249    4.980
  356.750    0.580    0.448   72.241  435.987    5.204
  357.000    0.567    0.424   70.576  362.726    5.367
  357.250    0.550    0.404   72.876  286.721    5.555
  357.500    0.494    0.446   76.584  251.906    5.718
  357.750    0.527    0.394   72.721  295.003    5.408
  358.000    0.598    0.409   71.850  271.987    5.060
  358.250    0.629    0.432   71.344  300.337    4.910
  358.500    0.585    0.489   67.970  258.199    4.766
  358.750    0.521    0.449   67.159  300.481    4.738
  359.000    0.526    0.424   71.842  311.337    4.798
  359.250    0.596    0.463   72.618  310.495    4.904
  359.500    0.520    0.479   71.625  311.687    5.084
  359.750    0.562    0.496   68.800  328.237    5.491
  360.000    0.574    0.461   69.209  273.386    5.908
  360.250    0.524    0.382   75.173  214.567    6.148
  360.500    0.410    0.379   85.408  215.353    6.259
  360.750    0.336    0.386   88.200  224.479    6.446
  361.000    0.360    0.358   89.037  217.228    6.648
  361.250    0.331    0.364   89.324  211.604    6.982
  361.500    0.216    0.354   87.721  210.251    7.470
  361.750    0.232    0.327   79.709  209.511    8.218
  362.000    0.270    0.256   67.791  208.872    9.363
  362.250    0.325    0.189   53.860  209.455   10.880
  362.500    0.398    0.151   42.492  210.137   14.466
  362.750    0.428    0.134   34.969  210.917   31.161
  363.000    0.428    0.123   27.933  211.203   42.279
  363.250    0.425    0.116   27.733  211.476   46.251
  363.500    0.417    0.125   29.669  211.647   39.823
  363.750    0.408    0.140   39.050  211.725   25.079
  364.000    0.389    0.171   47.332  211.590   19.091
  364.250    0.362    0.195   51.525  211.567   16.047
  364.500    0.339    0.243   55.293  211.736   14.184
  364.750    0.316    0.291   59.486  211.712   12.717
  365.000    0.261    0.309   63.984  212.092   11.113
  365.250    0.284    0.340   64.761  212.467    9.801
  365.500    0.287    0.358   65.293  212.538    8.722
  365.750    0.258    0.359   69.608  212.714    7.893
  366.000    0.230    0.346   74.717  213.702    7.106
  366.250    0.235    0.351   76.959  214.892    6.622
  366.500    0.251    0.361   79.078  216.189    6.514
  366.750    0.242    0.349   81.928  215.857    6.520
  367.000    0.214    0.338   86.367  217.457    6.613
  367.250    0.230    0.345   86.531  221.090    6.769
  367.500    0.235    0.364   91.824  215.264    6.754
  367.750    0.170    0.351   92.966  213.303    5.904
  368.000    0.183    0.340   89.286  216.020    4.953
  368.250    0.210    0.356   85.731  266.722    4.265
  368.500    0.367    0.372   79.428  354.087    3.566
  368.750    0.709    0.413   75.384  379.791    3.117
  369.000    0.604    0.506   75.305  306.836    2.921
  369.250    0.555    0.512   77.240  275.175    2.840
  369.500    0.803    0.563   78.627  265.484    2.812
  369.750    0.819    0.571   77.450  316.209    2.822
  370.000    0.751    0.503   73.222  372.732    3.115
  370.250    0.468    0.507   69.361  425.796    3.743
  370.500    0.433    0.544   73.676  452.518    4.399
  370.750    0.373    0.463   87.207  263.306    5.162
  371.000    0.296    0.459   95.062  221.474    5.869
  371.250    0.365    0.416   89.126  303.831    5.998
  371.500    0.421    0.372   88.497  295.971    5.724
  371.750    0.576    0.377   91.044  250.172    5.425
  372.000    0.456    0.451   88.464  243.734    4.938
  372.250    0.471    0.440   85.029  259.371    4.662
  372.500    0.582    0.450   81.655  324.946    4.575
  372.750    0.488    0.429   76.328  330.105    4.667
  373.000    0.427    0.389   76.433  322.346    4.847
  373.250    0.316    0.410   83.191  285.091    5.019
  373.500    0.270    0.420   85.612  196.880    5.184
  373.750    0.317    0.443   84.071  193.288    5.172
  374.000    0.326    0.413   78.501  204.145    5.586
  374.250    0.286    0.380   70.367  211.541    6.662
  374.500    0.290    0.344   62.356  212.731    8.064
  374.750    0.314    0.329   57.029  213.720    8.381
  375.000    0.324    0.341   56.219  213.791    8.422
  375.250    0.319    0.354   56.810  213.562    8.281
  375.500    0.325    0.368   57.831  212.921    8.023
  375.750    0.308    0.375   59.340  211.770    7.786
  376.000    0.251    0.363   64.815  210.933    7.570
  376.250    0.248    0.346   68.155  210.191    7.428
  376.500    0.260    0.347   71.128  211.080    7.222
  376.750    0.230    0.379   66.840  226.614    6.820
  377.000    0.284    0.401   69.079  246.926    6.310
  377.250    0.639    0.415   69.612  242.219    5.773
  377.500    0.487    0.416   76.674  281.652    5.381
  377.750    0.447    0.410   84.955  237.890    5.252
  378.000    0.300    0.401   88.601  221.587    5.211
  378.250    0.267    0.392   90.475  212.202    5.257
  378.500    0.242    0.376   93.204  211.765    5.313
  378.750    0.237    0.348   92.943  217.331    5.388
  379.000    0.315    0.376   95.061  234.695    5.466
  379.250    0.275    0.407  103.283  252.365    5.494
  379.500    0.277    0.421  107.477  238.707    5.532
  379.750    0.344    0.406   99.038  250.371    5.613
  380.000    0.324    0.382   76.440  260.619    5.799
  380.250    0.278    0.349   69.284  219.500    6.036
  380.500    0.280    0.366   69.145  223.539    6.294
  380.750    0.249    0.378   72.056  245.888    6.685
  381.000    0.267    0.386   79.302  250.640    7.421
  381.250    0.214    0.391   79.346  213.079    9.015
