~VERSION INFORMATION
 VERS.                 2.0:   CWLS LOG ASCII STANDARD -VERSION 2.0
 WRAP.                  NO:   ONE LINE PER DEPTH STEP
~WELL INFORMATION BLOCK
#MNEM.UNIT           DATA                    DESCRIPTION OF MNEMONIC
#---------    -------------------            -------------------------------
# Generated from Intellog Unique Number	CS_73_76/WELL/2191
WELL.         HOUSTON OILS LIMITED           : Well_name    - WELL
LOC .         00/10-16-074-17W4/0            : Location     - LOCATION
UWI .         00/10-16-074-17W4/0            : Uwi          - UNIQUE WELL ID
ENTR.         SP                             : Entered      - ENTERED BY
SRVC.         SCHLUMBERGER                   : Scn          - SERVICE COMPANY
STRT.M        234.696                        : top_depth    - START DEPTH
STOP.M        426.446                        : bot_depth    - STOP DEPTH
STEP.M        0.25                           : increment    - STEP LENGTH
 NULL. -999.2500:NULL Value
~CURVE INFORMATION BLOCK
#MNEM UNIT       ERCB CURVE CODE    CURVE DESCRIPTION
#-----------   ------------------   ----------------------------------
DEPT.M        00 001 00 00         : DEPTH        - DEPTH
GR  .API      00 310 00 00         : GR           - GAMMA RAY
DPHI.V/V      00 890 00 00         : PHID         - DENSITY POROSITY (SANDSTONE)
NPHI.V/V      00 330 00 00         : PHIN         - NEUTRON POROSITY (SANDSTONE)
ILD .OHMM     00 120 00 00         : RESD         - DEEP RESISTIVITY (DIL)
~PARAMETER INFORMATION
#MNEM.UNIT           DATA             DESCRIPTION OF MNEMONIC
#---------         -----------     ------------------------------
GL  .M        575.767              : gl           - GROUND LEVEL ELEVATION
EREF.M        578.206              : kb           - ELEVATION OF DEPTH REFERENCE
DATM.M        575.767              : datum        - DATUM ELEVATION
TDD .M        429.768              : tdd          - TOTAL DEPTH DRILLER
RUN .         ONE                  : Run          - RUN NUMBER
ENG .         BILL                 : Engineer     - RECORDING ENGINEER
WIT .         JIM                  : Witness      - WITNESSED BY
MUD .         GEL                  : Mud_type     - MUD TYPE
MATR.         SANDSTONE            : Logunit      - NEUTRON MATRIX
TMAX.C        21.1111              : BHT          - MAXIMUM RECORDED TEMPERATURE
BHTD.M        429.768              : BHTDEP       - MAXIMUM RECORDED TEMPERATURE
MATR.         1                    : LOGUNIT      - NEUTRON MATRIX
RMT .C        25                   : MDTP         - TEMPERATURE OF MUD
NEUT.         1                    : NEUTRON      - NEUTRON TYPE
RESI.         0                    : RESIST       - RESISTIVITY TYPE
RMC .OHMM     0.25                 : RMC          - RESISTIVITY OF MUD CAKE
RMF .OHMM     0.25                 : RMF          - RESISTIVITY OF MUD FILTRATE
SUFT.C        15                   : SUFT         - SURFACE TEMPERATURE
~A  DEPTH       GR     PHID     PHIN     RESD
# ...
  321.696   94.056    0.155    0.509    5.294
  321.946   89.715    0.180    0.535    5.134
  322.196   87.587    0.185    0.557    4.871
  322.446   84.990    0.208    0.569    4.724
  322.696   85.207    0.241    0.529    4.685
  322.946   87.244    0.272    0.511    4.536
  323.196   88.321    0.282    0.579    4.295
  323.446   87.754    0.244    0.597    3.911
  323.696   87.231    0.227    0.682    3.635
  323.946   84.723    0.220    0.752    3.378
  324.196   79.130    0.231    0.735    3.252
  324.446   73.235    0.256    0.656    3.530
  324.696   66.987    0.289    0.604    4.025
  324.946   62.498    0.313    0.539    4.733
  325.196   65.231    0.305    0.514    5.306
  325.446   66.445    0.296    0.509    6.170
  325.696   64.409    0.302    0.523    6.857
  325.946   62.630    0.314    0.539    7.149
  326.196   60.661    0.314    0.550    7.366
  326.446   59.720    0.324    0.550    7.358
  326.696   58.530    0.319    0.542    7.258
  326.946   57.915    0.314    0.545    7.159
  327.196   57.374    0.325    0.535    6.953
  327.446   57.074    0.323    0.519    7.168
  327.696   56.117    0.317    0.502    7.390
  327.946   56.170    0.320    0.510    7.608
  328.196   56.411    0.321    0.498    8.031
  328.446   57.443    0.324    0.503    8.091
  328.696   58.063    0.307    0.514    8.220
  328.946   56.206    0.292    0.504    8.404
  329.196   54.955    0.279    0.507    8.390
  329.446   55.285    0.278    0.526    8.432
  329.696   56.838    0.285    0.545    8.359
  329.946   57.355    0.305    0.563    7.933
  330.196   56.956    0.317    0.533    7.695
  330.446   56.686    0.310    0.521    7.454
  330.696   55.600    0.305    0.500    7.366
  330.946   57.180    0.304    0.510    7.212
  331.196   58.648    0.302    0.526    7.226
  331.446   59.699    0.298    0.517    7.215
  331.696   59.749    0.288    0.504    7.366
  331.946   59.752    0.285    0.514    7.518
  332.196   60.293    0.274    0.522    7.661
  332.446   59.689    0.280    0.504    7.495
  332.696   59.773    0.286    0.489    7.358
  332.946   59.766    0.286    0.482    7.124
  333.196   59.675    0.282    0.498    7.059
  333.446   58.050    0.262    0.515    6.967
  333.696   56.052    0.237    0.380    6.835
  333.946   54.937    0.223    0.340    6.680
  334.196   55.941    0.259    0.358    6.474
  334.446   59.341    0.325    0.391    6.409
  334.696   60.413    0.334    0.515    6.353
  334.946   60.380    0.342    0.555    6.251
  335.196   60.385    0.346    0.560    6.234
  335.446   60.388    0.334    0.540    6.231
  335.696   60.389    0.346    0.538    6.231
  335.946   60.391    0.325    0.541    6.231
  336.196   60.392    0.317    0.553    6.231
  336.446   60.390    0.321    0.544    6.232
  336.696   60.367    0.301    0.557    6.232
  336.946   60.935    0.320    0.573    6.232
  337.196   62.131    0.318    0.566    6.229
  337.446   64.779    0.319    0.555    6.214
  337.696   65.703    0.325    0.534    6.114
  337.946   65.714    0.316    0.523    6.117
  338.196   66.431    0.313    0.505    6.118
  338.446   68.313    0.310    0.528    6.119
  338.696   70.321    0.290    0.535    6.128
  338.946   73.618    0.277    0.517    6.004
  339.196   75.583    0.269    0.523    6.008
  339.446   76.656    0.266    0.531    6.006
  339.696   71.951    0.266    0.544    6.006
  339.946   68.594    0.275    0.557    6.003
  340.196   67.525    0.287    0.567    5.983
  340.446   68.528    0.296    0.559    6.427
  340.696   73.396    0.306    0.564    6.470
  340.946   76.593    0.304    0.540    6.343
  341.196   75.118    0.275    0.544    6.342
  341.446   71.705    0.258    0.549    6.478
  341.696   66.832    0.268    0.547    6.610
  341.946   63.658    0.279    0.579    6.938
  342.196   61.426    0.276    0.545    7.439
  342.446   60.431    0.275    0.487    7.937
  342.696   60.438    0.253    0.395    8.092
  342.946   60.399    0.248    0.432    8.037
  343.196   60.999    0.294    0.495    7.398
  343.446   61.021    0.305    0.526    6.945
  343.696   61.041    0.324    0.521    6.675
  343.946   61.004    0.340    0.516    6.360
  344.196   61.937    0.311    0.520    6.352
  344.446   62.910    0.327    0.513    6.342
  344.696   63.879    0.321    0.508    6.231
  344.946   64.736    0.326    0.510    6.236
  345.196   67.723    0.334    0.527    6.238
  345.446   70.711    0.337    0.527    6.155
  345.696   71.836    0.329    0.521    6.125
  345.946   71.798    0.335    0.548    6.123
  346.196   72.756    0.324    0.576    6.198
  346.446   73.586    0.315    0.591    6.259
  346.696   74.290    0.305    0.591    6.357
  346.946   71.509    0.291    0.579    6.340
  347.196   72.470    0.276    0.570    6.466
  347.446   74.462    0.287    0.567    6.362
  347.696   76.669    0.295    0.600    5.962
  347.946   80.339    0.308    0.604    5.549
  348.196   82.162    0.317    0.594    4.805
  348.446   86.173    0.305    0.594    4.394
  348.696   89.773    0.287    0.586    4.224
  348.946   95.231    0.262    0.586    4.084
  349.196   98.790    0.239    0.632    4.172
  349.446   99.982    0.224    0.623    4.298
  349.696   96.625    0.212    0.619    4.434
  349.946   93.965    0.216    0.626    4.585
  350.196   91.061    0.230    0.622    4.793
  350.446   88.705    0.239    0.611    5.039
  350.696   88.640    0.234    0.608    5.297
  350.946   89.095    0.230    0.599    5.530
  351.196   90.621    0.219    0.600    5.880
  351.446   88.466    0.232    0.605    6.249
  351.696   85.959    0.255    0.585    6.439
  351.946   84.317    0.249    0.565    6.644
  352.196   84.375    0.242    0.572    6.725
  352.446   87.375    0.252    0.580    6.597
  352.696   90.625    0.229    0.555    6.422
  352.946   95.466    0.209    0.539    6.038
  353.196  102.438    0.198    0.542    5.721
  353.446   99.703    0.214    0.539    5.690
  353.696   94.808    0.215    0.547    5.684
  353.946   91.587    0.221    0.549    5.895
  354.196   89.731    0.234    0.529    6.135
  354.446   89.576    0.218    0.493    6.421
  354.696   90.641    0.213    0.529    6.651
  354.946   90.985    0.216    0.531    6.724
  355.196   91.197    0.212    0.522    6.725
  355.446   94.675    0.224    0.512    6.725
  355.696   95.800    0.217    0.529    6.724
  355.946   94.759    0.225    0.526    6.711
  356.196   94.477    0.225    0.513    6.861
  356.446   94.004    0.212    0.516    6.859
  356.696   93.184    0.220    0.523    6.713
  356.946   90.806    0.202    0.532    6.728
  357.196   88.339    0.200    0.506    6.624
  357.446   87.079    0.212    0.532    6.600
  357.696   88.111    0.229    0.540    6.593
  357.946   91.597    0.227    0.530    6.263
  358.196   92.772    0.208    0.515    6.279
  358.446   89.855    0.207    0.514    6.477
  358.696   88.178    0.201    0.524    6.847
  358.946   87.975    0.216    0.509    7.806
  359.196   85.834    0.239    0.509    8.502
  359.446   83.182    0.249    0.512    9.341
  359.696   81.374    0.253    0.502    9.815
  359.946   81.470    0.250    0.513    9.784
  360.196   81.527    0.259    0.507    9.279
  360.446   80.051    0.223    0.484    8.347
  360.696   75.833    0.209    0.467    7.645
  360.946   70.104    0.234    0.488    8.121
  361.196   66.454    0.263    0.499    8.904
  361.446   63.424    0.273    0.530    9.517
  361.696   61.773    0.289    0.542   10.025
  361.946   58.218    0.292    0.537   10.125
  362.196   57.208    0.303    0.526    9.461
  362.446   57.174    0.296    0.512    8.093
  362.696   59.178    0.290    0.530    7.427
  362.946   61.976    0.294    0.550    6.574
  363.196   61.659    0.301    0.527    6.098
  363.446   60.213    0.303    0.505    5.833
  363.696   59.371    0.296    0.486    5.613
  363.946   58.706    0.295    0.485    5.825
  364.196   56.326    0.284    0.493    6.856
  364.446   53.330    0.258    0.476    8.577
  364.696   51.014    0.129    0.414    9.754
  364.946   48.944    0.063    0.253   10.348
