~VERSION INFORMATION
 VERS.                 2.0:   CWLS LOG ASCII STANDARD -VERSION 2.0
 WRAP.                  NO:   ONE LINE PER DEPTH STEP
~WELL INFORMATION BLOCK
#MNEM.UNIT           DATA                    DESCRIPTION OF MNEMONIC
#---------    -------------------            -------------------------------
# Generated from Intellog Unique Number	CW_82_90/WELL/3071
WELL.         PACIFIC LIVOCK 10-08           : Well_name    - WELL
LOC .         00/10-08-085-19W4/0            : Location     - LOCATION
UWI .         00/10-08-085-19W4/0            : Uwi          - UNIQUE WELL ID
ENTR.         JAYE                           : Entered      - ENTERED BY
SRVC.         SCHLUMBERGER                   : Scn          - SERVICE COMPANY
DATE.         7 MAR 75                       : Date         - LOG DATE
STRT.M        192.024                        : top_depth    - START DEPTH
STOP.M        350.524                        : bot_depth    - STOP DEPTH
STEP.M        0.25                           : increment    - STEP LENGTH
 NULL. -999.2500:NULL Value
~CURVE INFORMATION BLOCK
#MNEM UNIT       ERCB CURVE CODE    CURVE DESCRIPTION
#-----------   ------------------   ----------------------------------
DEPT.M        00 001 00 00         : DEPTH        - DEPTH
NPHI.V/V      00 330 00 00         : PHIN         - NEUTRON POROSITY (SANDSTONE)
DPHI.V/V      00 890 00 00         : PHID         - DENSITY POROSITY (SANDSTONE)
ILD .OHMM     00 120 00 00         : RESD         - DEEP RESISTIVITY (DLL)
CALI.MM       00 280 01 00         : CAL          - CALIPER
GR  .API      00 310 00 00         : GR           - GAMMA RAY
~PARAMETER INFORMATION
#MNEM.UNIT           DATA             DESCRIPTION OF MNEMONIC
#---------         -----------     ------------------------------
GL  .M        604.845              : gl           - GROUND LEVEL ELEVATION
EREF.M        607.344              : kb           - ELEVATION OF DEPTH REFERENCE
DATM.M        604.845              : datum        - DATUM ELEVATION
TDD .M        356.006              : tdd          - TOTAL DEPTH DRILLER
RUN .         ONE                  : Run          - RUN NUMBER
ENG .         CROCKFORD            : Engineer     - RECORDING ENGINEER
WIT .         KOSS                 : Witness      - WITNESSED BY
BASE.         EDMONTON             : Branch       - HOME BASE OF LOGGING UNIT
MUD .         GEL CHEM             : Mud_type     - MUD TYPE
MATR.         SANDSTONE            : Logunit      - NEUTRON MATRIX
TMAX.C        17.2222              : BHT          - MAXIMUM RECORDED TEMPERATURE
BHTD.M        356.006              : BHTDEP       - MAXIMUM RECORDED TEMPERATURE
RMT .C        18.8889              : MDTP         - TEMPERATURE OF MUD
MUDD.KG/M     0                    : MWT          - MUD DENSITY
NEUT.         0                    : NEUTRON      - NEUTRON TYPE
RESI.         1                    : RESIST       - RESISTIVITY TYPE
RM  .OHMM     1.73                 : RM           - RESISTIVITY OF MUD
RMC .OHMM     0                    : RMC          - RESISTIVITY OF MUD CAKE
RMF .OHMM     1.59                 : RMF          - RESISTIVITY OF MUD FILTRATE
SUFT.C        -17.7778             : SUFT         - SURFACE TEMPERATURE
~A  DEPTH     PHIN     PHID     RESD      CAL       GR
  192.024    0.482    0.331   31.118  170.570   61.212
  192.274    0.504    0.343   30.176  176.347   63.020
  192.524    0.509    0.341   27.458  177.736   65.998
  192.774    0.486    0.337   12.166  179.645   70.950
  193.024    0.482    0.332    7.878  179.363   76.830
  193.274    0.486    0.316    5.707  177.409   81.105
  193.524    0.491    0.302    4.847  171.903   85.627
  193.774    0.498    0.279    4.273  171.929   89.530
  194.024    0.573    0.274    4.166  177.188   93.808
  194.274    0.582    0.260    4.202  181.706   97.525
  194.524    0.555    0.272    4.383  183.302   98.468
  194.774    0.539    0.275    5.057  183.958   92.502
  195.024    0.532    0.283    5.890  180.852   84.868
  195.274    0.542    0.302    6.937  176.187   83.898
  195.524    0.557    0.299    8.186  173.597   80.646
  195.774    0.503    0.325   11.493  174.074   71.532
  196.024    0.463    0.332   15.487  174.080   67.228
  196.274    0.460    0.333   17.538  173.373   66.629
  196.524    0.457    0.341   16.383  173.926   71.215
  196.774    0.436    0.346   12.183  173.926   75.487
  197.024    0.442    0.336   10.700  177.967   82.850
  197.274    0.464    0.317   10.089  179.032   86.444
  197.524    0.481    0.322   10.195  179.032   89.115
  197.774    0.479    0.312   10.634  180.676   86.729
  198.024    0.471    0.290   10.906  179.120   85.571
  198.274    0.478    0.311   10.715  177.697   84.358
  198.524    0.469    0.321    9.047  178.447   81.904
  198.774    0.580    0.318    7.916  181.002   77.605
  199.024    0.601    0.388    8.045  181.119   72.498
  199.274    0.645    0.415    8.437  181.119   67.272
  199.524    0.676    0.403    9.754  179.723   64.204
  199.774    0.624    0.374   12.127  179.535   63.669
  200.024    0.475    0.361   17.545  179.535   64.426
  200.274    0.465    0.362   23.552  180.552   64.936
  200.524    0.455    0.360   25.838  181.300   64.276
  200.774    0.465    0.357   26.404  181.300   64.663
  201.024    0.472    0.367   26.829  182.516   66.962
  201.274    0.448    0.372   26.707  183.581   68.152
  201.524    0.447    0.371   26.632  183.581   67.306
  201.774    0.452    0.368   26.662  186.899   65.472
  202.024    0.482    0.367   25.660  187.224   64.564
  202.274    0.517    0.365   24.608  187.224   65.939
  202.524    0.476    0.362   24.915  190.124   67.996
  202.774    0.455    0.360   25.453  190.554   68.692
  203.024    0.459    0.356   26.104  191.310   68.644
  203.274    0.475    0.353   26.479  191.310   69.096
  203.524    0.489    0.362   26.705  193.470   68.866
  203.774    0.496    0.363   26.732  193.180   66.909
  204.024    0.493    0.360   26.606  193.180   65.200
  204.274    0.474    0.357   26.789  191.464   65.340
  204.524    0.468    0.361   26.913  190.235   66.281
  204.774    0.470    0.359   27.192  187.664   66.302
  205.024    0.471    0.351   27.222  189.689   65.947
  205.274    0.473    0.341   27.094  189.695   65.655
  205.524    0.482    0.335   26.570  190.257   66.352
  205.774    0.484    0.340   25.623  188.606   67.790
  206.024    0.482    0.335   24.384  185.307   70.893
  206.274    0.435    0.299   23.252  179.796   72.822
  206.524    0.393    0.191   22.006  174.804   74.014
  206.774    0.415    0.164   20.711  173.261   73.599
  207.024    0.508    0.161   20.121  172.039   72.257
  207.274    0.538    0.361   20.330  172.503   69.561
  207.524    0.497    0.360   21.568  172.932   68.839
  207.774    0.491    0.362   22.669  173.711   65.401
  208.024    0.507    0.365   22.477  173.202   65.109
  208.274    0.494    0.364   21.878  172.917   65.990
  208.524    0.499    0.354   22.396  172.533   65.267
  208.774    0.507    0.341   24.114  173.309   65.719
  209.024    0.477    0.337   24.780  173.737   66.289
  209.274    0.438    0.292   24.390  175.034   66.678
  209.524    0.398    0.246   23.607  174.320   66.757
  209.774    0.348    0.193   22.054  171.632   65.292
  210.024    0.371    0.174   20.677  165.924   60.745
  210.274    0.420    0.124   19.205  164.586   61.256
  210.524    0.475    0.315   17.775  164.409   63.559
  210.774    0.498    0.346   16.948  165.376   63.942
  211.024    0.505    0.353   16.496  168.854   62.850
  211.274    0.512    0.354   16.270  170.451   61.946
  211.524    0.510    0.353   16.227  171.849   61.468
  211.774    0.507    0.351   16.179  172.604   60.866
  212.024    0.505    0.351   15.988  173.997   60.453
  212.274    0.510    0.350   15.794  173.705   60.472
  212.524    0.495    0.351   15.374  172.284   60.487
  212.774    0.488    0.349   14.994  168.035   60.939
  213.024    0.489    0.355   14.618  163.876   61.758
  213.274    0.489    0.352   14.339  160.033   62.947
  213.524    0.492    0.348   14.166  161.006   62.656
  213.774    0.493    0.342   13.968  161.988   62.427
  214.024    0.485    0.340   13.828  162.525   63.431
  214.274    0.487    0.338   13.636  164.332   64.251
  214.524    0.489    0.339   13.399  165.926   64.205
  214.774    0.491    0.344   13.140  167.944   65.275
  215.024    0.504    0.346   12.885  167.944   67.019
  215.274    0.496    0.345   12.728  171.346   67.529
  215.524    0.507    0.338   12.552  174.427   66.375
  215.774    0.489    0.344   12.332  174.644   65.037
  216.024    0.481    0.341   12.116  175.616   64.252
  216.274    0.495    0.332   11.949  175.328   63.587
  216.524    0.509    0.315   11.717  174.631   62.621
  216.774    0.488    0.315   11.600  174.631   62.512
  217.024    0.484    0.338   11.654  173.645   63.333
  217.274    0.490    0.343   11.842  173.589   63.534
  217.524    0.499    0.343   12.491  173.806   61.702
  217.774    0.492    0.351   13.299  175.614   59.806
  218.024    0.479    0.357   14.481  176.598   58.223
  218.274    0.480    0.349   16.125  176.089   57.805
  218.524    0.487    0.329   18.297  174.863   56.714
  218.774    0.443    0.327   20.411  170.935   53.090
  219.024    0.402    0.312   21.895  164.579   49.466
  219.274    0.419    0.283   20.994  161.370   46.089
  219.524    0.452    0.282   20.285  161.818   43.269
  219.774    0.474    0.344   19.968  164.147   40.880
  220.024    0.484    0.350   19.948  168.780   41.946
  220.274    0.488    0.347   20.047  170.478   43.013
  220.524    0.485    0.353   20.332  170.817   43.895
  220.774    0.485    0.348   20.387  170.115   44.468
  221.024    0.494    0.345   20.487  169.103   45.041
  221.274    0.488    0.342   20.777  169.237   46.167
  221.524    0.485    0.344   21.072  168.438   46.063
  221.774    0.475    0.356   21.136  165.953   47.376
  222.024    0.479    0.358   21.114  161.907   49.243
  222.274    0.477    0.362   20.982  157.663   49.015
  222.524    0.465    0.358   20.846  157.893   48.230
  222.774    0.453    0.352   20.669  158.978   47.384
  223.024    0.464    0.347   20.423  159.730   44.442
  223.274    0.488    0.345   20.404  161.743   42.916
  223.524    0.486    0.361   20.236  167.216   44.536
  223.774    0.498    0.361   20.180  168.069   44.925
  224.024    0.490    0.357   20.053  168.069   44.696
  224.274    0.480    0.357   19.960  167.733   44.959
  224.524    0.466    0.355   19.868  167.225   46.395
  224.774    0.459    0.353   19.893  167.460   46.475
  225.024    0.457    0.348   19.948  168.113   45.939
  225.274    0.466    0.346   20.121  170.232   47.562
  225.524    0.485    0.350   20.248  174.967   48.501
  225.774    0.501    0.357   20.464  174.967   48.149
  226.024    0.484    0.356   20.635  174.928   47.302
  226.274    0.481    0.349   20.775  169.412   47.258
  226.524    0.474    0.348   20.956  164.634   48.020
  226.774    0.471    0.342   21.130  164.977   48.343
  227.024    0.459    0.336   21.149  165.217   48.423
  227.274    0.454    0.332   21.092  166.934   48.379
  227.524    0.465    0.335   20.958  167.364   49.385
  227.774    0.485    0.338   20.629  167.199   50.017
  228.024    0.473    0.353   20.380  167.199   50.099
  228.274    0.476    0.350   20.060  164.847   50.669
