~VERSION INFORMATION
 VERS.                 2.0:   CWLS LOG ASCII STANDARD -VERSION 2.0
 WRAP.                  NO:   ONE LINE PER DEPTH STEP
~WELL INFORMATION BLOCK
#MNEM.UNIT           DATA                    DESCRIPTION OF MNEMONIC
#---------    -------------------            -------------------------------
# Generated from Intellog Unique Number	CS_69_70/WELL/862
WELL.         GULF OIL CANADA                : Well_name    - WELL
LOC .         00/10-10-069-15W4/0            : Location     - LOCATION
UWI .         00/10-10-069-15W4/0            : Uwi          - UNIQUE WELL ID
ENTR.         SP                             : Entered      - ENTERED BY
SRVC.         SCHLUMBERGER                   : Scn          - SERVICE COMPANY
STRT.M        260                            : top_depth    - START DEPTH
STOP.M        475                            : bot_depth    - STOP DEPTH
STEP.M        0.25                           : increment    - STEP LENGTH
 NULL. -999.2500:NULL Value
~CURVE INFORMATION BLOCK
#MNEM UNIT       ERCB CURVE CODE    CURVE DESCRIPTION
#-----------   ------------------   ----------------------------------
DEPT.M        00 001 00 00         : DEPTH        - DEPTH
GR  .API      00 310 00 00         : GR           - GAMMA RAY
NPHI.V/V      00 330 00 00         : PHIN         - NEUTRON POROSITY (LIMESTONE)
DPHI.V/V      00 890 00 00         : PHID         - DENSITY POROSITY (LIMESTONE)
ILD .OHMM     00 120 00 00         : RESD         - DEEP RESISTIVITY (DIL)
~PARAMETER INFORMATION
#MNEM.UNIT           DATA             DESCRIPTION OF MNEMONIC
#---------         -----------     ------------------------------
GL  .M        548.59               : gl           - GROUND LEVEL ELEVATION
EREF.M        552.55               : kb           - ELEVATION OF DEPTH REFERENCE
DATM.M        548.59               : datum        - DATUM ELEVATION
TDD .M        482                  : tdd          - TOTAL DEPTH DRILLER
RUN .         ONE                  : Run          - RUN NUMBER
ENG .         BILL                 : Engineer     - RECORDING ENGINEER
WIT .         JIM                  : Witness      - WITNESSED BY
MUD .         GEL                  : Mud_type     - MUD TYPE
MATR.         LIMESTONE            : Logunit      - NEUTRON MATRIX
TMAX.C        24                   : BHT          - MAXIMUM RECORDED TEMPERATURE
BHTD.M        482                  : BHTDEP       - MAXIMUM RECORDED TEMPERATURE
MATR.         1                    : LOGUNIT      - NEUTRON MATRIX
RMT .C        25                   : MDTP         - TEMPERATURE OF MUD
NEUT.         1                    : NEUTRON      - NEUTRON TYPE
RESI.         0                    : RESIST       - RESISTIVITY TYPE
RMC .OHMM     0.25                 : RMC          - RESISTIVITY OF MUD CAKE
RMF .OHMM     0.25                 : RMF          - RESISTIVITY OF MUD FILTRATE
SUFT.C        15                   : SUFT         - SURFACE TEMPERATURE
~A  DEPTH       GR     PHIN     PHID     RESD
# ...
  303.500  106.199    0.464    0.288    2.875
  303.750  107.153    0.451    0.280    2.865
  304.000  107.751    0.462    0.262    2.839
  304.250  103.310    0.466    0.272    2.819
  304.500   99.641    0.457    0.262    2.798
  304.750   98.341    0.446    0.276    2.788
  305.000   98.702    0.438    0.294    2.768
  305.250  100.724    0.442    0.277    2.763
  305.500  102.152    0.446    0.265    2.749
  305.750  101.742    0.463    0.276    2.729
  306.000   96.768    0.479    0.292    2.694
  306.250   93.691    0.490    0.285    2.640
  306.500   92.628    0.484    0.277    2.572
  306.750   90.499    0.496    0.284    2.502
  307.000   87.303    0.480    0.291    2.475
  307.250   86.241    0.470    0.293    2.484
  307.500   87.077    0.464    0.280    2.522
  307.750   87.972    0.460    0.281    2.537
  308.000   88.986    0.453    0.294    2.556
  308.250   89.762    0.444    0.301    2.576
  308.500   89.352    0.446    0.308    2.586
  308.750   87.342    0.456    0.295    2.655
  309.000   84.442    0.465    0.289    2.756
  309.250   80.475    0.447    0.289    3.053
  309.500   76.685    0.418    0.250    3.638
  309.750   72.778    0.263    0.169    4.153
  310.000   71.123    0.216    0.060    4.627
  310.250   74.152    0.197    0.090    4.821
  310.500   85.067    0.266    0.160    4.493
  310.750   93.136    0.334    0.214    3.601
  311.000   97.055    0.389    0.265    3.103
  311.250   97.654    0.433    0.305    2.650
  311.500   95.465    0.460    0.321    2.501
  311.750   92.269    0.475    0.314    2.353
  312.000   92.334    0.483    0.303    2.284
  312.250   94.356    0.489    0.295    2.323
  312.500   96.259    0.485    0.291    2.385
  312.750   98.398    0.471    0.303    2.444
  313.000  102.080    0.455    0.273    2.518
  313.250  105.762    0.442    0.250    2.674
  313.500  108.673    0.428    0.233    2.744
  313.750  110.338    0.449    0.223    2.941
  314.000  111.529    0.462    0.217    3.157
  314.250  111.119    0.476    0.223    3.289
  314.500  111.006    0.493    0.240    3.428
  314.750  113.206    0.478    0.258    3.499
  315.000  114.516    0.457    0.273    3.513
  315.250  113.276    0.461    0.280    3.514
  315.500  105.218    0.471    0.282    3.527
  315.750  100.243    0.479    0.269    3.548
  316.000  101.553    0.462    0.258    3.542
  316.250  108.080    0.452    0.243    3.484
  316.500  113.364    0.455    0.230    3.439
  316.750  116.036    0.473    0.226    3.395
  317.000  118.117    0.479    0.219    3.296
  317.250  120.554    0.477    0.226    3.194
  317.500  122.634    0.490    0.245    3.165
  317.750  123.351    0.506    0.249    3.154
  318.000  122.289    0.505    0.236    3.172
  318.250  120.397    0.478    0.224    3.263
  318.500  119.039    0.464    0.225    3.387
  318.750  115.546    0.460    0.233    3.595
  319.000  112.530    0.447    0.238    3.896
  319.250  111.111    0.433    0.236    4.349
  319.500  109.872    0.422    0.224    4.608
  319.750  111.359    0.417    0.219    4.793
  320.000  113.025    0.411    0.204    4.838
  320.250  114.097    0.409    0.184    4.866
  320.500  110.960    0.406    0.199    4.922
  320.750  110.017    0.406    0.221    4.951
  321.000  112.157    0.414    0.219    4.951
  321.250  115.720    0.421    0.208    4.925
  321.500  118.690    0.428    0.202    4.898
  321.750  121.067    0.435    0.203    4.863
  322.000  118.345    0.442    0.212    4.864
  322.250  109.932    0.424    0.222    4.901
  322.500  102.704    0.382    0.234    4.994
  322.750   98.085    0.354    0.281    5.175
  323.000   92.042    0.273    0.347    5.524
  323.250   88.313    0.240    0.385    5.941
  323.500   87.310    0.232    0.410    6.744
  323.750   87.790    0.227    0.424    7.756
  324.000   87.500    0.224    0.431    8.419
  324.250   86.439    0.227    0.415    8.806
  324.500   85.672    0.240    0.405    8.890
  324.750   83.841    0.283    0.381    6.877
  325.000   82.245    0.338    0.359    4.466
  325.250   80.175    0.393    0.333    3.487
  325.500   81.899    0.428    0.309    2.978
  325.750   87.360    0.444    0.289    2.639
  326.000   91.752    0.453    0.274    2.378
  326.250   97.154    0.454    0.261    2.396
  326.500   96.033    0.445    0.253    2.506
  326.750   88.509    0.439    0.240    2.626
  327.000   84.365    0.454    0.280    2.731
  327.250   82.176    0.467    0.306    2.517
  327.500   80.402    0.478    0.324    2.394
  327.750   80.111    0.476    0.307    2.303
  328.000   80.888    0.446    0.296    2.252
  328.250   80.478    0.425    0.288    2.240
  328.500   79.891    0.409    0.299    2.228
  328.750   80.607    0.400    0.290    2.229
  329.000   82.629    0.397    0.301    2.229
  329.250   83.761    0.405    0.313    2.246
  329.500   83.885    0.408    0.303    2.297
  329.750   88.041    0.405    0.288    2.345
  330.000   92.493    0.406    0.266    2.403
  330.250   97.361    0.409    0.247    2.467
  330.500  102.703    0.413    0.230    2.738
  330.750  106.680    0.415    0.219    3.028
  331.000  107.753    0.417    0.211    3.412
  331.250  111.612    0.421    0.203    3.739
  331.500  116.183    0.422    0.207    4.044
  331.750  120.398    0.425    0.217    4.285
  332.000  123.250    0.429    0.225    4.431
  332.250  124.975    0.435    0.218    4.491
  332.500  124.981    0.444    0.213    4.466
  332.750  124.037    0.442    0.209    4.417
  333.000  120.070    0.430    0.208    4.345
  333.250  116.221    0.422    0.207    4.273
  333.500  113.144    0.416    0.213    4.180
  333.750  111.549    0.426    0.229    4.013
  334.000  108.768    0.440    0.248    3.753
  334.250  106.579    0.451    0.265    3.491
  334.500  102.791    0.452    0.282    3.302
  334.750  100.068    0.447    0.276    3.164
  335.000   94.442    0.445    0.276    3.049
  335.250   91.779    0.451    0.284    3.022
  335.500   96.706    0.459    0.287    2.994
  335.750  101.394    0.471    0.270    3.000
  336.000  107.507    0.478    0.250    3.035
  336.250  110.655    0.473    0.236    3.156
  336.500  111.905    0.482    0.220    3.252
  336.750  113.808    0.496    0.215    3.389
  337.000  114.584    0.506    0.224    3.453
  337.250  109.313    0.491    0.235    3.434
  337.500  101.374    0.479    0.249    3.347
  337.750   96.695    0.465    0.287    3.177
  338.000   93.025    0.453    0.309    3.045
  338.250   91.429    0.453    0.290    2.939
  338.500   91.613    0.461    0.276    2.880
  338.750   91.442    0.444    0.267    2.854
  339.000   90.557    0.429    0.267    2.839
  339.250   89.139    0.423    0.269    2.845
  339.500   86.893    0.434    0.270    2.910
  339.750   85.533    0.445    0.278    2.970
  340.000   84.887    0.445    0.285    3.049
  340.250   85.129    0.444    0.284    3.067
  340.500   85.432    0.444    0.274    3.073
  340.750   86.623    0.444    0.269    3.068
  341.000   87.755    0.444    0.277    3.012
  341.250   89.065    0.443    0.287    2.941
  341.500   90.316    0.443    0.292    2.787
  341.750   89.432    0.442    0.297    2.675
  342.000   87.243    0.452    0.290    2.641
  342.250   91.222    0.451    0.283    2.622
  342.500   95.614    0.436    0.280    2.638
  342.750   98.525    0.430    0.257    2.663
  343.000  102.384    0.440    0.243    2.678
  343.250  105.947    0.435    0.235    2.754
  343.500  108.917    0.429    0.227    2.806
  343.750  110.998    0.434    0.219    2.881
  344.000  109.936    0.448    0.229    3.002
  344.250  108.459    0.461    0.238    3.076
  344.500  105.085    0.452    0.251    3.140
  344.750   96.790    0.463    0.260    3.106
  345.000   93.179    0.485    0.276    2.971
  345.250   91.050    0.485    0.290    2.805
  345.500   89.632    0.479    0.308    2.551
  345.750   86.732    0.472    0.322    2.400
  346.000   85.019    0.474    0.324    2.257
  346.250   84.609    0.477    0.312    2.183
  346.500   84.793    0.466    0.318    2.116
  346.750   85.095    0.457    0.300    2.116
