~VERSION INFORMATION
 VERS.                 2.0:   CWLS LOG ASCII STANDARD -VERSION 2.0
 WRAP.                  NO:   ONE LINE PER DEPTH STEP
~WELL INFORMATION BLOCK
#MNEM.UNIT           DATA                    DESCRIPTION OF MNEMONIC
#---------    -------------------            -------------------------------
# Generated from Intellog Unique Number	CS_77_79/WELL/961
WELL.         PCI PCEJ CHARD                 : Well_name    - WELL
LOC .         00/10-25-079-07W4/0            : Location     - LOCATION
UWI .         00/10-25-079-07W4/0            : Uwi          - UNIQUE WELL ID
ENTR.         JHS                            : Entered      - ENTERED BY
SRVC.         SCHLUMBERGER                   : Scn          - SERVICE COMPANY
STRT.M        125                            : top_depth    - START DEPTH
STOP.M        365                            : bot_depth    - STOP DEPTH
STEP.M        0.25                           : increment    - STEP LENGTH
 NULL. -999.2500:NULL Value
~CURVE INFORMATION BLOCK
#MNEM UNIT       ERCB CURVE CODE    CURVE DESCRIPTION
#-----------   ------------------   ----------------------------------
DEPT.M        00 001 00 00         : DEPTH        - DEPTH
DPHI.V/V      00 890 00 00         : PHID         - DENSITY POROSITY (LIMESTONE)
NPHI.V/V      00 330 00 00         : PHIN         - NEUTRON POROSITY (LIMESTONE)
GR  .API      00 310 00 00         : GR           - GAMMA RAY
ILD .OHMM     00 120 00 00         : RESD         - DEEP RESISTIVITY (DIL)
RHOB.KG/M3    00 350 00 00         : DENS         - BULK DENSITY
~PARAMETER INFORMATION
#MNEM.UNIT           DATA             DESCRIPTION OF MNEMONIC
#---------         -----------     ------------------------------
GL  .M        565.7                : gl           - GROUND LEVEL ELEVATION
EREF.M        569.4                : kb           - ELEVATION OF DEPTH REFERENCE
DATM.M        569.4                : datum        - DATUM ELEVATION
TDD .M        391                  : tdd          - TOTAL DEPTH DRILLER
RUN .         ONE                  : Run          - RUN NUMBER
ENG .         BILL                 : Engineer     - RECORDING ENGINEER
WIT .         JIM                  : Witness      - WITNESSED BY
MUD .         GEL                  : Mud_type     - MUD TYPE
MATR.         LIMESTONE            : Logunit      - NEUTRON MATRIX
TMAX.C        19                   : BHT          - MAXIMUM RECORDED TEMPERATURE
BHTD.M        391                  : BHTDEP       - MAXIMUM RECORDED TEMPERATURE
MATR.         1                    : LOGUNIT      - NEUTRON MATRIX
RMT .C        25                   : MDTP         - TEMPERATURE OF MUD
NEUT.         1                    : NEUTRON      - NEUTRON TYPE
RESI.         0                    : RESIST       - RESISTIVITY TYPE
RMC .OHMM     0.25                 : RMC          - RESISTIVITY OF MUD CAKE
RMF .OHMM     0.25                 : RMF          - RESISTIVITY OF MUD FILTRATE
SUFT.C        15                   : SUFT         - SURFACE TEMPERATURE
~A  DEPTH     PHID     PHIN       GR     RESD     DENS
# ...
  161.500    0.272    0.454   99.344   14.070    0.000
  161.750    0.239    0.469  101.868   12.103    0.000
  162.000    0.207    0.509  100.610    9.839    0.000
  162.250    0.188    0.501  111.327    8.308    0.000
  162.500    0.203    0.501  114.481    7.284    0.000
  162.750    0.239    0.530  113.223    6.508    0.000
  163.000    0.233    0.548  109.445    5.816    0.000
  163.250    0.227    0.511  112.599    5.100    0.000
  163.500    0.228    0.501  113.862    4.732    0.000
  163.750    0.257    0.543  106.302    4.311    0.000
  164.000    0.273    0.563   89.917    4.314    0.000
  164.250    0.282    0.535   67.861    5.024    0.000
  164.500    0.296    0.471   57.149    6.554    0.000
  164.750    0.302    0.405   46.437    9.050    0.000
  165.000    0.318    0.392   40.138   13.738    0.000
  165.250    0.340    0.382   38.880   17.920    0.000
  165.500    0.348    0.403   41.404   22.941    0.000
  165.750    0.360    0.390   47.079   25.728    0.000
  166.000    0.362    0.378   50.233   26.244    0.000
  166.250    0.356    0.402   46.454   25.782    0.000
  166.500    0.323    0.376   45.196   26.309    0.000
  166.750    0.208    0.313   46.459   26.834    0.000
  167.000    0.233    0.329   47.092   26.861    0.000
  167.250    0.353    0.402   46.465   26.381    0.000
  167.500    0.347    0.421   50.249   25.911    0.000
  167.750    0.338    0.408   57.184   24.508    0.000
  168.000    0.347    0.403   60.969   23.620    0.000
  168.250    0.344    0.405   60.972   22.764    0.000
  168.500    0.332    0.396   60.974   22.356    0.000
  168.750    0.324    0.405   62.867   21.549    0.000
  169.000    0.328    0.426   62.871   21.166    0.000
  169.250    0.324    0.426   60.983   20.794    0.000
  169.500    0.323    0.418   60.355   20.421    0.000
  169.750    0.328    0.408   60.987   20.833    0.000
  170.000    0.326    0.400   64.772   20.852    0.000
  170.250    0.319    0.403   71.077   20.481    0.000
  170.500    0.301    0.435   90.617   18.653    0.000
  170.750    0.272    0.461  106.377   16.666    0.000
  171.000    0.224    0.456  110.161   13.547    0.000
  171.250    0.197    0.452  110.163   10.806    0.000
  171.500    0.182    0.462  107.646    8.952    0.000
  171.750    0.183    0.476  103.867    8.153    0.000
  172.000    0.215    0.472   98.827    7.710    0.000
  172.250    0.229    0.451  104.502    7.719    0.000
  172.500    0.242    0.430  107.026    7.725    0.000
  172.750    0.274    0.443  101.356    8.185    0.000
  173.000    0.343    0.422   90.644    9.007    0.000
  173.250    0.366    0.412   77.412   10.690    0.000
  173.500    0.349    0.422   64.809   13.429    0.000
  173.750    0.327    0.396   67.333   16.552    0.000
  174.000    0.313    0.391   74.899   19.277    0.000
  174.250    0.308    0.406   81.204   21.209    0.000
  174.500    0.295    0.411   86.879   21.641    0.000
  174.750    0.275    0.412   87.513   20.464    0.000
  175.000    0.280    0.419   85.625   19.351    0.000
  175.250    0.302    0.443   86.888   17.295    0.000
  175.500    0.313    0.453   84.369   15.748    0.000
  175.750    0.304    0.442   84.371   14.893    0.000
  176.000    0.302    0.413   83.745   15.199    0.000
  176.250    0.310    0.408   80.595   15.207    0.000
  176.500    0.324    0.422   76.817   15.812    0.000
  176.750    0.314    0.421   67.996   16.752    0.000
  177.000    0.317    0.377   52.242   18.085    0.000
  177.250    0.319    0.348   57.287   19.527    0.000
  177.500    0.279    0.353   66.113   21.084    0.000
  177.750    0.255    0.372   72.418   20.712    0.000
  178.000    0.257    0.413   56.034   19.586    0.000
  178.250    0.295    0.369   33.978   20.368    0.000
  178.500    0.320    0.343   37.762   21.572    0.000
  178.750    0.318    0.339   46.589   23.291    0.000
  179.000    0.322    0.347   48.482   26.119    0.000
  179.250    0.310    0.359   47.855   29.851    0.000
  179.500    0.315    0.344   51.639   32.840    0.000
  179.750    0.317    0.337   60.466   33.511    0.000
  180.000    0.295    0.343   66.140   32.908    0.000
  180.250    0.293    0.378   71.185   29.411    0.000
  180.500    0.275    0.388   69.297   26.779    0.000
  180.750    0.266    0.409   56.694   23.483    0.000
  181.000    0.307    0.384   45.352   21.794    0.000
  181.250    0.324    0.360   49.136   21.814    0.000
  181.500    0.304    0.362   64.265   21.838    0.000
  181.750    0.278    0.380   73.092   20.263    0.000
  182.000    0.269    0.397   74.986   18.809    0.000
  182.250    0.270    0.377   72.467   17.784    0.000
  182.500    0.279    0.370   71.209   16.818    0.000
  182.750    0.298    0.397   83.817   15.611    0.000
  183.000    0.298    0.410   97.055   14.216    0.000
  183.250    0.266    0.419  102.100   13.442    0.000
  183.500    0.268    0.439  100.211   12.241    0.000
  183.750    0.260    0.451   98.324   11.362    0.000
  184.000    0.245    0.448  102.739   10.348    0.000
  184.250    0.236    0.450  105.262    9.601    0.000
  184.500    0.236    0.454  105.265    8.911    0.000
  184.750    0.229    0.453  100.225    8.587    0.000
  185.000    0.241    0.482   94.555    8.279    0.000
  185.250    0.285    0.478   85.105    8.446    0.000
  185.500    0.308    0.435   81.326    8.949    0.000
  185.750    0.316    0.417   80.698    9.300    0.000
  186.000    0.294    0.408   77.549   10.831    0.000
  186.250    0.278    0.402   79.443   12.145    0.000
  186.500    0.269    0.400   87.639   13.363    0.000
  186.750    0.255    0.444   95.835   14.708    0.000
  187.000    0.245    0.450  104.031   14.723    0.000
  187.250    0.235    0.439  106.555   13.662    0.000
  187.500    0.237    0.434  100.885   12.208    0.000
  187.750    0.251    0.442   93.325   11.118    0.000
  188.000    0.254    0.454   97.109   10.512    0.000
  188.250    0.255    0.432  102.153   10.134    0.000
  188.500    0.262    0.425   98.375    9.954    0.000
  188.750    0.262    0.443   91.444   10.154    0.000
  189.000    0.269    0.477   84.515   10.361    0.000
  189.250    0.284    0.447   78.845   10.976    0.000
  189.500    0.308    0.414   73.805   11.628    0.000
  189.750    0.315    0.403   82.632   12.316    0.000
  190.000    0.301    0.409   92.089   13.552    0.000
  190.250    0.319    0.420   93.983   14.914    0.000
  190.500    0.326    0.406   91.463   15.501    0.000
  190.750    0.303    0.398   86.425   15.817    0.000
  191.000    0.255    0.410   85.166   15.831    0.000
  191.250    0.235    0.411   93.362   15.550    0.000
  191.500    0.236    0.421   97.147   14.709    0.000
  191.750    0.245    0.443   95.259   14.174    0.000
  192.000    0.261    0.424   85.808   13.922    0.000
  192.250    0.262    0.393   79.507   13.936    0.000
  192.500    0.279    0.380   76.359   13.950    0.000
  192.750    0.297    0.395   75.101   14.230    0.000
  193.000    0.280    0.439   73.214   13.978    0.000
  193.250    0.260    0.483   71.325   13.223    0.000
  193.500    0.162    0.480   66.916   12.984    0.000
  193.750    0.130    0.414   77.002   12.282    0.000
  194.000    0.145    0.406   85.829   11.838    0.000
  194.250    0.241    0.423   90.874   10.184    0.000
  194.500    0.257    0.445   92.767    8.930    0.000
  194.750    0.257    0.461   90.879    8.288    0.000
  195.000    0.271    0.441   83.949    7.991    0.000
  195.250    0.301    0.429   73.237    7.995    0.000
  195.500    0.297    0.404   67.567    8.472    0.000
  195.750    0.297    0.396   61.268    9.865    0.000
  196.000    0.346    0.445   46.774   11.489    0.000
  196.250    0.394    0.439   42.996   13.130    0.000
  196.500    0.326    0.385   48.671   15.289    0.000
  196.750    0.301    0.398   50.564   18.494    0.000
  197.000    0.301    0.415   48.676   21.133    0.000
  197.250    0.331    0.420   53.721   23.255    0.000
  197.500    0.334    0.406   51.202   24.639    0.000
  197.750    0.327    0.394   48.054   25.132    0.000
