~VERSION INFORMATION
 VERS.                 2.0:   CWLS LOG ASCII STANDARD -VERSION 2.0
 WRAP.                  NO:   ONE LINE PER DEPTH STEP
~WELL INFORMATION BLOCK
#MNEM.UNIT           DATA                    DESCRIPTION OF MNEMONIC
#---------    -------------------            -------------------------------
# Generated from Intellog Unique Number	CS_77_79/WELL/954
WELL.         MESA PORTAGE                   : Well_name    - WELL
LOC .         00/10-14-078-18W4/0            : Location     - LOCATION
UWI .         00/10-14-078-18W4/0            : Uwi          - UNIQUE WELL ID
ENTR.         JHS                            : Entered      - ENTERED BY
SRVC.         SCHLUMBERGER                   : Scn          - SERVICE COMPANY
STRT.M        179.832                        : top_depth    - START DEPTH
STOP.M        380.832                        : bot_depth    - STOP DEPTH
STEP.M        0.25                           : increment    - STEP LENGTH
 NULL. -999.2500:NULL Value
~CURVE INFORMATION BLOCK
#MNEM UNIT       ERCB CURVE CODE    CURVE DESCRIPTION
#-----------   ------------------   ----------------------------------
DEPT.M        00 001 00 00         : DEPTH        - DEPTH
GR  .API      00 310 00 00         : GR           - GAMMA RAY
DPHI.V/V      00 890 00 00         : PHID         - DENSITY POROSITY (SANDSTONE)
NPHI.V/V      00 330 00 00         : PHIN         - NEUTRON POROSITY (SANDSTONE)
ILD .OHMM     00 120 00 00         : RESD         - DEEP RESISTIVITY (DIL)
~PARAMETER INFORMATION
#MNEM.UNIT           DATA             DESCRIPTION OF MNEMONIC
#---------         -----------     ------------------------------
GL  .M        551.139              : gl           - GROUND LEVEL ELEVATION
EREF.M        554.553              : kb           - ELEVATION OF DEPTH REFERENCE
DATM.M        554.553              : datum        - DATUM ELEVATION
TDD .M        390.144              : tdd          - TOTAL DEPTH DRILLER
RUN .         ONE                  : Run          - RUN NUMBER
ENG .         BILL                 : Engineer     - RECORDING ENGINEER
WIT .         JIM                  : Witness      - WITNESSED BY
MUD .         GEL                  : Mud_type     - MUD TYPE
MATR.         SANDSTONE            : Logunit      - NEUTRON MATRIX
TMAX.C        60                   : BHT          - MAXIMUM RECORDED TEMPERATURE
BHTD.M        390.144              : BHTDEP       - MAXIMUM RECORDED TEMPERATURE
MATR.         1                    : LOGUNIT      - NEUTRON MATRIX
RMT .C        25                   : MDTP         - TEMPERATURE OF MUD
NEUT.         1                    : NEUTRON      - NEUTRON TYPE
RESI.         0                    : RESIST       - RESISTIVITY TYPE
RMC .OHMM     0.25                 : RMC          - RESISTIVITY OF MUD CAKE
RMF .OHMM     0.25                 : RMF          - RESISTIVITY OF MUD FILTRATE
SUFT.C        15                   : SUFT         - SURFACE TEMPERATURE
~A  DEPTH       GR     PHID     PHIN     RESD
# ...
  223.332   69.400    0.212    0.593    5.551
  223.582   70.581    0.335    0.623    4.814
  223.832   71.182    0.339    0.638    4.850
  224.082   73.921    0.343    0.643    4.962
  224.332   73.158    0.355    0.644    5.319
  224.582   74.756    0.276    0.643    6.236
  224.832   79.194    0.251    0.634    6.919
  225.082   90.637    0.255    0.629    7.340
  225.332   94.549    0.289    0.609    7.667
  225.582   91.398    0.301    0.560    8.032
  225.832   87.772    0.314    0.549    8.834
  226.082   85.726    0.324    0.534    9.549
  226.332   82.919    0.314    0.493    9.602
  226.582   80.705    0.298    0.474    9.206
  226.832   80.844    0.285    0.476    8.495
  227.082   82.591    0.323    0.495    7.688
  227.332   85.248    0.358    0.536    7.159
  227.582   83.409    0.405    0.568    6.737
  227.832   84.885    0.468    0.615    6.303
  228.082   88.471    0.450    0.615    5.965
  228.332   88.041    0.342    0.563    6.055
  228.582   88.572    0.327    0.535    6.053
  228.832   90.798    0.306    0.538    6.248
  229.082   89.788    0.293    0.547    6.608
  229.332   84.139    0.312    0.552    7.481
  229.582   79.286    0.318    0.521    8.760
  229.832   77.059    0.285    0.506   10.240
  230.082   74.431    0.286    0.517   12.030
  230.332   66.808    0.298    0.542   14.184
  230.582   61.824    0.327    0.520   15.669
  230.832   58.811    0.358    0.504   18.070
  231.082   58.878    0.350    0.490   19.059
  231.332   59.971    0.355    0.483   19.010
  231.582   59.737    0.321    0.498   19.042
  231.832   57.781    0.338    0.512   19.197
  232.082   56.768    0.359    0.516   20.426
  232.332   58.837    0.366    0.518   21.942
  232.582   60.093    0.361    0.522   23.570
  232.832   60.129    0.351    0.537   24.341
  233.082   59.222    0.340    0.520   23.755
  233.332   58.241    0.349    0.504   23.084
  233.582   57.748    0.342    0.495   22.051
  233.832   56.118    0.345    0.489   20.442
  234.082   56.428    0.355    0.499   18.570
  234.332   58.421    0.354    0.528   17.744
  234.582   60.255    0.360    0.558   16.077
  234.832   60.718    0.362    0.543   14.906
  235.082   61.499    0.361    0.512   14.143
  235.332   61.538    0.355    0.514   13.783
  235.582   62.110    0.354    0.543   13.313
  235.832   62.144    0.356    0.557   13.710
  236.082   61.432    0.356    0.550   13.843
  236.332   60.891    0.352    0.563   13.847
  236.582   61.198    0.349    0.502   13.715
  236.832   60.301    0.330    0.511   13.129
  237.082   59.690    0.306    0.502   12.757
  237.332   59.699    0.333    0.511   12.049
  237.582   59.779    0.344    0.535   11.777
  237.832   58.185    0.350    0.566   11.608
  238.082   56.605    0.330    0.592   10.884
  238.332   56.233    0.339    0.570   10.982
  238.582   55.926    0.355    0.539   10.854
  238.832   58.036    0.363    0.513   11.000
  239.082   57.096    0.352    0.492   11.217
  239.332   55.629    0.342    0.516   11.239
  239.582   56.795    0.345    0.508   11.019
  239.832   57.813    0.337    0.497   10.886
  240.082   58.689    0.341    0.495   10.788
  240.332   58.662    0.347    0.491   10.651
  240.582   57.010    0.342    0.475   10.647
  240.832   55.133    0.325    0.486   10.935
  241.082   56.901    0.333    0.493   11.283
  241.332   55.313    0.324    0.475   11.648
  241.582   53.736    0.286    0.467   12.007
  241.832   53.339    0.267    0.467   12.015
  242.082   55.440    0.284    0.494   11.593
  242.332   58.808    0.336    0.497   11.129
  242.582   57.534    0.357    0.502   10.759
  242.832   54.772    0.345    0.533   10.485
  243.082   54.513    0.345    0.534   10.397
  243.332   55.659    0.350    0.523   10.404
  243.582   57.994    0.350    0.499   10.423
  243.832   57.679    0.346    0.477   10.419
  244.082   55.380    0.343    0.466   10.634
  244.332   53.452    0.353    0.478   10.873
  244.582   58.418    0.352    0.515   10.870
  244.832   61.169    0.358    0.515   10.987
  245.082   61.427    0.363    0.523   11.117
  245.332   62.103    0.354    0.532   11.313
  245.582   61.566    0.334    0.532   11.551
  245.832   61.981    0.323    0.515   11.781
  246.082   60.224    0.325    0.518   11.552
  246.332   60.853    0.334    0.534   11.520
  246.582   61.456    0.328    0.564   11.388
  246.832   59.906    0.317    0.611   11.286
  247.082   56.570    0.329    0.631   10.988
  247.332   53.182    0.343    0.637   10.829
  247.582   55.307    0.364    0.641   10.562
  247.832   57.279    0.347    0.643   11.088
  248.082   58.410    0.327    0.642   12.407
  248.332   58.538    0.302    0.640   14.546
  248.582   57.068    0.254    0.632   17.940
  248.832   52.531    0.085    0.618   22.438
  249.082   48.849    0.045    0.607   25.883
  249.332   49.328    0.023    0.254   25.816
  249.582   50.588    0.025    0.225   22.055
  249.832   55.414    0.045    0.243   15.816
  250.082   60.820    0.074    0.296   12.780
  250.332   67.362    0.214    0.420   11.864
  250.582   69.529    0.300    0.544   11.855
  250.832   67.455    0.270    0.570   12.422
  251.082   63.740    0.240    0.574   13.934
  251.332   60.727    0.189    0.458   14.860
  251.582   58.202    0.137    0.402   14.398
  251.832   60.513    0.160    0.421   13.591
  252.082   69.298    0.182    0.468   12.798
  252.332   71.967    0.283    0.497   12.203
  252.582   73.523    0.282    0.497   11.856
  252.832   77.171    0.291    0.522   11.505
  253.082   74.007    0.266    0.523   11.385
  253.332   73.877    0.262    0.496   11.338
  253.582   77.087    0.259    0.470   11.132
  253.832   77.854    0.272    0.461   11.018
  254.082   77.809    0.276    0.466   10.915
  254.332   78.929    0.263    0.483   10.735
  254.582   79.086    0.252    0.499   10.667
  254.832   79.157    0.240    0.484   10.582
  255.082   80.633    0.240    0.474   10.433
  255.332   82.330    0.252    0.482   10.479
  255.582   82.242    0.276    0.490   10.611
  255.832   79.977    0.245    0.481   10.764
  256.082   77.578    0.258    0.500   10.816
  256.332   76.160    0.269    0.503   11.048
  256.582   75.543    0.282    0.496   11.057
  256.832   74.802    0.296    0.498   11.040
  257.082   73.233    0.280    0.497   10.880
  257.332   72.158    0.280    0.482   10.819
  257.582   76.772    0.264    0.451   10.228
  257.832   79.132    0.267    0.455    9.478
  258.082   80.583    0.253    0.462    8.683
  258.332   85.782    0.267    0.472    7.937
  258.582   88.114    0.252    0.480    7.816
  258.832   84.789    0.260    0.513    7.819
  259.082   77.515    0.266    0.558    7.988
  259.332   75.282    0.302    0.546    8.329
  259.582   73.278    0.309    0.510    9.159
  259.832   69.087    0.311    0.498    9.855
  260.082   68.051    0.301    0.503    9.488
  260.332   66.043    0.313    0.513    8.913
  260.582   57.625    0.288    0.518    7.964
  260.832   51.952    0.269    0.496    7.608
  261.082   51.361    0.261    0.479    7.645
  261.332   53.581    0.297    0.486    7.856
  261.582   54.580    0.310    0.480    8.522
  261.832   54.911    0.292    0.500    9.242
  262.082   55.770    0.304    0.490    9.982
  262.332   57.138    0.327    0.488   10.370
  262.582   58.644    0.318    0.503   10.175
  262.832   58.867    0.309    0.499   10.081
  263.082   61.531    0.279    0.514    9.759
  263.332   62.916    0.254    0.485    9.809
  263.582   63.550    0.227    0.481    9.735
  263.832   64.995    0.243    0.496    9.662
  264.082   66.912    0.291    0.479   10.097
  264.332   69.689    0.286    0.484   11.463
  264.582   68.445    0.240    0.478   12.715
  264.832   65.408    0.186    0.438   15.193
  265.082   62.196    0.135    0.335   16.615
  265.332   56.335    0.103    0.300   16.780
  265.582   59.705    0.140    0.369   15.384
  265.832   59.340    0.244    0.468   14.212
  266.082   59.967    0.314    0.536   12.753
  266.332   63.945    0.313    0.595   11.646
  266.582   61.944    0.318    0.615   10.634
