~VERSION INFORMATION
 VERS.                 2.0:   CWLS LOG ASCII STANDARD -VERSION 2.0
 WRAP.                  NO:   ONE LINE PER DEPTH STEP
~WELL INFORMATION BLOCK
#MNEM.UNIT           DATA                    DESCRIPTION OF MNEMONIC
#---------    -------------------            -------------------------------
# Generated from Intellog Unique Number	CW_70_72/WELL/3311
NULL.         -999.25                        : NULL_VALUE
WELL.         CALSTAN SOBC MITSUE            : Well_name    - WELL              
LOC .         16-12-071-05W5                 : Location     - LOCATION          
UWI .         00/16-12-071-05W5/0            : Uwi          - UNIQUE WELL ID    
ENTR.         CAMPBELL                       : Entered      - ENTERED BY        
SRVC.         SCHLUMBERGER                   : Scn          - SERVICE COMPANY   
DATE.         12 JULY 1965                   : Date         - LOG DATE          
STRT.M        667.512                        : top_depth    - START DEPTH       
STOP.M        813.762                        : bot_depth    - STOP DEPTH        
STEP.M        0.25                           : increment    - STEP LENGTH       
~CURVE INFORMATION BLOCK
#MNEM UNIT       ERCB CURVE CODE    CURVE DESCRIPTION
#-----------   ------------------   ----------------------------------
DEPT.M        00 001 00 00         : DEPTH        - DEPTH                       
ILD .OHMM     00 120 00 00         : RESD         - DEEP RESISTIVITY (DIL)      
DELT.US/F     00 520 00 00         : DELT         - SONIC TRAVEL TIME           
GR  .API      00 310 00 00         : GR           - GAMMA RAY                   
~PARAMETER INFORMATION       
#MNEM.UNIT           DATA             DESCRIPTION OF MNEMONIC
#---------         -----------     ------------------------------
GL  .M        752.46               : gl           - GROUND LEVEL ELEVATION      
EREF.M        756.27               : kb           - ELEVATION OF DEPTH REFERENCE
DATM.M        756.27               : datum        - DATUM ELEVATION             
TDD .M        1864.77              : tdd          - TOTAL DEPTH DRILLER         
RUN .         ONE                  : Run          - RUN NUMBER                  
ENG .         HAMILTON             : Engineer     - RECORDING ENGINEER          
WIT .         BROWN                : Witness      - WITNESSED BY                
MUD .         GEL                  : Mud_type     - MUD TYPE                    
MATR.         SANDSTONE            : Logunit      - NEUTRON MATRIX              
TMAX.C        52.2222              : BHT          - MAXIMUM RECORDED TEMPERATURE
BHTD.M        1864.77              : BHTDEP       - MAXIMUM RECORDED TEMPERATURE
RMT .C        20                   : MDTP         - TEMPERATURE OF MUD          
MUDD.KG/M     10000                : MWT          - MUD DENSITY                 
NEUT.         1                    : NEUTRON      - NEUTRON TYPE                
RESI.         0                    : RESIST       - RESISTIVITY TYPE            
RM  .OHMM     1.5                  : RM           - RESISTIVITY OF MUD          
RMC .OHMM     1.62                 : RMC          - RESISTIVITY OF MUD CAKE     
RMF .OHMM     1.25                 : RMF          - RESISTIVITY OF MUD FILTRATE 
SUFT.C        20                   : SUFT         - SURFACE TEMPERATURE         
~A  DEPTH     RESD     DELT       GR
  667.512    3.090  365.238   80.673
  667.762    3.295  368.760   76.298
  668.012    3.299  330.474   78.271
  668.262    3.306  349.347   82.474
  668.512    3.311  335.560   80.320
  668.762    3.216  326.669   82.619
  669.012    3.122  339.992   85.218
  669.262    3.128  352.990   81.795
  669.512    2.935  359.784   69.794
  669.762    2.741  361.331   69.545
  670.012    2.448  361.932   68.670
  670.262    2.155  362.843   68.738
  670.512    1.961  360.154   73.885
  670.762    1.768  359.106   82.531
  671.012    1.773  356.091   76.569
  671.262    1.778  354.726   74.733
  671.512    1.883  355.310   73.858
  671.762    2.090  352.948   73.291
  672.012    2.294  349.288   72.725
  672.262    2.498  345.621   74.697
  672.512    2.703  345.226   76.979
  672.762    2.808  346.789   71.969
  673.012    2.914  350.973   70.776
  673.262    2.919  353.507   77.518
  673.512    2.826  350.509   86.790
  673.762    2.730  344.556   92.254
  674.012    2.637  340.888   79.619
  674.262    2.543  339.840   74.618
  674.512    2.550  339.437   75.955
  674.762    2.454  339.695   75.706
  675.012    2.460  339.961   76.084
  675.262    2.465  339.892   78.699
  675.512    2.471  342.435   77.498
  675.762    2.577  345.622   77.884
  676.012    2.682  348.826   74.778
  676.262    2.789  353.001   71.356
  676.512    2.793  356.197   67.924
  676.762    2.799  354.496   74.349
  677.012    2.804  347.573   74.108
  677.262    2.810  339.008   68.138
  677.512    2.915  333.064   65.350
  677.762    2.920  328.091   64.783
  678.012    2.926  327.369   64.217
  678.262    3.030  327.292   59.850
  678.512    3.037  327.558   58.641
  678.762    3.142  328.143   62.835
  679.012    3.248  329.045   66.085
  679.262    3.252  329.955   63.606
  679.512    3.259  330.548   64.635
  679.762    3.264  331.450   63.434
  680.012    3.269  331.708   63.820
  680.262    3.374  331.640   59.445
  680.512    3.579  330.265   63.004
  680.762    3.784  326.932   65.294
  681.012    3.990  310.860   65.997
  681.262    4.493  287.598   65.757
  681.512    4.997  266.295   56.613
  681.762    5.301  210.691   53.190
  682.012    5.108  189.714   50.402
  682.262    4.914  200.099   55.548
  682.512    4.620  229.753   62.298
  682.762    4.327  230.663   60.454
  683.012    4.134  213.286   57.031
  683.262    4.040  203.742   63.456
  683.512    4.047  211.843   66.063
  683.762    4.051  236.926   67.092
  684.012    4.156  264.621   67.786
  684.262    4.361  286.431   70.711
  684.512    5.364  275.582   64.440
  684.762    6.365  261.469   61.009
  685.012    7.366  245.397   57.904
  685.262    8.567  199.268   55.107
  685.512   10.465  195.918   52.319
  685.762    9.474  197.816   54.300
  686.012    7.787  199.706   54.051
  686.262    6.797  202.575   55.389
  686.512    5.806  204.792   52.927
  686.762    4.816  209.302   54.891
  687.012    4.125  222.952   64.171
  687.262    3.830  233.011   69.961
  687.512    3.637  253.189   71.934
  687.762    3.443  267.500   72.954
  688.012    3.350  304.009   74.927
  688.262    3.256  316.679   72.456
  688.512    3.361  322.495   70.303
  688.762    3.366  331.240   64.976
  689.012    3.172  336.394   66.957
  689.262    3.079  335.673   66.064
  689.512    2.985  333.645   68.697
  689.762    2.891  331.618   68.766
  690.012    2.797  332.194   69.460
  690.262    2.804  334.084   70.789
  690.512    2.610  335.003   64.836
  690.762    2.614  335.905   64.896
  691.012    2.521  337.151   60.838
  691.262    2.525  339.694   68.524
  691.512    2.531  343.542   69.553
  691.762    2.538  347.064   60.409
  692.012    2.542  350.921   67.468
  692.262    2.350  358.361   76.749
  692.512    2.155  364.829   82.855
  692.762    1.962  368.342   81.972
  693.012    1.967  368.600   83.309
  693.262    1.973  370.499   82.108
  693.512    1.979  368.790   83.137
  693.762    1.985  366.762   83.531
  694.012    1.990  364.727   84.218
  694.262    1.896  364.332   83.968
  694.512    1.802  365.242   83.402
  694.762    1.808  362.571   90.144
  695.012    1.813  354.333   89.260
  695.262    1.819  349.359   84.568
  695.512    1.824  350.588   77.010
  695.762    1.731  347.582   72.953
  696.012    1.736  346.860   69.847
  696.262    1.741  349.076   76.581
  696.512    1.747  352.272   78.562
  696.762    1.853  354.171   71.648
  697.012    1.858  353.776   68.225
  697.262    1.964  351.087   66.063
  697.512    2.069  350.701   63.910
  697.762    2.074  349.971   61.439
  698.012    1.980  349.240   64.372
  698.262    1.987  349.180   68.258
  698.512    1.991  350.091   64.509
  698.762    1.897  353.278   69.664
  699.012    1.904  354.850   65.915
  699.262    1.908  356.414   61.858
  699.512    1.915  356.019   60.656
  699.762    2.020  353.339   62.312
  700.012    2.125  349.353   62.697
  700.262    2.230  345.677   61.813
  700.512    2.235  342.670   56.495
  700.762    2.241  342.610   57.190
  701.012    2.246  345.806   62.344
  701.262    2.352  346.381   64.952
  701.512    2.357  345.651   61.537
  701.762    2.365  343.959   64.454
  702.012    2.369  342.259   69.608
  702.262    2.474  342.834   68.733
  702.512    2.479  342.766   68.158
  702.762    2.485  342.371   64.727
  703.012    2.490  342.311   62.891
  703.262    2.597  341.572   69.315
  703.512    2.702  340.198   77.644
  703.762    2.807  337.509   78.030
  704.012    2.911  337.131   72.703
  704.262    3.017  337.389   69.597
  704.512    3.023  337.647   66.800
  704.762    3.128  337.243   73.542
  705.012    3.333  334.890   77.428
  705.262    3.636  317.512   74.631
  705.512    4.440  288.701   67.717
  705.762    4.944  240.613   73.824
  706.012    5.646  220.615   78.653
  706.262    6.448  201.597   77.134
  706.512    8.047  188.789   71.173
  706.762    9.149  195.584   59.172
  707.012   10.151  194.201   49.076
  707.262    8.862  194.785   55.818
  707.512    7.374  198.642   54.299
  707.762    6.183  209.019   56.906
  708.012    4.994  229.533   63.331
  708.262    4.501  251.017   58.964
  708.512    4.208  292.112   60.937
  708.762    3.915  311.964   70.844
  709.012    4.020  318.106   74.403
  709.262    3.427  322.281   64.316
  709.512    3.335  326.121   67.257
  709.762    3.140  329.317   67.943
  710.012    3.046  332.195   64.203
  710.262    2.953  332.779   62.685
  710.512    2.858  331.722   57.358
  710.762    2.864  331.327   60.600
  711.012    2.671  331.912   69.246
  711.262    2.377  335.442   75.035
  711.512    2.283  347.134   78.277
  711.762    2.089  358.825   72.307
  712.012    1.996  369.211   74.288
  712.262    1.902  381.546   74.048
  712.512    1.906  386.382   76.964
  712.762    1.913  390.549   78.627
  713.012    1.820  388.848   75.831
  713.262    1.726  385.850   74.321
  713.512    1.632  381.203   75.968
  713.762    1.637  377.217   76.996
  714.012    1.543  372.553   75.161
  714.262    1.647  373.472   70.142
  714.512    1.753  375.689   68.958
  714.762    1.857  373.670   70.613
  715.012    1.963  370.011   70.991
  715.262    1.969  366.017   77.406
  715.512    1.776  365.604   74.936
  715.762    1.781  365.879   73.417
  716.012    1.886  366.790   79.533
  716.262    2.092  368.354   78.323
  716.512    2.196  368.268   77.439
  716.762    2.301  365.596   76.555
  717.012    2.308  363.569   76.306
  717.262    2.313  364.145   75.440
  717.512    2.319  366.696   73.269
  717.762    2.126  368.913   72.068
  718.012    2.130  370.476   74.367
  718.262    2.036  368.122   71.261
  718.512    2.041  365.769   71.973
  718.762    2.047  364.395   72.358
  719.012    2.052  363.012   75.909
  719.262    2.059  362.282   79.151
  719.512    2.065  360.907   77.959
  719.762    2.070  358.880   75.480
  720.012    2.075  356.862   80.952
  720.262    2.082  355.135   81.972
  720.512    2.086  353.769   87.444
  720.762    2.092  352.722   82.744
  721.012    2.198  352.327   77.734
  721.262    2.202  351.940   78.754
  721.512    2.209  350.566   83.592
