~VERSION INFORMATION
 VERS.                 2.0:   CWLS LOG ASCII STANDARD -VERSION 2.0
 WRAP.                  NO:   ONE LINE PER DEPTH STEP
~WELL INFORMATION BLOCK
#MNEM.UNIT           DATA                    DESCRIPTION OF MNEMONIC
#---------    -------------------            -------------------------------
# Generated from Intellog Unique Number	CS_71_72/WELL/885
WELL.         TEE PEE PETROLEUMS             : Well_name    - WELL
LOC .         00/11-04-071-18W4/0            : Location     - LOCATION
UWI .         00/11-04-071-18W4/0            : Uwi          - UNIQUE WELL ID
ENTR.         SP                             : Entered      - ENTERED BY
SRVC.         SCHLUMBERGER                   : Scn          - SERVICE COMPANY
STRT.M        295.656                        : top_depth    - START DEPTH
STOP.M        520.906                        : bot_depth    - STOP DEPTH
STEP.M        0.25                           : increment    - STEP LENGTH
 NULL. -999.2500:NULL Value
~CURVE INFORMATION BLOCK
#MNEM UNIT       ERCB CURVE CODE    CURVE DESCRIPTION
#-----------   ------------------   ----------------------------------
DEPT.M        00 001 00 00         : DEPTH        - DEPTH
GR  .API      00 310 00 00         : GR           - GAMMA RAY
DPHI.V/V      00 890 00 00         : PHID         - DENSITY POROSITY (SANDSTONE)
NPHI.V/V      00 330 00 00         : PHIN         - NEUTRON POROSITY (SANDSTONE)
ILD .OHMM     00 120 00 00         : RESD         - DEEP RESISTIVITY (DIL)
~PARAMETER INFORMATION
#MNEM.UNIT           DATA             DESCRIPTION OF MNEMONIC
#---------         -----------     ------------------------------
GL  .M        575.462              : gl           - GROUND LEVEL ELEVATION
EREF.M        579.12               : kb           - ELEVATION OF DEPTH REFERENCE
DATM.M        575.462              : datum        - DATUM ELEVATION
TDD .M        543.154              : tdd          - TOTAL DEPTH DRILLER
RUN .         ONE                  : Run          - RUN NUMBER
ENG .         BILL                 : Engineer     - RECORDING ENGINEER
WIT .         JIM                  : Witness      - WITNESSED BY
MUD .         GEL                  : Mud_type     - MUD TYPE
MATR.         SANDSTONE            : Logunit      - NEUTRON MATRIX
TMAX.C        24.4444              : BHT          - MAXIMUM RECORDED TEMPERATURE
BHTD.M        543.154              : BHTDEP       - MAXIMUM RECORDED TEMPERATURE
MATR.         1                    : LOGUNIT      - NEUTRON MATRIX
RMT .C        25                   : MDTP         - TEMPERATURE OF MUD
NEUT.         1                    : NEUTRON      - NEUTRON TYPE
RESI.         0                    : RESIST       - RESISTIVITY TYPE
RMC .OHMM     0.25                 : RMC          - RESISTIVITY OF MUD CAKE
RMF .OHMM     0.25                 : RMF          - RESISTIVITY OF MUD FILTRATE
SUFT.C        15                   : SUFT         - SURFACE TEMPERATURE
~A  DEPTH       GR     PHID     PHIN     RESD
  295.656  117.040    0.229    0.521    2.891
  295.906  118.135    0.229    0.512    2.988
  296.156  120.506    0.213    0.500    3.096
  296.406  123.222    0.226    0.508    3.197
  296.656  125.436    0.229    0.515    3.170
  296.906  126.380    0.237    0.497    3.135
  297.156  125.953    0.237    0.501    3.102
  297.406  123.366    0.251    0.513    2.996
  297.656  119.490    0.257    0.534    2.937
  297.906  116.850    0.287    0.555    2.894
  298.156  115.516    0.275    0.542    2.874
  298.406  114.638    0.275    0.522    2.911
  298.656  109.349    0.283    0.510    3.031
  298.906  100.483    0.298    0.503    3.237
  299.156   88.061    0.334    0.537    3.340
  299.406   80.580    0.426    0.555    3.539
  299.656   76.832    0.373    0.567    3.690
  299.906   76.103    0.351    0.482    3.702
  300.156   76.330    0.326    0.430    3.598
  300.406   77.628    0.324    0.406    3.479
  300.656   78.061    0.319    0.406    3.370
  300.906   76.415    0.329    0.419    3.283
  301.156   74.669    0.320    0.421    3.274
  301.406   75.287    0.317    0.423    3.285
  301.656   74.641    0.302    0.426    3.286
  301.906   77.319    0.215    0.418    3.531
  302.156   85.874    0.190    0.426    3.754
  302.406   93.687    0.122    0.418    3.916
  302.656  101.584    0.227    0.418    4.138
  302.906  108.047    0.280    0.421    4.287
  303.156  107.976    0.282    0.430    4.394
  303.406  107.477    0.271    0.438    4.559
  303.656  108.398    0.259    0.440    4.686
  303.906  107.302    0.270    0.430    4.803
  304.156  108.468    0.269    0.428    4.934
  304.406  111.941    0.270    0.429    5.026
  304.656  115.383    0.257    0.430    5.060
  304.906  115.499    0.251    0.418    5.078
  305.156  112.560    0.254    0.405    5.066
  305.406  107.821    0.261    0.408    5.006
  305.656  103.373    0.264    0.406    4.896
  305.906   98.584    0.273    0.411    4.708
  306.156   95.934    0.277    0.428    4.441
  306.406   94.460    0.289    0.436    4.230
  306.656   93.958    0.299    0.433    4.088
  306.906   94.118    0.299    0.432    3.997
  307.156   98.272    0.316    0.425    3.911
  307.406  101.044    0.297    0.414    3.862
  307.656  103.954    0.280    0.410    3.828
  307.906  106.361    0.261    0.425    3.872
  308.156  113.466    0.239    0.449    3.918
  308.406  117.345    0.195    0.464    3.932
  308.656  118.878    0.153    0.475    3.855
  308.906  127.379    0.134    0.494    3.576
  309.156  130.090    0.128    0.491    3.349
  309.406  130.363    0.178    0.503    3.200
  309.656  130.726    0.245    0.502    3.005
  309.906  135.363    0.255    0.507    2.892
  310.156  138.239    0.283    0.519    2.875
  310.406  139.360    0.297    0.520    2.963
  310.656  135.968    0.273    0.505    3.027
  310.906  130.698    0.263    0.487    3.009
  311.156  130.517    0.230    0.504    2.831
  311.406  135.276    0.205    0.524    2.703
  311.656  138.848    0.248    0.526    2.660
  311.906  139.514    0.281    0.533    2.677
  312.156  135.452    0.260    0.542    3.061
  312.406  127.692    0.264    0.518    3.819
  312.656  119.343    0.271    0.490    4.165
  312.906  111.871    0.252    0.463    4.713
  313.156  103.291    0.258    0.448    5.247
  313.406   94.118    0.266    0.433    5.647
  313.656   85.176    0.276    0.428    5.927
  313.906   75.686    0.285    0.424    6.098
  314.156   70.517    0.286    0.427    6.113
  314.406   79.930    0.246    0.428    5.931
  314.656   85.854    0.197    0.422    5.722
  314.906   90.987    0.154    0.418    5.427
  315.156   96.105    0.173    0.436    5.163
  315.406   99.879    0.238    0.456    4.985
  315.656  100.711    0.239    0.445    4.937
  315.906  101.799    0.226    0.425    4.896
  316.156  108.522    0.208    0.422    4.842
  316.406  114.445    0.187    0.442    4.692
  316.656  117.580    0.191    0.460    4.417
  316.906  116.721    0.210    0.477    4.256
  317.156  116.647    0.217    0.494    4.174
  317.406  119.519    0.212    0.484    4.229
  317.656  121.825    0.214    0.474    4.398
  317.906  123.477    0.218    0.462    4.635
  318.156  121.720    0.220    0.470    4.895
  318.406  116.793    0.237    0.457    5.126
  318.656  117.999    0.249    0.422    5.298
  318.906  122.105    0.262    0.413    5.355
  319.156  116.122    0.256    0.432    5.262
  319.406  103.134    0.243    0.447    4.993
  319.656   96.827    0.235    0.456    4.840
  319.906   92.725    0.283    0.463    4.894
  320.156   88.582    0.297    0.461    5.033
  320.406   93.237    0.281    0.443    5.239
  320.656  100.996    0.262    0.425    5.371
  320.906  106.773    0.248    0.421    5.469
  321.156  109.582    0.241    0.426    5.562
  321.406  113.384    0.246    0.420    5.604
  321.656  115.833    0.256    0.415    5.638
  321.906  115.504    0.260    0.426    5.630
  322.156  113.634    0.247    0.440    5.505
  322.406  112.467    0.246    0.447    5.238
  322.656  113.599    0.248    0.432    5.018
  322.906  117.727    0.253    0.425    4.823
  323.156  120.511    0.238    0.433    4.745
  323.406  123.268    0.232    0.437    4.740
  323.656  119.584    0.232    0.440    4.828
  323.906  125.535    0.235    0.442    4.953
  324.156  131.010    0.216    0.442    5.059
  324.406  132.188    0.196    0.441    5.167
  324.656  124.262    0.176    0.442    5.253
  324.906  115.707    0.137    0.443    5.357
  325.156  108.366    0.131    0.444    5.439
  325.406  114.388    0.182    0.441    5.452
  325.656  118.105    0.216    0.431    5.409
  325.906  119.787    0.203    0.425    5.110
  326.156  117.213    0.206    0.423    4.700
  326.406  118.767    0.228    0.422    4.299
  326.656  126.225    0.244    0.419    3.908
  326.906  132.271    0.227    0.422    3.598
  327.156  137.841    0.216    0.437    3.353
  327.406  142.595    0.210    0.463    3.183
  327.656  141.686    0.219    0.479    3.050
  327.906  131.831    0.262    0.493    2.967
  328.156  123.895    0.258    0.499    3.162
  328.406  116.355    0.247    0.507    3.466
  328.656  106.307    0.243    0.519    3.739
  328.906   97.641    0.264    0.525    3.958
  329.156   93.966    0.271    0.453    4.169
  329.406   94.303    0.274    0.441    4.241
  329.656   94.954    0.259    0.441    4.244
  329.906   94.763    0.285    0.447    4.141
  330.156   92.769    0.294    0.452    3.995
  330.406   90.158    0.307    0.455    3.903
  330.656   91.301    0.315    0.438    3.857
  330.906   90.447    0.322    0.426    3.994
  331.156   84.468    0.327    0.430    4.291
  331.406   78.876    0.325    0.438    4.590
  331.656   75.472    0.316    0.442    4.886
  331.906   72.207    0.314    0.439    5.089
  332.156   70.885    0.303    0.437    5.171
  332.406   71.998    0.302    0.437    5.212
  332.656   73.660    0.307    0.438    5.173
  332.906   75.002    0.299    0.443    5.130
  333.156   76.379    0.297    0.447    5.066
  333.406   77.277    0.309    0.446    5.040
  333.656   76.761    0.302    0.445    5.169
  333.906   75.280    0.289    0.446    5.898
  334.156   70.924    0.171    0.436    7.801
  334.406   64.357    0.145    0.296    9.611
  334.656   57.646    0.140    0.252   11.392
  334.906   56.345    0.140    0.250   12.094
  335.156   61.007    0.181    0.276    9.283
  335.406   64.790    0.320    0.409    6.936
  335.656   65.840    0.339    0.433    5.969
  335.906   66.326    0.343    0.450    5.437
  336.156   68.921    0.333    0.459    5.217
  336.406   72.924    0.321    0.460    5.110
  336.656   77.784    0.329    0.457    5.061
  336.906   79.992    0.313    0.463    5.067
  337.156   81.581    0.302    0.466    5.083
  337.406   84.384    0.299    0.466    5.082
  337.656   80.885    0.309    0.473    4.977
  337.906   80.135    0.296    0.476    4.710
  338.156   87.285    0.288    0.465    4.416
  338.406   96.035    0.306    0.454    4.362
  338.656  100.464    0.291    0.456    4.419
  338.906   95.334    0.274    0.464    4.561
