~VERSION INFORMATION
 VERS.                 2.0:   CWLS LOG ASCII STANDARD -VERSION 2.0
 WRAP.                  NO:   ONE LINE PER DEPTH STEP
~WELL INFORMATION BLOCK
#MNEM.UNIT           DATA                    DESCRIPTION OF MNEMONIC
#---------    -------------------            -------------------------------
# Generated from Intellog Unique Number	CC_80_83/WELL/2361
NULL.         -999.25                        : NULL_VALUE
WELL.         KASISER DIVIDE                 : Well_name    - WELL              
LOC .         10-21-082-13W4                 : Location     - LOCATION          
UWI .         00/10-21-082-13W400            : Uwi          - UNIQUE WELL ID    
ENTR.         DW                             : Entered      - ENTERED BY        
SRVC.         SCHLUMBERGER                   : Scn          - SERVICE COMPANY   
DATE.         24 FEB 79                      : Date         - LOG DATE
STRT.M        145                            : top_depth    - START DEPTH       
STOP.M        375.996                        : bot_depth    - STOP DEPTH        
STEP.M        0.3                            : increment    - STEP LENGTH       
~CURVE INFORMATION BLOCK
#MNEM UNIT       ERCB CURVE CODE    CURVE DESCRIPTION
#-----------   ------------------   ----------------------------------
DEPT.M        00 001 00 00         : DEPTH        - DEPTH                       
DPHI.V/V      00 890 00 00         : PHID         - DENSITY POROSITY (LIMESTONE)
NPHI.V/V      00 330 00 00         : PHIN         - NEUTRON POROSITY (LIMESTONE)
GR  .API      00 310 00 00         : GR           - GAMMA RAY                   
ILD .OHMM     00 120 00 00         : RESD         - DEEP RESISTIVITY (DIL)      
~PARAMETER INFORMATION       
#MNEM.UNIT           DATA             DESCRIPTION OF MNEMONIC
#---------         -----------     ------------------------------
GL  .M        593.2                : gl           - GROUND LEVEL ELEVATION      
EREF.M        596.85               : kb           - ELEVATION OF DEPTH REFERENCE
DATM.M        596.85               : datum        - DATUM ELEVATION             
TDD .M        382                  : tdd          - TOTAL DEPTH DRILLER         
RUN .         ONE                  : Run          - RUN NUMBER                  
ENG .         BILL                 : Engineer     - RECORDING ENGINEER          
WIT .         JIM                  : Witness      - WITNESSED BY                
MUD .         GEL                  : Mud_type     - MUD TYPE                    
MATR.         LIMESTONE            : Logunit      - NEUTRON MATRIX              
TMAX.C        20                   : BHT          - MAXIMUM RECORDED TEMPERATURE
BHTD.M        382                  : BHTDEP       - MAXIMUM RECORDED TEMPERATURE
MATR.         1                    : LOGUNIT      - NEUTRON MATRIX              
RMT .C        25                   : MDTP         - TEMPERATURE OF MUD          
NEUT.         1                    : NEUTRON      - NEUTRON TYPE                
RESI.         0                    : RESIST       - RESISTIVITY TYPE            
RMC .OHMM     0.25                 : RMC          - RESISTIVITY OF MUD CAKE     
RMF .OHMM     0.25                 : RMF          - RESISTIVITY OF MUD FILTRATE 
SUFT.C        4                    : SUFT         - SURFACE TEMPERATURE         
~A  DEPTH     PHID     PHIN       GR     RESD
# ...
  197.201    0.230    0.440  120.557    6.357
  197.501    0.217    0.445  114.972    5.777
  197.801    0.229    0.458  114.939    5.767
  198.101    0.229    0.470  110.590    6.565
  198.401    0.245    0.425  100.066    7.202
  198.701    0.255    0.413   92.622    8.511
  199.001    0.238    0.428   93.829    9.694
  199.301    0.265    0.430   89.478   11.897
  199.601    0.265    0.427   88.830   12.100
  199.901    0.248    0.410   94.354   11.208
  200.201    0.244    0.411  100.498   10.188
  200.501    0.243    0.449  105.405    9.431
  200.801    0.248    0.434  108.458    9.069
  201.101    0.269    0.423  113.359    9.051
  201.401    0.279    0.432  112.719    9.211
  201.701    0.292    0.431  110.838    9.913
  202.001    0.294    0.431  100.312    9.709
  202.301    0.302    0.424   97.812   10.442
  202.601    0.301    0.425   99.632   11.029
  202.901    0.302    0.418   95.900   11.653
  203.201    0.309    0.440   95.252   12.086
  203.501    0.316    0.426   89.050   12.762
  203.801    0.320    0.408   64.947   13.734
  204.101    0.325    0.413   64.910   14.786
  204.401    0.312    0.431   69.822   16.520
  204.701    0.300    0.442   73.494   18.452
  205.001    0.310    0.431   60.503   18.779
  205.301    0.322    0.402   54.295   19.093
  205.601    0.314    0.410   56.105   18.706
  205.901    0.321    0.399   59.167   18.670
  206.201    0.335    0.390   60.994   18.650
  206.501    0.340    0.410   61.581   18.974
  206.801    0.333    0.424   52.911   19.300
  207.101    0.329    0.401   49.171   19.994
  207.401    0.336    0.388   47.279   19.976
  207.701    0.343    0.388   46.024   19.941
  208.001    0.343    0.399   44.763   19.902
  208.301    0.341    0.400   47.811   19.864
  208.601    0.346    0.380   49.636   20.209
  208.901    0.338    0.387   47.753   20.553
  209.201    0.338    0.394   45.869   20.534
  209.501    0.323    0.377   44.608   20.882
  209.801    0.338    0.363   46.424   20.453
  210.101    0.348    0.380   47.632   20.818
  210.401    0.343    0.406   46.369   20.781
  210.701    0.342    0.378   45.719   20.363
  211.001    0.331    0.389   49.392   19.574
  211.301    0.330    0.391   49.975   19.175
  211.601    0.327    0.379   47.481   19.141
  211.901    0.310    0.379   49.919   18.757
  212.201    0.315    0.406   48.032   18.729
  212.501    0.315    0.395   44.298   19.053
  212.801    0.329    0.367   47.973   19.014
  213.101    0.343    0.443   51.029   18.985
  213.401    0.325    0.417   52.222   18.598
  213.701    0.328    0.420   54.054   18.225
  214.001    0.349    0.433   58.960   17.855
  214.301    0.339    0.422   59.548   17.501
  214.601    0.339    0.442   57.048   17.134
  214.901    0.326    0.449   55.166   17.432
  215.201    0.310    0.429   52.048   17.410
  215.501    0.315    0.420   50.167   17.691
  215.801    0.317    0.432   51.363   18.005
  216.101    0.316    0.422   51.335   18.324
  216.401    0.310    0.424   48.832   18.979
  216.701    0.313    0.425   46.336   19.317
  217.001    0.308    0.422   46.306   20.015
  217.301    0.307    0.418   46.276   20.000
  217.601    0.297    0.430   50.563   19.957
  217.901    0.304    0.431   51.763   19.930
  218.201    0.318    0.429   49.884   18.799
  218.501    0.323    0.438   47.379   18.412
  218.801    0.273    0.434   46.124   18.398
  219.101    0.214    0.394   36.830   20.175
  219.401    0.098    0.199   38.030   24.759
  219.701    0.153    0.350   42.321   30.382
  220.001    0.288    0.422   44.764   28.672
  220.301    0.316    0.424   47.820   23.730
  220.601    0.312    0.447   51.492   21.168
  220.901    0.325    0.445   55.164   18.879
  221.201    0.312    0.425   54.511   18.139
  221.501    0.333    0.408   52.634   17.773
  221.801    0.324    0.418   53.222   17.746
  222.101    0.319    0.439   50.105   17.722
  222.401    0.315    0.452   46.364   17.360
  222.701    0.326    0.449   50.045   17.331
  223.001    0.330    0.425   50.620   17.310
  223.301    0.326    0.426   51.212   17.593
  223.601    0.335    0.439   53.036   17.247
  223.901    0.340    0.439   54.860   17.208
  224.201    0.349    0.434   52.972   17.194
  224.501    0.351    0.432   52.946   16.834
  224.801    0.339    0.434   50.445   16.501
  225.101    0.327    0.455   54.119   16.455
  225.401    0.341    0.433   54.082   16.430
  225.701    0.339    0.428   57.142   16.713
  226.001    0.340    0.438   62.664   17.005
  226.301    0.344    0.446   58.930   17.299
  226.601    0.336    0.470   57.051   17.277
  226.901    0.328    0.462   58.870   17.257
  227.201    0.330    0.448   58.840   17.232
  227.501    0.335    0.451   58.194   16.876
  227.801    0.332    0.447   60.010   16.842
  228.101    0.332    0.440   64.303   16.824
  228.401    0.321    0.431   63.651   17.101
  228.701    0.316    0.447   59.297   17.081
  229.001    0.332    0.455   59.891   17.362
  229.301    0.345    0.453   63.560   17.343
  229.601    0.333    0.459   67.236   17.653
  229.901    0.340    0.453   68.439   17.610
  230.201    0.336    0.485   67.168   17.593
  230.501    0.347    0.481   68.995   18.236
  230.801    0.343    0.487   66.496   19.254
  231.101    0.319    0.466   63.374   19.963
  231.401    0.269    0.430   65.816   20.309
  231.701    0.308    0.419   70.107   18.805
  232.001    0.329    0.449   67.606   17.088
  232.301    0.333    0.460   70.035   15.828
  232.601    0.307    0.457   71.854   14.940
  232.901    0.321    0.475   71.218   14.365
  233.201    0.342    0.468   69.953   14.341
  233.501    0.327    0.448   71.774   13.782
  233.801    0.326    0.423   67.417   13.754
  234.101    0.314    0.452   67.384   14.004
  234.401    0.310    0.468   68.594   14.242
  234.701    0.324    0.448   68.565   14.760
  235.001    0.325    0.429   67.917   14.462
  235.301    0.324    0.412   71.588   13.908
  235.601    0.320    0.427   70.323   13.375
  235.901    0.314    0.451   69.672   13.097
  236.201    0.305    0.433   70.876   13.079
  236.501    0.311    0.443   68.991   13.308
  236.801    0.303    0.452   70.810   13.536
  237.101    0.305    0.452   73.255   14.029
  237.401    0.317    0.442   73.834   14.266
  237.701    0.306    0.442   73.807   14.519
  238.001    0.305    0.437   75.014   14.486
  238.301    0.304    0.441   73.124   14.474
  238.601    0.298    0.423   72.481   13.655
  238.901    0.288    0.430   74.922   12.889
  239.201    0.298    0.426   80.442   11.275
  239.501    0.275    0.449   82.883   10.645
  239.801    0.256    0.467   84.701   10.047
  240.101    0.255    0.468   77.884    8.957
  240.401    0.256    0.454   80.318    7.991
  240.701    0.256    0.455   86.465    7.128
  241.001    0.258    0.449   83.347    6.852
  241.301    0.264    0.444   78.997    6.843
  241.601    0.291    0.437   70.934    7.363
  241.901    0.296    0.433   69.055    7.927
  242.201    0.319    0.482   70.877    8.856
  242.501    0.292    0.425   69.612    9.709
  242.801    0.279    0.410   72.671   10.839
  243.101    0.311    0.444   68.935   11.239
  243.401    0.324    0.443   67.051   11.439
  243.701    0.313    0.426   69.492   11.641
  244.001    0.295    0.427   73.781   11.618
  244.301    0.271    0.419   84.859   11.593
  244.601    0.254    0.450   92.236   10.944
  244.901    0.219    0.456   94.673    9.230
  245.201    0.256    0.473   95.261    7.495
  245.501    0.302    0.499   77.949    5.972
  245.801    0.320    0.477   71.120    5.740
  246.101    0.346    0.460   66.767    6.178
  246.401    0.339    0.455   64.891    7.308
  246.701    0.334    0.441   65.480    9.851
  247.001    0.326    0.445   66.062   11.865
  247.301    0.331    0.454   66.649   14.026
  247.601    0.351    0.456   68.474   14.260
  247.901    0.355    0.447   67.207   13.980
  248.201    0.343    0.423   64.708   13.689
  248.501    0.329    0.421   64.678   13.413
  248.801    0.330    0.427   69.580   12.897
  249.101    0.339    0.447   71.404   12.407
