~VERSION INFORMATION
 VERS.                 2.0:   CWLS LOG ASCII STANDARD -VERSION 2.0
 WRAP.                  NO:   ONE LINE PER DEPTH STEP
~WELL INFORMATION BLOCK
#MNEM.UNIT           DATA                    DESCRIPTION OF MNEMONIC
#---------    -------------------            -------------------------------
# Generated from Intellog Unique Number	CS_77_79/WELL/948
LOC .         00/10-11-079-07W4/0            : Location     - LOCATION
UWI .         00/10-11-079-07W4/0            : Uwi          - UNIQUE WELL ID
ENTR.         JHS                            : Entered      - ENTERED BY
SRVC.         SCHLUMBERGER                   : Scn          - SERVICE COMPANY
STRT.M        110                            : top_depth    - START DEPTH
STOP.M        345                            : bot_depth    - STOP DEPTH
STEP.M        0.25                           : increment    - STEP LENGTH
 NULL. -999.2500:NULL Value
~CURVE INFORMATION BLOCK
#MNEM UNIT       ERCB CURVE CODE    CURVE DESCRIPTION
#-----------   ------------------   ----------------------------------
DEPT.M        00 001 00 00         : DEPTH        - DEPTH
DPHI.V/V      00 890 00 00         : PHID         - DENSITY POROSITY (LIMESTONE)
NPHI.V/V      00 330 00 00         : PHIN         - NEUTRON POROSITY (LIMESTONE)
GR  .API      00 310 00 00         : GR           - GAMMA RAY
ILD .OHMM     00 120 00 00         : RESD         - DEEP RESISTIVITY (DIL)
RHOB.KG/M3    00 350 00 00         : DENS         - BULK DENSITY
~PARAMETER INFORMATION
#MNEM.UNIT           DATA             DESCRIPTION OF MNEMONIC
#---------         -----------     ------------------------------
GL  .M        550.24               : gl           - GROUND LEVEL ELEVATION
EREF.M        553.62               : kb           - ELEVATION OF DEPTH REFERENCE
DATM.M        553.62               : datum        - DATUM ELEVATION
TDD .M        349                  : tdd          - TOTAL DEPTH DRILLER
RUN .         ONE                  : Run          - RUN NUMBER
ENG .         BILL                 : Engineer     - RECORDING ENGINEER
WIT .         JIM                  : Witness      - WITNESSED BY
MUD .         GEL                  : Mud_type     - MUD TYPE
MATR.         LIMESTONE            : Logunit      - NEUTRON MATRIX
TMAX.C        15                   : BHT          - MAXIMUM RECORDED TEMPERATURE
BHTD.M        349                  : BHTDEP       - MAXIMUM RECORDED TEMPERATURE
MATR.         1                    : LOGUNIT      - NEUTRON MATRIX
RMT .C        25                   : MDTP         - TEMPERATURE OF MUD
NEUT.         1                    : NEUTRON      - NEUTRON TYPE
RESI.         0                    : RESIST       - RESISTIVITY TYPE
RMC .OHMM     0.25                 : RMC          - RESISTIVITY OF MUD CAKE
RMF .OHMM     0.25                 : RMF          - RESISTIVITY OF MUD FILTRATE
SUFT.C        15                   : SUFT         - SURFACE TEMPERATURE
~A  DEPTH     PHID     PHIN       GR     RESD     DENS
# ...
  219.500    0.343    0.552  107.925    3.794    0.000
  219.750    0.305    0.481  112.927    4.331    0.000
  220.000    0.273    0.458  117.314    4.944    0.000
  220.250    0.265    0.463  119.201    5.861    0.000
  220.500    0.262    0.442  110.512    6.947    0.000
  220.750    0.255    0.464  107.419    7.495    0.000
  221.000    0.252    0.446   98.106    7.935    0.000
  221.250    0.274    0.457  104.356    8.403    0.000
  221.500    0.306    0.487  110.602    8.408    0.000
  221.750    0.338    0.488  113.734    8.256    0.000
  222.000    0.261    0.449  105.668    7.956    0.000
  222.250    0.240    0.423  110.674    7.961    0.000
  222.500    0.253    0.417  115.674    8.117    0.000
  222.750    0.259    0.412  106.984    8.124    0.000
  223.000    0.261    0.436  102.027    7.977    0.000
  223.250    0.265    0.476   98.938    7.688    0.000
  223.500    0.268    0.489  107.675    7.839    0.000
  223.750    0.272    0.497  107.700    7.993    0.000
  224.000    0.260    0.412  106.477    7.996    0.000
  224.250    0.244    0.392  104.010    8.467    0.000
  224.500    0.251    0.381  107.768    8.964    0.000
  224.750    0.251    0.381  100.322    9.490    0.000
  225.000    0.255    0.409   96.614   10.239    0.000
  225.250    0.262    0.440   91.657   11.047    0.000
  225.500    0.262    0.426   84.837   11.698    0.000
  225.750    0.257    0.426   91.704   11.927    0.000
  226.000    0.256    0.446   98.577   12.391    0.000
  226.250    0.254    0.406   96.110   12.634    0.000
  226.500    0.257    0.405   91.155   12.886    0.000
  226.750    0.257    0.425   90.550   12.890    0.000
  227.000    0.255    0.415   86.217   12.660    0.000
  227.250    0.255    0.421   96.203   12.201    0.000
  227.500    0.265    0.453  104.317   11.755    0.000
  227.750    0.299    0.479  107.453   11.117    0.000
  228.000    0.300    0.499  106.849   10.318    0.000
  228.250    0.285    0.483  100.027    9.578    0.000
  228.500    0.287    0.486   95.702    9.227    0.000
  228.750    0.291    0.510   99.452    8.248    0.000
  229.000    0.295    0.530  106.942    7.799    0.000
  229.250    0.311    0.559  116.305    7.240    0.000
  229.500    0.333    0.600  115.083    6.847    0.000
  229.750    0.327    0.617  105.768    6.598    0.000
  230.000    0.328    0.625  113.261    6.357    0.000
  230.250    0.354    0.622  103.948    5.577    0.000
  230.500    0.343    0.627  108.336    5.175    0.000
  230.750    0.330    0.631  112.086    4.625    0.000
  231.000    0.329    0.626  118.335    3.982    0.000
  231.250    0.347    0.616  117.110    3.558    0.000
  231.500    0.341    0.577  112.156    3.302    0.000
  231.750    0.337    0.553  105.334    3.183    0.000
  232.000    0.371    0.517  109.715    3.184    0.000
  232.250    0.378    0.471  104.138    3.372    0.000
  232.500    0.340    0.446  105.403    3.849    0.000
  232.750    0.261    0.420  123.478    4.312    0.000
  233.000    0.256    0.415  127.860    5.111    0.000
  233.250    0.257    0.421  107.339    6.174    0.000
  233.500    0.248    0.425  109.857    7.181    0.000
  233.750    0.247    0.467  107.386    8.354    0.000
  234.000    0.247    0.425  107.411    9.717    0.000
  234.250    0.244    0.443  114.902   10.287    0.000
  234.500    0.243    0.443  106.834   10.490    0.000
  234.750    0.243    0.435  113.702   10.496    0.000
  235.000    0.227    0.441  114.350   10.503    0.000
  235.250    0.203    0.406  107.526   10.122    0.000
  235.500    0.178    0.374   97.591    9.941    0.000
  235.750    0.146    0.356   83.924   10.328    0.000
  236.000    0.183    0.423   94.526   10.531    0.000
  236.250    0.257    0.462  106.376   10.341    0.000
  236.500    0.255    0.452  110.131    9.965    0.000
  236.750    0.256    0.464  110.155    9.250    0.000
  237.000    0.277    0.468  111.423    8.746    0.000
  237.250    0.277    0.479  115.184    8.272    0.000
  237.500    0.267    0.513  115.828    8.123    0.000
  237.750    0.261    0.563  113.365    8.128    0.000
  238.000    0.263    0.564  114.006    8.133    0.000
  238.250    0.308    0.585  122.744    7.837    0.000
  238.500    0.341    0.596  125.259    7.273    0.000
  238.750    0.360    0.602  112.210    6.626    0.000
  239.000    0.358    0.612  108.497    6.148    0.000
  239.250    0.353    0.618  111.641    5.292    0.000
  239.500    0.343    0.624  115.391    4.555    0.000
  239.750    0.326    0.628  122.883    3.705    0.000
  240.000    0.312    0.628  127.886    3.072    0.000
  240.250    0.305    0.628  118.573    2.694    0.000
  240.500    0.295    0.624  109.264    2.409    0.000
  240.750    0.297    0.617  107.421    2.410    0.000
  241.000    0.320    0.602  104.328    2.504    0.000
  241.250    0.343    0.571  111.822    2.602    0.000
  241.500    0.354    0.520  110.601    2.860    0.000
  241.750    0.349    0.475  103.780    3.204    0.000
  242.000    0.298    0.432  100.069    3.658    0.000
  242.250    0.251    0.396  103.822    4.255    0.000
  242.500    0.254    0.373  110.068    4.766    0.000
  242.750    0.235    0.356  114.449    5.339    0.000
  243.000    0.204    0.338  116.343    6.698    0.000
  243.250    0.184    0.317   93.337    7.645    0.000
  243.500    0.187    0.303   85.268    9.062    0.000
  243.750    0.241    0.288   89.647   10.150    0.000
  244.000    0.216    0.275   85.315   11.588    0.000
  244.250    0.209    0.261   90.318   13.479    0.000
  244.500    0.309    0.277   94.697   15.681    0.000
  244.750    0.272    0.289   92.229   17.241    0.000
  245.000    0.209    0.272   99.724   17.251    0.000
  245.250    0.133    0.222   79.207   16.622    0.000
  245.500    0.071    0.206   59.319   16.634    0.000
  245.750    0.061    0.200   64.322   17.612    0.000
  246.000    0.179    0.205   69.941   18.644    0.000
  246.250    0.233    0.235   82.414   19.741    0.000
  246.500    0.258    0.260   94.883   18.670    0.000
  246.750    0.249    0.253  100.512   17.328    0.000
  247.000    0.241    0.244   99.913   15.200    0.000
  247.250    0.241    0.239   91.840   13.331    0.000
  247.500    0.247    0.247   88.130   12.139    0.000
  247.750    0.263    0.263   92.510   11.267    0.000
  248.000    0.269    0.270  101.250   10.457    0.000
  248.250    0.258    0.261  105.004   10.076    0.000
  248.500    0.253    0.256  103.785    9.711    0.000
  248.750    0.190    0.218   96.964    9.535    0.000
  249.000    0.147    0.166  101.344    9.722    0.000
  249.250    0.126    0.128   99.495   10.294    0.000
  249.500    0.175    0.132   93.919   10.900    0.000
  249.750    0.260    0.259  100.790   11.115    0.000
  250.000    0.250    0.428  107.232    9.042    0.000
  250.250    0.254    0.433  110.333    8.382    0.000
  250.500    0.250    0.437  118.392    8.068    0.000
  250.750    0.245    0.424  117.774    7.620    0.000
  251.000    0.247    0.414  109.718    7.334    0.000
  251.250    0.241    0.433  116.537    7.059    0.000
  251.500    0.241    0.427  107.861    7.189    0.000
  251.750    0.240    0.421  114.681    7.601    0.000
  252.000    0.231    0.400  116.542    8.191    0.000
  252.250    0.230    0.400  109.726    8.663    0.000
  252.500    0.240    0.400  104.769    9.334    0.000
  252.750    0.266    0.385  106.630    9.869    0.000
  253.000    0.272    0.408  101.673    9.865    0.000
  253.250    0.270    0.434   98.575    9.859    0.000
  253.500    0.267    0.444   99.197    9.670    0.000
  253.750    0.272    0.468  104.157    9.131    0.000
  254.000    0.291    0.480  107.258    8.790    0.000
  254.250    0.301    0.490  110.978    8.303    0.000
  254.500    0.318    0.496  107.261    7.552    0.000
  254.750    0.397    0.499   98.585    7.134    0.000
  255.000    0.353    0.538  104.785    6.489    0.000
  255.250    0.322    0.557  105.406    6.246    0.000
  255.500    0.317    0.588  113.466    5.899    0.000
  255.750    0.324    0.588  107.269    5.572    0.000
