~VERSION INFORMATION
 VERS.                 2.0:   CWLS LOG ASCII STANDARD -VERSION 2.0
 WRAP.                  NO:   ONE LINE PER DEPTH STEP
~WELL INFORMATION BLOCK
#MNEM.UNIT           DATA                    DESCRIPTION OF MNEMONIC
#---------    -------------------            -------------------------------
# Generated from Intellog Unique Number	CW_70_72/WELL/3025
NULL.         -999.25                        : NULL_VALUE
WELL.         BRASCAN AMOCO MEYER 11-02      : Well_name    - WELL              
LOC .         12-02-070-25W4                 : Location     - LOCATION          
UWI .         00/12-02-070-25W4/0            : Uwi          - UNIQUE WELL ID    
ENTR.         J                              : Entered      - ENTERED BY        
SRVC.         SCHLUMBERGER                   : Scn          - SERVICE COMPANY   
DATE.         30 JULY 73                     : Date         - LOG DATE          
STRT.M        466.344                        : top_depth    - START DEPTH       
STOP.M        682.844                        : bot_depth    - STOP DEPTH        
STEP.M        0.25                           : increment    - STEP LENGTH       
~CURVE INFORMATION BLOCK
#MNEM UNIT       ERCB CURVE CODE    CURVE DESCRIPTION
#-----------   ------------------   ----------------------------------
DEPT.M        00 001 00 00         : DEPTH        - DEPTH                       
ILD .OHMM     00 120 00 00         : RESD         - DEEP RESISTIVITY (DIL)      
CALI.MM       00 280 01 00         : CAL          - CALIPER                     
GR  .API      00 310 00 00         : GR           - GAMMA RAY                   
NPHI.V/V      00 330 00 00         : PHIN         - NEUTRON POROSITY (SANDSTONE)
DPHI.V/V      00 890 00 00         : PHID         - DENSITY POROSITY (SANDSTONE)
~PARAMETER INFORMATION       
#MNEM.UNIT           DATA             DESCRIPTION OF MNEMONIC
#---------         -----------     ------------------------------
GL  .M        656.844              : gl           - GROUND LEVEL ELEVATION      
EREF.M        659.587              : kb           - ELEVATION OF DEPTH REFERENCE
DATM.M        656.844              : datum        - DATUM ELEVATION             
TDD .M        684.581              : tdd          - TOTAL DEPTH DRILLER         
RUN .         ONE                  : Run          - RUN NUMBER                  
BASE.         EDM                  : Branch       - HOME BASE OF LOGGING UNIT   
MUD .         GEL CHEM             : Mud_type     - MUD TYPE                    
MATR.         SANDSTONE            : Logunit      - NEUTRON MATRIX              
TMAX.C        36.1111              : BHT          - MAXIMUM RECORDED TEMPERATURE
BHTD.M        684.581              : BHTDEP       - MAXIMUM RECORDED TEMPERATURE
RMT .C        24.4444              : MDTP         - TEMPERATURE OF MUD          
MUDD.KG/M     1140                 : MWT          - MUD DENSITY                 
NEUT.         1                    : NEUTRON      - NEUTRON TYPE                
RESI.         0                    : RESIST       - RESISTIVITY TYPE            
RM  .OHMM     2.46                 : RM           - RESISTIVITY OF MUD          
RMC .OHMM     0.25                 : RMC          - RESISTIVITY OF MUD CAKE     
RMF .OHMM     3.29                 : RMF          - RESISTIVITY OF MUD FILTRATE 
SUFT.C        10                   : SUFT         - SURFACE TEMPERATURE         
~A  DEPTH     RESD      CAL       GR     PHIN     PHID
# ...
  539.344    1.675  156.400   60.086    0.443    0.310
  539.594    1.694  155.916   61.252    0.432    0.313
  539.844    1.720  155.722   62.236    0.416    0.298
  540.094    1.781  155.647   62.734    0.402    0.294
  540.344    1.821  155.467   63.413    0.428    0.302
  540.594    1.825  155.386   64.215    0.427    0.302
  540.844    1.829  155.297   64.348    0.443    0.299
  541.094    1.803  155.220   62.664    0.458    0.293
  541.344    1.767  154.936   61.162    0.461    0.298
  541.594    1.755  154.857   61.782    0.451    0.312
  541.844    1.772  154.878   63.554    0.443    0.317
  542.094    1.812  154.594   63.627    0.454    0.309
  542.344    1.849  154.304   63.463    0.459    0.301
  542.594    1.925  153.916   63.535    0.450    0.311
  542.844    2.057  153.842   63.547    0.451    0.318
  543.094    2.254  153.842   64.348    0.473    0.311
  543.344    2.457  154.309   65.876    0.470    0.302
  543.594    2.453  154.521   69.772    0.448    0.313
  543.844    2.362  155.063   71.659    0.463    0.306
  544.094    2.249  155.063   75.188    0.471    0.307
  544.344    2.061  155.824   79.810    0.462    0.283
  544.594    1.951  157.385   85.277    0.470    0.253
  544.844    1.882  163.573   90.259    0.525    0.209
  545.094    1.876  168.408   97.728    0.575    0.197
  545.344    1.935  172.331   95.861    0.531    0.225
  545.594    2.064  165.689   88.541    0.548    0.221
  545.844    2.262  162.731   81.404    0.536    0.208
  546.094    2.434  158.653   79.356    0.427    0.234
  546.344    2.586  155.904   84.885    0.440    0.248
  546.594    2.798  154.795   88.171    0.466    0.244
  546.844    2.973  156.045   86.426    0.452    0.233
  547.094    3.141  158.326   90.379    0.440    0.208
  547.344    3.277  161.022   91.604    0.453    0.196
  547.594    3.350  161.759   90.228    0.475    0.186
  547.844    3.401  162.603   89.329    0.458    0.200
  548.094    3.408  162.933   88.015    0.450    0.184
  548.344    3.347  163.160   87.600    0.464    0.186
  548.594    3.380  163.202   87.796    0.473    0.196
  548.844    3.375  162.906   88.291    0.484    0.205
  549.094    3.406  162.518   88.910    0.463    0.212
  549.344    3.527  161.925   89.591    0.448    0.188
  549.594    3.680  161.841   89.725    0.445    0.172
  549.844    3.777  162.279   89.314    0.443    0.174
  550.094    3.778  162.707   88.115    0.438    0.176
  550.344    3.738  164.061   87.280    0.440    0.168
  550.594    3.698  165.008   86.265    0.458    0.177
  550.844    3.593  163.387   86.277    0.414    0.173
  551.094    3.548  160.331   87.441    0.430    0.185
  551.344    3.556  160.331   88.969    0.445    0.173
  551.594    3.570  164.493   88.923    0.456    0.168
  551.844    3.577  163.889   88.210    0.445    0.187
  552.094    3.572  163.200   89.738    0.444    0.186
  552.344    3.560  164.860   90.358    0.467    0.175
  552.594    3.574  165.602   89.825    0.481    0.173
  552.844    3.536  165.621   89.110    0.457    0.180
  553.094    3.518  165.442   89.492    0.442    0.182
  553.344    3.513  164.541   89.321    0.440    0.184
  553.594    3.489  163.746   87.333    0.467    0.184
  553.844    3.483  163.456   84.437    0.468    0.181
  554.094    3.478  162.963   83.542    0.450    0.181
  554.344    3.492  161.551   85.736    0.449    0.188
  554.594    3.480  161.166   87.206    0.451    0.176
  554.844    3.338  164.782   84.127    0.454    0.189
  555.094    3.161  167.055   80.383    0.446    0.206
  555.344    2.993  167.055   79.972    0.444    0.230
  555.594    2.866  157.875   81.684    0.434    0.254
  555.844    2.749  155.635   84.364    0.419    0.281
  556.094    2.661  154.218   87.043    0.411    0.293
  556.344    2.595  153.211   86.753    0.414    0.288
  556.594    2.539  152.434   80.221    0.427    0.281
  556.844    2.471  152.341   75.930    0.447    0.258
  557.094    2.332  152.464   67.884    0.453    0.232
  557.344    2.311  152.995   59.958    0.459    0.219
  557.594    2.237  153.635   61.306    0.475    0.217
  557.844    2.115  154.583   64.713    0.468    0.265
  558.094    2.073  155.216   65.694    0.452    0.290
  558.344    2.336  155.659   65.830    0.437    0.302
  558.594    2.597  156.195   63.963    0.425    0.310
  558.844    3.107  156.423   63.978    0.420    0.312
  559.094    3.799  156.548   63.262    0.407    0.311
  559.344    4.943  156.876   58.794    0.380    0.291
  559.594    6.078  156.876   56.077    0.361    0.177
  559.844    6.710  162.154   52.518    0.252    0.083
  560.094    6.590  166.280   50.226    0.220    0.055
  560.344    6.533  166.280   48.180    0.214    0.038
  560.594    6.535  168.695   48.132    0.211    0.037
  560.844    6.477  167.575   49.962    0.211    0.052
  561.094    6.433  161.547   52.582    0.213    0.073
  561.344    6.493  162.798   53.989    0.221    0.062
  561.594    6.750  164.669   53.337    0.211    0.030
  561.844    6.838  165.621   51.531    0.180    0.006
  562.094    6.890  165.852   48.333    0.148   -0.005
  562.344    6.905  165.556   47.013    0.142   -0.010
  562.594    6.819  165.274   48.543    0.146   -0.007
  562.844    6.601  165.601   51.465    0.158    0.009
  563.094    6.320  166.240   53.297    0.152    0.037
  563.344    5.802  166.982   53.796    0.171    0.064
  563.594    5.173  168.237   54.112    0.186    0.091
  563.844    4.156  168.873   55.337    0.221    0.088
  564.094    3.297  167.259   56.317    0.236    0.107
  564.344    2.703  164.097   57.425    0.268    0.208
  564.594    2.353    0.000   58.227    0.296    0.257
  564.844    2.079    0.000   58.661    0.320    0.291
  565.094    1.919  151.555   59.101    0.486    0.304
  565.344    1.785  152.282   60.023    0.513    0.311
  565.594    1.715  151.383   61.611    0.493    0.324
  565.844    1.741  151.926   62.352    0.490    0.331
  566.094    1.826  151.640   62.790    0.534    0.340
  566.344    1.901  152.273   64.319    0.549    0.335
  566.594    2.107  153.219   66.333    0.494    0.315
  566.844    2.338  154.577   68.890    0.458    0.283
  567.094    2.413  155.011   73.935    0.444    0.234
  567.344    2.366  154.931   75.826    0.429    0.209
  567.594    2.298  154.746   76.751    0.446    0.217
  567.844    2.266  155.286   77.186    0.455    0.234
  568.094    2.312  154.688   77.078    0.460    0.247
  568.344    2.439  152.863   78.790    0.443    0.258
  568.594    2.517  150.628   79.834    0.429    0.245
  568.844    2.472  148.600   80.635    0.445    0.246
  569.094    2.320  149.342   80.464    0.452    0.253
  569.344    2.209  151.721   79.206    0.424    0.256
  569.594    2.073  154.413   75.888    0.419    0.254
  569.844    1.988  148.996   72.749    0.441    0.251
  570.094    1.903  147.888   70.278    0.443    0.252
  570.344    1.839  149.974   68.291    0.448    0.262
  570.594    1.783  152.352   67.031    0.459    0.286
  570.844    1.755  154.631   66.680    0.451    0.296
  571.094    1.714  156.500   66.147    0.448    0.305
  571.344    1.677  157.134   65.011    0.480    0.315
  571.594    1.654  156.439   65.026    0.481    0.306
  571.844    1.645  156.155   65.462    0.476    0.296
  572.094    1.643  156.484   67.963    0.470    0.296
  572.344    1.670  155.690   68.639    0.475    0.302
  572.594    1.724  155.817   67.682    0.498    0.302
  572.844    1.653  155.731   64.545    0.494    0.296
  573.094    1.654  155.652   63.650    0.472    0.296
  573.344    1.786  155.987   63.421    0.449    0.304
  573.594    1.925  154.979   63.433    0.447    0.309
  573.844    2.049  153.570   66.658    0.467    0.300
  574.094    2.073  153.794   64.005    0.446    0.277
  574.344    1.992  154.435   61.958    0.462    0.237
  574.594    1.865  154.972   61.728    0.435    0.174
  574.844    2.067  155.715   62.104    0.332    0.142
  575.094    2.371  156.554   63.453    0.394    0.152
  575.344    2.811  157.191   64.134    0.492    0.224
  575.594    3.149  157.009   60.995    0.448    0.260
