~VERSION INFORMATION
 VERS.                 2.0:   CWLS LOG ASCII STANDARD -VERSION 2.0
 WRAP.                  NO:   ONE LINE PER DEPTH STEP
~WELL INFORMATION BLOCK
#MNEM.UNIT           DATA                    DESCRIPTION OF MNEMONIC
#---------    -------------------            -------------------------------
# Generated from Intellog Unique Number	CS_67_68/WELL/858
WELL.         AEC MARGUERITA                 : Well_name    - WELL
LOC .         00/15-26-068-05W4/0            : Location     - LOCATION
UWI .         00/15-26-068-05W4/0            : Uwi          - UNIQUE WELL ID
ENTR.         SP                             : Entered      - ENTERED BY
SRVC.         SCHLUMBERGER                   : Scn          - SERVICE COMPANY
STRT.M        360                            : top_depth    - START DEPTH
STOP.M        605                            : bot_depth    - STOP DEPTH
STEP.M        0.25                           : increment    - STEP LENGTH
 NULL. -999.2500:NULL Value
~CURVE INFORMATION BLOCK
#MNEM UNIT       ERCB CURVE CODE    CURVE DESCRIPTION
#-----------   ------------------   ----------------------------------
DEPT.M        00 001 00 00         : DEPTH        - DEPTH
ILD .OHMM     00 120 00 00         : RESD         - DEEP RESISTIVITY (DIL)
DPHI.V/V      00 890 00 00         : PHID         - DENSITY POROSITY (LIMESTONE)
NPHI.V/V      00 330 00 00         : PHIN         - NEUTRON POROSITY (LIMESTONE)
GR  .API      00 310 00 00         : GR           - GAMMA RAY
~PARAMETER INFORMATION
#MNEM.UNIT           DATA             DESCRIPTION OF MNEMONIC
#---------         -----------     ------------------------------
GL  .M        713.2                : gl           - GROUND LEVEL ELEVATION
EREF.M        716.8                : kb           - ELEVATION OF DEPTH REFERENCE
DATM.M        713.2                : datum        - DATUM ELEVATION
TDD .M        610                  : tdd          - TOTAL DEPTH DRILLER
RUN .         ONE                  : Run          - RUN NUMBER
ENG .         BILL                 : Engineer     - RECORDING ENGINEER
WIT .         JIM                  : Witness      - WITNESSED BY
MUD .         GEL                  : Mud_type     - MUD TYPE
MATR.         LIMESTONE            : Logunit      - NEUTRON MATRIX
TMAX.C        24                   : BHT          - MAXIMUM RECORDED TEMPERATURE
BHTD.M        610                  : BHTDEP       - MAXIMUM RECORDED TEMPERATURE
MATR.         1                    : LOGUNIT      - NEUTRON MATRIX
RMT .C        25                   : MDTP         - TEMPERATURE OF MUD
NEUT.         1                    : NEUTRON      - NEUTRON TYPE
RESI.         0                    : RESIST       - RESISTIVITY TYPE
RMC .OHMM     0.25                 : RMC          - RESISTIVITY OF MUD CAKE
RMF .OHMM     0.25                 : RMF          - RESISTIVITY OF MUD FILTRATE
SUFT.C        15                   : SUFT         - SURFACE TEMPERATURE
~A  DEPTH     RESD     PHID     PHIN       GR
# ...
  447.000    6.749    0.333    0.424   58.977
  447.250    6.574    0.323    0.413   61.003
  447.500    6.500    0.303    0.427   63.705
  447.750    6.475    0.292    0.459   60.756
  448.000    6.499    0.313    0.474   56.824
  448.250    6.487    0.337    0.453   62.167
  448.500    6.450    0.319    0.442   68.248
  448.750    6.401    0.293    0.440   71.318
  449.000    6.282    0.292    0.469   73.467
  449.250    6.154    0.298    0.489   74.634
  449.500    6.073    0.278    0.469   75.124
  449.750    6.016    0.257    0.453   74.387
  450.000    5.993    0.251    0.445   71.990
  450.250    5.937    0.265    0.447   69.471
  450.500    5.914    0.268    0.466   67.689
  450.750    5.881    0.273    0.463   65.047
  451.000    5.848    0.280    0.455   60.931
  451.250    5.880    0.300    0.460   58.166
  451.500    5.991    0.318    0.450   61.790
  451.750    6.373    0.328    0.440   64.246
  452.000    6.578    0.319    0.442   65.290
  452.250    6.289    0.320    0.461   64.675
  452.500    5.244    0.317    0.470   71.677
  452.750    4.380    0.289    0.453   82.241
  453.000    3.806    0.258    0.490   90.410
  453.250    3.234    0.253    0.527   95.876
  453.500    2.955    0.267    0.547   98.087
  453.750    2.686    0.276    0.551   99.683
  454.000    2.597    0.285    0.537  100.604
  454.250    2.636    0.291    0.541   98.453
  454.500    2.916    0.296    0.579   93.784
  454.750    3.394    0.282    0.604   86.904
  455.000    3.797    0.272    0.515   77.935
  455.250    4.304    0.278    0.474   67.246
  455.500    4.692    0.291    0.453   62.946
  455.750    5.439    0.302    0.477   59.567
  456.000    6.109    0.307    0.489   56.986
  456.250    6.462    0.310    0.487   60.487
  456.500    6.224    0.305    0.469   65.277
  456.750    6.051    0.298    0.458   68.471
  457.000    6.028    0.289    0.468   70.804
  457.250    6.061    0.282    0.463   73.076
  457.500    6.072    0.281    0.451   73.690
  457.750    6.095    0.277    0.455   73.689
  458.000    6.083    0.268    0.467   73.504
  458.250    6.083    0.269    0.441   73.872
  458.500    6.128    0.275    0.444   74.731
  458.750    6.220    0.268    0.455   75.468
  459.000    6.314    0.270    0.458   76.204
  459.250    6.373    0.280    0.461   76.388
  459.500    6.348    0.284    0.459   76.448
  459.750    6.254    0.280    0.452   76.755
  460.000    6.069    0.282    0.447   77.000
  460.250    5.823    0.272    0.474   77.859
  460.500    5.403    0.251    0.500   77.674
  460.750    4.919    0.232    0.501   77.059
  461.000    4.156    0.239    0.493   78.533
  461.250    3.227    0.252    0.509   80.068
  461.500    2.681    0.259    0.527   80.067
  461.750    2.757    0.252    0.524   77.425
  462.000    3.300    0.269    0.505   79.022
  462.250    3.769    0.282    0.492   80.925
  462.500    4.411    0.268    0.494   82.460
  462.750    4.908    0.245    0.504   83.565
  463.000    5.269    0.232    0.517   78.097
  463.250    5.450    0.246    0.516   80.247
  463.500    5.584    0.252    0.509   83.194
  463.750    5.408    0.256    0.510   84.729
  464.000    5.084    0.261    0.503   85.343
  464.250    4.655    0.262    0.496   86.079
  464.500    4.543    0.263    0.504   87.123
  464.750    4.450    0.274    0.517   88.596
  465.000    4.375    0.262    0.514   90.438
  465.250    4.334    0.246    0.481   90.315
  465.500    4.334    0.222    0.446   86.874
  465.750    4.317    0.222    0.447   85.768
  466.000    4.325    0.232    0.461   89.023
  466.250    4.333    0.240    0.471   85.521
  466.500    4.357    0.246    0.471   77.965
  466.750    4.373    0.266    0.456   73.480
  467.000    4.389    0.262    0.452   79.376
  467.250    4.389    0.238    0.479   86.993
  467.500    4.373    0.249    0.502   84.473
  467.750    4.348    0.268    0.496   82.691
  468.000    4.267    0.284    0.494   79.128
  468.250    4.110    0.292    0.475   76.978
  468.500    3.899    0.273    0.464   83.365
  468.750    3.721    0.261    0.487   88.647
  469.000    3.604    0.271    0.516   94.052
  469.250    3.798    0.276    0.535   93.314
  469.500    4.225    0.279    0.544   86.925
  469.750    4.554    0.297    0.521   80.229
  470.000    4.973    0.305    0.491   75.683
  470.250    5.240    0.298    0.466   73.471
  470.500    5.616    0.297    0.463   72.979
  470.750    5.885    0.316    0.466   73.899
  471.000    6.086    0.314    0.460   73.653
  471.250    6.247    0.301    0.454   69.844
  471.500    6.341    0.295    0.472   65.666
  471.750    6.247    0.304    0.491   63.823
  472.000    6.165    0.312    0.504   63.085
  472.250    6.107    0.319    0.488   62.900
  472.500    6.004    0.322    0.480   63.145
  472.750    5.893    0.327    0.475   61.056
  473.000    5.805    0.334    0.470   60.134
  473.250    5.686    0.340    0.464   61.792
  473.500    5.538    0.347    0.461   63.142
  473.750    5.507    0.354    0.469   63.142
  474.000    5.496    0.357    0.472   65.475
  474.250    5.506    0.347    0.466   63.693
  474.500    5.527    0.336    0.462   61.174
  474.750    5.537    0.332    0.467   60.068
  475.000    5.547    0.335    0.475   60.067
  475.250    5.557    0.342    0.467   60.128
  475.500    5.556    0.339    0.457   60.311
  475.750    5.587    0.331    0.456   60.434
  476.000    5.640    0.322    0.470   60.310
  476.250    5.757    0.313    0.479   60.187
  476.500    5.767    0.306    0.471   60.247
  476.750    5.411    0.302    0.462   61.291
  477.000    5.105    0.307    0.466   65.959
  477.250    4.973    0.318    0.478   70.933
  477.500    4.973    0.321    0.478   74.680
  477.750    5.000    0.316    0.470   77.504
  478.000    5.104    0.314    0.469   79.592
  478.250    5.171    0.304    0.468   75.783
  478.500    5.288    0.294    0.486   74.063
  478.750    5.348    0.295    0.501   70.991
  479.000    5.438    0.309    0.513   66.936
  479.250    5.510    0.321    0.483   64.724
  479.500    5.551    0.334    0.464   63.986
  479.750    5.571    0.344    0.457   63.494
  480.000    5.561    0.347    0.454   62.449
  480.250    5.560    0.347    0.450   62.878
  480.500    5.550    0.346    0.460   64.290
  480.750    5.529    0.338    0.472   63.798
  481.000    5.446    0.325    0.464   66.623
  481.250    5.187    0.308    0.466   68.895
  481.500    4.894    0.293    0.466   70.615
  481.750    4.705    0.282    0.457   72.334
  482.000    4.472    0.280    0.486   74.790
  482.250    4.316    0.276    0.494   76.878
  482.500    4.220    0.277    0.477   76.079
  482.750    4.188    0.283    0.478   74.112
  483.000    4.283    0.289    0.499   76.692
  483.250    4.454    0.296    0.516   80.376
  483.500    4.615    0.305    0.514   77.612
  483.750    4.836    0.315    0.489   74.970
  484.000    5.106    0.317    0.464   75.583
  484.250    5.371    0.303    0.455   79.084
  484.500    5.261    0.278    0.457   82.093
  484.750    4.478    0.264    0.482   85.778
  485.000    3.556    0.266    0.498   85.531
  485.250    2.861    0.277    0.510   84.241
  485.500    2.524    0.283    0.508   85.714
  485.750    2.311    0.294    0.512   87.004
  486.000    2.164    0.284    0.532   87.986
  486.250    2.124    0.273    0.529   85.774
  486.500    2.108    0.273    0.530   85.343
  486.750    2.136    0.282    0.592   87.861
  487.000    2.225    0.293    0.605   90.563
  487.250    2.328    0.303    0.587   91.299
  487.500    2.471    0.297    0.578   89.333
  487.750    2.580    0.288    0.560   92.096
  488.000    2.734    0.278    0.549   94.368
  488.250    2.875    0.270    0.553   90.928
  488.500    3.042    0.264    0.545   86.566
  488.750    3.573    0.272    0.534   82.757
  489.000    4.473    0.287    0.523   78.211
  489.250    6.036    0.297    0.515   74.033
  489.500    8.084    0.308    0.516   68.320
  489.750    9.877    0.324    0.515   63.098
  490.000   11.822    0.342    0.502   57.999
  490.250   13.578    0.333    0.487   55.849
