~VERSION INFORMATION
 VERS.                 2.0:   CWLS LOG ASCII STANDARD -VERSION 2.0
 WRAP.                  NO:   ONE LINE PER DEPTH STEP
~WELL INFORMATION BLOCK
#MNEM.UNIT           DATA                    DESCRIPTION OF MNEMONIC
#---------    -------------------            -------------------------------
# Generated from Intellog Unique Number	CW_82_90/WELL/3077
WELL.         TEXEX WABASCA 11-19            : Well_name    - WELL
LOC .         00/11-19-085-22W4/0            : Location     - LOCATION
UWI .         00/11-19-085-22W4/0            : Uwi          - UNIQUE WELL ID
ENTR.         JAYE                           : Entered      - ENTERED BY
SRVC.         WESTERN ATLAS                  : Scn          - SERVICE COMPANY
DATE.         23 FEB 75                      : Date         - LOG DATE
STRT.M        152.4                          : top_depth    - START DEPTH
STOP.M        353.65                         : bot_depth    - STOP DEPTH
STEP.M        0.25                           : increment    - STEP LENGTH
 NULL. -999.2500:NULL Value
~CURVE INFORMATION BLOCK
#MNEM UNIT       ERCB CURVE CODE    CURVE DESCRIPTION
#-----------   ------------------   ----------------------------------
DEPT.M        00 001 00 00         : DEPTH        - DEPTH
CALI.MM       00 280 01 00         : CAL          - CALIPER
GR  .API      00 310 00 00         : GR           - GAMMA RAY
NPHI.V/V      00 330 00 00         : PHIN         - NEUTRON POROSITY (SANDSTONE)
DPHI.V/V      00 890 00 00         : PHID         - DENSITY POROSITY (SANDSTONE)
ILD .OHMM     00 120 00 00         : RESD         - DEEP RESISTIVITY (DIL)
~PARAMETER INFORMATION
#MNEM.UNIT           DATA             DESCRIPTION OF MNEMONIC
#---------         -----------     ------------------------------
GL  .M        559.399              : gl           - GROUND LEVEL ELEVATION
EREF.M        562.356              : kb           - ELEVATION OF DEPTH REFERENCE
DATM.M        559.399              : datum        - DATUM ELEVATION
TDD .M        354.482              : tdd          - TOTAL DEPTH DRILLER
RUN .         ONE                  : Run          - RUN NUMBER
ENG .         FAYE                 : Engineer     - RECORDING ENGINEER
WIT .         McDOUGAL             : Witness      - WITNESSED BY
BASE.         EDMONTON             : Branch       - HOME BASE OF LOGGING UNIT
MUD .         MUD GEL              : Mud_type     - MUD TYPE
MATR.         SANDSTONE            : Logunit      - NEUTRON MATRIX
TMAX.C        25.5556              : BHT          - MAXIMUM RECORDED TEMPERATURE
BHTD.M        354.482              : BHTDEP       - MAXIMUM RECORDED TEMPERATURE
RMT .C        15.5556              : MDTP         - TEMPERATURE OF MUD
MUDD.KG/M     9000                 : MWT          - MUD DENSITY
NEUT.         1                    : NEUTRON      - NEUTRON TYPE
RESI.         0                    : RESIST       - RESISTIVITY TYPE
RM  .OHMM     8.8                  : RM           - RESISTIVITY OF MUD
RMC .OHMM     0                    : RMC          - RESISTIVITY OF MUD CAKE
RMF .OHMM     0                    : RMF          - RESISTIVITY OF MUD FILTRATE
SUFT.C        4                    : SUFT         - SURFACE TEMPERATURE
~A  DEPTH      CAL       GR     PHIN     PHID     RESD
# ...
  298.400  242.209   55.904    0.420    0.251   15.575
  298.650  242.215   54.178    0.418    0.239   15.059
  298.900  241.801   52.267    0.415    0.099   14.751
  299.150  241.074   51.654    0.412    0.101   14.529
  299.400  241.078   54.870    0.416    0.160   15.101
  299.650  241.815   58.087    0.496    0.233   15.902
  299.900  243.702   59.142    0.497    0.235   17.058
  300.150  246.321   61.926    0.504    0.229   18.606
  300.400  249.672   61.374    0.505    0.232   16.985
  300.650  254.906   61.502    0.504    0.224   15.505
  300.900  260.034   59.653    0.511    0.215   13.894
  301.150  256.902   60.892    0.514    0.200   11.581
  301.400  251.469   62.812    0.515    0.186    9.389
  301.650  251.370   57.503    0.517    0.172    8.699
  301.900  251.793   55.902    0.508    0.203    8.505
  302.150  252.320   61.527    0.433    0.229    8.424
  302.400  252.012   62.087    0.423    0.238    8.627
  302.650  250.761   62.462    0.417    0.229    8.967
  302.900  248.047   62.343    0.414    0.216    9.619
  303.150  243.764   56.663    0.412    0.199   10.453
  303.400  240.841   51.047    0.412    0.161   11.172
  303.650  239.382   51.359    0.420    0.155   12.073
  303.900  238.551   54.268    0.451    0.149   13.616
  304.150  239.078   55.383    0.453    0.202   15.018
  304.400  239.502   56.684    0.458    0.203   15.239
  304.650  239.716   57.430    0.466    0.216   14.329
  304.900  239.407   57.372    0.471    0.216   13.154
  305.150  238.158   57.253    0.475    0.209   12.097
  305.400  237.116   54.292    0.480    0.201   11.524
  305.650  236.493   50.219    0.522    0.202   11.607
  305.900  236.184   50.532    0.526    0.212   12.086
  306.150  235.980   54.675    0.526    0.204   12.332
  306.400  235.357   57.769    0.525    0.188   12.374
  306.650  235.153   58.699    0.519    0.168   12.369
  306.900  234.739   60.187    0.505    0.153   12.344
  307.150  234.431   57.967    0.499    0.180   12.182
  307.400  233.808   55.995    0.514    0.214   11.756
  307.650  232.976   57.235    0.528    0.204   11.346
  307.900  232.249   60.080    0.530    0.184   10.650
  308.150  231.208   60.578    0.516    0.103    9.922
  308.400  230.063   57.803    0.494    0.100    9.487
  308.650  228.918   56.571    0.480    0.187    9.397
  308.900  228.608   57.687    0.472    0.212    9.464
  309.150  228.194   61.769    0.468    0.214    9.603
  309.400  228.617   64.244    0.469    0.221    9.762
  309.650  229.668   65.670    0.471    0.231    9.960
  309.900  229.673   66.478    0.469    0.246    9.938
  310.150  229.050   66.173    0.456    0.270    9.681
  310.400  227.800   65.127    0.423    0.262    9.482
  310.650  222.786   61.239    0.381    0.147    9.532
  310.900  222.165   57.906    0.374    0.005    9.963
  311.150  222.168   56.429    0.375    0.049   10.472
  311.400  222.068   56.988    0.376    0.099   11.151
  311.650  221.760   61.255    0.381    0.198   12.095
  311.900  221.660   62.804    0.390    0.202   12.926
  312.150  221.664   60.028    0.393    0.203   13.117
  312.400  221.355   57.932    0.397    0.195   13.308
  312.650  220.941   54.662    0.407    0.064   13.807
  312.900  220.319   52.071    0.414    0.063   15.089
  313.150  219.593   48.245    0.417    0.067   17.111
  313.400  219.492   46.458    0.419    0.136   19.334
  313.650  219.288   49.365    0.423    0.161   22.131
  313.900  220.861   55.733    0.429    0.200   24.140
  314.150  219.716   57.900    0.427    0.218   23.254
  314.400  220.244   57.780    0.419    0.222   19.820
  314.650  220.457   58.217    0.411    0.223   18.329
  314.900  219.940   58.097    0.404    0.220   16.857
  315.150  219.526   57.669    0.398    0.192   15.705
  315.400  219.950   55.944    0.391    0.176   16.173
  315.650  220.582   53.538    0.383    0.158   17.641
  315.900  221.631   50.700    0.372    0.132   19.530
  316.150  224.251   47.678    0.370    0.137   20.718
  316.400  226.661   48.980    0.377    0.211   20.906
  316.650  228.025   52.319    0.382    0.284   19.915
  316.900  226.984   54.239    0.387    0.331   19.007
  317.150  221.969   51.525    0.391    0.306   18.447
  317.400  220.197   54.680    0.395    0.257   17.935
  317.650  218.739   59.812    0.400    0.171   17.830
  317.900  217.908   62.103    0.385    0.140   19.056
  318.150  217.283   63.218    0.374    0.106   22.636
  318.400  216.766   92.753    0.372    0.119   22.546
  318.650  217.189  110.488    0.372    0.142   21.440
  318.900  217.402  103.635    0.372    0.149   20.161
  319.150  217.617   68.177    0.363    0.108   19.821
  319.400  217.935   56.135    0.347    0.065   21.381
  319.650  218.046   50.764    0.345    0.069   21.652
  319.900  218.049   52.251    0.345    0.121   20.976
  320.150  217.845   60.224    0.380    0.156   18.761
  320.400  217.850   60.723    0.397    0.214   17.063
  320.650  218.064   62.149    0.400    0.217   15.233
  320.900  218.382   65.983    0.399    0.216   14.035
  321.150  219.120   64.628    0.408    0.211   13.297
  321.400  219.227   68.277    0.412    0.199   13.342
  321.650  219.442   76.745    0.412    0.187   13.689
  321.900  219.866   96.395    0.415    0.175   13.433
  322.150  219.869  100.168    0.419    0.211   12.844
  322.400  219.874   75.893    0.423    0.250   12.214
  322.650  219.566   66.259    0.426    0.247   11.212
  322.900  219.675   64.287    0.430    0.244    9.972
  323.150  219.471   63.303    0.433    0.250    9.377
  323.400  218.952   64.666    0.432    0.237    8.851
  323.650  218.017   66.215    0.429    0.203    8.511
  323.900  216.557   70.049    0.429    0.211    8.259
  324.150  213.951   67.829    0.432    0.195    8.211
  324.400  213.535   62.891    0.435    0.080    8.300
  324.650  213.958   61.166    0.439    0.009    8.438
  324.900  215.950   67.101    0.443    0.095    8.514
  325.150  217.523   68.649    0.445    0.242    8.591
  325.400  218.051   66.553    0.447    0.251    8.814
  325.650  216.591   68.411    0.442    0.251    9.010
  325.900  216.591   66.994    0.426    0.264    9.313
  326.150  209.595   59.646    0.383    0.257    9.663
  326.400  207.717   47.789    0.350    0.288   10.137
  326.650  206.049   38.032    0.337    0.320   11.016
  326.900  204.799   35.071    0.332    0.330   12.470
  327.150  204.280   31.245    0.333    0.325   13.908
  327.400  204.285   34.647    0.339    0.323   16.738
  327.650  204.918   38.234    0.353    0.316   21.375
  327.900  205.132   41.883    0.362    0.292   26.794
  328.150  205.554   52.513    0.374    0.275   28.477
  328.400  206.186   63.823    0.390    0.242   26.384
  328.650  206.087   64.384    0.415    0.223   22.950
  328.900  205.779   58.272    0.421    0.231   19.060
  329.150  205.574   57.535    0.418    0.243   15.858
  329.400  205.369   62.172    0.416    0.272   13.170
  329.650  204.957   65.080    0.420    0.336   11.456
  329.900  204.646   60.945    0.426    0.338   10.555
  330.150  204.756   54.833    0.422    0.308   10.730
  330.400  205.284   49.092    0.409    0.316   11.595
  330.650  205.184   44.648    0.391    0.334   12.837
  330.900  204.667   42.799    0.368    0.343   15.025
  331.150  204.148   42.989    0.340    0.339   24.831
  331.400  203.423   43.734    0.316    0.321   32.724
  331.650  202.903   45.468    0.305    0.296   34.523
  331.900  202.071   49.302    0.309    0.254   31.224
  332.150  202.077   54.311    0.447    0.246   24.165
  332.400  202.499   60.864    0.456    0.228   19.627
  332.650  203.341   69.517    0.461    0.242   17.751
  332.900  204.600   69.521    0.466    0.300   18.971
  333.150  207.323   60.938    0.470    0.299   21.120
  333.400  210.361   54.579    0.468    0.296   29.922
  333.650  212.562   51.988    0.442    0.283   38.001
  333.900  214.553   50.139    0.435    0.277   41.064
  334.150  217.382   47.858    0.436    0.279   41.357
  334.400  219.687   48.480    0.436    0.285   40.288
  334.650  222.620   50.091    0.436    0.281   33.646
