~VERSION INFORMATION
 VERS.                 2.0:   CWLS LOG ASCII STANDARD -VERSION 2.0
 WRAP.                  NO:   ONE LINE PER DEPTH STEP
~WELL INFORMATION BLOCK
#MNEM.UNIT           DATA                    DESCRIPTION OF MNEMONIC
#---------    -------------------            -------------------------------
# Generated from Intellog Unique Number	CW_79_81/WELL/2468
WELL.         10-18-080-20W4                 : Well_name    - WELL
LOC .         00/10-18-080-20W4/0            : Location     - LOCATION
UWI .         00/10-18-080-20W4/0            : Uwi          - UNIQUE WELL ID
ENTR.         MAX                            : Entered      - ENTERED BY
SRVC.         SCHLUMBERGER                   : Scn          - SERVICE COMPANY
STRT.M        152.4                          : top_depth    - START DEPTH
STOP.M        408.15                         : bot_depth    - STOP DEPTH
STEP.M        0.25                           : increment    - STEP LENGTH
 NULL. -999.2500:NULL Value
~CURVE INFORMATION BLOCK
#MNEM UNIT       ERCB CURVE CODE    CURVE DESCRIPTION
#-----------   ------------------   ----------------------------------
DEPT.M        00 001 00 00         : DEPTH        - DEPTH
ILD .OHMM     00 120 00 00         : RESD         - DEEP RESISTIVITY (DIL)
NPHI.V/V      00 330 00 00         : PHIN         - NEUTRON POROSITY (SANDSTONE)
DPHI.V/V      00 890 00 00         : PHID         - DENSITY POROSITY (SANDSTONE)
GR  .API      00 310 00 00         : GR           - GAMMA RAY
CALI.MM       00 280 01 00         : CAL          - CALIPER
~PARAMETER INFORMATION
#MNEM.UNIT           DATA             DESCRIPTION OF MNEMONIC
#---------         -----------     ------------------------------
GL  .M        579.272              : gl           - GROUND LEVEL ELEVATION
EREF.M        582.778              : kb           - ELEVATION OF DEPTH REFERENCE
DATM.M        579.272              : datum        - DATUM ELEVATION
TDD .M        411.48               : tdd          - TOTAL DEPTH DRILLER
RUN .         ONE                  : Run          - RUN NUMBER
ENG .         BILL                 : Engineer     - RECORDING ENGINEER
WIT .         JIM                  : Witness      - WITNESSED BY
MUD .         GEL                  : Mud_type     - MUD TYPE
MATR.         SANDSTONE            : Logunit      - NEUTRON MATRIX
TMAX.C        23.3333              : BHT          - MAXIMUM RECORDED TEMPERATURE
BHTD.M        411.48               : BHTDEP       - MAXIMUM RECORDED TEMPERATURE
MATR.         1                    : LOGUNIT      - NEUTRON MATRIX
RMT .C        10                   : MDTP         - TEMPERATURE OF MUD
NEUT.         1                    : NEUTRON      - NEUTRON TYPE
RESI.         0                    : RESIST       - RESISTIVITY TYPE
RMC .OHMM     7.01                 : RMC          - RESISTIVITY OF MUD CAKE
RMF .OHMM     3.48                 : RMF          - RESISTIVITY OF MUD FILTRATE
SUFT.C        -15                  : SUFT         - SURFACE TEMPERATURE
~A  DEPTH     RESD     PHIN     PHID       GR      CAL
  152.400    3.402    0.569    0.236  138.226  214.836
  152.650    3.353    0.566    0.235  138.249  216.144
  152.900    3.310    0.564    0.247  139.170  217.348
  153.150    3.265    0.567    0.254  139.669  218.195
  153.400    3.226    0.574    0.254  139.209  217.825
  153.650    3.206    0.572    0.254  137.740  214.608
  153.900    3.209    0.561    0.253  136.257  212.532
  154.150    3.235    0.562    0.254  132.924  213.378
  154.400    3.280    0.560    0.257  130.847  213.920
  154.650    3.343    0.554    0.254  132.067  214.158
  154.900    3.414    0.543    0.247  136.346  214.501
  155.150    3.463    0.528    0.252  140.520  215.681
  155.400    3.440    0.552    0.264  137.295  215.300
  155.650    3.392    0.569    0.267  138.994  213.706
  155.900    3.328    0.569    0.271  139.079  211.511
  156.150    3.307    0.568    0.273  138.502  210.332
  156.400    3.352    0.572    0.272  136.961  210.572
  156.650    3.454    0.572    0.267  132.903  211.418
  156.900    3.721    0.524    0.261  127.235  212.475
  157.150    4.107    0.464    0.260  122.759  212.937
  157.400    4.641    0.449    0.256  118.824  213.368
  157.650    5.320    0.454    0.250  115.008  214.423
  157.900    6.118    0.463    0.242  110.290  215.879
  158.150    7.525    0.453    0.237   99.313  216.651
  158.400    9.587    0.408    0.248   85.094  216.259
  158.650   12.452    0.379    0.265   58.489  217.515
  158.900   15.728    0.356    0.285   43.400  219.688
  159.150   19.059    0.355    0.295   37.547  222.972
  159.400   21.539    0.375    0.293   37.991  225.746
  159.650   21.588    0.397    0.296   41.337  223.728
  159.900   20.961    0.396    0.309   42.355  219.544
  160.150   20.071    0.402    0.313   42.377  216.329
  160.400   17.950    0.409    0.317   43.300  213.720
  160.650   15.178    0.419    0.315   45.240  214.568
  160.900   12.245    0.427    0.306   49.756  219.685
  161.150    9.218    0.433    0.291   61.505  230.049
  161.400    8.002    0.452    0.273   69.773  241.087
  161.650    8.009    0.460    0.281   68.835  240.312
  161.900    9.134    0.439    0.291   63.219  228.264
  162.150   11.046    0.428    0.301   53.646  216.319
  162.400   13.581    0.424    0.305   43.413  210.773
  162.650   18.038    0.376    0.291   37.354  214.456
  162.900   24.301    0.358    0.268   32.131  222.534
  163.150   27.679    0.375    0.298   31.194  233.939
  163.400   29.644    0.378    0.298   32.055  244.434
  163.650   28.997    0.384    0.281   33.638  248.126
  163.900   26.330    0.401    0.271   35.340  243.188
  164.150   22.119    0.439    0.307   37.642  231.435
  164.400   17.587    0.456    0.324   40.661  229.359
  164.650   13.113    0.472    0.326   46.439  235.488
  164.900   11.077    0.484    0.324   51.676  238.270
  165.150   11.159    0.469    0.309   54.576  236.072
  165.400   13.102    0.424    0.287   52.619  228.590
  165.650   16.073    0.367    0.281   41.373  215.336
  165.900   18.341    0.365    0.282   35.398  207.764
  166.150   22.870    0.370    0.280   34.703  205.357
  166.400   27.519    0.367    0.281   34.905  203.873
  166.650   30.561    0.364    0.284   34.925  203.303
  166.900   30.866    0.363    0.285   34.645  203.339
  167.150   29.136    0.368    0.284   35.263  203.380
  167.400   28.075    0.377    0.288   37.033  203.416
  167.650   28.103    0.389    0.296   37.774  203.453
  167.900   27.513    0.394    0.296   39.056  203.203
  168.150   26.342    0.397    0.290   41.355  202.834
  168.400   24.328    0.401    0.285   44.913  203.260
  168.650   20.342    0.417    0.296   50.736  207.076
  168.900   16.770    0.425    0.312   55.756  211.773
  169.150   11.840    0.441    0.306   60.577  211.807
  169.400   10.201    0.456    0.304   68.093  211.849
  169.650    8.998    0.473    0.301   76.509  211.684
  169.900    7.824    0.488    0.293   85.105  211.512
  170.150    6.683    0.483    0.274   94.597  211.965
  170.400    5.844    0.462    0.263   96.371  212.008
  170.650    5.274    0.461    0.252   99.509  211.635
  170.900    4.762    0.481    0.255  105.347  211.872
  171.150    4.251    0.503    0.254  111.125  212.515
  171.400    3.761    0.516    0.246  115.884  213.667
  171.650    3.280    0.523    0.240  120.818  216.506
  171.900    3.043    0.540    0.245  122.590  220.361
  172.150    2.788    0.541    0.255  124.531  220.391
  172.400    2.643    0.536    0.257  124.671  219.208
  172.650    2.551    0.533    0.254  123.974  218.027
  172.900    2.489    0.538    0.250  123.338  217.454
  173.150    2.455    0.552    0.253  123.597  217.488
  173.400    2.458    0.569    0.260  122.426  217.023
  173.650    2.460    0.582    0.260  119.451  216.639
  173.900    2.462    0.579    0.255  115.633  216.901
  174.150    2.473    0.578    0.255  113.015  217.141
  174.400    2.494    0.584    0.262  112.796  217.376
  174.650    2.515    0.593    0.267  114.739  218.226
  174.900    2.540    0.593    0.274  118.662  219.298
  175.150    2.621    0.579    0.266  117.937  219.752
  175.400    2.756    0.564    0.259  115.827  220.173
  175.650    2.914    0.555    0.254  109.971  220.004
  175.900    3.102    0.555    0.255  101.658  219.126
  176.150    3.418    0.557    0.259   95.682  217.948
  176.400    3.853    0.500    0.213   87.314  216.472
  176.650    4.447    0.447    0.191   72.845  211.427
  176.900    5.154    0.445    0.222   69.790  210.449
  177.150    5.941    0.452    0.264   72.930  211.299
  177.400    6.520    0.453    0.288   78.707  212.755
  177.650    6.451    0.444    0.272   82.831  213.950
  177.900    5.898    0.452    0.265   85.353  215.678
  178.150    5.524    0.473    0.249   89.450  216.528
  178.400    5.442    0.492    0.259   89.771  216.159
  178.650    5.526    0.487    0.275   83.316  212.748
  178.900    5.726    0.462    0.288   73.564  207.814
  179.150    6.132    0.447    0.297   71.625  206.227
  179.400    6.678    0.445    0.287   77.394  206.262
  179.650    6.882    0.459    0.276   80.292  208.330
  179.900    6.712    0.448    0.262   83.015  211.620
  180.150    6.161    0.440    0.248   86.155  213.688
  180.400    5.518    0.447    0.240   89.652  214.027
  180.650    5.070    0.468    0.243   92.796  214.154
  180.900    4.922    0.456    0.245   92.817  214.624
  181.150    4.784    0.447    0.253   93.803  215.467
  181.400    4.676    0.454    0.257   94.964  216.318
  181.650    4.544    0.469    0.254   96.425  216.759
  181.900    4.377    0.487    0.248   97.707  216.791
  182.150    4.162    0.498    0.246   97.632  216.922
  182.400    4.011    0.492    0.247   97.153  217.388
  182.650    3.899    0.494    0.242   98.374  217.832
  182.900    3.790    0.509    0.239  102.112  217.965
  183.150    3.684    0.525    0.240  106.452  217.802
  183.400    3.580    0.531    0.242  110.012  217.540
  183.650    3.466    0.522    0.241  110.704  217.828
  183.900    3.391    0.537    0.240  104.481  219.137
  184.150    3.344    0.531    0.239  101.865  222.829
  184.400    3.316    0.522    0.239  100.150  225.304
  184.650    3.319    0.518    0.240   99.092  226.558
  184.900    3.316    0.519    0.241   99.651  226.188
  185.150    3.194    0.518    0.245  104.846  223.480
  185.400    3.055    0.521    0.259  109.114  223.931
  185.650    2.862    0.542    0.293  112.254  225.187
  185.900    2.727    0.571    0.308  113.056  225.836
  186.150    2.582    0.577    0.302  114.156  226.280
  186.400    2.426    0.558    0.287  115.556  226.721
  186.650    2.277    0.551    0.290  114.423  227.172
  186.900    2.211    0.565    0.284  113.447  227.207
  187.150    2.197    0.572    0.275  113.227  226.440
  187.400    2.195    0.572    0.278  113.191  225.357
  187.650    2.197    0.574    0.281  113.453  223.565
  187.900    2.190    0.576    0.285  114.073  221.573
  188.150    2.154    0.562    0.296  115.059  220.714
  188.400    2.124    0.557    0.293  115.079  220.330
  188.650    2.095    0.571    0.286  113.665  220.364
