~VERSION INFORMATION
 VERS.                 2.0:   CWLS LOG ASCII STANDARD -VERSION 2.0
 WRAP.                  NO:   ONE LINE PER DEPTH STEP
~WELL INFORMATION BLOCK
#MNEM.UNIT           DATA                    DESCRIPTION OF MNEMONIC
#---------    -------------------            -------------------------------
# Generated from Intellog Unique Number	CW_82_90/WELL/1036
WELL.         PARA ET AL GRANOR  14-35       : Well_name    - WELL
LOC .         00/14-35-082-19W4/0            : Location     - LOCATION
UWI .         00/14-35-082-19W400            : Uwi          - UNIQUE WELL ID
ENTR.         JAYE                           : Entered      - ENTERED BY
SRVC.         COMPUTALOG                     : Scn          - SERVICE COMPANY
DATE.         26 MAR 80                      : Date         - LOG DATE
STRT.M        190                            : top_depth    - START DEPTH
STOP.M        340                            : bot_depth    - STOP DEPTH
STEP.M        0.25                           : increment    - STEP LENGTH
 NULL. -999.2500:NULL Value
~CURVE INFORMATION BLOCK
#MNEM UNIT       ERCB CURVE CODE    CURVE DESCRIPTION
#-----------   ------------------   ----------------------------------
DEPT.M        00 001 00 00         : DEPTH        - DEPTH
CALI.MM       00 280 01 00         : CAL          - CALIPER
GR  .API      00 310 00 00         : GR           - GAMMA RAY
NPHI.V/V      00 330 00 00         : PHIN         - NEUTRON POROSITY (SANDSTONE)
DPHI.V/V      00 890 00 00         : PHID         - DENSITY POROSITY (SANDSTONE)
ILD .OHMM     00 120 00 00         : RESD         - DEEP RESISTIVITY (DIL)
~PARAMETER INFORMATION
#MNEM.UNIT           DATA             DESCRIPTION OF MNEMONIC
#---------         -----------     ------------------------------
GL  .M        581.58               : gl           - GROUND LEVEL ELEVATION
EREF.M        584.85               : kb           - ELEVATION OF DEPTH REFERENCE
DATM.M        581.58               : datum        - DATUM ELEVATION
TDD .M        341.5                : tdd          - TOTAL DEPTH DRILLER
RUN .         ONE                  : Run          - RUN NUMBER
ENG .         JBSIOIOWSKI          : Engineer     - RECORDING ENGINEER
WIT .         IRWIN                : Witness      - WITNESSED BY
BASE.         EDMONTON             : Branch       - HOME BASE OF LOGGING UNIT
MUD .         GEL CHEM             : Mud_type     - MUD TYPE
MATR.         SANDSTONE            : Logunit      - NEUTRON MATRIX
TMAX.C        16                   : BHT          - MAXIMUM RECORDED TEMPERATURE
BHTD.M        341.5                : BHTDEP       - MAXIMUM RECORDED TEMPERATURE
RMT .C        13                   : MDTP         - TEMPERATURE OF MUD
MUDD.KG/M     1070                 : MWT          - MUD DENSITY
NEUT.         1                    : NEUTRON      - NEUTRON TYPE
RESI.         0                    : RESIST       - RESISTIVITY TYPE
RM  .OHMM     1.5                  : RM           - RESISTIVITY OF MUD
RMC .OHMM     0.25                 : RMC          - RESISTIVITY OF MUD CAKE
RMF .OHMM     1.4                  : RMF          - RESISTIVITY OF MUD FILTRATE
SUFT.C        4                    : SUFT         - SURFACE TEMPERATURE
~A  DEPTH      CAL       GR     PHIN     PHID     RESD
# ...
  299.500  161.220   96.845    0.331    0.191   10.496
  299.750  161.362  101.617    0.360    0.171    9.279
  300.000  161.210   98.156    0.370    0.171    8.977
  300.250  161.067   94.021    0.353    0.187    8.821
  300.500  161.325  101.400    0.339    0.180    8.878
  300.750  162.731  104.298    0.350    0.172    9.195
  301.000  163.818   91.434    0.350    0.162    9.453
  301.250  164.300   96.763    0.336    0.104    9.553
  301.500  163.621   95.736    0.345    0.096    9.108
  301.750  161.425   96.703    0.355    0.167    8.844
  302.000  161.035   99.042    0.361    0.195    8.321
  302.250  168.253   92.973    0.371    0.192    8.189
  302.500  170.600   95.931    0.388    0.198    8.136
  302.750  168.683   99.828    0.367    0.177    8.271
  303.000  167.695  102.538    0.356    0.176    8.516
  303.250  166.510  103.573    0.352    0.202    8.871
  303.500  164.493   91.078    0.344    0.208    9.065
  303.750  162.984   92.482    0.308    0.195    9.213
  304.000  160.857   97.878    0.285    0.189    9.103
  304.250  161.030   90.991    0.316    0.151    8.791
  304.500  165.120   96.130    0.349    0.169    7.934
  304.750  173.694   98.718    0.358    0.188    7.692
  305.000  172.312   89.841    0.405    0.174    7.443
  305.250  170.376   98.471    0.303    0.121    6.989
  305.500  168.359  105.980    0.314    0.135    6.575
  305.750  175.574  107.321    0.337    0.182    6.197
  306.000  184.146  105.672    0.336    0.185    5.918
  306.250  185.051  105.642    0.404    0.174    5.770
  306.500  180.833  107.979    0.454    0.166    5.636
  306.750  174.865  113.126    0.390    0.174    5.580
  307.000  173.882  112.966    0.395    0.172    5.585
  307.250  174.250  112.999    0.372    0.175    5.950
  307.500  174.938  105.123    0.396    0.167    6.810
  307.750  173.115   99.858    0.433    0.160    7.779
  308.000  166.424   87.682    0.307    0.116    9.440
  308.250  157.139   73.822    0.177    0.049   10.765
  308.500  156.679   76.657    0.172   -0.030   11.643
  308.750  158.604   83.855    0.235    0.094   11.268
  309.000  161.251   86.504    0.349    0.167   10.460
  309.250  164.934   94.261    0.375    0.162    9.474
  309.500  168.520  102.704    0.398    0.166    9.031
  309.750  168.797  101.991    0.372    0.178    9.111
  310.000  161.161   92.311    0.324    0.192    9.472
  310.250  152.498   92.463    0.311    0.087   10.537
  310.500  150.988  102.464    0.337    0.087   12.501
  310.750  160.086   98.320    0.363    0.114   13.266
  311.000  158.894   96.110    0.377    0.205   13.950
  311.250  156.867  102.062    0.323    0.210   13.950
  311.500  156.101   98.046    0.305    0.206   14.249
  311.750  155.630   90.042    0.326    0.201   14.212
  312.000  155.482   85.651    0.346    0.206   14.224
  312.250  155.641   83.819    0.340    0.215   14.294
  312.500  155.694   87.648    0.346    0.214   14.417
  312.750  155.038   90.920    0.357    0.211   14.655
  313.000  154.665   88.029    0.327    0.219   14.725
  313.250  154.723   85.382    0.352    0.226   15.223
  313.500  155.296   80.927    0.397    0.213   16.621
  313.750  155.558   71.181    0.378    0.129   18.180
  314.000  157.485   64.298    0.229   -0.019   22.310
  314.250  159.936   61.401    0.197    0.030   23.596
  314.500  159.676   73.023    0.221    0.072   23.178
  314.750  159.113   79.471    0.281    0.136   21.924
  315.000  159.890   76.266    0.352    0.145   18.487
  315.250  158.805   78.976    0.313    0.151   17.130
  315.500  156.051   82.933    0.327    0.175   15.843
  315.750  155.900   81.162    0.323    0.189   13.978
  316.000  158.147   79.198    0.326    0.189   13.249
  316.250  159.440   84.028    0.381    0.197   12.966
  316.500  157.326   86.244    0.392    0.206   12.908
  316.750  158.628   85.091    0.327    0.198   12.946
  317.000  158.574   93.533    0.319    0.175   13.009
  317.250  156.559   99.173    0.311    0.179   13.272
  317.500  157.749   95.842    0.337    0.173   13.439
  317.750  160.921   78.186    0.354    0.095   13.682
  318.000  160.349   81.517    0.279    0.065   13.935
  318.250  159.473   86.098    0.338    0.043   13.843
  318.500  159.741   83.764    0.331    0.152   12.803
  318.750  159.590   84.669    0.270    0.165   12.182
  319.000  159.645   80.464    0.284    0.170   11.899
  319.250  159.697   70.966    0.333    0.113   11.667
  319.500  159.962   81.215    0.405    0.102   11.355
  319.750  160.329   92.088    0.366    0.184   11.135
  320.000  160.382   92.682    0.365    0.189   11.000
  320.250  160.757   88.666    0.394    0.180   10.827
  320.500  161.223   84.399    0.329    0.152   10.695
  320.750  161.587   80.195    0.304    0.096   10.372
  321.000  161.647   85.025    0.333    0.181   10.206
  321.250  161.803   86.865    0.375    0.188   10.084
  321.500  162.488   87.776    0.373    0.178    9.834
  321.750  164.204   91.046    0.366    0.152    9.586
  322.000  165.397   98.114    0.370    0.154    9.346
  322.250  164.628  108.115    0.353    0.160    8.977
  322.500  162.813  108.210    0.328    0.155    8.460
  322.750  162.457  100.144    0.333    0.153    8.156
  323.000  163.033  104.848    0.346    0.154    7.982
  323.250  165.470   99.837    0.409    0.152    7.886
  323.500  165.941   78.189    0.309    0.141    7.821
  323.750  163.408   80.839    0.256   -0.089    7.583
  324.000  160.242   93.020    0.284   -0.090    7.147
  324.250  160.196  105.199    0.347    0.114    6.671
  324.500  161.082  114.452    0.391    0.150    6.372
  324.750  162.379  121.026    0.397    0.167    6.261
  325.000  163.990  117.386    0.331    0.150    6.220
  325.250  166.225  119.722    0.324    0.142    6.392
  325.500  167.328  106.921    0.352    0.148    6.994
  325.750  167.065  105.396    0.384    0.154    7.606
  326.000  163.901   94.277    0.440    0.153    9.160
  326.250  161.675   77.054    0.291    0.099   12.284
  326.500  160.691   83.316    0.255    0.013   14.572
  326.750  160.342   93.005    0.308    0.027   16.872
  327.000  159.659  104.750    0.366    0.158   18.009
  327.250  159.094   99.864    0.341    0.170   18.406
  327.500  158.952  104.568    0.320    0.164   18.115
  327.750  158.794  104.911    0.351    0.153   17.535
  328.000  158.438  103.265    0.363    0.143   16.969
  328.250  158.285   95.508    0.342    0.148   16.765
  328.500  158.443   91.553    0.369    0.153   17.032
  328.750  158.602   94.140    0.412    0.157   18.389
  329.000  158.037   84.454    0.380    0.180   20.498
  329.250  156.842   66.359    0.334    0.200   23.415
  329.500  154.927   56.486    0.349    0.222   26.800
  329.750  152.906   48.982    0.370    0.260   31.257
  330.000  152.858   44.342    0.341    0.266   37.079
  330.250  152.805   43.067    0.357    0.275   42.762
  330.500  158.678   44.907    0.354    0.279   48.119
  330.750  167.454   46.934    0.354    0.277   46.388
  331.000  156.298   48.649    0.379    0.269   43.807
  331.250  152.719   47.932    0.427    0.267   41.439
  331.500  151.010   48.714    0.371    0.260   39.205
  331.750  150.449   48.808    0.342    0.256   37.089
  332.000  151.023   50.398    0.340    0.268   33.411
  332.250  151.907   59.964    0.360    0.275   29.416
  332.500  152.997   62.364    0.369    0.258   25.906
  332.750  154.305   63.953    0.372    0.257   23.290
  333.000  156.752   73.081    0.301    0.242   18.211
  333.250  162.822   83.705    0.308    0.210   12.645
  333.500  164.852  101.055    0.361    0.162   10.866
  333.750  164.708   93.552    0.327    0.127    9.496
  334.000  166.003   86.294    0.380    0.139    8.489
  334.250  167.200   96.481    0.378    0.152    7.406
  334.500  165.696  107.914    0.353    0.168    6.522
  334.750  157.341  111.748    0.326    0.157    6.031
  335.000  154.812  121.623    0.319    0.150    5.599
  335.250  154.242  122.217    0.333    0.153    5.247
  335.500  154.196  114.711    0.361    0.147    5.313
  335.750  153.932  127.640    0.392    0.135    5.746
