~VERSION INFORMATION
 VERS.                 2.0:   CWLS LOG ASCII STANDARD -VERSION 2.0
 WRAP.                  NO:   ONE LINE PER DEPTH STEP
~WELL INFORMATION BLOCK
#MNEM.UNIT           DATA                    DESCRIPTION OF MNEMONIC
#---------    -------------------            -------------------------------
# Generated from Intellog Unique Number	CS_73_76/WELL/812
WELL.         ARGO PETROLEUM CORPORATION     : Well_name    - WELL
LOC .         00/10-06-073-10W4/0            : Location     - LOCATION
UWI .         00/10-06-073-10W4/0            : Uwi          - UNIQUE WELL ID
ENTR.         SP                             : Entered      - ENTERED BY
SRVC.         SCHLUMBERGER                   : Scn          - SERVICE COMPANY
STRT.M        310.896                        : top_depth    - START DEPTH
STOP.M        527.646                        : bot_depth    - STOP DEPTH
STEP.M        0.25                           : increment    - STEP LENGTH
 NULL. -999.2500:NULL Value
~CURVE INFORMATION BLOCK
#MNEM UNIT       ERCB CURVE CODE    CURVE DESCRIPTION
#-----------   ------------------   ----------------------------------
DEPT.M        00 001 00 00         : DEPTH        - DEPTH
GR  .API      00 310 00 00         : GR           - GAMMA RAY
DPHI.V/V      00 890 00 00         : PHID         - DENSITY POROSITY (SANDSTONE)
NPHI.V/V      00 330 00 00         : PHIN         - NEUTRON POROSITY (SANDSTONE)
ILD .OHMM     00 120 00 00         : RESD         - DEEP RESISTIVITY (DIL)
~PARAMETER INFORMATION
#MNEM.UNIT           DATA             DESCRIPTION OF MNEMONIC
#---------         -----------     ------------------------------
GL  .M        661.721              : gl           - GROUND LEVEL ELEVATION
EREF.M        665.074              : kb           - ELEVATION OF DEPTH REFERENCE
DATM.M        661.721              : datum        - DATUM ELEVATION
TDD .M        530.657              : tdd          - TOTAL DEPTH DRILLER
RUN .         ONE                  : Run          - RUN NUMBER
ENG .         BILL                 : Engineer     - RECORDING ENGINEER
WIT .         JIM                  : Witness      - WITNESSED BY
MUD .         GEL                  : Mud_type     - MUD TYPE
MATR.         SANDSTONE            : Logunit      - NEUTRON MATRIX
TMAX.C        12.2222              : BHT          - MAXIMUM RECORDED TEMPERATURE
BHTD.M        530.657              : BHTDEP       - MAXIMUM RECORDED TEMPERATURE
MATR.         1                    : LOGUNIT      - NEUTRON MATRIX
RMT .C        25                   : MDTP         - TEMPERATURE OF MUD
NEUT.         1                    : NEUTRON      - NEUTRON TYPE
RESI.         0                    : RESIST       - RESISTIVITY TYPE
RMC .OHMM     0.25                 : RMC          - RESISTIVITY OF MUD CAKE
RMF .OHMM     0.25                 : RMF          - RESISTIVITY OF MUD FILTRATE
SUFT.C        15                   : SUFT         - SURFACE TEMPERATURE
~A  DEPTH       GR     PHID     PHIN     RESD
  310.896  110.197    0.236    1.011    3.280
  311.146  110.262    0.223    0.534    3.316
  311.396  109.391    0.233    0.539    3.418
  311.646  108.988    0.248    0.538    3.524
  311.896  108.854    0.240    0.540    3.489
  312.146  111.280    0.240    0.545    3.459
  312.396  113.761    0.225    0.555    3.295
  312.646  114.354    0.220    0.568    3.193
  312.896  113.308    0.232    0.570    3.097
  313.146  113.332    0.245    0.551    2.995
  313.396  113.104    0.239    0.533    3.050
  313.646  112.739    0.246    0.522    3.105
  313.896  111.255    0.248    0.532    3.243
  314.146  104.394    0.243    0.545    3.370
  314.396  100.014    0.238    0.495    3.588
  314.646  102.202    0.217    0.478    3.742
  314.896  105.096    0.210    0.473    3.766
  315.146  102.117    0.198    0.487    3.539
  315.396   96.138    0.185    0.509    3.358
  315.646   90.832    0.213    0.526    3.346
  315.896   85.813    0.215    0.467    3.713
  316.146   81.403    0.178    0.418    4.379
  316.396   79.262    0.152    0.409    5.523
  316.646   82.849    0.187    0.416    7.315
  316.896   84.429    0.246    0.420    9.480
  317.146   82.257    0.261    0.416   11.146
  317.396   80.557    0.280    0.411   12.297
  317.646   80.417    0.289    0.402   12.978
  317.896   81.043    0.286    0.390   13.367
  318.146   81.224    0.291    0.393   12.852
  318.396   77.824    0.285    0.400   12.419
  318.646   73.096    0.293    0.400   12.416
  318.896   62.097    0.306    0.389   13.525
  319.146   50.947    0.309    0.358   17.066
  319.396   45.164    0.345    0.246   24.750
  319.646   44.744    0.370    0.212   29.524
  319.896   48.848    0.387    0.208   32.214
  320.146   55.071    0.389    0.230   33.778
  320.396   60.274    0.372    0.264   33.380
  320.646   64.594    0.321    0.294   28.352
  320.896   66.603    0.298    0.315   23.670
  321.146   66.386    0.318    0.332   20.399
  321.396   65.826    0.330    0.355   18.352
  321.646   69.851    0.334    0.390   17.334
  321.896   75.306    0.319    0.428   17.599
  322.146   77.174    0.307    0.436   17.595
  322.396   80.553    0.298    0.426   17.249
  322.646   83.195    0.289    0.428   16.925
  322.896   84.791    0.282    0.434   16.731
  323.146   85.726    0.291    0.434   16.235
  323.396   88.705    0.290    0.424   15.443
  323.646   96.675    0.288    0.427   14.736
  323.896  102.400    0.277    0.428   13.996
  324.146  105.125    0.268    0.433   13.616
  324.396  106.196    0.248    0.427   13.388
  324.646  106.402    0.237    0.425   12.843
  324.896  106.438    0.246    0.429   12.483
  325.146  106.715    0.247    0.441   11.722
  325.396  106.923    0.231    0.449   11.252
  325.646   96.927    0.222    0.453   10.553
  325.896   83.812    0.235    0.447   10.371
  326.146   75.567    0.248    0.453   12.289
  326.396   65.430    0.238    0.453   15.099
  326.646   52.394    0.265    0.451   18.908
  326.896   42.300    0.308    0.434   21.055
  327.146   39.560    0.333    0.415   23.091
  327.396   47.254    0.349    0.418   24.757
  327.646   54.666    0.342    0.423   21.060
  327.896   62.875    0.327    0.419   16.821
  328.146   73.429    0.303    0.409   13.819
  328.396   80.843    0.289    0.410   11.496
  328.646   83.189    0.265    0.421    9.815
  328.896   78.073    0.247    0.436   10.612
  329.146   71.243    0.254    0.444   11.743
  329.396   62.961    0.270    0.450   13.408
  329.646   57.507    0.287    0.436   14.909
  329.896   51.911    0.304    0.424   16.649
  330.146   51.082    0.322    0.430   17.795
  330.396   50.946    0.330    0.430   19.529
  330.646   50.795    0.320    0.438   20.135
  330.896   53.272    0.327    0.436   20.111
  331.146   55.613    0.330    0.439   18.316
  331.396   59.115    0.317    0.435   15.998
  331.646   60.287    0.289    0.443   13.614
  331.896   56.843    0.296    0.440   11.685
  332.146   50.273    0.302    0.422   13.598
  332.396   51.339    0.320    0.429   14.927
  332.646   60.841    0.314    0.444   16.102
  332.896   70.750    0.303    0.457   13.753
  333.146   84.611    0.282    0.475   11.312
  333.396  101.253    0.249    0.557    7.747
  333.646  111.709    0.229    0.550    5.331
  333.896  116.455    0.212    0.556    3.963
  334.146  115.389    0.231    0.571    3.177
  334.396  111.934    0.253    0.591    2.740
  334.646  104.600    0.270    0.570    3.072
  334.896   96.484    0.280    0.534    4.186
  335.146   85.852    0.287    0.511    5.484
  335.396   79.542    0.289    0.474    9.117
  335.646   75.930    0.282    0.454   13.587
  335.896   79.359    0.274    0.471   17.579
  336.146   80.931    0.281    0.479   20.183
  336.396   81.809    0.288    0.488   21.934
  336.646   81.747    0.294    0.478   21.050
  336.896   82.776    0.287    0.468   19.789
  337.146   83.887    0.286    0.475   19.055
  337.396   85.386    0.288    0.473   17.649
  337.646   87.769    0.292    0.469   16.093
  337.896   89.468    0.280    0.466   15.014
  338.146   92.036    0.264    0.462   13.799
  338.396   95.410    0.248    0.459   12.152
  338.646   97.314    0.241    0.471   10.791
  338.896  102.544    0.254    0.484    9.429
  339.146  107.241    0.251    0.484    8.202
  339.396  115.530    0.229    0.483    7.016
  339.646  119.079    0.209    0.490    6.206
  339.896  122.704    0.208    0.506    5.326
  340.146  125.220    0.190    0.526    4.722
  340.396  127.280    0.200    0.537    4.211
  340.646  129.424    0.204    0.542    3.965
  340.896  131.392    0.197    0.528    4.024
  341.146  131.174    0.194    0.514    4.270
  341.396  127.731    0.213    0.498    4.635
  341.646  126.758    0.218    0.482    5.217
  341.896  125.303    0.235    0.473    6.158
  342.146  119.778    0.246    0.464    7.311
  342.396  115.260    0.250    0.470    9.338
  342.646  107.155    0.279    0.469   11.660
  342.896  101.090    0.297    0.457   13.743
  343.146   97.224    0.315    0.450   16.099
  343.396   91.781    0.329    0.450   17.926
  343.646   89.870    0.330    0.441   18.547
  343.896   95.034    0.316    0.447   15.429
  344.146  100.162    0.289    0.453   12.838
  344.396  103.161    0.260    0.459   11.054
  344.646  103.669    0.239    0.459   10.073
  344.896   97.697    0.268    0.471    9.379
  345.146   94.807    0.264    0.477    9.799
  345.396   91.313    0.266    0.481   10.490
  345.646   88.187    0.299    0.469   11.691
  345.896   87.144    0.306    0.450   13.374
  346.146   92.558    0.291    0.435   14.688
  346.396   96.041    0.283    0.439   15.900
  346.646   95.083    0.295    0.452   16.628
  346.896   97.908    0.290    0.435   16.504
  347.146  103.061    0.286    0.435   16.075
  347.396  105.688    0.280    0.446   14.430
  347.646  107.372    0.267    0.442   12.658
  347.896  109.404    0.256    0.439   11.076
  348.146  112.182    0.247    0.452    9.774
  348.396  113.439    0.236    0.461    9.223
  348.646  112.121    0.233    0.457   10.000
  348.896  107.987    0.262    0.459   10.669
  349.146  102.473    0.281    0.458   11.249
  349.396   96.646    0.294    0.466   11.965
  349.646   95.651    0.289    0.470   12.383
  349.896  100.419    0.265    0.475   12.769
  350.146  101.884    0.244    0.487   12.547
  350.396   97.862    0.230    0.491   12.053
  350.646   94.902    0.229    0.494   11.161
  350.896   93.781    0.238    0.499   10.699
  351.146   95.972    0.259    0.495   11.070
  351.396   98.180    0.269    0.499   11.987
  351.646   97.035    0.263    0.506   12.233
  351.896   97.013    0.279    0.513   12.786
  352.146   96.269    0.290    0.516   13.192
  352.396   97.019    0.295    0.517   13.199
  352.646   98.185    0.283    0.493   12.793
  352.896  100.643    0.262    0.484   12.347
  353.146  101.128    0.252    0.482   11.126
  353.396   99.025    0.237    0.491   11.228
  353.646   97.697    0.249    0.494   11.432
  353.896   96.413    0.258    0.500   11.907
  354.146   97.472    0.275    0.492   12.104
