~VERSION INFORMATION
 VERS.                 2.0:   CWLS LOG ASCII STANDARD -VERSION 2.0
 WRAP.                  NO:   ONE LINE PER DEPTH STEP
~WELL INFORMATION BLOCK
#MNEM.UNIT           DATA                    DESCRIPTION OF MNEMONIC
#---------    -------------------            -------------------------------
# Generated from Intellog Unique Number	CW_70_72/WELL/1033
NULL.         -999.25                        : NULL_VALUE
WELL.         CHIEFCO ET AL SMITH 10-09      : Well_name    - WELL              
LOC .         10-09-071-26W4                 : Location     - LOCATION          
UWI .         00/10-09-071-26W4/0            : Uwi          - UNIQUE WELL ID    
ENTR.         JAYE                           : Entered      - ENTERED BY        
SRVC.         SCHLUMBERGER                   : Scn          - SERVICE COMPANY   
DATE.         7 JAN 76                       : Date         - LOG DATE          
STRT.M        432.816                        : top_depth    - START DEPTH       
STOP.M        691.816                        : bot_depth    - STOP DEPTH        
STEP.M        0.25                           : increment    - STEP LENGTH       
~CURVE INFORMATION BLOCK
#MNEM UNIT       ERCB CURVE CODE    CURVE DESCRIPTION
#-----------   ------------------   ----------------------------------
DEPT.M        00 001 00 00         : DEPTH        - DEPTH                       
DPHI.V/V      00 890 00 00         : PHID         - DENSITY POROSITY (SANDSTONE)
NPHI.V/V      00 330 00 00         : PHIN         - NEUTRON POROSITY (SANDSTONE)
GR  .API      00 310 00 00         : GR           - GAMMA RAY                   
CALI.MM       00 280 01 00         : CAL          - CALIPER                     
ILD .OHMM     00 120 00 00         : RESD         - DEEP RESISTIVITY (DLL)      
~PARAMETER INFORMATION       
#MNEM.UNIT           DATA             DESCRIPTION OF MNEMONIC
#---------         -----------     ------------------------------
GL  .M        622.365              : gl           - GROUND LEVEL ELEVATION      
EREF.M        625.45               : kb           - ELEVATION OF DEPTH REFERENCE
DATM.M        622.365              : datum        - DATUM ELEVATION             
TDD .M        708.965              : tdd          - TOTAL DEPTH DRILLER         
RUN .         ONE                  : Run          - RUN NUMBER                  
ENG .         MCDONALD             : Engineer     - RECORDING ENGINEER          
WIT .         GARDINER             : Witness      - WITNESSED BY                
BASE.         EDM                  : Branch       - HOME BASE OF LOGGING UNIT   
MUD .         GEL CHEM             : Mud_type     - MUD TYPE                    
MATR.         SANDSTONE            : Logunit      - NEUTRON MATRIX              
TMAX.C        28.3333              : BHT          - MAXIMUM RECORDED TEMPERATURE
BHTD.M        709.27               : BHTDEP       - MAXIMUM RECORDED TEMPERATURE
RMT .C        21.6667              : MDTP         - TEMPERATURE OF MUD          
MUDD.KG/M     0                    : MWT          - MUD DENSITY                 
NEUT.         1                    : NEUTRON      - NEUTRON TYPE                
RESI.         1                    : RESIST       - RESISTIVITY TYPE            
RM  .OHMM     3.34                 : RM           - RESISTIVITY OF MUD          
RMC .OHMM     2.63                 : RMC          - RESISTIVITY OF MUD CAKE     
RMF .OHMM     2.81                 : RMF          - RESISTIVITY OF MUD FILTRATE 
SUFT.C        0                    : SUFT         - SURFACE TEMPERATURE         
~A  DEPTH     PHID     PHIN       GR      CAL     RESD
# ...
  615.316    0.154    0.536  107.375  205.115    2.252
  615.566    0.165    0.523  108.731  200.593    2.512
  615.816    0.160    0.481  106.122  196.387    2.977
  616.066    0.137    0.440  101.197  198.475    3.463
  616.316    0.113    0.419   97.001  197.465    3.942
  616.566    0.082    0.412   92.807  191.605    4.637
  616.816    0.059    0.396   88.551  185.328    5.146
  617.066    0.025    0.370   94.727  183.801    5.339
  617.316    0.048    0.376   98.830  183.931    5.235
  617.566    0.083    0.386  102.808  185.506    5.151
  617.816    0.093    0.381  105.994  186.768    5.162
  618.066    0.099    0.391  107.655  187.103    5.355
  618.316    0.085    0.393  103.888  186.300    5.825
  618.566    0.095    0.375   99.755  183.846    6.301
  618.816    0.083    0.352   94.280  181.186    6.879
  619.066    0.078    0.315   88.255  179.557    7.360
  619.316    0.052    0.289   80.035  177.308    7.539
  619.566    0.026    0.294   73.644  175.267    6.748
  619.816    0.015    0.334   83.907  174.984    5.889
  620.066    0.035    0.370   93.925  177.899    5.065
  620.316    0.063    0.453  103.699  185.672    5.039
  620.566    0.095    0.395  101.884  192.410    5.411
  620.816    0.115    0.380   96.409  185.203    6.182
  621.066    0.070    0.369   89.896  179.237    6.786
  621.316    0.051    0.336   85.397  178.229    7.014
  621.566    0.030    0.308   79.556  177.945    6.716
  621.816    0.002    0.310   81.399  177.767    6.315
  622.066    0.064    0.341   92.212  177.685    5.981
  622.316    0.102    0.370   98.448  177.812    5.864
  622.566    0.123    0.363   99.561  178.250    5.899
  622.816    0.111    0.350   98.233  178.276    6.064
  623.066    0.088    0.349   97.820  177.987    6.488
  623.316    0.067    0.359   97.835  177.909    6.867
  623.566    0.063    0.351   96.263  177.732    7.124
  623.816    0.048    0.332   93.532  177.754    7.010
  624.066    0.021    0.339   95.075  177.571    6.484
  624.316    0.066    0.361   98.320  177.699    5.998
  624.566    0.081    0.382  101.628  178.035    5.609
  624.816    0.093    0.394  103.716  177.746    5.076
  625.066    0.082    0.388   93.788  177.359    4.602
  625.316    0.095    0.372   80.809  175.317    4.053
  625.566    0.129    0.342   58.437  172.242    3.361
  625.816    0.204    0.341   40.701  168.549    2.938
  626.066    0.253    0.348   33.884  166.609    2.621
  626.316    0.239    0.344   31.214  165.084    2.419
  626.566    0.233    0.336   30.497  163.976    2.300
  626.816    0.216    0.319   31.488  162.867    2.360
  627.066    0.228    0.314   32.966  162.786    2.400
  627.316    0.234    0.315   34.262  164.563    2.431
  627.566    0.225    0.322   34.215  165.828    2.472
  627.816    0.217    0.331   34.290  165.337    2.565
  628.066    0.205    0.333   34.002  164.641    2.666
  628.316    0.214    0.331   33.773  164.974    2.705
  628.566    0.224    0.330   33.666  166.648    2.687
  628.816    0.228    0.333   33.738  168.122    2.658
  629.066    0.221    0.335   34.121  168.458    2.607
  629.316    0.243    0.335   34.989  168.377    2.542
  629.566    0.233    0.334   36.588  168.610    2.478
  629.816    0.212    0.329   38.554  168.839    2.434
  630.066    0.223    0.333   37.044  168.865    2.413
  630.316    0.229    0.342   37.851  168.890    2.405
  630.566    0.237    0.352   39.757  168.604    2.402
  630.816    0.234    0.354   40.625  168.320    2.394
  631.066    0.241    0.341   40.030  167.624    2.386
  631.316    0.238    0.344   38.154  167.232    2.382
  631.566    0.232    0.348   36.582  166.431    2.383
  631.816    0.221    0.351   35.865  165.525    2.401
  632.066    0.219    0.350   37.160  164.928    2.419
  632.316    0.227    0.346   39.187  164.229    2.438
  632.566    0.226    0.351   40.544  163.740    2.456
  632.816    0.220    0.353   41.046  163.868    2.489
  633.066    0.220    0.348   42.098  164.097    2.517
  633.316    0.224    0.335   43.090  164.533    2.536
  633.566    0.231    0.330   43.776  165.281    2.555
  633.816    0.226    0.338   44.521  166.238    2.570
  634.066    0.220    0.347   44.657  166.883    2.580
  634.316    0.220    0.354   44.550  166.907    2.576
  634.566    0.220    0.347   45.418  166.931    2.586
  634.816    0.212    0.345   46.470  166.854    2.597
  635.066    0.207    0.351   46.911  166.980    2.612
  635.316    0.206    0.355   46.743  166.902    2.632
  635.566    0.202    0.354   46.818  167.029    2.661
  635.816    0.227    0.352   47.565  167.365    2.691
  636.066    0.222    0.347   49.044  167.803    2.717
  636.316    0.215    0.343   50.645  167.932    2.748
  636.566    0.210    0.348   52.183  168.267    2.704
  636.816    0.203    0.349   53.723  168.495    2.710
  637.066    0.196    0.338   54.653  168.628    2.730
  637.316    0.198    0.346   54.851  168.649    2.791
  637.566    0.200    0.349   54.682  168.670    2.938
  637.816    0.174    0.339   54.453  168.798    3.104
  638.066    0.166    0.342   55.076  168.927    3.208
  638.316    0.149    0.352   57.348  168.953    3.415
  638.566    0.178    0.350   61.024  168.873    3.588
  638.816    0.181    0.341   62.562  168.794    3.770
  639.066    0.174    0.329   57.696  169.129    3.875
  639.316    0.146    0.327   58.870  168.532    3.962
  639.566    0.169    0.326   61.080  167.426    4.066
  639.816    0.179    0.322   61.889  166.830    4.164
  640.066    0.175    0.322   62.575  166.750    4.304
  640.316    0.156    0.327   63.746  167.083    4.425
  640.566    0.144    0.322   63.639  167.416    4.549
  640.816    0.135    0.313   61.640  167.863    4.659
  641.066    0.125    0.322   63.729  168.300    4.755
  641.316    0.136    0.325   66.002  168.424    4.870
  641.566    0.153    0.325   66.015  168.862    4.998
  641.816    0.156    0.320   65.421  168.987    5.138
  642.066    0.161    0.312   65.496  169.009    5.196
  642.316    0.168    0.309   65.877  168.826    5.236
  642.566    0.155    0.316   66.501  168.752    5.218
  642.816    0.159    0.318   67.612  168.671    5.173
  643.066    0.180    0.316   69.031  168.496    5.118
  643.316    0.167    0.311   69.228  168.516    5.082
  643.566    0.151    0.310   68.877  168.640    4.983
  643.816    0.141    0.314   68.770  168.666    4.904
  644.066    0.149    0.317   69.517  168.897    4.905
  644.316    0.158    0.322   70.933  169.333    5.052
  644.566    0.160    0.327   72.350  169.565    5.385
  644.816    0.133    0.324   72.548  169.590    5.868
  645.066    0.106    0.309   67.133  169.513    6.395
  645.316    0.084    0.286   61.660  169.744    6.610
  645.566    0.068    0.287   64.234  169.874    6.660
  645.816    0.149    0.297   66.691  170.105    6.471
  646.066    0.171    0.311   66.338  170.027    6.096
  646.316    0.160    0.320   67.632  169.943    5.890
  646.566    0.138    0.322   69.843  170.072    5.744
  646.816    0.122    0.316   71.871  170.514    5.714
  647.066    0.128    0.314   73.718  170.744    5.790
  647.316    0.117    0.312   75.501  171.182    5.941
  647.566    0.124    0.308   77.466  171.615    6.129
  647.816    0.124    0.305   79.860  172.260    6.359
  648.066    0.121    0.307   81.825  173.009    6.597
  648.316    0.116    0.310   84.097  173.754    6.906
  648.566    0.110    0.313   85.821  174.194    7.177
  648.816    0.123    0.316   85.529  174.530    7.487
  649.066    0.111    0.318   84.508  174.760    7.752
  649.316    0.106    0.324   86.229  174.990    8.130
  649.566    0.098    0.322   86.975  175.121    8.590
  649.816    0.086    0.286   86.685  175.039    9.326
  650.066    0.059    0.249   79.501  174.340   10.405
  650.316    0.041    0.222   68.414  172.196   11.781
  650.566    0.020    0.190   64.099  173.977   13.757
  650.816    0.003    0.179   62.160  175.550   17.309
  651.066    0.004    0.177   58.941  176.610   20.547
  651.316    0.015    0.193   64.691  177.045   18.494
  651.566    0.027    0.218   70.745  177.380   14.259
