~VERSION INFORMATION
 VERS.                 2.0:   CWLS LOG ASCII STANDARD -VERSION 2.0
 WRAP.                  NO:   ONE LINE PER DEPTH STEP
~WELL INFORMATION BLOCK
#MNEM.UNIT           DATA                    DESCRIPTION OF MNEMONIC
#---------    -------------------            -------------------------------
# Generated from Intellog Unique Number	CW_76_78/WELL/2582
WELL.         BAYSEL WILLOW R                : Well_name    - WELL
LOC .         00/11-25-078-03W5/0            : Location     - LOCATION
UWI .         00/11-25-078-03W5/0            : Uwi          - UNIQUE WELL ID
ENTR.         MAX                            : Entered      - ENTERED BY
SRVC.         SCHLUMBERGER                   : Scn          - SERVICE COMPANY
STRT.M        347.472                        : top_depth    - START DEPTH
STOP.M        609.722                        : bot_depth    - STOP DEPTH
STEP.M        0.25                           : increment    - STEP LENGTH
 NULL. -999.2500:NULL Value
~CURVE INFORMATION BLOCK
#MNEM UNIT       ERCB CURVE CODE    CURVE DESCRIPTION
#-----------   ------------------   ----------------------------------
DEPT.M        00 001 00 00         : DEPTH        - DEPTH
ILD .OHMM     00 120 00 00         : RESD         - DEEP RESISTIVITY (DIL)
NPHI.V/V      00 330 00 00         : PHIN         - NEUTRON POROSITY (SANDSTONE)
DPHI.V/V      00 890 00 00         : PHID         - DENSITY POROSITY (SANDSTONE)
CALI.MM       00 280 01 00         : CAL          - CALIPER
GR  .API      00 310 00 00         : GR           - GAMMA RAY
~PARAMETER INFORMATION
#MNEM.UNIT           DATA             DESCRIPTION OF MNEMONIC
#---------         -----------     ------------------------------
GL  .M        649.102              : gl           - GROUND LEVEL ELEVATION
EREF.M        653.308              : kb           - ELEVATION OF DEPTH REFERENCE
DATM.M        649.102              : datum        - DATUM ELEVATION
TDD .M        619.963              : tdd          - TOTAL DEPTH DRILLER
RUN .         ONE                  : Run          - RUN NUMBER
ENG .         BILL                 : Engineer     - RECORDING ENGINEER
WIT .         JIM                  : Witness      - WITNESSED BY
MUD .         GEL                  : Mud_type     - MUD TYPE
MATR.         SANDSTONE            : Logunit      - NEUTRON MATRIX
TMAX.C        27.2222              : BHT          - MAXIMUM RECORDED TEMPERATURE
BHTD.M        619.963              : BHTDEP       - MAXIMUM RECORDED TEMPERATURE
RMT .C        12.2222              : MDTP         - TEMPERATURE OF MUD
MUDD.KG/M     9100                 : MWT          - MUD DENSITY
NEUT.         1                    : NEUTRON      - NEUTRON TYPE
RESI.         0                    : RESIST       - RESISTIVITY TYPE
RM  .OHMM     0.25                 : RM           - RESISTIVITY OF MUD
RMC .OHMM     0.25                 : RMC          - RESISTIVITY OF MUD CAKE
RMF .OHMM     1.3                  : RMF          - RESISTIVITY OF MUD FILTRATE
SUFT.C        -15                  : SUFT         - SURFACE TEMPERATURE
~A  DEPTH     RESD     PHIN     PHID      CAL       GR
# ...
  529.972    7.215    0.480    0.157  165.204   90.479
  530.222    7.213    0.453    0.171  165.186   90.759
  530.472    7.407    0.435    0.172  165.170   93.112
  530.722    8.025    0.429    0.174  165.144   93.692
  530.972    8.932    0.442    0.175  164.630   88.956
  531.222   10.678    0.460    0.177  162.609   78.314
  531.472   12.316    0.454    0.171  159.589   75.646
  531.722   13.954    0.442    0.178  158.570   74.748
  531.972   14.719    0.439    0.192  158.547   75.621
  532.222   15.116    0.456    0.208  159.033   75.018
  532.472   15.246    0.453    0.193  159.001   73.828
  532.722   15.380    0.440    0.178  159.494   71.158
  532.972   15.654    0.422    0.157  159.957   66.715
  533.222   16.364    0.392    0.141  160.450   65.526
  533.472   16.956    0.340    0.110  160.936   62.265
  533.722   18.703    0.314    0.084  161.415   56.053
  533.972   19.553    0.303    0.068  161.394   51.612
  534.222   20.624    0.287    0.029  160.873   50.714
  534.472   21.951    0.251    0.012  160.355   51.884
  534.722   22.744    0.199    0.036  160.336   55.416
  534.972   21.169    0.198    0.024  160.318   63.673
  535.222   19.011    0.201    0.011  159.794   71.339
  535.472   16.473    0.197    0.016  160.776   79.594
  535.722   14.147    0.226    0.019  161.757   85.194
  535.972   11.722    0.269    0.064  162.734   85.477
  536.222   10.341    0.408    0.141  162.220   84.876
  536.472    9.041    0.440    0.177  162.188   89.588
  536.722    8.340    0.438    0.188  161.676   87.215
  536.972    8.117    0.425    0.184  161.658   84.840
  537.222    8.043    0.420    0.177  162.144   85.126
  537.472    8.040    0.409    0.166  162.123   87.474
  537.722    8.038    0.412    0.146  162.102   90.121
  537.972    8.036    0.425    0.161  162.084   89.221
  538.222    8.034    0.432    0.178  162.063   87.146
  538.472    8.032    0.437    0.165  162.042   85.066
  538.722    8.102    0.447    0.147  162.526   85.942
  538.972    8.100    0.441    0.149  162.505   88.588
  539.222    8.171    0.432    0.148  162.486   91.232
  539.472    8.096    0.424    0.158  162.468   92.994
  539.722    7.603    0.411    0.169  163.445   92.687
  539.972    7.268    0.408    0.177  163.426   91.199
  540.222    7.011    0.414    0.182  162.910   91.188
  540.472    6.886    0.427    0.172  161.387   92.061
  540.722    6.583    0.443    0.173  161.368   97.365
  540.972    6.465    0.435    0.167  161.850   96.469
  541.222    6.348    0.438    0.167  163.331   94.979
  541.472    6.346    0.450    0.150  163.810   95.559
  541.722    6.288    0.453    0.144  163.787   97.023
  541.972    6.286    0.441    0.152  164.273   97.899
  542.222    6.285    0.437    0.147  164.750   99.069
  542.472    6.340    0.438    0.134  165.732  101.121
  542.722    6.338    0.442    0.138  167.213  101.702
  542.972    6.394    0.442    0.151  168.195  101.986
  543.222    6.449    0.440    0.146  167.674  101.975
  543.472    6.564    0.427    0.140  167.155  101.077
  543.722    6.681    0.433    0.148  164.637   95.751
  543.972    7.303    0.426    0.159  160.611   87.768
  544.222    7.913    0.406    0.169  159.093   82.141
  544.472    8.347    0.374    0.164  159.093   81.543
  544.722    8.726    0.375    0.150  159.051   81.826
  544.972    8.802    0.378    0.137  159.039   84.177
  545.222    8.800    0.360    0.119  159.007   88.003
  545.472    8.719    0.365    0.102  159.000   88.583
  545.722    8.562    0.378    0.104  159.477   88.570
  545.972    8.484    0.386    0.122  159.458   89.151
  546.222    8.257    0.385    0.108  159.440   90.025
  546.472    8.109    0.379    0.110  159.919   90.900
  546.722    8.035    0.369    0.120  160.400   93.248
  546.972    8.105    0.359    0.133  160.884   95.895
  547.222    8.176    0.351    0.127  162.359   96.475
  547.472    8.321    0.361    0.142  163.340   97.054
  547.722    8.469    0.369    0.143  164.319   99.997
  547.972    8.619    0.366    0.149  165.801  104.116
  548.222    8.540    0.375    0.135  166.782  104.698
  548.472    8.312    0.376    0.134  167.264  105.572
  548.722    8.018    0.371    0.139  167.745  108.214
  548.972    7.734    0.354    0.140  168.227  109.683
  549.222    7.329    0.361    0.136  169.708  111.739
  549.472    7.006    0.374    0.129  171.690  110.545
  549.722    6.819    0.386    0.127  171.169  106.399
  549.972    6.879    0.467    0.137  168.650   99.303
  550.222    7.001    0.453    0.152  165.627   95.746
  550.472    7.125    0.415    0.142  164.111   97.800
  550.722    7.252    0.385    0.145  164.111   98.085
  550.972    7.315    0.396    0.151  164.072   97.188
  551.222    7.313    0.397    0.138  165.548   97.766
  551.472    7.311    0.408    0.138  165.548   98.049
  551.722    7.310    0.408    0.157  166.011   98.927
  551.972    7.242    0.409    0.152  166.493  101.573
  552.222    7.241    0.427    0.146  166.974   95.065
  552.472    7.239    0.443    0.136  167.953   93.870
  552.722    7.302    0.440    0.127  169.935   93.270
  552.972    7.566    0.430    0.124  170.414   90.011
  553.222    9.045    0.457    0.121  167.396   71.692
  553.472   11.718    0.455    0.127  164.375   48.943
  553.722   15.456    0.444    0.136  164.375   35.940
  553.972   19.670    0.408    0.182  163.335   29.134
  554.222   25.713    0.392    0.262  162.819   27.648
  554.472   31.858    0.376    0.306  162.819   27.046
  554.722   36.745    0.377    0.304  162.780   26.445
  554.972   35.446    0.392    0.281  162.259   25.842
  555.222   32.405    0.404    0.280  162.240   26.126
  555.472   30.706    0.386    0.278  162.722   26.411
  555.722   30.972    0.374    0.276  162.696   27.579
  555.972   32.093    0.367    0.279  162.696   31.701
  556.222   33.550    0.360    0.295  162.657   31.984
  556.472   35.076    0.370    0.297  162.643   32.267
  556.722   36.341    0.381    0.293  162.622   33.145
  556.972   36.334    0.392    0.285  162.590   34.904
  557.222   35.999    0.395    0.275  162.083   35.187
  557.472   35.991    0.394    0.286  162.060   34.290
  557.722   35.661    0.391    0.296  162.546   33.688
  557.972   34.709    0.406    0.292  162.546   31.019
  558.222   33.183    0.433    0.287  162.506   30.417
  558.472   31.161    0.426    0.284  162.483   30.997
  558.722   29.527    0.410    0.278  162.462   33.049
  558.972   27.237    0.399    0.269  162.462   34.222
  559.222   23.813    0.387    0.272  162.423   35.687
  559.472   21.384    0.386    0.272  161.907   36.853
  559.722   20.084    0.385    0.285  161.374   37.140
  559.972   18.036    0.382    0.287  160.868   38.306
  560.222   16.342    0.376    0.280  160.849   39.479
  560.472   15.075    0.374    0.269  160.826   41.535
  560.722   14.157    0.383    0.257  160.812   44.180
  560.972   12.601    0.396    0.253  161.293   44.169
  561.222   11.316    0.393    0.251  161.273   43.860
  561.472   10.915    0.386    0.250  161.254   44.440
  561.722   10.719    0.380    0.250  161.233   47.383
  561.972   10.716    0.381    0.255  160.712   50.324
  562.222   10.810    0.376    0.262  160.691   50.311
  562.472   10.711    0.398    0.258  161.171   50.007
  562.722   10.518    0.393    0.268  161.138   50.585
  562.972   10.329    0.379    0.269  161.131   52.936
  563.222   10.144    0.378    0.262  160.617   56.172
  563.472    9.526    0.388    0.247  160.587   56.751
  563.722    8.787    0.394    0.253  161.576   58.512
  563.972    7.962    0.399    0.239  162.557   61.453
  564.222    7.215    0.408    0.234  163.039   69.116
  564.472    6.196    0.404    0.246  164.018   83.281
  564.722    5.767    0.384    0.250  165.999   93.308
  564.972    5.563    0.383    0.243  169.978  103.334
  565.222    5.764    0.388    0.230  169.958   96.829
  565.472    6.245    0.430    0.201  166.937   89.434
  565.722    6.950    0.460    0.154  163.921   79.975
  565.972    7.667    0.459    0.131  163.921   80.554
  566.222    8.532    0.411    0.121  162.879   85.562
