~VERSION INFORMATION
 VERS.                 2.0:   CWLS LOG ASCII STANDARD -VERSION 2.0
 WRAP.                  NO:   ONE LINE PER DEPTH STEP
~WELL INFORMATION BLOCK
#MNEM.UNIT           DATA                    DESCRIPTION OF MNEMONIC
#---------    -------------------            -------------------------------
# Generated from Intellog Unique Number	CS_77_79/WELL/937
WELL.         AMOCO B-1 LEISMER              : Well_name    - WELL
LOC .         00/10-09-078-09W4/0            : Location     - LOCATION
UWI .         00/10-09-078-09W4/0            : Uwi          - UNIQUE WELL ID
ENTR.         JHS                            : Entered      - ENTERED BY
SRVC.         SCHLUMBERGER                   : Scn          - SERVICE COMPANY
STRT.M        179.832                        : top_depth    - START DEPTH
STOP.M        402.082                        : bot_depth    - STOP DEPTH
STEP.M        0.25                           : increment    - STEP LENGTH
 NULL. -999.2500:NULL Value
~CURVE INFORMATION BLOCK
#MNEM UNIT       ERCB CURVE CODE    CURVE DESCRIPTION
#-----------   ------------------   ----------------------------------
DEPT.M        00 001 00 00         : DEPTH        - DEPTH
RHOB.KG/M3    00 350 00 00         : DENS         - BULK DENSITY
GR  .API      00 310 00 00         : GR           - GAMMA RAY
DPHI.V/V      00 890 00 00         : PHID         - DENSITY POROSITY (SANDSTONE)
NPHI.V/V      00 330 00 00         : PHIN         - NEUTRON POROSITY (SANDSTONE)
ILD .OHMM     00 120 00 00         : RESD         - DEEP RESISTIVITY (DIL)
~PARAMETER INFORMATION
#MNEM.UNIT           DATA             DESCRIPTION OF MNEMONIC
#---------         -----------     ------------------------------
GL  .M        599.953              : gl           - GROUND LEVEL ELEVATION
EREF.M        602.59               : kb           - ELEVATION OF DEPTH REFERENCE
DATM.M        602.59               : datum        - DATUM ELEVATION
TDD .M        417.576              : tdd          - TOTAL DEPTH DRILLER
RUN .         ONE                  : Run          - RUN NUMBER
ENG .         BILL                 : Engineer     - RECORDING ENGINEER
WIT .         JIM                  : Witness      - WITNESSED BY
MUD .         GEL                  : Mud_type     - MUD TYPE
MATR.         SANDSTONE            : Logunit      - NEUTRON MATRIX
TMAX.C        22.2222              : BHT          - MAXIMUM RECORDED TEMPERATURE
BHTD.M        417.576              : BHTDEP       - MAXIMUM RECORDED TEMPERATURE
MATR.         1                    : LOGUNIT      - NEUTRON MATRIX
RMT .C        25                   : MDTP         - TEMPERATURE OF MUD
NEUT.         1                    : NEUTRON      - NEUTRON TYPE
RESI.         0                    : RESIST       - RESISTIVITY TYPE
RMC .OHMM     0.25                 : RMC          - RESISTIVITY OF MUD CAKE
RMF .OHMM     0.25                 : RMF          - RESISTIVITY OF MUD FILTRATE
SUFT.C        15                   : SUFT         - SURFACE TEMPERATURE
~A  DEPTH     DENS       GR     PHID     PHIN     RESD
# ...
  216.332    0.000   86.445    0.255    0.404   11.825
  216.582    0.000   85.587    0.248    0.389   12.169
  216.832    0.000   84.354    0.261    0.380   11.994
  217.082    0.000   79.763    0.245    0.383   11.658
  217.332    0.000   77.839    0.261    0.370   11.089
  217.582    0.000   80.214    0.245    0.368   10.784
  217.832    0.000   84.280    0.235    0.392   10.561
  218.082    0.000   87.461    0.215    0.400   10.915
  218.332    0.000   85.832    0.199    0.379   11.468
  218.582    0.000   81.688    0.226    0.368   12.104
  218.832    0.000   77.245    0.198    0.381   12.878
  219.082    0.000   80.793    0.196    0.400   12.689
  219.332    0.000   84.412    0.206    0.405   11.918
  219.582    0.000   89.257    0.183    0.413   10.701
  219.832    0.000   95.568    0.196    0.421    9.685
  220.082    0.000  102.466    0.222    0.431    8.764
  220.332    0.000  104.653    0.214    0.475    7.894
  220.582    0.000  104.146    0.225    0.501    7.187
  220.832    0.000  103.315    0.231    0.489    6.697
  221.082    0.000   99.224    0.237    0.478    6.903
  221.332    0.000   96.457    0.263    0.499    7.583
  221.582    0.000   88.700    0.283    0.440    8.189
  221.832    0.000   85.977    0.261    0.398    9.332
  222.082    0.000   93.390    0.239    0.369   10.159
  222.332    0.000   99.680    0.229    0.377   10.798
  222.582    0.000   99.053    0.210    0.399   10.678
  222.832    0.000  103.230    0.217    0.401    9.796
  223.082    0.000  110.682    0.211    0.416    8.852
  223.332    0.000  111.936    0.209    0.479    7.669
  223.582    0.000  105.344    0.227    0.489    7.516
  223.832    0.000  103.746    0.232    0.489    7.383
  224.082    0.000   98.432    0.245    0.504    7.617
  224.332    0.000   89.969    0.264    0.490    8.262
  224.582    0.000   88.783    0.268    0.504    9.011
  224.832    0.000   87.933    0.252    0.492   10.338
  225.082    0.000   85.782    0.237    0.491   10.895
  225.332    0.000   87.786    0.246    0.470   11.150
  225.582    0.000   89.434    0.233    0.453   10.861
  225.832    0.000   92.721    0.250    0.492   10.224
  226.082    0.000   98.496    0.271    0.469    9.685
  226.332    0.000   98.919    0.288    0.442    9.625
  226.582    0.000   91.629    0.294    0.414    9.737
  226.832    0.000   85.395    0.300    0.392   10.259
  227.082    0.000   90.895    0.287    0.391   10.777
  227.332    0.000   91.201    0.266    0.403   10.981
  227.582    0.000   94.298    0.243    0.408   10.987
  227.832    0.000   97.938    0.247    0.440   10.803
  228.082    0.000  101.684    0.247    0.482   10.269
  228.332    0.000  102.865    0.234    0.514    9.948
  228.582    0.000   99.149    0.270    0.505    9.679
  228.832    0.000   94.653    0.251    0.464    9.417
  229.082    0.000   95.109    0.248    0.425    8.664
  229.332    0.000   97.924    0.240    0.477    6.862
  229.582    0.000   93.880    0.250    0.513    5.429
  229.832    0.000   87.311    0.255    0.505    5.013
  230.082    0.000   86.304    0.265    0.494    5.002
  230.332    0.000   79.544    0.291    0.559    5.323
  230.582    0.000   67.875    0.335    0.593    6.141
  230.832    0.000   54.197    0.380    0.592    7.322
  231.082    0.000   53.496    0.317    0.469    9.239
  231.332    0.000   51.799    0.287    0.412   11.788
  231.582    0.000   52.081    0.288    0.413   15.645
  231.832    0.000   52.228    0.295    0.439   18.804
  232.082    0.000   51.740    0.303    0.429   20.881
  232.332    0.000   51.862    0.328    0.409   21.895
  232.582    0.000   55.035    0.328    0.403   22.839
  232.832    0.000   56.982    0.324    0.408   23.498
  233.082    0.000   58.011    0.334    0.398   24.085
  233.332    0.000   56.004    0.339    0.384   24.561
  233.582    0.000   52.312    0.341    0.372   24.977
  233.832    0.000   53.306    0.328    0.379   25.504
  234.082    0.000   55.571    0.320    0.398   25.965
  234.332    0.000   55.635    0.324    0.404   26.276
  234.582    0.000   55.837    0.329    0.412   26.450
  234.832    0.000   57.464    0.337    0.423   26.952
  235.082    0.000   56.703    0.338    0.414   26.954
  235.332    0.000   54.457    0.331    0.400   27.569
  235.582    0.000   55.166    0.340    0.416   27.543
  235.832    0.000   54.785    0.333    0.429   27.569
  236.082    0.000   52.046    0.336    0.425   27.585
  236.332    0.000   51.210    0.347    0.417   27.599
  236.582    0.000   54.636    0.333    0.406   27.617
  236.832    0.000   55.871    0.337    0.409   27.638
  237.082   -0.000   55.996    0.340    0.407   27.651
  237.332    0.000   54.464    0.336    0.400   27.669
  237.582   -0.000   54.114    0.344    0.386   27.679
  237.832   -0.000   54.765    0.327    0.396   27.414
  238.082   -0.000   55.466    0.335    0.412   27.249
  238.332    0.000   55.407    0.344    0.409   26.820
  238.582    0.000   56.661    0.349    0.412   26.032
  238.832    0.000   57.150    0.354    0.432   25.267
  239.082   -0.000   56.062    0.362    0.436   24.872
  239.332   -0.000   56.172    0.346    0.422   24.898
  239.582   -0.000   54.851    0.349    0.426   24.916
  239.832    0.000   54.757    0.351    0.431   25.230
  240.082    0.000   57.510    0.341    0.406   26.068
  240.332   -0.000   60.421    0.335    0.388   26.380
  240.582   -0.000   61.464    0.350    0.393   26.458
  240.832   -0.000   61.547    0.361    0.431   25.938
  241.082    0.000   58.291    0.341    0.435   25.082
  241.332    0.000   59.944    0.334    0.440   24.649
  241.582    0.000   63.973    0.338    0.426   23.178
  241.832   -0.000   68.328    0.355    0.430   22.497
  242.082   -0.000   75.107    0.363    0.448   22.466
  242.332   -0.000   78.918    0.358    0.514   22.470
  242.582    0.000   80.773    0.359    0.506   22.483
  242.832    0.000   75.423    0.359    0.501   22.490
  243.082    0.000   73.936    0.344    0.488   22.510
  243.332   -0.000   76.042    0.338    0.468   22.086
  243.582   -0.000   76.086    0.351    0.477   22.129
  243.832    0.000   74.126    0.353    0.491   22.139
  244.082    0.000   70.566    0.356    0.487   21.907
  244.332    0.000   67.881    0.364    0.498   21.699
  244.582   -0.000   66.396    0.359    0.484   21.397
  244.832   -0.000   62.091    0.354    0.471   20.964
  245.082   -0.000   59.420    0.355    0.466   21.020
  245.332    0.000   61.550    0.359    0.466   21.023
  245.582    0.000   60.404    0.352    0.500   20.881
  245.832    0.000   60.472    0.346    0.474   20.663
  246.082   -0.000   59.131    0.374    0.446   20.313
  246.332   -0.000   58.777    0.359    0.452   19.791
  246.582    0.000   56.982    0.364    0.468   19.608
  246.832    0.000   53.750    0.359    0.476   19.453
  247.082    0.000   57.982    0.350    0.494   19.594
  247.332   -0.000   58.338    0.363    0.467   19.980
  247.582   -0.000   56.225    0.363    0.467   20.008
  247.832   -0.000   57.184    0.375    0.459   20.026
  248.082    0.000   57.174    0.374    0.468   20.050
  248.332    0.000   55.499    0.354    0.494   20.230
  248.582    0.000   52.163    0.363    0.513   20.460
  248.832   -0.000   51.450    0.364    0.539   20.891
  249.082   -0.000   54.544    0.361    0.525   20.427
  249.332   -0.000   56.592    0.364    0.542   20.478
  249.582    0.000   55.865    0.359    0.516   20.259
  249.832    0.000   57.488    0.347    0.487   19.631
  250.082   -0.000   58.483    0.340    0.472   19.424
  250.332   -0.000   55.998    0.366    0.472   19.077
  250.582   -0.000   52.346    0.363    0.465   18.702
  250.832    0.000   55.796    0.349    0.455   18.752
  251.082    0.000   57.502    0.359    0.446   18.761
  251.332    0.000   56.800    0.368    0.454   18.771
  251.582   -0.000   56.282    0.361    0.486   18.783
  251.832   -0.000   56.684    0.353    0.466   18.778
  252.082   -0.000   56.253    0.340    0.466   19.195
  252.332    0.000   54.330    0.288    0.459   20.309
  252.582    0.000   50.419    0.220    0.359   23.344
