~VERSION INFORMATION
 VERS.                 2.0:   CWLS LOG ASCII STANDARD -VERSION 2.0
 WRAP.                  NO:   ONE LINE PER DEPTH STEP
~WELL INFORMATION BLOCK
#MNEM.UNIT           DATA                    DESCRIPTION OF MNEMONIC
#---------    -------------------            -------------------------------
# Generated from Intellog Unique Number	CS_77_79/WELL/947
WELL.         CDN-SUP THORNBURY              : Well_name    - WELL
LOC .         00/10-11-078-14W4/0            : Location     - LOCATION
UWI .         00/10-11-078-14W4/0            : Uwi          - UNIQUE WELL ID
ENTR.         JHS                            : Entered      - ENTERED BY
SRVC.         SCHLUMBERGER                   : Scn          - SERVICE COMPANY
STRT.M        275                            : top_depth    - START DEPTH
STOP.M        514                            : bot_depth    - STOP DEPTH
STEP.M        0.25                           : increment    - STEP LENGTH
 NULL. -999.2500:NULL Value
~CURVE INFORMATION BLOCK
#MNEM UNIT       ERCB CURVE CODE    CURVE DESCRIPTION
#-----------   ------------------   ----------------------------------
DEPT.M        00 001 00 00         : DEPTH        - DEPTH
DPHI.V/V      00 890 00 00         : PHID         - DENSITY POROSITY (LIMESTONE)
NPHI.V/V      00 330 00 00         : PHIN         - NEUTRON POROSITY (LIMESTONE)
GR  .API      00 310 00 00         : GR           - GAMMA RAY
ILD .OHMM     00 120 00 00         : RESD         - DEEP RESISTIVITY (DIL)
~PARAMETER INFORMATION
#MNEM.UNIT           DATA             DESCRIPTION OF MNEMONIC
#---------         -----------     ------------------------------
GL  .M        682.2                : gl           - GROUND LEVEL ELEVATION
EREF.M        686.7                : kb           - ELEVATION OF DEPTH REFERENCE
DATM.M        686.7                : datum        - DATUM ELEVATION
TDD .M        635                  : tdd          - TOTAL DEPTH DRILLER
RUN .         ONE                  : Run          - RUN NUMBER
ENG .         BILL                 : Engineer     - RECORDING ENGINEER
WIT .         JIM                  : Witness      - WITNESSED BY
MUD .         GEL                  : Mud_type     - MUD TYPE
MATR.         LIMESTONE            : Logunit      - NEUTRON MATRIX
TMAX.C        21                   : BHT          - MAXIMUM RECORDED TEMPERATURE
BHTD.M        635                  : BHTDEP       - MAXIMUM RECORDED TEMPERATURE
MATR.         1                    : LOGUNIT      - NEUTRON MATRIX
RMT .C        25                   : MDTP         - TEMPERATURE OF MUD
NEUT.         1                    : NEUTRON      - NEUTRON TYPE
RESI.         0                    : RESIST       - RESISTIVITY TYPE
RMC .OHMM     0.25                 : RMC          - RESISTIVITY OF MUD CAKE
RMF .OHMM     0.25                 : RMF          - RESISTIVITY OF MUD FILTRATE
SUFT.C        15                   : SUFT         - SURFACE TEMPERATURE
~A  DEPTH     PHID     PHIN       GR     RESD
# ...
  405.500    0.183    0.462  102.393    5.867
  405.750    0.194    0.471   98.727    5.867
  406.000    0.209    0.452   90.775    5.978
  406.250    0.220    0.441   93.231    5.867
  406.500    0.212    0.448   96.299    5.757
  406.750    0.225    0.461   98.142    5.757
  407.000    0.234    0.456   98.149    5.757
  407.250    0.234    0.442   95.706    5.978
  407.500    0.230    0.450   95.101    6.207
  407.750    0.258    0.437   92.658    6.446
  408.000    0.260    0.466   85.929    6.568
  408.250    0.269    0.467   83.489    6.568
  408.500    0.259    0.458   85.332    6.446
  408.750    0.273    0.452   87.787    6.568
  409.000    0.248    0.454   87.794    6.693
  409.250    0.237    0.465   87.800    6.820
  409.500    0.243    0.453   87.807    7.082
  409.750    0.234    0.440   85.365    7.353
  410.000    0.250    0.446   82.311    7.353
  410.250    0.229    0.452   81.705    7.353
  410.500    0.252    0.438   84.772    7.353
  410.750    0.240    0.437   81.718    7.353
  411.000    0.258    0.441   75.602    7.353
  411.250    0.280    0.443   75.609    7.353
  411.500    0.259    0.454   75.615    7.216
  411.750    0.269    0.449   70.724    7.216
  412.000    0.286    0.441   67.670    7.216
  412.250    0.294    0.435   65.839    7.216
  412.500    0.313    0.439   62.786    7.082
  412.750    0.322    0.443   62.793    7.082
  413.000    0.323    0.448   64.636    6.950
  413.250    0.316    0.458   65.254    6.950
  413.500    0.313    0.473   65.260    6.820
  413.750    0.310    0.500   65.267    6.693
  414.000    0.316    0.489   67.723    6.693
  414.250    0.308    0.485   68.955    6.568
  414.500    0.315    0.502   63.451    6.568
  414.750    0.300    0.512   61.621    6.568
  415.000    0.301    0.477   60.404    6.568
  415.250    0.313    0.457   61.022    6.693
  415.500    0.307    0.447   64.089    6.820
  415.750    0.312    0.445   65.933    6.950
  416.000    0.300    0.432   59.818    7.216
  416.250    0.264    0.412   57.988    7.781
  416.500    0.222    0.372   57.382    8.079
  416.750    0.149    0.340   58.000    8.389
  417.000    0.181    0.372   58.008    8.389
  417.250    0.302    0.407   61.688    8.079
  417.500    0.300    0.437   64.756    7.635
  417.750    0.300    0.466   63.538    7.216
  418.000    0.319    0.460   61.095    6.950
  418.250    0.301    0.434   60.489    6.693
  418.500    0.317    0.429   62.946    6.568
  418.750    0.314    0.443   66.014    6.568
  419.000    0.317    0.459   64.796    6.568
  419.250    0.332    0.455   58.680    6.568
  419.500    0.334    0.445   56.850    6.568
  419.750    0.337    0.444   56.858    6.568
  420.000    0.327    0.454   58.087    6.568
  420.250    0.324    0.453   60.543    6.568
  420.500    0.319    0.458   63.612    6.446
  420.750    0.318    0.446   64.843    6.325
  421.000    0.309    0.459   64.850    6.325
  421.250    0.308    0.472   65.469    6.325
  421.500    0.320    0.478   65.476    6.325
  421.750    0.323    0.472   65.482    6.207
  422.000    0.309    0.454   63.040    6.207
  422.250    0.314    0.438   62.433    6.207
  422.500    0.322    0.451   66.114    6.207
  422.750    0.324    0.466   66.734    6.207
  423.000    0.323    0.465   66.127    6.325
  423.250    0.301    0.435   66.747    6.693
  423.500    0.280    0.413   63.079    7.635
  423.750    0.222    0.385   60.025    8.389
  424.000    0.153    0.309   57.584    9.045
  424.250    0.085    0.283   57.589    9.392
  424.500    0.096    0.284   61.271    9.392
  424.750    0.271    0.353   64.950    8.876
  425.000    0.325    0.460   67.406    8.079
  425.250    0.308    0.446   63.738    7.082
  425.500    0.310    0.424   59.460    6.325
  425.750    0.334    0.418   61.915    6.325
  426.000    0.332    0.422   61.310    6.207
  426.250    0.324    0.426   60.092    6.207
  426.500    0.326    0.444   61.935    6.207
  426.750    0.315    0.473   62.556    6.207
  427.000    0.330    0.461   63.785    6.092
  427.250    0.352    0.456   63.792    6.092
  427.500    0.343    0.480   64.411    6.207
  427.750    0.335    0.477   67.480    6.207
  428.000    0.326    0.455   69.322    6.207
  428.250    0.329    0.442   65.656    6.207
  428.500    0.337    0.473   65.051    6.207
  428.750    0.324    0.472   63.832    6.325
  429.000    0.326    0.451   59.553    6.325
  429.250    0.314    0.432   65.070    6.325
  429.500    0.316    0.431   69.363    6.207
  429.750    0.314    0.457   67.533    6.207
  430.000    0.322    0.469   65.090    6.092
  430.250    0.308    0.441   64.486    6.092
  430.500    0.306    0.436   62.654    6.092
  430.750    0.300    0.447   61.437    6.092
  431.000    0.320    0.446   65.117    6.092
  431.250    0.309    0.457   70.022    6.092
  431.500    0.310    0.448   71.865    6.092
  431.750    0.310    0.438   65.749    6.207
  432.000    0.320    0.464   59.022    6.207
  432.250    0.322    0.495   61.478    6.325
  432.500    0.317    0.483   64.545    6.325
  432.750    0.307    0.472   68.838    6.325
  433.000    0.312    0.473   68.232    6.446
  433.250    0.325    0.474   71.301    6.568
  433.500    0.326    0.458   72.531    6.693
  433.750    0.320    0.443   67.028    6.820
  434.000    0.331    0.431   66.422    6.950
  434.250    0.323    0.449   68.879    6.950
  434.500    0.316    0.459   70.721    6.950
  434.750    0.309    0.464   72.564    6.820
  435.000    0.304    0.471   68.898    6.693
  435.250    0.313    0.457   67.069    6.446
  435.500    0.313    0.441   71.972    6.207
  435.750    0.305    0.436   75.652    6.207
  436.000    0.325    0.452   74.436    6.207
  436.250    0.334    0.471   72.606    6.092
  436.500    0.321    0.464   71.999    6.092
  436.750    0.299    0.457   70.169    6.092
  437.000    0.280    0.463   73.239    6.092
  437.250    0.269    0.459   76.918    6.207
  437.500    0.265    0.449   79.373    6.207
  437.750    0.257    0.443   81.217    6.207
  438.000    0.253    0.453   83.673    6.092
  438.250    0.247    0.457   83.679    5.978
  438.500    0.239    0.461   87.360    5.650
  438.750    0.227    0.445   91.652    5.545
  439.000    0.234    0.442   90.434    5.757
  439.250    0.220    0.438   89.830    5.867
  439.500    0.226    0.436   87.385    5.978
  439.750    0.239    0.439   83.108    6.207
  440.000    0.227    0.458   79.441    6.325
  440.250    0.222    0.452   78.222    6.325
  440.500    0.216    0.442   77.004    6.325
  440.750    0.217    0.433   80.686    6.325
  441.000    0.250    0.444   84.978    6.325
  441.250    0.265    0.476   88.657    6.568
  441.500    0.245    0.464   91.113    6.820
  441.750    0.218    0.444   90.507    6.820
  442.000    0.212    0.429   84.392    6.568
  442.250    0.159    0.438   74.603    6.446
  442.500    0.105    0.413   67.874    6.568
  442.750    0.010    0.340   59.922    6.820
  443.000    0.000    0.251   55.030    7.635
  443.250    0.001    0.269   59.322    8.711
  443.500    0.022    0.317   69.738    9.937
  443.750    0.190    0.357   86.276    9.937
  444.000    0.212    0.445   87.507    9.570
  444.250    0.195    0.450   86.289    8.711
  444.500    0.190    0.464   88.744    7.493
  444.750    0.218    0.468   89.976    6.820
  445.000    0.201    0.465   89.983    6.693
  445.250    0.195    0.471   88.765    6.693
  445.500    0.187    0.444   90.609    6.820
  445.750    0.168    0.424   91.226    7.082
  446.000    0.190    0.407   88.172    7.353
  446.250    0.180    0.411   87.567    7.781
  446.500    0.174    0.438   90.634    8.232
  446.750    0.175    0.445   93.702    8.389
  447.000    0.186    0.440   88.811    8.389
  447.250    0.179    0.430   95.554    8.079
  447.500    0.181    0.444   98.008    7.493
  447.750    0.174    0.422   94.955    7.082
  448.000    0.179    0.411   95.573    6.820
  448.250    0.185    0.411   93.130    6.693
  448.500    0.188    0.404   88.240    6.568
  448.750    0.181    0.399   90.695    6.446
