~VERSION INFORMATION
 VERS.                 2.0:   CWLS LOG ASCII STANDARD -VERSION 2.0
 WRAP.                  NO:   ONE LINE PER DEPTH STEP
~WELL INFORMATION BLOCK
#MNEM.UNIT           DATA                    DESCRIPTION OF MNEMONIC
#---------    -------------------            -------------------------------
# Generated from Intellog Unique Number	CS_69_70/WELL/866
WELL.         BRALORNE RESOURCES LIMITED     : Well_name    - WELL
LOC .         00/10-12-069-10W4/0            : Location     - LOCATION
UWI .         00/10-12-069-10W4/0            : Uwi          - UNIQUE WELL ID
ENTR.         SP                             : Entered      - ENTERED BY
SRVC.         SCHLUMBERGER                   : Scn          - SERVICE COMPANY
STRT.M        478.536                        : top_depth    - START DEPTH
STOP.M        685.536                        : bot_depth    - STOP DEPTH
STEP.M        0.25                           : increment    - STEP LENGTH
 NULL. -999.2500:NULL Value
~CURVE INFORMATION BLOCK
#MNEM UNIT       ERCB CURVE CODE    CURVE DESCRIPTION
#-----------   ------------------   ----------------------------------
DEPT.M        00 001 00 00         : DEPTH        - DEPTH
GR  .API      00 310 00 00         : GR           - GAMMA RAY
DPHI.V/V      00 890 00 00         : PHID         - DENSITY POROSITY (SANDSTONE)
NPHI.V/V      00 330 00 00         : PHIN         - NEUTRON POROSITY (SANDSTONE)
ILD .OHMM     00 120 00 00         : RESD         - DEEP RESISTIVITY (DIL)
~PARAMETER INFORMATION
#MNEM.UNIT           DATA             DESCRIPTION OF MNEMONIC
#---------         -----------     ------------------------------
GL  .M        798.119              : gl           - GROUND LEVEL ELEVATION
EREF.M        801.624              : kb           - ELEVATION OF DEPTH REFERENCE
DATM.M        798.119              : datum        - DATUM ELEVATION
TDD .M        687.019              : tdd          - TOTAL DEPTH DRILLER
RUN .         ONE                  : Run          - RUN NUMBER
ENG .         BILL                 : Engineer     - RECORDING ENGINEER
WIT .         JIM                  : Witness      - WITNESSED BY
MUD .         GEL                  : Mud_type     - MUD TYPE
MATR.         SANDSTONE            : Logunit      - NEUTRON MATRIX
TMAX.C        20                   : BHT          - MAXIMUM RECORDED TEMPERATURE
BHTD.M        687.019              : BHTDEP       - MAXIMUM RECORDED TEMPERATURE
MATR.         1                    : LOGUNIT      - NEUTRON MATRIX
RMT .C        25                   : MDTP         - TEMPERATURE OF MUD
NEUT.         1                    : NEUTRON      - NEUTRON TYPE
RESI.         0                    : RESIST       - RESISTIVITY TYPE
RMC .OHMM     0.25                 : RMC          - RESISTIVITY OF MUD CAKE
RMF .OHMM     0.25                 : RMF          - RESISTIVITY OF MUD FILTRATE
SUFT.C        15                   : SUFT         - SURFACE TEMPERATURE
~A  DEPTH       GR     PHID     PHIN     RESD
# ...
  522.036  100.965    0.261    0.457    4.783
  522.286   92.210    0.275    0.453    4.848
  522.536   85.925    0.271    0.438    4.909
  522.786   88.391    0.252    0.433    4.951
  523.036   90.179    0.238    0.423    5.003
  523.286   90.551    0.229    0.406    5.102
  523.536   90.017    0.236    0.409    5.209
  523.786   89.646    0.253    0.436    5.281
  524.036   85.846    0.266    0.451    5.348
  524.286   80.391    0.274    0.441    5.428
  524.536   78.941    0.279    0.433    5.474
  524.786   83.752    0.279    0.436    5.480
  525.036   85.016    0.276    0.447    5.408
  525.286   85.320    0.270    0.454    5.334
  525.536   87.814    0.263    0.472    5.227
  525.786   90.421    0.253    0.483    5.157
  526.036   92.385    0.246    0.481    5.098
  526.286   93.260    0.240    0.470    5.098
  526.536   91.082    0.247    0.465    5.121
  526.786   88.463    0.264    0.461    5.151
  527.036   88.621    0.281    0.457    5.156
  527.286   92.490    0.268    0.464    5.120
  527.536   96.399    0.256    0.477    5.031
  527.786   98.597    0.249    0.479    4.954
  528.036   99.984    0.245    0.469    4.881
  528.286   98.907    0.246    0.462    4.852
  528.536   97.943    0.248    0.454    4.873
  528.786   99.323    0.246    0.462    4.900
  529.036  101.136    0.238    0.475    4.894
  529.286  102.524    0.241    0.473    4.874
  529.536  104.255    0.246    0.459    4.818
  529.786  104.708    0.246    0.448    4.761
  530.036  100.546    0.235    0.446    4.701
  530.286   98.355    0.222    0.455    4.643
  530.536   96.939    0.214    0.451    4.653
  530.786   93.685    0.231    0.440    4.662
  531.036   86.134    0.260    0.435    4.710
  531.286   78.367    0.276    0.445    4.761
  531.536   73.210    0.295    0.451    4.789
  531.786   72.138    0.293    0.455    4.842
  532.036   72.237    0.289    0.467    4.869
  532.286   73.176    0.289    0.479    4.896
  532.536   75.148    0.281    0.476    4.914
  532.786   78.220    0.276    0.473    4.926
  533.036   81.452    0.288    0.470    4.928
  533.286   84.971    0.297    0.458    4.870
  533.536   86.559    0.288    0.449    4.856
  533.786   87.850    0.286    0.442    4.830
  534.036   89.052    0.295    0.439    4.815
  534.286   89.481    0.301    0.444    4.835
  534.536   87.198    0.296    0.438    4.837
  534.786   84.190    0.287    0.436    4.787
  535.036   82.432    0.294    0.442    4.777
  535.286   83.303    0.288    0.456    4.813
  535.536   85.915    0.282    0.466    4.892
  535.786   89.875    0.286    0.441    4.946
  536.036   93.587    0.266    0.424    5.038
  536.286   96.979    0.253    0.413    5.140
  536.536   98.222    0.246    0.410    5.236
  536.786   98.438    0.251    0.417    5.383
  537.036   97.290    0.259    0.423    5.483
  537.286   95.897    0.261    0.420    5.597
  537.536   95.091    0.249    0.419    5.713
  537.786   96.346    0.242    0.420    5.834
  538.036   98.281    0.231    0.425    5.943
  538.286  100.244    0.224    0.432    6.103
  538.536  102.066    0.219    0.422    6.146
  538.786  103.437    0.218    0.414    6.246
  539.036  104.681    0.220    0.410    6.263
  539.286  104.953    0.208    0.410    6.252
  539.536  107.092    0.205    0.409    6.242
  539.786  104.932    0.199    0.405    6.093
  540.036  104.472    0.188    0.404    5.877
  540.286  107.798    0.179    0.417    5.681
  540.536  113.222    0.172    0.434    5.454
  540.786  114.622    0.180    0.451    5.338
  541.036  111.494    0.210    0.468    5.300
  541.286  106.059    0.230    0.459    5.405
  541.536  100.109    0.246    0.465    5.584
  541.786   93.202    0.261    0.460    5.764
  542.036   85.415    0.279    0.450    5.913
  542.286   78.712    0.286    0.444    5.992
  542.536   75.175    0.283    0.444    5.942
  542.786   78.058    0.279    0.448    5.874
  543.036   76.394    0.273    0.458    5.862
  543.286   75.664    0.266    0.467    6.020
  543.536   78.731    0.256    0.477    6.183
  543.786   79.726    0.248    0.483    6.382
  544.036   77.028    0.240    0.489    6.654
  544.286   73.828    0.233    0.484    6.863
  544.536   71.748    0.227    0.469    6.947
  544.786   69.627    0.229    0.459    6.883
  545.036   68.948    0.301    0.456    6.630
  545.286   74.022    0.290    0.470    6.454
  545.536   76.672    0.279    0.466    6.314
  545.786   78.873    0.270    0.457    6.215
  546.036   80.236    0.260    0.455    6.127
  546.286   80.975    0.252    0.454    6.098
  546.536   78.770    0.244    0.434    6.094
  546.786   75.237    0.246    0.409    6.050
  547.036   72.308    0.255    0.394    5.998
  547.286   70.075    0.253    0.397    5.942
  547.536   69.168    0.248    0.400    5.858
  547.786   69.672    0.246    0.400    5.755
  548.036   70.729    0.248    0.401    5.644
  548.286   72.036    0.253    0.406    5.539
  548.536   75.042    0.256    0.403    5.496
  548.786   82.275    0.246    0.397    5.500
  549.036   96.422    0.228    0.404    5.563
  549.286  105.743    0.202    0.414    5.589
  549.536  110.110    0.208    0.411    5.664
  549.786  106.652    0.214    0.398    5.735
  550.036  101.578    0.222    0.406    5.792
  550.286   95.823    0.235    0.416    5.873
  550.536   89.393    0.250    0.409    5.897
  550.786   84.874    0.257    0.397    5.907
  551.036   80.921    0.258    0.397    5.902
  551.286   81.608    0.256    0.392    5.884
  551.536   85.290    0.238    0.386    5.866
  551.786   86.826    0.226    0.383    5.855
  552.036   85.294    0.210    0.395    5.829
  552.286   82.572    0.199    0.422    5.774
  552.536   79.869    0.217    0.441    5.687
  552.786   78.751    0.239    0.455    5.643
  553.036   78.129    0.252    0.452    5.647
  553.286   79.094    0.239    0.437    5.602
  553.536   80.977    0.235    0.430    5.553
  553.786   84.220    0.245    0.435    5.463
  554.036   90.765    0.231    0.439    5.323
  554.286   96.246    0.217    0.439    5.100
  554.536  101.313    0.209    0.448    4.808
  554.786  107.365    0.202    0.454    4.474
  555.036  111.605    0.194    0.450    3.850
  555.286  114.712    0.191    0.461    3.229
  555.536  116.882    0.202    0.480    2.741
  555.786  119.119    0.194    0.493    2.380
  556.036  120.075    0.195    0.507    2.204
  556.286  113.975    0.197    0.529    2.129
  556.536  108.440    0.194    0.529    2.389
  556.786  105.860    0.200    0.489    2.640
  557.036  103.830    0.194    0.468    3.099
  557.286  102.008    0.188    0.457    3.373
  557.536  101.928    0.196    0.455    3.676
  557.786  101.663    0.191    0.457    4.108
  558.036   98.002    0.194    0.455    4.085
  558.286   96.361    0.195    0.454    4.016
  558.536   94.566    0.196    0.464    3.987
  558.786   92.372    0.208    0.467    4.048
  559.036   89.275    0.223    0.459    4.217
  559.286   84.997    0.235    0.454    4.501
  559.536   80.018    0.222    0.458    4.802
  559.786   76.528    0.241    0.463    5.095
  560.036   72.619    0.262    0.453    5.370
  560.286   70.242    0.278    0.446    5.617
  560.536   69.145    0.288    0.451    5.797
  560.786   68.695    0.295    0.462    5.949
  561.036   68.257    0.303    0.457    6.061
  561.286   67.884    0.316    0.450    6.147
  561.536   67.564    0.325    0.446    6.352
  561.786   66.892    0.304    0.446    6.601
  562.036   66.313    0.294    0.447    6.970
  562.286   66.126    0.285    0.443    7.290
  562.536   66.551    0.282    0.436    7.637
  562.786   67.671    0.285    0.435    7.816
  563.036   69.189    0.287    0.442    7.882
  563.286   70.919    0.284    0.448    7.790
  563.536   71.162    0.287    0.446    7.555
  563.786   70.702    0.298    0.447    7.228
  564.036   70.612    0.304    0.454    6.680
  564.286   70.802    0.311    0.450    6.401
  564.536   71.229    0.304    0.447    6.055
  564.786   71.577    0.298    0.452    5.776
  565.036   71.619    0.271    0.455    5.682
  565.286   71.639    0.255    0.437    5.878
