~VERSION INFORMATION
 VERS.                 2.0:   CWLS LOG ASCII STANDARD -VERSION 2.0
 WRAP.                  NO:   ONE LINE PER DEPTH STEP
~WELL INFORMATION BLOCK
#MNEM.UNIT           DATA                    DESCRIPTION OF MNEMONIC
#---------    -------------------            -------------------------------
# Generated from Intellog Unique Number	CW_73_75/WELL/200
WELL.         10-18-073-24W4                 : Well_name    - WELL
LOC .         00/10-18-073-24W4/0            : Location     - LOCATION
UWI .         00/10-18-073-24W4/0            : Uwi          - UNIQUE WELL ID
ENTR.         JJ                             : Entered      - ENTERED BY
SRVC.         SCHLUMBERGER                   : Scn          - SERVICE COMPANY
DATE.         21 FEB 66                      : Date         - LOG DATE
STRT.M        472.44                         : top_depth    - START DEPTH
STOP.M        600.44                         : bot_depth    - STOP DEPTH
STEP.M        0.25                           : increment    - STEP LENGTH
 NULL. -999.2500:NULL Value
~CURVE INFORMATION BLOCK
#MNEM UNIT       ERCB CURVE CODE    CURVE DESCRIPTION
#-----------   ------------------   ----------------------------------
DEPT.M        00 001 00 00         : DEPTH        - DEPTH
DELT.US/F     00 520 00 00         : DELT         - SONIC TRAVEL TIME
GR  .API      00 310 00 00         : GR           - GAMMA RAY
ILD .OHMM     00 120 00 00         : RESD         - DEEP RESISTIVITY (DIL)
~PARAMETER INFORMATION
#MNEM.UNIT           DATA             DESCRIPTION OF MNEMONIC
#---------         -----------     ------------------------------
GL  .M        636.727              : gl           - GROUND LEVEL ELEVATION
EREF.M        640.08               : kb           - ELEVATION OF DEPTH REFERENCE
DATM.M        636.727              : datum        - DATUM ELEVATION
TDD .M        611.124              : tdd          - TOTAL DEPTH DRILLER
RUN .         ONE                  : Run          - RUN NUMBER
ENG .         SWINARTON            : Engineer     - RECORDING ENGINEER
WIT .         DAWSON-GROVE         : Witness      - WITNESSED BY
BASE.         EDM                  : Branch       - HOME BASE OF LOGGING UNIT
MUD .         GEL CHEM             : Mud_type     - MUD TYPE
MATR.         SANDSTONE            : Logunit      - NEUTRON MATRIX
TMAX.C        20                   : BHT          - MAXIMUM RECORDED TEMPERATURE
BHTD.M        611.124              : BHTDEP       - MAXIMUM RECORDED TEMPERATURE
RMT .C        17.2222              : MDTP         - TEMPERATURE OF MUD
MUDD.KG/M     1092                 : MWT          - MUD DENSITY
NEUT.         1                    : NEUTRON      - NEUTRON TYPE
RESI.         0                    : RESIST       - RESISTIVITY TYPE
RM  .OHMM     4.38                 : RM           - RESISTIVITY OF MUD
RMC .OHMM     2.41                 : RMC          - RESISTIVITY OF MUD CAKE
RMF .OHMM     6.71                 : RMF          - RESISTIVITY OF MUD FILTRATE
SUFT.C        5                    : SUFT         - SURFACE TEMPERATURE
~A  DEPTH     DELT       GR     RESD
# ...
  526.690  376.108   47.461   35.030
  526.940  377.575   45.572   35.065
  527.190  379.108   42.741   35.099
  527.440  379.576   42.193   34.340
  527.690  380.177   43.035   32.980
  527.940  380.111   45.615   31.221
  528.190  379.913   45.812   29.267
  528.440  379.848   46.406   28.108
  528.690  383.712   51.219   27.748
  528.940  362.534   51.615   27.193
  529.190  351.413   46.301   27.023
  529.440  340.758   46.100   25.864
  529.690  313.586   47.787   25.509
  529.940  308.326   47.983   25.748
  530.190  326.110   48.180   24.789
  530.440  331.773   49.419   24.034
  530.690  311.261   51.900   23.679
  530.940  339.235   54.778   23.909
  531.190  360.482   53.137   24.148
  531.440  350.427   48.469   21.795
  531.690  275.035   46.580   20.835
  531.940  273.837   49.011   19.276
  532.190  307.140   51.144   18.716
  532.440  317.132   52.284   18.551
  532.690  327.190   53.226   18.796
  532.940  308.809   54.018   18.835
  533.190  296.689   51.733   19.280
  533.440  300.487   50.986   19.919
  533.690  298.823   50.587   20.159
  533.940  290.566   53.316   20.204
  534.190  296.362   52.271   18.645
  534.440  295.764   48.347   16.881
  534.690  298.163   52.864   14.117
  534.940  314.282   62.195   12.158
  535.190  323.608   70.137   11.409
  535.440  329.004   74.405   11.448
  535.690  329.205   71.424   11.683
  535.940  330.472   69.089   12.927
  536.190  326.877   66.059   13.961
  536.440  326.945   59.702   16.005
  536.690  324.083   60.693   18.048
  536.940  324.617   63.223   20.486
  537.190  330.013   59.498   23.124
  537.440  327.217   49.467   26.167
  537.690  314.231   40.926   26.412
  537.940  304.509   43.555   24.048
  538.190  301.180   44.844   22.094
  538.440  309.174   44.793   21.330
  538.690  305.778   48.713   21.774
  538.940  302.916   54.520   22.409
  539.190  307.446   48.114   23.453
  539.440  304.850   44.388   22.493
  539.690  268.953   41.805   20.529
  539.940  248.508   43.789   14.973
  540.190  255.369   51.085   11.015
  540.440  286.607   57.687    9.456
  540.690  305.990   64.089    8.901
  540.940  316.514   70.989    8.936
  541.190  326.972   74.164    8.781
  541.440  330.237   73.318    8.620
  541.690  329.306   71.827    8.660
  541.940  328.575   72.470    8.700
  542.190  331.973   74.107    8.750
  542.440  339.300   76.141    8.790
  542.690  339.302   77.629    8.829
  542.940  336.706   69.484    8.869
  543.190  335.975   70.972    8.899
  543.440  338.640   73.154    9.144
  543.690  330.316   73.004    9.383
  543.940  319.395   73.647    9.823
  544.190  334.915   82.979   10.867
  544.440  346.638   80.545   11.706
  544.690  333.985   74.486   12.345
  544.940  319.800   67.335   13.385
  545.190  313.674   64.205   15.628
  545.440  305.351   64.749   18.266
  545.690  306.551   64.797   19.710
  545.940  311.547   62.809   20.354
  546.190  318.809   60.673   20.389
  546.440  319.010   57.196   20.439
  546.690  316.813   62.357   20.074
  546.940  311.553   66.178   19.709
  547.190  308.757   68.510   19.554
  547.440  308.492   67.664   19.589
  547.690  309.226   69.648   20.638
  547.940  310.760   75.306   22.671
  548.190  317.288   78.382   28.912
  548.440  328.279   74.657   37.551
  548.690  248.891   62.591   35.992
  548.940  223.916   48.936   24.035
  549.190  213.328   42.083   18.073
  549.440  234.109   52.953   13.716
  549.690  261.484   58.760   12.357
  549.940  273.407   60.844   11.397
  550.190  282.999   62.530   10.637
  550.440  302.515   65.308   10.078
  550.690  319.633   67.640    9.718
  550.940  325.962   68.631    9.562
  551.190  331.758   69.076    9.407
  551.440  334.889   69.670    9.252
  551.690  329.496   70.115    9.287
  551.940  325.768   70.411    9.322
  552.190  321.840   71.799    9.362
  552.440  322.574   73.039    9.206
  552.690  319.512   73.682    8.252
  552.940  309.922   71.447    6.888
  553.190  297.802   71.792    5.528
  553.440  304.264   74.223    4.369
  553.690  327.043   78.888    3.809
  553.940  323.515   73.723    4.249
  554.190  301.737   67.168    5.293
  554.440  283.823   63.889    7.136
  554.690  311.797   65.724    8.380
  554.940  323.321   69.644    9.619
  555.190  328.783   72.621   10.059
  555.440  330.050   72.669   10.293
  555.690  327.188   69.837   10.533
  555.940  323.859   70.382   10.978
  556.190  318.399   73.358   11.417
  556.440  316.269   76.782   12.456
  556.690  317.137   80.306   13.895
  556.940  317.338   79.857   16.333
  557.190  298.025   69.628   13.375
  557.440  239.150   48.774   10.622
  557.690  237.620   40.034    9.262
  557.940  267.126   71.409    8.298
  558.190  287.108   75.032    7.343
  558.440  306.690   73.094    6.778
  558.690  306.359   72.645    5.819
  558.940  310.023   75.225    4.664
  559.190  321.413   74.975    4.100
  559.440  384.754   70.157    3.545
  559.690  396.810   68.269    3.395
  559.940  417.658   68.366    3.824
  560.190  415.395   70.400    4.473
  560.440  408.136   74.271    5.313
  560.690  415.331   82.262    6.152
  560.940  409.338   83.601    6.986
  561.190  409.939   74.811    7.626
  561.440  339.942   65.724    7.066
  561.690  305.243   69.743    6.711
  561.940  310.240   72.820    6.551
  562.190  323.362   73.463    6.995
  562.440  335.951   73.313    7.835
  562.690  350.672   77.134    8.474
  562.940  345.145   79.217    8.514
  563.190  328.230   73.158    7.959
  563.440  313.512   64.667    7.594
  563.690  285.541   59.551    7.639
  563.940  298.330   71.514    7.673
  564.190  324.306   74.591    8.118
  564.440  333.365   72.057    9.357
  564.690  334.232   66.197   11.800
  564.940  330.638   60.137   15.438
  565.190  322.114   55.469   18.076
  565.440  312.391   48.814   17.716
  565.690  301.736   39.727   17.566
  565.940  304.202   33.916   17.406
  566.190  316.458   29.992   17.450
  566.440  322.787   27.756   17.480
  566.690  325.852   25.917   17.925
  566.940  328.451   23.284   18.159
  567.190  330.650   24.275   18.804
  567.440  332.383   23.032   19.648
  567.690  332.918   23.527   20.282
  567.940  333.518   23.376   20.922
  568.190  333.520   22.679   21.166
  568.440  333.987   23.174   21.411
  568.690  338.185   22.229   21.451
  568.940  339.984   23.617   22.090
  569.190  336.789   22.871   22.530
  569.440  331.862   20.436   23.779
  569.690  327.801   23.363   24.408
  569.940  327.136   26.439   24.853
  570.190  327.004   27.381   24.093
  570.440  320.012   22.415   22.939
  570.690  305.694   21.320   21.779
  570.940  309.093   23.553   21.014
  571.190  322.348   25.537   20.055
  571.440  331.141   26.230   18.895
  571.690  332.408   27.668   16.532
  571.940  332.143   29.304   13.978
  572.190  330.945   28.210   13.014
  572.440  329.016   25.875   12.259
  572.690  327.485   28.405   11.894
  572.940  326.087   29.247   11.539
  573.190  325.756   28.302   11.179
  573.440  326.424   26.562   10.819
  573.690  325.026   26.760   10.459
  573.940  323.229   28.297   10.299
  574.190  322.831   31.770    9.944
  574.440  324.897   34.300    9.784
  574.690  324.299   35.639    9.819
  574.940  321.370   36.879   10.058
  575.190  321.571   38.465   10.913
  575.440  323.704   39.159   11.552
  575.690  323.372   40.299   11.787
  575.940  322.308   40.694   12.226
  576.190  320.178   37.564   12.466
  576.440  316.717   34.385   12.515
  576.690  314.320   37.759   11.951
  576.940  310.259   42.375   11.586
  577.190  307.663   42.869   11.226
  577.440  309.330   44.059   11.066
  577.690  312.861   44.157   10.906
  577.940  314.461   46.141   10.751
  578.190  316.194   48.124   10.795
  578.440  317.128   46.683   10.840
  578.690  317.662   46.582   11.080
  578.940  316.531   47.474   11.120
  579.190  314.335   49.110   11.154
  579.440  313.270   50.499   11.199
  579.690  311.474   51.539   11.044
  579.940  310.076   48.707   11.074
  580.190  309.545   49.252   10.914
  580.440  311.145   50.541   10.759
  580.690  313.411   49.149   10.594
