~VERSION INFORMATION
 VERS.                 2.0:   CWLS LOG ASCII STANDARD -VERSION 2.0
 WRAP.                  NO:   ONE LINE PER DEPTH STEP
~WELL INFORMATION BLOCK
#MNEM.UNIT           DATA                    DESCRIPTION OF MNEMONIC
#---------    -------------------            -------------------------------
# Generated from Intellog Unique Number	CW_79_81/WELL/2899
WELL.         CAN DELHI WAVASCA NC. 10-18    : Well_name    - WELL
LOC .         00/10-18-080-25W4/0            : Location     - LOCATION
UWI .         00/10-18-080-25W4/0            : Uwi          - UNIQUE WELL ID
ENTR.         JJ                             : Entered      - ENTERED BY
SRVC.         WESTERN ATLAS                  : Scn          - SERVICE COMPANY
DATE.         7 FEB 69                       : Date         - LOG DATE
STRT.M        338.328                        : top_depth    - START DEPTH
STOP.M        466.328                        : bot_depth    - STOP DEPTH
STEP.M        0.25                           : increment    - STEP LENGTH
 NULL. -999.2500:NULL Value
~CURVE INFORMATION BLOCK
#MNEM UNIT       ERCB CURVE CODE    CURVE DESCRIPTION
#-----------   ------------------   ----------------------------------
DEPT.M        00 001 00 00         : DEPTH        - DEPTH
DELT.US/F     00 520 00 00         : DELT         - SONIC TRAVEL TIME
GR  .API      00 310 00 00         : GR           - GAMMA RAY
RHOB.KG/M3    00 350 00 00         : DENS         - BULK DENSITY
CALI.MM       00 280 01 00         : CAL          - CALIPER
ILD .OHMM     00 120 00 00         : RESD         - DEEP RESISTIVITY (DIL)
~PARAMETER INFORMATION
#MNEM.UNIT           DATA             DESCRIPTION OF MNEMONIC
#---------         -----------     ------------------------------
GL  .M        551.261              : gl           - GROUND LEVEL ELEVATION
EREF.M        554.157              : kb           - ELEVATION OF DEPTH REFERENCE
DATM.M        554.157              : datum        - DATUM ELEVATION
TDD .M        469.392              : tdd          - TOTAL DEPTH DRILLER
RUN .         ONE                  : Run          - RUN NUMBER
ENG .         BLAND                : Engineer     - RECORDING ENGINEER
WIT .         WOREBEC              : Witness      - WITNESSED BY
BASE.         EDM                  : Branch       - HOME BASE OF LOGGING UNIT
MUD .         MUD                  : Mud_type     - MUD TYPE
MATR.         LIMESTONE            : Logunit      - NEUTRON MATRIX
TMAX.C        29.4444              : BHT          - MAXIMUM RECORDED TEMPERATURE
BHTD.M        470.611              : BHTDEP       - MAXIMUM RECORDED TEMPERATURE
RMT .C        15.5556              : MDTP         - TEMPERATURE OF MUD
MUDD.KG/M     1176                 : MWT          - MUD DENSITY
NEUT.         1                    : NEUTRON      - NEUTRON TYPE
RESI.         0                    : RESIST       - RESISTIVITY TYPE
RM  .OHMM     7                    : RM           - RESISTIVITY OF MUD
RMC .OHMM     5.5                  : RMC          - RESISTIVITY OF MUD CAKE
RMF .OHMM     8                    : RMF          - RESISTIVITY OF MUD FILTRATE
SUFT.C        5                    : SUFT         - SURFACE TEMPERATURE
~A  DEPTH     DELT       GR     DENS      CAL     RESD
# ...
  411.328  340.541   95.632 2466.960  196.324   15.522
  411.578  339.507   89.212 2517.720  194.169   17.372
  411.828  324.827   82.001 2513.820  194.848   18.741
  412.078  311.708   80.401 2567.160  196.795   18.626
  412.328  368.445   79.743 2490.470  199.271   19.173
  412.578  371.064   79.632 2429.330  198.051   25.075
  412.828  372.793   74.503 2371.780  192.421   41.185
  413.078  401.634   58.699 2290.510  188.685   46.786
  413.328  424.456   43.987 2324.900  186.424   69.874
  413.578  405.908   31.762 2372.660  185.423  100.927
  413.828  375.678   23.604 2391.310  184.954  130.808
  414.078  379.289   21.854 2388.810  184.490  145.867
  414.328  376.357   22.946 2421.010  184.218  130.339
  414.578  372.000   24.222 2425.690  184.488  136.609
  414.828  369.207   24.897 2393.670  184.550  149.429
  415.078  382.038   23.098 2362.450  184.375  156.258
  415.328  383.164   20.758 2335.430  184.114  156.524
  415.578  375.271   21.438 2355.260  183.848  156.162
  415.828  369.284   26.494 2361.740  183.284  155.015
  416.078  372.887   28.810 2325.330  183.115  152.282
  416.328  374.016   28.600 2327.820  182.740  148.915
  416.578  370.837   25.808 2346.070  183.955  139.598
  416.828  364.648   26.347 2376.080  186.014  132.585
  417.078  375.513   29.416 2424.830  186.695  122.627
  417.328  374.939   29.794 2404.200  187.062  111.491
  417.578  373.393   26.456 2379.750  186.897   49.396
  417.828  366.083   24.013 2355.910  186.121   47.051
  418.078  375.583   23.155 2346.420  186.171   37.718
  418.328  372.723   29.306 2370.640  186.320   29.890
  418.578  366.141   31.426 2373.940  186.272   25.015
  418.828  365.050   29.678 2375.420  185.903   24.818
  419.078  368.205   30.657 2379.700  185.426   24.902
  419.328  356.519   32.885 2396.740  184.643   25.127
  419.578  355.424   35.709 2436.740  184.065   25.070
  419.828  355.906   37.974 2433.630  183.505   23.668
  420.078  357.031   40.491 2410.580  183.646   21.062
  420.328  358.555   44.010 2386.750  183.594   19.319
  420.578  373.729   47.124 2376.870  183.953   17.957
  420.828  379.498   50.788 2393.920  185.273   17.540
  421.078  369.387   52.959 2434.090  185.641   17.623
  421.328  362.866   55.232 2431.200  186.008   17.928
  421.578  367.127   60.583 2437.270  186.072   17.872
  421.828  362.707   61.167 2475.850  188.324   16.571
  422.078  361.356   65.129 2465.980  194.797   14.406
  422.328  375.685   68.500 2483.820  198.323   13.486
  422.578  395.699   70.765 2508.060  193.851   14.253
  422.828  374.022   76.020 2494.980  183.696   15.964
  423.078  345.154   72.431 2512.630  182.282   20.124
  423.328  349.878   56.827 2492.380  183.484   24.023
  423.578  326.108   52.296 2494.660  186.904   28.324
  423.828  376.380   49.752 2520.470  189.900   28.629
  424.078  355.350   53.662 2563.850  192.590   27.328
  424.328  338.971   61.695 2615.400  194.324   24.340
  424.578  290.039   67.542 2651.190  195.006   21.894
  424.828  276.989   72.504 2662.660  196.014   19.047
  425.078  294.454   76.165 2630.650  198.903   16.621
  425.328  368.249   85.834 2598.220  197.795   14.515
  425.578  369.768   96.155 2548.450  195.321   12.632
  425.828  372.666  101.850 2504.670  197.797   13.219
  426.078  366.600  100.153 2478.440  197.222   15.551
  426.328  362.243   87.974 2439.240  191.585   19.351
  426.578  364.936   78.822 2400.640  186.064   22.225
  426.828  370.840   73.598 2394.160  188.541   27.410
  427.078  369.872   71.399 2384.270  193.223   30.908
  427.328  365.641   71.833 2395.950  196.643   32.398
  427.578  360.102   71.382 2398.420  197.217   33.486
  427.828  366.008   71.461 2397.710  196.445   34.132
  428.078  377.462   73.988 2402.000  195.972   32.529
  428.328  365.452   75.063 2381.750  196.014   28.577
  428.578  358.996   74.756 2423.520  195.972   25.148
  428.828  358.694   79.959 2465.300  196.018   24.269
  429.078  359.422   75.978 2501.690  195.969   25.075
  429.328  355.263   73.381 2489.220  195.903   28.090
  429.578  244.123   70.044 2545.950  195.010   31.468
  429.828  212.447   66.402 2587.530  192.326   30.749
  430.078  201.024   64.505 2632.310  195.753   26.536
  430.328  214.901   67.420 2581.930  196.861   22.845
  430.578  235.111   76.501 2527.980  196.586   19.496
  430.828  365.679   82.643 2516.700  196.332   16.989
  431.078  363.157   87.055 2528.370  195.533   12.676
  431.328  371.745   90.168 2527.660  192.534    9.729
  431.578  396.004   83.950 2499.430  192.798    7.664
  431.828  416.610   87.861 2542.610  196.226    6.262
  432.078  380.685   92.319 2524.770  195.115    5.683
  432.328  420.760   91.664 2512.270  194.011    5.748
  432.578  439.530   88.772 2508.380  194.383    6.435
  432.828  424.842   94.914 2497.100  194.429    7.261
  433.078  387.416   97.983 2546.260  194.488    8.711
  433.328  347.640   88.088 2535.580  194.438   10.080
  433.578  376.477   82.612 2557.210  193.860   11.149
  433.828  373.029   77.688 2613.760  193.587   11.212
  434.078  359.782   69.432 2639.770  195.118   10.774
  434.328  340.063   74.930 2584.840  196.431   10.436
  434.578  388.898   78.296 2546.620  197.123   10.120
  434.828  369.631   82.109 2474.320  197.177   10.003
  435.078  365.139   92.473 2448.480  196.797   10.066
  435.328  396.136   89.979 2410.930  194.957   10.372
  435.578  413.865   86.739 2364.100  190.911   11.139
  435.828  398.263   80.916 2337.270  188.118   11.062
  436.078  393.380   86.268 2397.000  191.009   10.424
  436.328  434.438   91.223 2376.750  194.864    9.524
  436.578  403.677   85.848 2363.080  196.065    8.664
  436.828  386.049   87.028 2505.370  197.179    7.905
  437.078  393.123   85.827 2507.660  197.227    7.466
  437.328  402.748   87.553 2536.870  196.746    7.330
  437.578  349.374   87.689 2519.630  195.858    7.334
  437.828  340.571   80.931 2529.080  196.329    7.197
  438.078  407.375   78.332 2528.390  197.024    6.699
  438.328  432.615   80.305 2566.370  195.389    6.202
  438.578  408.780   87.739 2562.270  193.446    6.085
  438.828  403.112   94.183 2565.150  195.700    6.250
  439.078  408.552   98.198 2590.970  199.749    6.393
  439.328  409.811  100.125 2576.110  200.749    6.939
  439.578  393.166   99.465 2587.170  196.280    8.067
  439.828  302.805   94.487 2644.310  194.122    9.878
  440.078  299.103   88.615 2642.410  192.620   12.994
  440.328  362.964   77.131 2605.010  192.344   14.303
  440.578  337.690   69.772 2571.790  192.393   14.407
  440.828  284.580   73.035 2530.000  192.855   11.761
  441.078  340.014   81.615 2519.340  196.174    9.697
  441.328  396.627   93.023 2549.930  194.227    7.893
  441.578  379.259  107.614 2592.710  192.807    7.014
  441.828  405.743  105.914 2533.170  194.329    7.118
  442.078  376.740   98.952 2516.700  197.642    8.427
  442.328  372.581   95.262 2560.270  205.804   10.217
  442.578  394.426   91.425 2523.870  196.484   11.486
  442.828  309.488   82.971 2550.900  188.013   11.630
  443.078  307.089   78.639 2545.400  189.128   10.691
  443.328  374.220   78.384 2513.580  194.013    9.852
  443.578  407.369   83.632 2491.940  202.912    9.574
  443.828  402.943   93.210 2466.700  200.857    9.820
  444.078  384.207   98.852 2487.330  196.591   10.204
  444.328  401.999   99.837 2505.780  195.911   11.212
  444.578  396.450   92.820 2463.390  199.443   12.782
  444.828  375.174   86.656 2579.550  197.384   15.175
  445.078  315.850   74.670 2641.080  194.278   19.496
  445.328  326.588   66.868 2664.500  192.969   28.777
  445.578  301.252   64.467 2685.540  190.081   31.773
  445.828  223.308   56.262 2693.810  187.069   33.563
  446.078  213.262   38.172 2686.130  194.600   36.941
  446.328  242.030   37.815 2650.120  194.765   32.869
  446.578  210.026   47.242 2605.740  193.971   28.636
  446.828  326.239   55.568 2571.520  194.023   24.904
  447.078  339.457   62.311 2563.450  195.031   20.370
  447.328  339.017   70.146 2578.290  196.655   16.519
  447.578  339.161   69.542 2587.160  199.865   13.932
