~VERSION INFORMATION
 VERS.                 2.0:   CWLS LOG ASCII STANDARD -VERSION 2.0
 WRAP.                  NO:   ONE LINE PER DEPTH STEP
~WELL INFORMATION BLOCK
#MNEM.UNIT           DATA                    DESCRIPTION OF MNEMONIC
#---------    -------------------            -------------------------------
# Generated from Intellog Unique Number	CC_80_83/WELL/2379
NULL.         -999.25                        : NULL_VALUE
WELL.         GULF BOHN                      : Well_name    - WELL              
LOC .         10-27-081-07W4                 : Location     - LOCATION          
UWI .         00/10-27-081-07W4/0            : Uwi          - UNIQUE WELL ID    
ENTR.         DW                             : Entered      - ENTERED BY        
SRVC.         SCHLUMBERGER                   : Scn          - SERVICE COMPANY   
DATE.         19 FEB 79                      : Date         - LOG DATE
STRT.M        205                            : top_depth    - START DEPTH       
STOP.M        459.992                        : bot_depth    - STOP DEPTH        
STEP.M        0.3                            : increment    - STEP LENGTH       
~CURVE INFORMATION BLOCK
#MNEM UNIT       ERCB CURVE CODE    CURVE DESCRIPTION
#-----------   ------------------   ----------------------------------
DEPT.M        00 001 00 00         : DEPTH        - DEPTH                       
DPHI.V/V      00 890 00 00         : PHID         - DENSITY POROSITY (LIMESTONE)
NPHI.V/V      00 330 00 00         : PHIN         - NEUTRON POROSITY (LIMESTONE)
GR  .API      00 310 00 00         : GR           - GAMMA RAY                   
ILD .OHMM     00 120 00 00         : RESD         - DEEP RESISTIVITY (DIL)      
~PARAMETER INFORMATION       
#MNEM.UNIT           DATA             DESCRIPTION OF MNEMONIC
#---------         -----------     ------------------------------
GL  .M        656.2                : gl           - GROUND LEVEL ELEVATION      
EREF.M        659.9                : kb           - ELEVATION OF DEPTH REFERENCE
DATM.M        659.9                : datum        - DATUM ELEVATION             
TDD .M        510                  : tdd          - TOTAL DEPTH DRILLER         
RUN .         ONE                  : Run          - RUN NUMBER                  
ENG .         BILL                 : Engineer     - RECORDING ENGINEER          
WIT .         JIM                  : Witness      - WITNESSED BY                
MUD .         GEL                  : Mud_type     - MUD TYPE                    
MATR.         LIMESTONE            : Logunit      - NEUTRON MATRIX              
TMAX.C        20                   : BHT          - MAXIMUM RECORDED TEMPERATURE
BHTD.M        510                  : BHTDEP       - MAXIMUM RECORDED TEMPERATURE
MATR.         1                    : LOGUNIT      - NEUTRON MATRIX              
RMT .C        25                   : MDTP         - TEMPERATURE OF MUD          
NEUT.         1                    : NEUTRON      - NEUTRON TYPE                
RESI.         0                    : RESIST       - RESISTIVITY TYPE            
RMC .OHMM     0.25                 : RMC          - RESISTIVITY OF MUD CAKE     
RMF .OHMM     0.25                 : RMF          - RESISTIVITY OF MUD FILTRATE 
SUFT.C        4                    : SUFT         - SURFACE TEMPERATURE         
~A  DEPTH     PHID     PHIN       GR     RESD
# ...
  309.398    0.299    0.515  100.472    4.035
  309.698    0.309    0.504   98.003    4.353
  309.998    0.320    0.514   87.514    4.609
  310.298    0.314    0.504   86.895    4.698
  310.598    0.272    0.519   89.977    4.790
  310.898    0.279    0.550   93.677    4.792
  311.198    0.276    0.534   99.227    4.530
  311.498    0.263    0.525  104.160    3.546
  311.798    0.247    0.568  107.859    3.050
  312.098    0.253    0.603  109.091    2.776
  312.398    0.261    0.611  105.388    2.625
  312.698    0.251    0.583  101.068    3.054
  312.998    0.221    0.560  102.916    3.233
  313.298    0.202    0.545  103.531    3.235
  313.598    0.200    0.534  105.996    2.944
  313.898    0.241    0.524  106.612    2.783
  314.198    0.253    0.545  102.291    2.785
  314.498    0.265    0.565  101.055    3.004
  314.798    0.273    0.550  100.436    3.303
  315.098    0.262    0.530  100.435    3.497
  315.398    0.253    0.550   95.497    3.633
  315.698    0.272    0.562   91.177    3.635
  315.998    0.261    0.539   89.941    4.073
  316.298    0.249    0.492   89.939    4.650
  316.598    0.255    0.458   90.554    5.210
  316.898    0.274    0.452   91.169    5.838
  317.198    0.260    0.466   90.550    6.180
  317.498    0.258    0.477   88.080    6.421
  317.798    0.273    0.460   87.461    6.928
  318.098    0.272    0.444   88.076    7.197
  318.398    0.267    0.453   88.691    7.338
  318.698    0.261    0.467   88.689    7.204
  318.998    0.266    0.467   86.836    7.072
  319.298    0.257    0.462   84.984    6.942
  319.598    0.254    0.463   83.131    6.816
  319.898    0.274    0.481   81.278    6.690
  320.198    0.273    0.492   80.659    6.568
  320.498    0.275    0.479   80.657    6.448
  320.798    0.289    0.486   79.422    6.451
  321.098    0.302    0.489   77.569    6.830
  321.398    0.318    0.483   75.716    7.231
  321.698    0.312    0.442   75.097    8.574
  321.998    0.334    0.399   74.478    9.976
  322.298    0.357    0.389   73.859   12.284
  322.598    0.358    0.402   73.858   12.524
  322.898    0.350    0.404   73.856   12.770
  323.198    0.345    0.405   73.854   12.535
  323.498    0.345    0.414   70.767   11.410
  323.798    0.349    0.441   69.531   10.788
  324.098    0.340    0.470   69.529   10.198
  324.398    0.329    0.489   68.910   10.201
  324.698    0.331    0.498   68.291   10.016
  324.998    0.333    0.503   68.290   10.019
  325.298    0.324    0.486   68.904   10.410
  325.598    0.339    0.493   69.519   10.613
  325.898    0.333    0.486   69.517   10.618
  326.198    0.334    0.477   68.281   10.623
  326.498    0.338    0.468   65.195   10.429
  326.798    0.334    0.457   66.427   10.236
  327.098    0.333    0.454   66.425   10.240
  327.398    0.330    0.450   64.572   10.246
  327.698    0.323    0.450   63.336   10.644
  327.998    0.277    0.443   61.483   11.485
  328.298    0.208    0.414   58.397   12.391
  328.598    0.159    0.305   52.226   12.873
  328.898    0.265    0.346   57.776   12.879
  329.198    0.312    0.407   60.241   12.642
  329.498    0.341    0.438   60.239   11.952
  329.798    0.334    0.441   60.237   11.088
  330.098    0.314    0.452   61.469   10.681
  330.397    0.299    0.468   62.084   10.685
  330.697    0.301    0.476   62.699   10.691
  330.997    0.317    0.467   63.314   10.694
  331.297    0.330    0.451   63.929   10.903
  331.597    0.328    0.451   64.543   11.116
  331.897    0.318    0.460   64.542   11.120
  332.197    0.341    0.450   62.072   11.338
  332.497    0.340    0.449   62.687   11.130
  332.797    0.333    0.444   62.685   11.134
  333.097    0.344    0.443   61.449   11.140
  333.397    0.333    0.450   60.830   11.145
  333.697    0.315    0.456   62.062   11.149
  333.997    0.322    0.459   63.910   10.944
  334.297    0.334    0.467   65.142   10.745
  334.597    0.339    0.470   65.757   10.351
  334.897    0.329    0.478   66.372   10.356
  335.197    0.330    0.461   66.370   10.557
  335.497    0.343    0.451   66.985   10.171
  335.797    0.344    0.466   67.600   10.175
  336.097    0.350    0.469   66.981    9.989
  336.397    0.351    0.448   66.979    9.993
  336.697    0.344    0.433   65.743   10.188
  336.997    0.338    0.465   64.507   10.002
  337.297    0.339    0.490   64.505    9.635
  337.597    0.338    0.483   65.120    9.459
  337.897    0.339    0.446   65.735    9.285
  338.197    0.340    0.450   65.734    9.116
  338.497    0.328    0.480   64.497    9.119
  338.797    0.346    0.482   63.879    9.475
  339.097    0.335    0.471   58.325    9.659
  339.397    0.330    0.469   57.705    9.131
  339.697    0.327    0.464   58.321    8.312
  339.997    0.317    0.466   60.169    8.161
  340.297    0.309    0.471   62.018    8.319
  340.597    0.319    0.464   64.483    8.481
  340.897    0.340    0.451   68.183    8.326
  341.197    0.339    0.455   74.967    8.174
  341.497    0.313    0.454   82.368    7.302
  341.797    0.251    0.470   90.385    5.503
  342.097    0.243    0.519   99.637    4.825
  342.397    0.240    0.514  100.869    4.560
  342.697    0.239    0.497   99.633    4.311
  342.997    0.251    0.504   99.631    4.153
  343.297    0.266    0.533  102.713    3.710
  343.597    0.277    0.550  108.880    3.131
  343.897    0.281    0.572  111.963    2.594
  344.197    0.291    0.601  108.259    2.189
  344.497    0.287    0.625  105.790    1.993
  344.797    0.288    0.614  103.937    1.849
  345.097    0.290    0.612  102.701    1.815
  345.397    0.291    0.624  102.699    1.886
  345.697    0.288    0.591  101.463    2.113
  345.997    0.291    0.576   97.760    2.505
  346.297    0.261    0.554   90.972    2.915
  346.597    0.291    0.521   92.204    3.871
  346.897    0.281    0.496   92.819    4.677
  347.197    0.272    0.480   90.966    5.651
  347.497    0.290    0.482   89.730    5.872
  347.797    0.275    0.500   89.728    5.874
  348.097    0.256    0.518   94.662    5.877
  348.397    0.279    0.527   94.043    5.992
  348.697    0.287    0.503   91.573    6.225
  348.997    0.279    0.480   86.636    6.467
  349.297    0.250    0.472   87.868    6.593
  349.597    0.271    0.461   95.268    6.595
  349.897    0.316    0.451   97.117    6.475
  350.197    0.233    0.482   97.115    6.601
  350.497    0.229    0.471   93.412    6.858
  350.797    0.213    0.454   92.176    7.540
  351.097    0.190    0.442   93.408    8.609
  351.397    0.179    0.432   94.639    9.466
  351.697    0.235    0.442   93.403    9.293
  351.997    0.258    0.461   92.167    8.459
  352.297    0.235    0.475   92.165    7.416
  352.597    0.249    0.476   94.014    6.623
  352.897    0.259    0.477   94.629    5.698
  353.197    0.252    0.485   95.244    5.489
  353.497    0.232    0.493   95.242    5.388
  353.797    0.244    0.512   94.006    5.705
  354.097    0.263    0.512   93.388    6.155
  354.397    0.240    0.482   92.151    6.896
  354.697    0.245    0.463   90.299    7.727
  354.996    0.276    0.466   90.297    7.586
  355.296    0.308    0.468   90.912    7.308
  355.596    0.298    0.468   91.527    7.040
  355.896    0.285    0.468   97.077    6.655
  356.196    0.259    0.476  104.478    6.291
  356.496    0.261    0.529   98.924    5.947
  356.796    0.259    0.570   95.220    5.213
  357.096    0.243    0.544   95.218    4.657
  357.396    0.255    0.507   95.833    4.403
  357.696    0.261    0.508  100.149    4.488
  357.996    0.273    0.522   98.913    4.406
  358.296    0.290    0.536   93.976    4.165
  358.596    0.276    0.540   88.422    4.246
  358.896    0.296    0.527   84.102    4.581
  359.196    0.306    0.512   79.165    5.330
  359.496    0.300    0.492   77.312    6.441
  359.796    0.290    0.473   80.394    7.082
  360.096    0.289    0.463   84.711    7.220
  360.396    0.286    0.464   90.261    6.572
  360.696    0.290    0.511   92.726    5.444
  360.996    0.280    0.539   92.725    3.733
  361.296    0.276    0.550   90.255    3.151
