~VERSION INFORMATION
 VERS.                 2.0:   CWLS LOG ASCII STANDARD -VERSION 2.0
 WRAP.                  NO:   ONE LINE PER DEPTH STEP
~WELL INFORMATION BLOCK
#MNEM.UNIT           DATA                    DESCRIPTION OF MNEMONIC
#---------    -------------------            -------------------------------
# Generated from Intellog Unique Number	CS_69_70/WELL/894
WELL.         UNIVERSAL EXPLORATIONS         : Well_name    - WELL
LOC .         00/11-23-069-10W4/0            : Location     - LOCATION
UWI .         00/11-23-069-10W4/0            : Uwi          - UNIQUE WELL ID
ENTR.         SP                             : Entered      - ENTERED BY
SRVC.         SCHLUMBERGER                   : Scn          - SERVICE COMPANY
STRT.M        390                            : top_depth    - START DEPTH
STOP.M        610                            : bot_depth    - STOP DEPTH
STEP.M        0.25                           : increment    - STEP LENGTH
 NULL. -999.2500:NULL Value
~CURVE INFORMATION BLOCK
#MNEM UNIT       ERCB CURVE CODE    CURVE DESCRIPTION
#-----------   ------------------   ----------------------------------
DEPT.M        00 001 00 00         : DEPTH        - DEPTH
ILD .OHMM     00 120 00 00         : RESD         - DEEP RESISTIVITY (DIL)
DPHI.V/V      00 890 00 00         : PHID         - DENSITY POROSITY (LIMESTONE)
NPHI.V/V      00 330 00 00         : PHIN         - NEUTRON POROSITY (LIMESTONE)
GR  .API      00 310 00 00         : GR           - GAMMA RAY
~PARAMETER INFORMATION
#MNEM.UNIT           DATA             DESCRIPTION OF MNEMONIC
#---------         -----------     ------------------------------
GL  .M        716.4                : gl           - GROUND LEVEL ELEVATION
EREF.M        719.75               : kb           - ELEVATION OF DEPTH REFERENCE
DATM.M        716.4                : datum        - DATUM ELEVATION
TDD .M        625                  : tdd          - TOTAL DEPTH DRILLER
RUN .         ONE                  : Run          - RUN NUMBER
ENG .         BILL                 : Engineer     - RECORDING ENGINEER
WIT .         JIM                  : Witness      - WITNESSED BY
MUD .         GEL                  : Mud_type     - MUD TYPE
MATR.         LIMESTONE            : Logunit      - NEUTRON MATRIX
TMAX.C        27                   : BHT          - MAXIMUM RECORDED TEMPERATURE
BHTD.M        625                  : BHTDEP       - MAXIMUM RECORDED TEMPERATURE
MATR.         1                    : LOGUNIT      - NEUTRON MATRIX
RMT .C        25                   : MDTP         - TEMPERATURE OF MUD
NEUT.         1                    : NEUTRON      - NEUTRON TYPE
RESI.         0                    : RESIST       - RESISTIVITY TYPE
RMC .OHMM     0.25                 : RMC          - RESISTIVITY OF MUD CAKE
RMF .OHMM     0.25                 : RMF          - RESISTIVITY OF MUD FILTRATE
SUFT.C        15                   : SUFT         - SURFACE TEMPERATURE
~A  DEPTH     RESD     PHID     PHIN       GR
# ...
  433.500    5.608    0.080    0.486   87.473
  433.750    5.835    0.060    0.393   81.050
  434.000    5.958    0.058    0.260   73.037
  434.250    5.982    0.123    0.407   80.189
  434.500    5.894    0.236    0.452   83.612
  434.750    5.763    0.268    0.475   83.304
  435.000    5.678    0.292    0.465   78.348
  435.250    5.733    0.304    0.451   74.432
  435.500    5.943    0.271    0.434   73.696
  435.750    6.103    0.253    0.450   75.834
  436.000    6.185    0.239    0.449   76.443
  436.250    6.174    0.227    0.407   77.664
  436.500    6.211    0.221    0.385   80.352
  436.750    6.366    0.233    0.399   81.329
  437.000    6.549    0.265    0.419   78.391
  437.250    6.841    0.283    0.442   72.457
  437.500    7.064    0.295    0.415   70.254
  437.750    7.309    0.275    0.413   73.553
  438.000    7.591    0.263    0.408   75.508
  438.250    7.751    0.261    0.397   75.933
  438.500    7.885    0.266    0.403   75.809
  438.750    7.828    0.269    0.420   75.684
  439.000    7.640    0.274    0.407   76.660
  439.250    7.290    0.281    0.402   76.230
  439.500    7.062    0.291    0.431   73.109
  439.750    6.802    0.297    0.454   70.416
  440.000    6.602    0.302    0.447   74.695
  440.250    6.395    0.301    0.450   71.941
  440.500    6.300    0.295    0.465   68.942
  440.750    6.219    0.292    0.469   72.425
  441.000    6.185    0.283    0.467   77.620
  441.250    6.071    0.265    0.466   85.017
  441.500    5.959    0.244    0.453   91.436
  441.750    5.860    0.219    0.451   95.653
  442.000    5.828    0.225    0.472   95.100
  442.250    5.808    0.231    0.477   88.616
  442.500    5.798    0.215    0.463   85.373
  442.750    5.788    0.208    0.450   90.935
  443.000    5.822    0.210    0.440   93.134
  443.250    5.845    0.226    0.451   91.786
  443.500    5.868    0.236    0.451   89.399
  443.750    5.836    0.219    0.446   88.847
  444.000    5.793    0.208    0.452   89.639
  444.250    5.751    0.203    0.462   87.130
  444.500    5.785    0.217    0.453   77.894
  444.750    5.907    0.252    0.437   68.475
  445.000    5.998    0.284    0.425   61.991
  445.250    6.182    0.306    0.429   63.578
  445.500    6.349    0.313    0.436   63.515
  445.750    6.556    0.309    0.440   62.290
  446.000    6.682    0.305    0.443   60.086
  446.250    6.811    0.301    0.444   57.638
  446.500    6.915    0.300    0.438   57.330
  446.750    6.982    0.302    0.426   57.021
  447.000    7.063    0.305    0.425   56.836
  447.250    7.117    0.303    0.442   56.161
  447.500    7.173    0.297    0.453   54.569
  447.750    7.201    0.293    0.412   52.916
  448.000    7.257    0.293    0.389   53.280
  448.250    7.299    0.295    0.412   55.112
  448.500    7.356    0.292    0.427   58.962
  448.750    7.344    0.281    0.422   64.830
  449.000    7.373    0.275    0.430   68.803
  449.250    7.402    0.277    0.449   71.858
  449.500    7.459    0.281    0.446   72.651
  449.750    7.517    0.281    0.435   73.994
  450.000    7.519    0.273    0.427   77.844
  450.250    7.606    0.265    0.418   81.388
  450.500    7.723    0.259    0.411   83.098
  450.750    7.841    0.255    0.420   83.463
  451.000    7.947    0.257    0.421   82.115
  451.250    8.024    0.262    0.405   78.872
  451.500    8.040    0.247    0.414   77.402
  451.750    8.103    0.234    0.423   82.108
  452.000    8.134    0.223    0.428   86.631
  452.250    8.090    0.215    0.433   85.161
  452.500    7.956    0.213    0.421   85.587
  452.750    7.839    0.212    0.411   89.559
  453.000    7.679    0.215    0.404   91.514
  453.250    7.580    0.227    0.397   88.087
  453.500    7.454    0.233    0.404   86.434
  453.750    7.235    0.214    0.411   89.061
  454.000    6.839    0.196    0.440   95.540
  454.250    6.501    0.183    0.456  100.124
  454.500    6.192    0.185    0.459  103.057
  454.750    6.020    0.202    0.457  100.976
  455.000    5.999    0.217    0.469   95.715
  455.250    6.373    0.236    0.469   84.400
  455.500    6.872    0.255    0.444   73.696
  455.750    7.246    0.274    0.433   68.007
  456.000    7.596    0.289    0.448   66.354
  456.250    7.889    0.298    0.470   65.862
  456.500    8.071    0.301    0.479   64.637
  456.750    8.103    0.300    0.454   63.412
  457.000    8.029    0.297    0.442   62.920
  457.250    7.985    0.294    0.451   65.242
  457.500    7.942    0.294    0.471   67.808
  457.750    7.928    0.298    0.489   69.212
  458.000    7.885    0.303    0.494   66.825
  458.250    7.857    0.306    0.480   63.215
  458.500    7.814    0.306    0.462   61.378
  458.750    7.816    0.307    0.458   61.009
  459.000    8.148    0.307    0.467   60.089
  459.250    8.180    0.308    0.472   60.821
  459.500    8.197    0.307    0.452   62.408
  459.750    8.199    0.305    0.435   63.262
  460.000    8.200    0.303    0.449   64.666
  460.250    8.171    0.300    0.465   65.703
  460.500    8.096    0.300    0.460   67.230
  460.750    8.022    0.302    0.447   69.184
  461.000    7.993    0.295    0.441   70.894
  461.250    7.920    0.281    0.457   72.482
  461.500    7.788    0.274    0.467   73.091
  461.750    7.673    0.280    0.478   70.337
  462.000    7.447    0.287    0.492   67.338
  462.250    7.241    0.268    0.467   71.739
  462.500    6.988    0.238    0.434   81.459
  462.750    6.643    0.214    0.407   86.349
  463.000    6.411    0.206    0.420   83.412
  463.250    6.245    0.205    0.418   86.834
  463.500    6.199    0.206    0.420   89.522
  463.750    6.248    0.223    0.431   83.038
  464.000    6.428    0.260    0.418   72.273
  464.250    6.764    0.272    0.401   64.750
  464.500    6.999    0.262    0.390   65.359
  464.750    7.228    0.251    0.391   71.105
  465.000    7.353    0.238    0.390   75.994
  465.250    7.354    0.229    0.390   76.359
  465.500    7.300    0.248    0.413   75.133
  465.750    7.179    0.262    0.440   74.948
  466.000    7.073    0.264    0.442   75.863
  466.250    7.048    0.267    0.442   75.188
  466.500    7.010    0.278    0.448   71.455
  466.750    7.011    0.289    0.441   65.705
  467.000    6.973    0.295    0.428   62.951
  467.250    6.909    0.297    0.416   65.578
  467.500    6.126    0.291    0.419   72.914
  467.750    5.094    0.288    0.460   78.354
  468.000    3.597    0.287    0.522   83.977
  468.250    2.930    0.290    0.578   88.072
  468.500    2.526    0.295    0.555   80.732
  468.750    3.196    0.302    0.497   74.248
  469.000    3.896    0.308    0.462   71.310
  469.250    4.884    0.314    0.475   68.801
  469.500    6.263    0.316    0.462   65.986
  469.750    7.393    0.317    0.452   67.084
  470.000    7.722    0.313    0.459   69.772
  470.250    7.738    0.306    0.468   66.468
  470.500    7.755    0.301    0.469   64.203
  470.750    7.712    0.299    0.468   64.201
  471.000    7.670    0.296    0.467   66.583
  471.250    7.643    0.291    0.468   68.660
  471.500    7.601    0.290    0.472   67.863
  471.750    7.602    0.293    0.477   66.454
  472.000    7.604    0.294    0.479   64.373
  472.250    7.592    0.292    0.482   63.087
  472.500    7.593    0.291    0.476   64.246
  472.750    7.551    0.292    0.467   66.996
  473.000    7.525    0.298    0.467   68.828
  473.250    7.512    0.307    0.474   70.109
  473.500    7.513    0.304    0.477   70.474
  473.750    7.515    0.306    0.470   70.105
  474.000    7.544    0.310    0.459   68.268
  474.250    7.560    0.310    0.451   66.370
  474.500    7.576    0.310    0.454   65.818
  474.750    7.563    0.310    0.464   67.160
  475.000    7.565    0.311    0.458   66.424
  475.250    7.566    0.310    0.463   64.465
  475.500    7.539    0.302    0.459   66.297
  475.750    7.526    0.292    0.450   69.903
  476.000    7.542    0.284    0.454   72.408
  476.250    7.572    0.286    0.467   74.668
  476.500    7.616    0.277    0.469   75.706
  476.750    7.748    0.240    0.450   66.836
