~VERSION INFORMATION
 VERS.                 2.0:   CWLS LOG ASCII STANDARD -VERSION 2.0
 WRAP.                  NO:   ONE LINE PER DEPTH STEP
~WELL INFORMATION BLOCK
#MNEM.UNIT           DATA                    DESCRIPTION OF MNEMONIC
#---------    -------------------            -------------------------------
# Generated from Intellog Unique Number	CW_82_90/WELL/1031
WELL.         13-22-083-22W4                 : Well_name    - WELL
LOC .         13-22-083-22W4                 : Location     - LOCATION
UWI .         00/13-22-083-22W4/0            : Uwi          - UNIQUE WELL ID
ENTR.         JAYE                           : Entered      - ENTERED BY
SRVC.         SCHLUMBERGER                   : Scn          - SERVICE COMPANY
DATE.         16 FEB 86                      : Date         - LOG DATE
STRT.M        210                            : top_depth    - START DEPTH
STOP.M        441                            : bot_depth    - STOP DEPTH
STEP.M        0.25                           : increment    - STEP LENGTH
 NULL. -999.2500:NULL Value
~CURVE INFORMATION BLOCK
#MNEM UNIT       ERCB CURVE CODE    CURVE DESCRIPTION
#-----------   ------------------   ----------------------------------
DEPT.M        00 001 00 00         : DEPTH        - DEPTH
CALI.MM       00 280 01 00         : CAL          - CALIPER
GR  .API      00 310 00 00         : GR           - GAMMA RAY
NPHI.V/V      00 330 00 00         : PHIN         - NEUTRON POROSITY (SANDSTONE)
DPHI.V/V      00 890 00 00         : PHID         - DENSITY POROSITY (SANDSTONE)
ILD .OHMM     00 120 00 00         : RESD         - DEEP RESISTIVITY (DIL)
~PARAMETER INFORMATION
#MNEM.UNIT           DATA             DESCRIPTION OF MNEMONIC
#---------         -----------     ------------------------------
GL  .M        607.4                : gl           - GROUND LEVEL ELEVATION
EREF.M        611                  : kb           - ELEVATION OF DEPTH REFERENCE
DATM.M        607.4                : datum        - DATUM ELEVATION
TDD .M        442                  : tdd          - TOTAL DEPTH DRILLER
RUN .         ONE                  : Run          - RUN NUMBER
ENG .         NAGY                 : Engineer     - RECORDING ENGINEER
WIT .         KOSS                 : Witness      - WITNESSED BY
BASE.         S.L.                 : Branch       - HOME BASE OF LOGGING UNIT
MUD .         GEL CHEM             : Mud_type     - MUD TYPE
MATR.         SANDSTONE            : Logunit      - NEUTRON MATRIX
TMAX.C        20                   : BHT          - MAXIMUM RECORDED TEMPERATURE
BHTD.M        442                  : BHTDEP       - MAXIMUM RECORDED TEMPERATURE
RMT .C        12                   : MDTP         - TEMPERATURE OF MUD
MUDD.KG/M     1125                 : MWT          - MUD DENSITY
NEUT.         1                    : NEUTRON      - NEUTRON TYPE
RESI.         0                    : RESIST       - RESISTIVITY TYPE
RM  .OHMM     5.87                 : RM           - RESISTIVITY OF MUD
RMC .OHMM     0                    : RMC          - RESISTIVITY OF MUD CAKE
RMF .OHMM     5.23                 : RMF          - RESISTIVITY OF MUD FILTRATE
SUFT.C        0                    : SUFT         - SURFACE TEMPERATURE
~A  DEPTH      CAL       GR     PHIN     PHID     RESD
# ...
  283.000  248.693   68.642    0.491    0.307    8.646
  283.250  246.175   66.819    0.506    0.306    8.863
  283.500  246.776   61.623    0.481    0.306    8.952
  283.750  248.216   63.422    0.454    0.298    8.924
  284.000  249.864   70.284    0.450    0.284    8.731
  284.250  250.473   78.832    0.465    0.280    8.433
  284.500  250.559   80.695    0.461    0.279    8.299
  284.750  249.914   79.121    0.454    0.279    8.242
  285.000  249.375   75.924    0.464    0.277    8.559
  285.250  248.422   74.163    0.482    0.291   10.830
  285.500  247.045   71.653    0.488    0.324   14.386
  285.750  245.990   67.332    0.480    0.338   17.768
  286.000  244.406   60.512    0.460    0.342   20.987
  286.250  243.348   58.689    0.434    0.331   23.224
  286.500  242.914   54.804    0.403    0.303   24.896
  286.750  242.584   50.420    0.375    0.280   25.807
  287.000  242.252   50.533    0.424    0.290   25.872
  287.250  242.232   52.584    0.451    0.363   24.893
  287.500  242.527   54.885    0.463    0.362   23.640
  287.750  242.821   57.684    0.471    0.351   22.039
  288.000  243.219   59.110    0.467    0.329   21.204
  288.250  243.514   60.971    0.458    0.310   20.365
  288.500  243.494   62.897    0.450    0.303   19.925
  288.750  243.473   64.324    0.440    0.311   20.013
  289.000  243.663   66.125    0.427    0.319   20.177
  289.250  243.226   67.238    0.434    0.331   20.451
  289.500  241.962   65.103    0.457    0.340   21.321
  289.750  238.403   65.841    0.463    0.336   21.937
  290.000  234.742   68.079    0.446    0.318   22.238
  290.250  229.620   70.005    0.425    0.305   22.334
  290.500  226.789   70.244    0.423    0.311   22.305
  290.750  229.269   67.859    0.442    0.324   21.506
  291.000  231.856   68.285    0.460    0.333   20.691
  291.250  234.022   67.148    0.458    0.335   19.503
  291.500  236.814   64.514    0.449    0.345   18.216
  291.750  239.605   62.816    0.440    0.352   17.332
  292.000  241.774   61.743    0.424    0.348   16.096
  292.250  244.047   61.607    0.428    0.334   14.865
  292.500  246.216   66.280    0.448    0.303   13.349
  292.750  247.966   64.833    0.473    0.251   13.161
  293.000  248.782   54.327    0.398    0.144   13.771
  293.250  248.552   44.258    0.321    0.039   14.517
  293.500  248.743   53.555    0.244    0.053   15.218
  293.750  249.451   62.977    0.314    0.172   14.780
  294.000  249.747   80.207    0.466    0.227   13.273
  294.250  249.521   81.694    0.492    0.243   11.189
  294.500  248.150   81.559    0.477    0.251    9.808
  294.750  248.752   81.486    0.457    0.249    8.502
  295.000  249.880   84.597    0.456    0.236    7.635
  295.250  250.905   85.649    0.462    0.236    7.251
  295.500  252.240   84.951    0.443    0.241    6.647
  295.750  252.534   80.502    0.441    0.243    6.360
  296.000  251.262   80.180    0.494    0.242    6.364
  296.250  249.683   80.981    0.485    0.245    6.708
  296.500  247.791   81.908    0.469    0.259    7.033
  296.750  245.899   80.834    0.463    0.268    7.184
  297.000  244.006   79.511    0.476    0.261    7.228
  297.250  246.070   78.875    0.474    0.265    7.138
  297.500  249.587   79.862    0.462    0.259    6.971
  297.750  250.299   80.415    0.469    0.251    6.695
  298.000  249.451   79.964    0.490    0.257    6.613
  298.250  247.246   79.518    0.503    0.275    6.691
  298.500  246.497   79.069    0.514    0.280    6.795
  298.750  246.167   77.871    0.512    0.279    6.837
  299.000  246.251   75.236    0.497    0.275    6.892
  299.250  246.131   77.224    0.480    0.271    7.000
  299.500  246.214   78.337    0.469    0.271    7.176
  299.750  246.299   79.262    0.463    0.260    7.207
  300.000  244.929   81.000    0.463    0.247    7.211
  300.250  241.578   84.425    0.481    0.252    7.216
  300.500  241.247   88.100    0.495    0.258    7.439
  300.750  243.204   88.277    0.461    0.253    8.064
  301.000  245.269   84.455    0.414    0.228    9.210
  301.250  247.127   75.823    0.329    0.180   12.053
  301.500  249.604   70.189    0.276    0.111   17.637
  301.750  250.731   68.803    0.270    0.112   20.108
  302.000  250.401   65.606    0.262    0.121   20.883
  302.250  249.030   65.907    0.338    0.158   19.908
  302.500  246.824   68.583    0.398    0.290   16.258
  302.750  244.828   69.758    0.479    0.330   13.227
  303.000  244.184   69.247    0.484    0.322   11.946
  303.250  243.542   70.045    0.475    0.314   11.494
  303.500  243.524   69.412    0.469    0.311   11.437
  303.750  244.229   66.090    0.464    0.312   11.659
  304.000  244.735   65.203    0.453    0.328   11.689
  304.250  245.028   65.380    0.494    0.339   11.567
  304.500  244.906   66.056    0.508    0.345   11.465
  304.750  244.469   68.043    0.487    0.350   11.323
  305.000  244.554   69.221    0.469    0.343   11.203
  305.250  245.267   68.148    0.459    0.336   10.921
  305.500  247.017   68.137    0.453    0.325   10.085
  305.750  248.562   72.185    0.464    0.310    9.007
  306.000  250.413   78.297    0.489    0.301    7.550
  306.250  251.125   84.220    0.490    0.292    6.986
  306.500  251.525   85.521    0.488    0.283    6.823
  306.750  251.923   81.387    0.487    0.271    6.801
  307.000  252.217   80.500    0.490    0.238    6.793
  307.250  251.155   80.116    0.486    0.204    6.721
  307.500  249.576   76.418    0.482    0.200    6.750
  307.750  248.204   72.845    0.493    0.234    6.729
  308.000  248.390   72.460    0.476    0.280    6.344
  308.250  249.312   74.133    0.452    0.276    5.913
  308.500  250.228   77.748    0.458    0.257    5.261
  308.750  250.211   90.668    0.470    0.248    4.868
  309.000  247.070   99.964    0.475    0.249    4.496
  309.250  244.761   99.516    0.493    0.252    4.262
  309.500  244.532   93.196    0.518    0.254    4.040
  309.750  245.036   92.560    0.540    0.258    3.931
  310.000  245.330   91.922    0.538    0.259    3.811
  310.250  245.831   91.225    0.548    0.253    3.777
  310.500  246.748   89.465    0.559    0.244    3.780
  310.750  247.976   88.018    0.543    0.213    3.999
  311.000  248.484   86.319    0.489    0.195    4.418
  311.250  248.672   85.494    0.490    0.229    4.789
  311.500  247.716   85.172    0.462    0.241    5.221
  311.750  244.779   84.912    0.432    0.241    5.755
  312.000  243.512   83.339    0.445    0.242    6.476
  312.250  242.872   78.330    0.467    0.253    7.301
  312.500  242.642   72.383    0.480    0.276    8.186
  312.750  243.558   69.062    0.477    0.267    8.742
  313.000  244.378   68.114    0.464    0.269    9.424
  313.250  245.607   68.353    0.471    0.281   10.178
  313.500  246.423   69.714    0.471    0.311   10.830
  313.750  247.963   71.891    0.455    0.296   10.816
  314.000  248.677   77.627    0.438    0.273   10.027
  314.250  248.238   80.364    0.441    0.264    9.452
  314.500  246.452   84.415    0.456    0.260    9.145
  314.750  245.288   86.402    0.442    0.263    8.931
  315.000  246.202   79.644    0.422    0.264    8.789
  315.250  247.022   76.759    0.420    0.262    8.680
  315.500  246.795   77.560    0.452    0.258    8.701
  315.750  245.110   79.610    0.446    0.253    8.788
  316.000  244.259   82.223    0.435    0.254    8.859
  316.250  244.863   83.273    0.413    0.256    8.897
  316.500  246.614   82.388    0.425    0.252    8.952
  316.750  248.573   79.878    0.451    0.245    8.992
  317.000  249.182   75.495    0.455    0.251    9.014
  317.250  248.432   71.484    0.449    0.256    9.137
  317.500  247.370   66.851    0.443    0.258    9.349
  317.750  246.939   66.899    0.434    0.274    9.764
  318.000  246.709   67.890    0.419    0.283   10.333
  318.250  246.486   68.941    0.401    0.251   10.771
  318.500  245.216   69.240    0.390    0.238   11.333
  318.750  244.052   68.728    0.419    0.259   11.574
  319.000  244.972   67.718    0.427    0.264   11.432
  319.250  245.786   65.710    0.432    0.263   11.291
