~VERSION INFORMATION
 VERS.                 2.0:   CWLS LOG ASCII STANDARD -VERSION 2.0
 WRAP.                  NO:   ONE LINE PER DEPTH STEP
~WELL INFORMATION BLOCK
#MNEM.UNIT           DATA                    DESCRIPTION OF MNEMONIC
#---------    -------------------            -------------------------------
# Generated from Intellog Unique Number	CW_76_78/WELL/879
WELL.         NORTHSTAR ET AL MARTEN HILLS 1 : Well_name    - WELL
LOC .         00/10-18-076-03W5/0            : Location     - LOCATION
UWI .         00/10-18-076-03W5/0            : Uwi          - UNIQUE WELL ID
ENTR.         JAYE                           : Entered      - ENTERED BY
SRVC.         COMPUTALOG                     : Scn          - SERVICE COMPANY
DATE.         13 MAR 81                      : Date         - LOG DATE
STRT.M        575                            : top_depth    - START DEPTH
STOP.M        790                            : bot_depth    - STOP DEPTH
STEP.M        0.25                           : increment    - STEP LENGTH
 NULL. -999.2500:NULL Value
~CURVE INFORMATION BLOCK
#MNEM UNIT       ERCB CURVE CODE    CURVE DESCRIPTION
#-----------   ------------------   ----------------------------------
DEPT.M        00 001 00 00         : DEPTH        - DEPTH
ILD .OHMM     00 120 00 00         : RESD         - DEEP RESISTIVITY (DIL)
NPHI.V/V      00 330 00 00         : PHIN         - NEUTRON POROSITY (SANDSTONE)
DPHI.V/V      00 890 00 00         : PHID         - DENSITY POROSITY (SANDSTONE)
GR  .API      00 310 00 00         : GR           - GAMMA RAY
CALI.MM       00 280 01 00         : CAL          - CALIPER
~PARAMETER INFORMATION
#MNEM.UNIT           DATA             DESCRIPTION OF MNEMONIC
#---------         -----------     ------------------------------
GL  .M        861                  : gl           - GROUND LEVEL ELEVATION
EREF.M        865.1                : kb           - ELEVATION OF DEPTH REFERENCE
DATM.M        861                  : datum        - DATUM ELEVATION
TDD .M        798                  : tdd          - TOTAL DEPTH DRILLER
RUN .         ONE                  : Run          - RUN NUMBER
ENG .         GUNDERSON            : Engineer     - RECORDING ENGINEER
WIT .         FITZSIMMONS          : Witness      - WITNESSED BY
BASE.         EDM                  : Branch       - HOME BASE OF LOGGING UNIT
MUD .         GEL CHEM             : Mud_type     - MUD TYPE
MATR.         SANDSTONE            : Logunit      - NEUTRON MATRIX
TMAX.C        27                   : BHT          - MAXIMUM RECORDED TEMPERATURE
BHTD.M        799.6                : BHTDEP       - MAXIMUM RECORDED TEMPERATURE
RMT .C        16                   : MDTP         - TEMPERATURE OF MUD
MUDD.KG/M     1140                 : MWT          - MUD DENSITY
NEUT.         1                    : NEUTRON      - NEUTRON TYPE
RESI.         0                    : RESIST       - RESISTIVITY TYPE
RM  .OHMM     3.8                  : RM           - RESISTIVITY OF MUD
RMC .OHMM     3                    : RMC          - RESISTIVITY OF MUD CAKE
RMF .OHMM     0                    : RMF          - RESISTIVITY OF MUD FILTRATE
SUFT.C        0                    : SUFT         - SURFACE TEMPERATURE
~A  DEPTH     RESD     PHIN     PHID       GR      CAL
# ...
  648.000   17.384    0.102   -0.025   54.303  205.070
  648.250   18.529    0.101   -0.029   54.762  204.490
  648.500   20.010    0.102   -0.030   53.669  203.707
  648.750   19.676    0.107   -0.022   51.462  203.228
  649.000   16.257    0.121   -0.012   48.758  203.059
  649.250   14.176    0.142    0.013   46.860  202.997
  649.500   11.956    0.189    0.055   48.619  202.727
  649.750   10.597    0.283    0.109   53.851  200.906
  650.000    9.656    0.385    0.147   62.247  197.741
  650.250    9.011    0.405    0.169   68.472  194.887
  650.500    8.580    0.424    0.191   70.479  194.100
  650.750    8.296    0.438    0.211   70.379  194.450
  651.000    7.996    0.454    0.241   69.164  195.629
  651.250    7.515    0.468    0.278   67.637  197.113
  651.500    7.100    0.467    0.294   65.987  198.806
  651.750    6.841    0.467    0.299   65.080  200.291
  652.000    6.606    0.486    0.301   65.481  201.163
  652.250    6.404    0.455    0.301   66.988  201.409
  652.500    6.219    0.447    0.298   70.361  201.243
  652.750    6.066    0.448    0.291   71.935  201.182
  653.000    5.955    0.430    0.288   72.269  201.115
  653.250    5.901    0.414    0.289   72.978  201.261
  653.500    5.872    0.443    0.292   73.621  201.501
  653.750    5.908    0.447    0.294   73.397  201.651
  654.000    6.075    0.464    0.301   71.684  201.901
  654.250    6.333    0.479    0.309   69.104  201.934
  654.500    6.558    0.464    0.314   67.266  201.667
  654.750    6.743    0.457    0.315   65.990  201.610
  655.000    6.795    0.454    0.314   65.205  201.541
  655.250    6.749    0.453    0.311   65.418  201.471
  655.500    6.572    0.454    0.306   66.059  201.515
  655.750    6.428    0.455    0.301   67.882  200.826
  656.000    6.267    0.447    0.299   70.757  196.527
  656.250    6.180    0.429    0.299   71.836  193.467
  656.500    6.110    0.426    0.299   73.164  193.093
  656.750    6.081    0.434    0.301   72.318  193.239
  657.000    6.059    0.432    0.306   74.699  193.585
  657.250    6.038    0.442    0.305   77.079  194.555
  657.500    6.042    0.464    0.301   79.521  195.838
  657.750    6.037    0.486    0.294   79.609  197.430
  658.000    6.048    0.506    0.297   76.717  198.605
  658.250    6.052    0.517    0.303   75.376  199.576
  658.500    6.080    0.521    0.306   79.307  200.133
  658.750    6.141    0.517    0.302   80.136  200.587
  659.000    6.267    0.506    0.291   83.263  200.836
  659.250    6.542    0.492    0.279   83.225  201.075
  659.500    7.193    0.423    0.259   84.363  201.326
  659.750    8.083    0.396    0.241   86.868  201.881
  660.000    8.850    0.372    0.237   79.698  202.438
  660.250    9.969    0.361    0.250   73.398  202.384
  660.500   10.514    0.404    0.273   72.306  202.213
  660.750   10.723    0.403    0.276   74.127  201.629
  661.000   10.603    0.399    0.273   71.733  201.562
  661.250   10.468    0.400    0.271   68.597  201.708
  661.500   10.381    0.409    0.272   66.014  201.955
  661.750   10.318    0.423    0.272   66.348  202.408
  662.000   10.281    0.448    0.277   70.217  202.759
  662.250   10.276    0.469    0.289   69.560  203.318
  662.500   10.353    0.488    0.303   67.412  203.765
  662.750   10.833    0.490    0.312   68.368  204.530
  663.000   11.337    0.415    0.314   72.049  204.779
  663.250   11.816    0.381    0.307   77.219  203.366
  663.500   10.786    0.374    0.305   80.219  199.481
  663.750   10.100    0.374    0.326   74.230  197.659
  664.000    9.455    0.382    0.339   68.053  197.080
  664.250    8.752    0.477    0.347   63.548  197.123
  664.500    8.140    0.528    0.321   62.580  198.607
  664.750    7.848    0.506    0.308   64.466  200.508
  665.000    7.950    0.524    0.307   65.543  201.691
  665.250    8.208    0.533    0.314   68.791  202.037
  665.500    8.203    0.521    0.309   68.879  201.971
  665.750    7.878    0.518    0.310   67.352  201.803
  666.000    7.283    0.477    0.316   63.655  201.329
  666.250    6.531    0.441    0.288   66.097  201.059
  666.500    5.796    0.411    0.257   73.686  201.409
  666.750    5.143    0.395    0.213   84.872  201.965
  667.000    4.449    0.383    0.197   95.189  205.312
  667.250    3.918    0.409    0.184  104.700  209.069
  667.500    3.708    0.416    0.182  107.080  212.625
  667.750    3.630    0.414    0.191  102.206  213.804
  668.000    3.625    0.413    0.196   96.215  213.436
  668.250    3.702    0.411    0.184   94.999  213.259
  668.500    3.788    0.423    0.172   98.746  212.267
  668.750    4.062    0.445    0.181   97.651  211.893
  669.000    4.263    0.467    0.194   88.250  212.346
  669.250    4.471    0.460    0.206   80.212  210.940
  669.500    4.852    0.457    0.212   71.616  208.809
  669.750    5.315    0.464    0.205   72.885  205.959
  670.000    5.622    0.453    0.197   75.635  204.965
  670.250    5.716    0.435    0.197   79.439  204.386
  670.500    5.777    0.442    0.203   76.301  204.214
  670.750    5.764    0.420    0.208   76.882  204.259
  671.000    5.636    0.406    0.202   83.232  204.091
  671.250    5.402    0.413    0.194   88.961  204.447
  671.500    5.265    0.412    0.184   93.946  205.096
  671.750    5.220    0.397    0.176   96.700  206.480
  672.000    5.206    0.398    0.175   99.514  209.001
  672.250    5.325    0.419    0.170  103.258  210.390
  672.500    5.665    0.434    0.174  106.877  209.810
  672.750    6.645    0.443    0.189  103.615  208.706
  673.000    7.280    0.448    0.211   96.507  206.165
  673.250    8.227    0.428    0.227   87.850  204.346
  673.500    8.896    0.409    0.238   82.169  202.109
  673.750    9.506    0.400    0.247   77.790  200.502
  674.000    8.689    0.397    0.255   80.108  200.020
  674.250    8.028    0.384    0.257   82.799  199.860
  674.500    7.547    0.364    0.245   86.422  199.793
  674.750    7.206    0.367    0.224   89.668  199.520
  675.000    6.930    0.416    0.212   92.359  199.356
  675.250    7.065    0.462    0.237   92.320  199.291
  675.500    7.495    0.537    0.257   91.292  199.329
  675.750    7.925    0.531    0.265   92.370  199.269
  676.000    8.257    0.503    0.256   92.890  199.207
  676.250    8.351    0.482    0.254   91.548  199.034
  676.500    8.321    0.459    0.261   87.356  198.977
  676.750    8.473    0.451    0.266   81.799  199.015
  677.000    8.813    0.463    0.251   76.676  198.843
  677.250    9.202    0.452    0.236   77.012  198.684
  677.500    9.484    0.429    0.223   79.328  198.826
  677.750    9.643    0.414    0.212   78.981  199.487
  678.000    9.664    0.409    0.209   74.974  199.838
  678.250    9.495    0.434    0.231   71.649  199.973
  678.500    8.874    0.468    0.246   72.106  199.911
  678.750    8.361    0.475    0.257   76.223  199.950
  679.000    8.068    0.483    0.264   79.471  199.990
  679.250    7.834    0.500    0.268   80.921  200.140
  679.500    7.689    0.514    0.268   81.876  200.174
  679.750    7.660    0.506    0.264   82.643  199.915
  680.000    7.787    0.496    0.254   84.343  199.840
  680.250    8.135    0.503    0.247   87.467  199.672
  680.500    8.590    0.483    0.248   93.383  199.506
  680.750    9.028    0.461    0.261   91.607  199.346
  681.000    9.376    0.466    0.273   82.640  199.176
  681.250    9.412    0.454    0.276   77.268  198.695
  681.500    9.178    0.440    0.268   72.331  196.564
  681.750    8.631    0.449    0.267   74.341  197.541
  682.000    8.397    0.451    0.269   77.836  197.990
  682.250    8.589    0.443    0.281   84.991  197.415
  682.500    8.864    0.438    0.290   84.209  197.246
  682.750    9.253    0.431    0.285   79.710  198.427
  683.000    9.921    0.444    0.282   77.376  198.769
  683.250   10.729    0.466    0.282   76.098  198.499
  683.500   11.339    0.496    0.284   76.741  197.813
  683.750   12.262    0.507    0.287   76.020  197.859
  684.000   13.242    0.354    0.289   72.447  198.206
  684.250   14.312    0.286    0.275   69.805  198.558
