~VERSION INFORMATION
 VERS.                 2.0:   CWLS LOG ASCII STANDARD -VERSION 2.0
 WRAP.                  NO:   ONE LINE PER DEPTH STEP
~WELL INFORMATION BLOCK
#MNEM.UNIT           DATA                    DESCRIPTION OF MNEMONIC
#---------    -------------------            -------------------------------
# Generated from Intellog Unique Number	CC_80_83/WELL/2339
NULL.         -999.25                        : NULL_VALUE
WELL.         BVX ET AL HOUSE                : Well_name    - WELL
LOC .         10-08-082-15W4                 : Location     - LOCATION          
UWI .         00/10-08-082-15W400            : Uwi          - UNIQUE WELL ID    
ENTR.         DW                             : Entered      - ENTERED BY        
SRVC.         SCHLUMBERGER                   : Scn          - SERVICE COMPANY   
DATE.         23 MAR 80                      : Date         - LOG DATE
STRT.M        130                            : top_depth    - START DEPTH       
STOP.M        330.098                        : bot_depth    - STOP DEPTH        
STEP.M        0.3                            : increment    - STEP LENGTH       
~CURVE INFORMATION BLOCK
#MNEM UNIT       ERCB CURVE CODE    CURVE DESCRIPTION
#-----------   ------------------   ----------------------------------
DEPT.M        00 001 00 00         : DEPTH        - DEPTH                       
DPHI.V/V      00 890 00 00         : PHID         - DENSITY POROSITY (LIMESTONE)
NPHI.V/V      00 330 00 00         : PHIN         - NEUTRON POROSITY (LIMESTONE)
GR  .API      00 310 00 00         : GR           - GAMMA RAY                   
ILD .OHMM     00 120 00 00         : RESD         - DEEP RESISTIVITY (DIL)      
~PARAMETER INFORMATION       
#MNEM.UNIT           DATA             DESCRIPTION OF MNEMONIC
#---------         -----------     ------------------------------
GL  .M        563                  : gl           - GROUND LEVEL ELEVATION      
EREF.M        566.2                : kb           - ELEVATION OF DEPTH REFERENCE
DATM.M        566.2                : datum        - DATUM ELEVATION             
TDD .M        330                  : tdd          - TOTAL DEPTH DRILLER         
RUN .         ONE                  : Run          - RUN NUMBER                  
ENG .         BILL                 : Engineer     - RECORDING ENGINEER          
WIT .         JIM                  : Witness      - WITNESSED BY                
MUD .         GEL                  : Mud_type     - MUD TYPE                    
MATR.         LIMESTONE            : Logunit      - NEUTRON MATRIX              
TMAX.C        20                   : BHT          - MAXIMUM RECORDED TEMPERATURE
BHTD.M        330                  : BHTDEP       - MAXIMUM RECORDED TEMPERATURE
MATR.         1                    : LOGUNIT      - NEUTRON MATRIX              
RMT .C        25                   : MDTP         - TEMPERATURE OF MUD          
NEUT.         1                    : NEUTRON      - NEUTRON TYPE                
RESI.         0                    : RESIST       - RESISTIVITY TYPE            
RMC .OHMM     0.25                 : RMC          - RESISTIVITY OF MUD CAKE     
RMF .OHMM     0.25                 : RMF          - RESISTIVITY OF MUD FILTRATE 
SUFT.C        15                   : SUFT         - SURFACE TEMPERATURE         
~A  DEPTH     PHID     PHIN       GR     RESD
# ...
  286.600    0.171    0.417   85.155   10.711
  286.900    0.171    0.404   85.788   10.513
  287.200    0.156    0.398   91.417    9.380
  287.500    0.190    0.414   96.422    7.048
  287.800    0.195    0.447   98.306    5.608
  288.100    0.205    0.465   98.942    4.214
  288.400    0.215    0.465   92.091    3.551
  288.700    0.229    0.469   77.129    3.485
  289.000    0.242    0.505   71.524    4.220
  289.300    0.274    0.484   58.433    5.841
  289.600    0.226    0.438   57.823    7.780
  289.900    0.218    0.424   61.580    9.977
  290.200    0.211    0.423   63.464   10.370
  290.500    0.214    0.415   65.973   10.179
  290.800    0.216    0.411   69.104    9.616
  291.100    0.234    0.416   73.486    8.259
  291.400    0.220    0.426   77.864    6.827
  291.700    0.221    0.450   85.364    5.130
  292.000    0.226    0.467   91.617    4.323
  292.300    0.212    0.495  100.366    4.324
  292.600    0.223    0.497   97.258    4.670
  292.900    0.201    0.463   89.159    5.141
  293.200    0.176    0.437   88.547    5.242
  293.500    0.199    0.437   92.305    5.244
  293.800    0.194    0.445   97.932    4.679
  294.100    0.194    0.462  106.681    4.175
  294.400    0.197    0.492  109.814    4.020
  294.700    0.187    0.534  106.081    3.946
  295.000    0.181    0.543   92.991    4.262
  295.300    0.166    0.486   92.380    4.346
  295.600    0.175    0.493   97.384    4.186
  295.900    0.197    0.523  101.764    4.108
  296.200    0.206    0.519  101.777    3.956
  296.500    0.212    0.495  104.291    3.958
  296.800    0.204    0.498  103.674    4.193
  297.100    0.196    0.466  101.189    5.803
  297.400    0.187    0.429   89.346    7.441
  297.700    0.172    0.402   74.383    9.360
  298.000    0.238    0.392   68.157   11.774
  298.300    0.267    0.392   61.305   16.930
  298.600    0.274    0.418   57.575   21.296
  298.900    0.275    0.433   56.340   24.823
  299.200    0.273    0.437   55.726   27.848
  299.500    0.283    0.429   50.747   33.082
  299.799    0.306    0.412   48.886   43.232
  300.099    0.307    0.396   53.894   50.389
  300.399    0.295    0.398   59.521   29.543
  300.699    0.282    0.408   66.398    8.073
  300.999    0.238    0.418   75.145    5.208
  301.299    0.190    0.418   85.140    4.389
  301.599    0.243    0.468   88.898    4.068
  301.899    0.238    0.490   84.543    5.215
  302.199    0.234    0.466   79.563    7.218
  302.499    0.228    0.402   75.831    9.615
  302.799    0.226    0.372   78.965   12.095
  303.099    0.209    0.372   85.218   14.369
  303.399    0.215    0.407   93.964   17.070
  303.699    0.250    0.418  106.456   19.894
  303.999    0.276    0.416  109.591   24.553
  304.299    0.266    0.423  107.107   33.980
  304.599    0.263    0.416  100.254   37.400
  304.899    0.258    0.413   85.916   38.142
  305.199    0.250    0.416   69.704   36.731
  305.499    0.238    0.441   72.212   33.406
  305.799    0.238    0.439   80.337   30.378
  306.099    0.211    0.413   85.341   25.115
  306.399    0.184    0.389   83.482   22.837
  306.699    0.202    0.379   76.630   21.994
  306.999    0.206    0.363   72.275   24.210
  307.299    0.192    0.355   67.919   26.140
  307.599    0.184    0.358   64.191   26.658
  307.899    0.179    0.344   64.825   25.185
  308.199    0.176    0.341   71.701   21.630
  308.499    0.170    0.353   81.073   19.670
  308.799    0.183    0.358   76.720   19.679
  309.099    0.206    0.356   72.988   21.252
  309.399    0.187    0.361   67.383   22.088
  309.699    0.200    0.370   67.398   21.273
  309.999    0.182    0.377   78.016   19.719
  310.299    0.151    0.379   80.525   20.494
  310.599    0.201    0.364   74.922   24.348
  310.899    0.247    0.361   67.446   28.926
  311.199    0.247    0.374   66.210   32.449
  311.499    0.243    0.367   66.225   35.039
  311.799    0.267    0.364   65.611   37.840
  312.099    0.278    0.373   63.129   40.867
  312.399    0.289    0.396   55.654   41.675
  312.699    0.289    0.403   54.417   41.695
  312.999    0.266    0.401   60.044   41.709
  313.299    0.259    0.409   64.429   40.944
  313.599    0.256    0.416   61.322   40.185
  313.899    0.250    0.416   60.710   38.701
  314.199    0.255    0.401   65.712   36.565
  314.499    0.261    0.363   66.971   35.210
  314.799    0.292    0.372   65.743   33.914
  315.099    0.261    0.386   66.374   33.289
  315.399    0.249    0.384   68.884   32.672
  315.699    0.239    0.372   70.766   32.685
  315.999    0.238    0.371   70.779   32.085
  316.299    0.245    0.372   66.423   31.491
  316.599    0.261    0.382   65.189   28.642
  316.899    0.257    0.390   63.329   26.553
  317.199    0.264    0.392   60.845   26.060
  317.499    0.271    0.395   58.361   27.087
  317.799    0.285    0.399   60.245   32.180
  318.099    0.291    0.397   64.626   33.448
  318.399    0.293    0.387   62.767   32.831
  318.699    0.270    0.385   59.660   28.743
  318.999    0.277    0.394   56.554   25.159
  319.299    0.289    0.389   52.196   22.021
  319.599    0.296    0.383   50.961   18.913
  319.899    0.309    0.386   49.101   17.198
  320.199    0.316    0.390   41.628   16.881
  320.499    0.299    0.384   37.271   21.236
  320.799    0.289    0.376   36.036   27.230
  321.099    0.286    0.378   38.543   39.151
  321.399    0.288    0.381   40.428   57.372
  321.699    0.300    0.392   39.817   94.281
  321.999    0.305    0.401   36.709  118.607
  322.299    0.309    0.410   17.377  128.093
  322.599    0.313    0.409    8.033  130.610
  322.899    0.304    0.401    6.795  135.749
  323.199    0.295    0.402    5.560  146.624
  323.499    0.287    0.404    4.950  152.370
  323.799    0.290    0.382    4.961  152.439
  324.099    0.315    0.367    5.597  149.650
  324.398    0.316    0.395    6.238  138.700
  324.698    0.298    0.416    6.251  116.874
  324.998    0.294    0.468    6.883  114.717
  325.298    0.298    0.483    6.272  133.717
  325.598    0.298    0.484    6.289  141.669
  325.898    0.315    0.482    6.923  141.715
  326.198    0.316    0.479    6.935  131.373
  326.498    0.317    0.480    6.323  131.444
  326.798    0.307    0.482    6.334  136.617
  327.098    0.311    0.482    6.349  142.007
  327.398    0.319    0.480    6.361  147.599
  327.698    0.320    0.479    5.747  147.676
  327.998    0.319    0.479    5.761  147.737
  328.298    0.312    0.481    5.148  145.010
  328.598    0.290    0.480    4.537  142.346
  328.898    0.267    0.479    5.175  142.404
  329.198    0.230    0.478    5.812  142.474
  329.498    0.103    0.479    6.446  142.549
  329.798    0.103    0.480    7.085  137.300
  330.098    0.103    0.480    7.096  137.362
