~VERSION INFORMATION
 VERS.                 2.0:   CWLS LOG ASCII STANDARD -VERSION 2.0
 WRAP.                  NO:   ONE LINE PER DEPTH STEP
~WELL INFORMATION BLOCK
#MNEM.UNIT           DATA                    DESCRIPTION OF MNEMONIC
#---------    -------------------            -------------------------------
# Generated from Intellog Unique Number	CS_73_76/WELL/3249
WELL.         10-30-076-04W4                 : Well_name    - WELL
LOC .         00/10-30-076-04W4/0            : Location     - LOCATION
UWI .         00/10-30-076-04W4/0            : Uwi          - UNIQUE WELL ID
ENTR.         SP                             : Entered      - ENTERED BY
SRVC.         SCHLUMBERGER                   : Scn          - SERVICE COMPANY
STRT.M        150                            : top_depth    - START DEPTH
STOP.M        415                            : bot_depth    - STOP DEPTH
STEP.M        0.25                           : increment    - STEP LENGTH
 NULL. -999.2500:NULL Value
~CURVE INFORMATION BLOCK
#MNEM UNIT       ERCB CURVE CODE    CURVE DESCRIPTION
#-----------   ------------------   ----------------------------------
DEPT.M        00 001 00 00         : DEPTH        - DEPTH
NPHI.V/V      00 330 00 00         : PHIN         - NEUTRON POROSITY (LIMESTONE)
DPHI.V/V      00 890 00 00         : PHID         - DENSITY POROSITY (LIMESTONE)
GR  .API      00 310 00 00         : GR           - GAMMA RAY
ILD .OHMM     00 120 00 00         : RESD         - DEEP RESISTIVITY (DIL)
~PARAMETER INFORMATION
#MNEM.UNIT           DATA             DESCRIPTION OF MNEMONIC
#---------         -----------     ------------------------------
GL  .M        586                  : gl           - GROUND LEVEL ELEVATION
EREF.M        589.3                : kb           - ELEVATION OF DEPTH REFERENCE
DATM.M        586                  : datum        - DATUM ELEVATION
TDD .M        430                  : tdd          - TOTAL DEPTH DRILLER
RUN .         ONE                  : Run          - RUN NUMBER
ENG .         BILL                 : Engineer     - RECORDING ENGINEER
WIT .         JIM                  : Witness      - WITNESSED BY
MUD .         GEL                  : Mud_type     - MUD TYPE
MATR.         LIMESTONE            : Logunit      - NEUTRON MATRIX
TMAX.C        18.9                 : BHT          - MAXIMUM RECORDED TEMPERATURE
BHTD.M        430                  : BHTDEP       - MAXIMUM RECORDED TEMPERATURE
MATR.         1                    : LOGUNIT      - NEUTRON MATRIX
RMT .C        25                   : MDTP         - TEMPERATURE OF MUD
NEUT.         1                    : NEUTRON      - NEUTRON TYPE
RESI.         0                    : RESIST       - RESISTIVITY TYPE
RMC .OHMM     0.25                 : RMC          - RESISTIVITY OF MUD CAKE
RMF .OHMM     0.25                 : RMF          - RESISTIVITY OF MUD FILTRATE
SUFT.C        15                   : SUFT         - SURFACE TEMPERATURE
~A  DEPTH     PHIN     PHID       GR     RESD
# ...
  280.500    0.437    0.325   56.838   18.173
  280.750    0.437    0.321   58.067   18.179
  281.000    0.450    0.319   58.069   17.848
  281.250    0.456    0.320   56.855   17.852
  281.500    0.445    0.325   57.471   17.858
  281.750    0.435    0.339   57.479   17.534
  282.000    0.445    0.347   56.874   17.537
  282.250    0.460    0.348   55.660   17.543
  282.500    0.462    0.345   55.058   17.548
  282.750    0.460    0.339   55.676   17.550
  283.000    0.465    0.354   56.290   17.232
  283.250    0.468    0.354   56.904   16.610
  283.500    0.459    0.350   57.522   16.007
  283.750    0.479    0.348   58.137   15.718
  284.000    0.475    0.346   57.534   16.015
  284.250    0.473    0.328   56.319   16.320
  284.500    0.465    0.317   55.717   16.630
  284.750    0.462    0.332   55.724   16.946
  285.000    0.471    0.335   55.118   16.949
  285.250    0.475    0.345   54.515   16.336
  285.500    0.481    0.348   55.741   16.039
  285.750    0.487    0.342   58.186   16.044
  286.000    0.483    0.349   59.410   16.350
  286.250    0.470    0.338   60.028   16.353
  286.500    0.448    0.318   58.814   16.055
  286.750    0.446    0.317   57.600   15.766
  287.000    0.447    0.339   56.997   15.479
  287.250    0.452    0.337   57.614   14.920
  287.500    0.453    0.355   57.618   14.648
  287.750    0.452    0.345   57.017   14.653
  288.000    0.445    0.345   57.021   14.655
  288.250    0.457    0.347   56.417   14.390
  288.500    0.457    0.343   57.033   14.394
  288.750    0.435    0.343   57.650   14.397
  289.000    0.452    0.335   57.654   14.136
  289.250    0.458    0.338   57.661   14.139
  289.500    0.452    0.338   57.058   14.143
  289.750    0.446    0.334   56.455   13.887
  290.000    0.462    0.343   57.069   13.889
  290.250    0.471    0.338   58.296   13.894
  290.500    0.471    0.341   59.521   13.641
  290.750    0.468    0.345   61.966   13.645
  291.000    0.463    0.346   61.971   13.647
  291.250    0.458    0.336   60.758   13.652
  291.500    0.458    0.329   60.765   13.656
  291.750    0.464    0.334   61.992   13.407
  292.000    0.473    0.345   62.606   13.410
  292.250    0.465    0.328   63.221   13.166
  292.500    0.463    0.339   63.228   12.928
  292.750    0.458    0.340   63.234   12.694
  293.000    0.454    0.335   61.410   12.697
  293.250    0.456    0.338   59.590   12.700
  293.500    0.447    0.314   59.595   12.943
  293.750    0.446    0.306   59.600   12.945
  294.000    0.445    0.334   59.607   13.190
  294.250    0.452    0.334   60.223   13.441
  294.500    0.463    0.312   60.839   13.444
  294.750    0.459    0.320   60.233   13.449
  295.000    0.452    0.325   59.019   13.451
  295.250    0.456    0.329   57.810   13.454
  295.500    0.456    0.316   57.813   13.211
  295.750    0.461    0.317   57.210   13.213
  296.000    0.468    0.333   56.606   12.975
  296.250    0.464    0.322   56.614   12.976
  296.500    0.459    0.308   57.227   12.741
  296.750    0.465    0.326   58.453   12.511
  297.000    0.469    0.354   59.679   12.514
  297.250    0.457    0.347   60.903   12.060
  297.500    0.444    0.336   59.690    9.834
  297.750    0.451    0.339   59.698    6.661
  298.000    0.459    0.329   61.533    3.610
  298.250    0.540    0.317   65.808    2.889
  298.500    0.568    0.272   72.521    2.684
  298.750    0.585    0.255   80.453    2.684
  299.000    0.573    0.262   85.948    2.685
  299.250    0.563    0.249   89.614    2.840
  299.500    0.565    0.239   92.059    2.893
  299.750    0.569    0.245   93.893    3.118
  300.000    0.560    0.234   96.338    3.236
  300.250    0.557    0.221   96.954    3.298
  300.500    0.553    0.224   95.133    3.361
  300.750    0.542    0.229   95.136    3.361
  301.000    0.528    0.234   96.362    3.362
  301.250    0.549    0.223   97.590    3.426
  301.500    0.573    0.232   97.594    3.691
  301.750    0.580    0.240   95.163    4.127
  302.000    0.561    0.244   93.338    4.879
  302.250    0.534    0.231   87.248    5.159
  302.500    0.509    0.206   85.424    5.769
  302.750    0.484    0.207   85.428    6.572
  303.000    0.505    0.229   84.825    7.080
  303.250    0.499    0.234   84.223    7.214
  303.500    0.497    0.253   84.227    7.217
  303.750    0.516    0.230   89.722    7.354
  304.000    0.520    0.246   97.656    7.777
  304.250    0.521    0.229  102.539    7.924
  304.500    0.505    0.237  101.326    8.699
  304.750    0.484    0.258   94.625    9.199
  305.000    0.464    0.258   88.533    9.549
  305.250    0.452    0.257   81.222    9.913
  305.500    0.442    0.263   75.740   10.290
  305.750    0.433    0.282   70.868   10.293
  306.000    0.422    0.292   67.826    9.920
  306.250    0.416    0.297   66.001    9.923
  306.500    0.421    0.284   68.447    9.925
  306.750    0.424    0.258   73.943   10.304
  307.000    0.430    0.254   76.385   10.696
  307.250    0.428    0.247   80.661   11.524
  307.500    0.427    0.225   76.401   12.416
  307.750    0.430    0.232   74.575   13.628
  308.000    0.433    0.220   69.703   14.147
  308.250    0.420    0.228   64.222   14.686
  308.500    0.237    0.085   59.959   14.690
  308.750    0.266    0.037   56.306   14.422
  309.000    0.353    0.215   56.312   14.428
  309.250    0.401    0.251   61.805   14.430
  309.500    0.436    0.298   68.520   14.704
  309.750    0.447    0.282   72.794   14.171
  310.000    0.357    0.221   72.192   12.918
  310.250    0.284    0.163   70.367   11.775
  310.500    0.293    0.107   69.763   10.153
  310.750    0.359    0.166   70.989    9.429
  311.000    0.438    0.258   74.043    8.920
  311.250    0.476    0.269   75.269    8.597
  311.500    0.452    0.272   76.496    8.441
  311.750    0.462    0.252   80.769    8.602
  312.000    0.476    0.231   85.654    8.603
  312.250    0.478    0.213   85.660    8.767
  312.500    0.458    0.209   83.836    8.933
  312.750    0.446    0.201   83.843    9.449
  313.000    0.440    0.223   83.849    9.808
  313.250    0.453    0.216   83.246    9.993
  313.500    0.463    0.208   86.910   10.569
  313.750    0.444    0.203   85.087   10.770
  314.000    0.415    0.203   80.824   10.975
  314.250    0.418    0.226   80.220   10.977
  314.500    0.418    0.226   79.007   10.386
  314.750    0.412    0.232   77.794   10.010
  315.000    0.413    0.224   79.020    9.828
  315.250    0.424    0.218   80.856    9.830
  315.500    0.449    0.214   80.251    9.475
  315.750    0.452    0.237   79.037    9.303
  316.000    0.451    0.249   79.045    8.966
  316.250    0.453    0.244   79.661    8.641
  316.500    0.457    0.227   80.275    8.484
  316.750    0.445    0.239   82.721    7.878
  317.000    0.452    0.228   81.507    7.316
  317.250    0.464    0.222   83.953    6.547
  317.500    0.453    0.211   85.787    5.750
  317.750    0.464    0.207   87.623    4.957
  318.000    0.479    0.205   88.239    4.690
  318.250    0.501    0.210   87.635    4.692
  318.500    0.493    0.217   87.645    4.781
  318.750    0.486    0.200   88.257    4.871
  319.000    0.481    0.200   90.705    4.783
  319.250    0.457    0.217   92.540    4.360
  319.500    0.438    0.214   93.766    4.049
  319.750    0.452    0.210   93.770    3.830
  320.000    0.481    0.211   91.946    3.903
  320.250    0.530    0.239   91.953    4.284
  320.500    0.561    0.272   94.399    4.702
  320.750    0.554    0.268   90.746    5.769
  321.000    0.528    0.263   85.263    7.079
  321.250    0.496    0.308   83.442    8.063
  321.500    0.503    0.282   84.058   10.078
  321.750    0.510    0.257   84.671   11.695
  322.000    0.490    0.235   73.703   12.368
  322.250    0.406    0.248   69.439   12.372
  322.500    0.207    0.068   65.178   12.147
  322.750    0.191    0.003   60.305   11.073
  323.000    0.273    0.045   58.483   10.094
  323.250    0.355    0.254   61.536    9.549
  323.500    0.420    0.256   70.081    9.376
  323.750    0.458    0.256   73.746    9.206
