~VERSION INFORMATION
 VERS.                 2.0:   CWLS LOG ASCII STANDARD -VERSION 2.0
 WRAP.                  NO:   ONE LINE PER DEPTH STEP
~WELL INFORMATION BLOCK
#MNEM.UNIT           DATA                    DESCRIPTION OF MNEMONIC
#---------    -------------------            -------------------------------
# Generated from Intellog Unique Number	CS_73_76/WELL/3257
WELL.         CANADIAN WORLDWIDE ENERGY      : Well_name    - WELL
LOC .         00/11-07-076-03W4/0            : Location     - LOCATION
UWI .         00/11-07-076-03W4/0            : Uwi          - UNIQUE WELL ID
ENTR.         SP                             : Entered      - ENTERED BY
SRVC.         SCHLUMBERGER                   : Scn          - SERVICE COMPANY
STRT.M        225                            : top_depth    - START DEPTH
STOP.M        485                            : bot_depth    - STOP DEPTH
STEP.M        0.25                           : increment    - STEP LENGTH
 NULL. -999.2500:NULL Value
~CURVE INFORMATION BLOCK
#MNEM UNIT       ERCB CURVE CODE    CURVE DESCRIPTION
#-----------   ------------------   ----------------------------------
DEPT.M        00 001 00 00         : DEPTH        - DEPTH
DPHI.V/V      00 890 00 00         : PHID         - DENSITY POROSITY (LIMESTONE)
NPHI.V/V      00 330 00 00         : PHIN         - NEUTRON POROSITY (LIMESTONE)
GR  .API      00 310 00 00         : GR           - GAMMA RAY
ILD .OHMM     00 120 00 00         : RESD         - DEEP RESISTIVITY (DIL)
~PARAMETER INFORMATION
#MNEM.UNIT           DATA             DESCRIPTION OF MNEMONIC
#---------         -----------     ------------------------------
GL  .M        617.13               : gl           - GROUND LEVEL ELEVATION
EREF.M        620.23               : kb           - ELEVATION OF DEPTH REFERENCE
DATM.M        617.13               : datum        - DATUM ELEVATION
TDD .M        492                  : tdd          - TOTAL DEPTH DRILLER
RUN .         ONE                  : Run          - RUN NUMBER
ENG .         BILL                 : Engineer     - RECORDING ENGINEER
WIT .         JIM                  : Witness      - WITNESSED BY
MUD .         GEL                  : Mud_type     - MUD TYPE
MATR.         LIMESTONE            : Logunit      - NEUTRON MATRIX
TMAX.C        18                   : BHT          - MAXIMUM RECORDED TEMPERATURE
BHTD.M        492                  : BHTDEP       - MAXIMUM RECORDED TEMPERATURE
MATR.         1                    : LOGUNIT      - NEUTRON MATRIX
RMT .C        25                   : MDTP         - TEMPERATURE OF MUD
NEUT.         1                    : NEUTRON      - NEUTRON TYPE
RESI.         0                    : RESIST       - RESISTIVITY TYPE
RMC .OHMM     0.25                 : RMC          - RESISTIVITY OF MUD CAKE
RMF .OHMM     0.25                 : RMF          - RESISTIVITY OF MUD FILTRATE
SUFT.C        15                   : SUFT         - SURFACE TEMPERATURE
~A  DEPTH     PHID     PHIN       GR     RESD
# ...
  355.500    0.351    0.467   58.738    9.749
  355.750    0.352    0.455   57.529    9.747
  356.000    0.351    0.441   56.319    9.743
  356.250    0.349    0.449   58.144    9.740
  356.500    0.349    0.448   61.792    9.555
  356.750    0.349    0.438   65.440    9.375
  357.000    0.339    0.429   67.874    8.217
  357.250    0.287    0.441   76.987    6.938
  357.500    0.254    0.451   85.494    5.537
  357.750    0.257    0.503   92.786    4.588
  358.000    0.268    0.522   89.755    3.396
  358.250    0.274    0.501   87.330    2.922
  358.500    0.281    0.513   84.904    2.813
  358.750    0.283    0.532   81.265    3.089
  359.000    0.278    0.510   81.269    3.456
  359.250    0.278    0.494   82.488    3.939
  359.500    0.286    0.469   78.241    4.245
  359.750    0.290    0.474   81.889    4.490
  360.000    0.287    0.488   98.898    4.573
  360.250    0.280    0.480  114.084    4.836
  360.500    0.257    0.483  109.839    4.926
  360.750    0.245    0.494  101.341    5.113
  361.000    0.252    0.488   83.126    5.307
  361.250    0.258    0.478   72.806    5.827
  361.500    0.263    0.463   64.915    6.643
  361.750    0.281    0.435   62.490    7.573
  362.000    0.295    0.423   63.103    8.473
  362.250    0.292    0.439   61.892    8.960
  362.500    0.293    0.449   63.718    9.300
  362.750    0.306    0.417   67.973    9.473
  363.000    0.307    0.396   75.873    9.470
  363.250    0.285    0.391   79.521    9.117
  363.500    0.262    0.424   75.881    8.298
  363.750    0.269    0.422   74.064    8.452
  364.000    0.270    0.412   75.283    9.107
  364.250    0.270    0.433   71.037    9.453
  364.500    0.281    0.436   68.004    9.812
  364.750    0.288    0.415   64.973   10.183
  365.000    0.291    0.415   68.014   10.372
  365.250    0.282    0.431   73.482   10.369
  365.500    0.280    0.436   76.523   10.365
  365.750    0.283    0.447   71.669   10.557
  366.000    0.305    0.469   69.852   10.555
  366.250    0.318    0.466   64.390   12.260
  366.500    0.255    0.369   53.464   13.977
  366.750    0.122    0.208   48.609   17.833
  367.000    0.035    0.159   43.755   19.582
  367.250    0.026    0.145   53.477   19.209
  367.500    0.092    0.247   61.376   18.848
  367.750    0.215    0.423   69.274   16.834
  368.000    0.282    0.450   74.137   13.949
  368.250    0.298    0.447   77.178   10.721
  368.500    0.292    0.440   80.826    9.223
  368.750    0.281    0.425   80.223    8.553
  369.000    0.266    0.443   78.405    8.235
  369.250    0.263    0.448   79.624    8.079
  369.500    0.256    0.457   80.238    8.075
  369.750    0.247    0.473   80.848    8.225
  370.000    0.239    0.467   81.459    8.223
  370.250    0.244    0.453   82.678    8.219
  370.500    0.252    0.463   84.504    8.218
  370.750    0.245    0.456   88.153    8.061
  371.000    0.234    0.457   88.764    8.058
  371.250    0.226    0.449   81.482    8.208
  371.500    0.238    0.436   79.665    8.361
  371.750    0.253    0.414   77.239    8.678
  372.000    0.259    0.393   76.029    8.840
  372.250    0.254    0.375   78.462    9.004
  372.500    0.243    0.392   81.503    9.001
  372.750    0.238    0.438   83.329    8.666
  373.000    0.250    0.443   83.942    8.037
  373.250    0.254    0.447   85.160    7.594
  373.500    0.253    0.453   85.772    7.042
  373.750    0.250    0.462   85.776    6.531
  374.000    0.254    0.481   86.995    5.725
  374.250    0.269    0.504   87.606    5.113
  374.500    0.278    0.525   89.434    4.653
  374.750    0.284    0.550   90.046    4.235
  375.000    0.289    0.568   90.048    3.927
  375.250    0.292    0.567   90.661    3.443
  375.500    0.293    0.551   90.058    3.314
  375.750    0.256    0.557   88.847    3.132
  376.000    0.246    0.561   87.029    3.073
  376.250    0.262    0.531   83.997    3.129
  376.500    0.287    0.510   82.787    3.248
  376.750    0.286    0.506   83.399    3.500
  377.000    0.264    0.497   83.404    4.143
  377.250    0.289    0.476   82.801    5.188
  377.500    0.303    0.472   82.197    6.257
  377.750    0.314    0.459   80.987    6.871
  378.000    0.317    0.455   80.991    7.687
  378.250    0.317    0.464   80.388    8.440
  378.500    0.315    0.460   77.356    8.926
  378.750    0.309    0.453   77.361    9.092
  379.000    0.306    0.457   76.150    9.089
  379.250    0.303    0.470   74.939    8.916
  379.500    0.303    0.471   74.944    8.747
  379.750    0.298    0.492   74.341    8.582
  380.000    0.285    0.513   72.523    8.580
  380.250    0.234    0.487   70.705    8.739
  380.500    0.197    0.454   67.066    9.070
  380.750    0.122    0.283   59.175    9.067
  381.000    0.188    0.362   59.181    9.588
  381.250    0.268    0.459   65.257   10.332
  381.500    0.309    0.480   71.942   10.928
  381.750    0.306    0.467   71.339   11.131
  382.000    0.301    0.464   72.558   10.517
  382.250    0.309    0.474   73.170    9.754
  382.500    0.320    0.475   71.959    9.045
  382.750    0.315    0.472   68.927    8.708
  383.000    0.291    0.460   70.753    8.385
  383.250    0.262    0.445   75.616    7.922
  383.500    0.232    0.449   79.264    7.628
  383.750    0.230    0.460   81.091    7.344
  384.000    0.240    0.458   78.666    7.206
  384.250    0.245    0.445   78.063    7.203
  384.500    0.244    0.427   78.675    6.806
  384.750    0.245    0.417   79.894    6.311
  385.000    0.250    0.432   81.112    6.192
  385.250    0.249    0.449   82.332    6.075
  385.500    0.244    0.456   81.728    6.073
  385.750    0.239    0.462   76.267    6.186
  386.000    0.235    0.451   72.627    6.301
  386.250    0.256    0.442   71.417    6.790
  386.500    0.275    0.426   76.280    7.047
  386.750    0.253    0.417   84.179    7.045
  387.000    0.244    0.432   91.470    7.042
  387.250    0.267    0.440   82.973    7.040
  387.500    0.294    0.442   73.868    7.037
  387.750    0.310    0.438   72.050    6.904
  388.000    0.277    0.426   78.735    6.773
  388.250    0.242    0.420   81.775    6.521
  388.500    0.219    0.442   85.423    5.825
  388.750    0.217    0.453   86.643    5.301
  389.000    0.236    0.438   86.039    4.916
  389.250    0.277    0.464   84.222    3.923
  389.500    0.292    0.495   83.013    3.073
  389.750    0.296    0.538   83.624    2.693
  390.000    0.295    0.538   83.021    2.545
  390.250    0.288    0.526   79.988    2.497
  390.500    0.278    0.495   80.601    2.496
  390.750    0.281    0.501   83.034    2.542
  391.000    0.294    0.507   83.038    2.541
  391.250    0.298    0.501   77.577    2.541
  391.500    0.297    0.496   78.188    2.446
  391.750    0.292    0.512   84.873    2.445
  392.000    0.286    0.520   87.306    2.444
  392.250    0.274    0.527   89.132    2.490
  392.500    0.261    0.525   84.278    2.633
  392.750    0.254    0.516   81.246    2.838
  393.000    0.245    0.498   81.251    3.235
  393.250    0.239    0.472   81.255    3.688
  393.500    0.240    0.463   76.401    4.126
  393.750    0.234    0.439   76.405    4.530
  394.000    0.223    0.424   76.409    4.881
  394.250    0.231    0.435   77.021    4.973
  394.500    0.231    0.428   77.026    5.259
  394.750    0.225    0.423   78.245    5.458
  395.000    0.230    0.421   79.464    5.560
  395.250    0.226    0.418   81.897    5.663
  395.500    0.221    0.417   84.331    5.768
  395.750    0.219    0.418   82.513    5.659
  396.000    0.224    0.421   82.517    5.347
  396.250    0.240    0.433   84.951    4.959
  396.500    0.252    0.438   86.777    4.347
  396.750    0.260    0.442   91.032    3.810
  397.000    0.265    0.513   94.073    3.738
  397.250    0.264    0.504   90.433    3.808
  397.500    0.249    0.462   86.795    3.878
  397.750    0.233    0.445   88.013    3.877
  398.000    0.224    0.441   89.839    3.876
  398.250    0.222    0.446   88.021    3.802
  398.500    0.218    0.447   88.634    3.730
  398.750    0.216    0.436   91.067    3.591
