~VERSION INFORMATION
 VERS.                 2.0:   CWLS LOG ASCII STANDARD -VERSION 2.0
 WRAP.                  NO:   ONE LINE PER DEPTH STEP
~WELL INFORMATION BLOCK
#MNEM.UNIT           DATA                    DESCRIPTION OF MNEMONIC
#---------    -------------------            -------------------------------
# Generated from Intellog Unique Number	CX_WELLS/WELL/2964
WELL.         ATCOR HANGINGSTONE             : Well_name    - WELL
LOC .         00/12-12-082-11W4/0            : Location     - LOCATION
UWI .         00/12-12-082-11W400            : Uwi          - UNIQUE WELL ID
ENTR.         T                              : Entered      - ENTERED BY
SRVC.         SCHLUMBERGER                   : Scn          - SERVICE COMPANY
STRT.M        260                            : top_depth    - START DEPTH
STOP.M        485                            : bot_depth    - STOP DEPTH
STEP.M        0.25                           : increment    - STEP LENGTH
 NULL. -999.2500:NULL Value
~CURVE INFORMATION BLOCK
#MNEM UNIT       ERCB CURVE CODE    CURVE DESCRIPTION
#-----------   ------------------   ----------------------------------
DEPT.M        00 001 00 00         : DEPTH        - DEPTH
GR  .API      00 310 00 00         : GR           - GAMMA RAY
NPHI.V/V      00 330 00 00         : PHIN         - NEUTRON POROSITY (SANDSTONE)
DPHI.V/V      00 890 00 00         : PHID         - DENSITY POROSITY (SANDSTONE)
ILD .OHMM     00 120 00 00         : RESD         - DEEP RESISTIVITY (OTHER)
~PARAMETER INFORMATION
#MNEM.UNIT           DATA             DESCRIPTION OF MNEMONIC
#---------         -----------     ------------------------------
GL  .M        705                  : gl           - GROUND LEVEL ELEVATION
EREF.M        706.4                : kb           - ELEVATION OF DEPTH REFERENCE
DATM.M        706.4                : datum        - DATUM ELEVATION
TDD .M        497                  : tdd          - TOTAL DEPTH DRILLER
RUN .         ONE                  : Run          - RUN NUMBER
ENG .         BILL                 : Engineer     - RECORDING ENGINEER
WIT .         JIM                  : Witness      - WITNESSED BY
MUD .         GEL                  : Mud_type     - MUD TYPE
MATR.         SANDSTONE            : Logunit      - NEUTRON MATRIX
TMAX.C        20                   : BHT          - MAXIMUM RECORDED TEMPERATURE
BHTD.M        496                  : BHTDEP       - MAXIMUM RECORDED TEMPERATURE
MATR.         1                    : LOGUNIT      - NEUTRON MATRIX
RMT .C        20                   : MDTP         - TEMPERATURE OF MUD
NEUT.         1                    : NEUTRON      - NEUTRON TYPE
RESI.         7                    : RESIST       - RESISTIVITY TYPE
RMC .OHMM     2.3                  : RMC          - RESISTIVITY OF MUD CAKE
RMF .OHMM     9.7                  : RMF          - RESISTIVITY OF MUD FILTRATE
SUFT.C        4                    : SUFT         - SURFACE TEMPERATURE
~A  DEPTH       GR     PHIN     PHID     RESD
# ...
  347.000   62.911    0.430    0.324   17.705
  347.250   65.314    0.443    0.322   16.765
  347.500   65.933    0.451    0.317   15.584
  347.750   65.964    0.459    0.315   15.035
  348.000   65.988    0.457    0.311   15.050
  348.250   68.391    0.459    0.306   14.788
  348.500   71.387    0.462    0.300   14.530
  348.750   73.189    0.463    0.294   14.016
  349.000   73.226    0.465    0.283   13.028
  349.250   72.650    0.465    0.282   11.888
  349.500   72.675    0.465    0.284   11.048
  349.750   73.894    0.467    0.285   10.084
  350.000   73.919    0.469    0.285    9.546
  350.250   74.544    0.467    0.286    9.041
  350.500   74.563    0.469    0.286    8.563
  350.750   75.176    0.471    0.289    8.258
  351.000   76.395    0.483    0.291    7.535
  351.250   78.798    0.495    0.293    6.748
  351.500   82.388    0.503    0.293    5.934
  351.750   85.979    0.511    0.282    5.315
  352.000   86.016    0.522    0.257    5.130
  352.250   84.840    0.499    0.249    5.736
  352.500   81.899    0.477    0.254    7.171
  352.750   81.330    0.456    0.264    8.168
  353.000   81.348    0.440    0.271    9.306
  353.250   84.357    0.436    0.282   10.223
  353.500   86.747    0.492    0.297    8.823
  353.750   93.322    0.522    0.287    7.203
  354.000   94.535    0.545    0.276    5.564
  354.250   94.554    0.540    0.261    4.630
  354.500   94.585    0.530    0.249    4.465
  354.750   94.616    0.520    0.241    4.470
  355.000   94.628    0.490    0.234    4.392
  355.250   94.653    0.482    0.238    4.238
  355.500   94.684    0.495    0.241    4.014
  355.750   94.709    0.504    0.247    3.942
  356.000   94.733    0.502    0.253    3.665
  356.250   95.359    0.509    0.260    3.535
  356.500   95.389    0.516    0.261    3.288
  356.750   95.402    0.521    0.261    3.171
  357.000   96.021    0.535    0.259    3.002
  357.250   96.052    0.543    0.257    2.895
  357.500   96.077    0.553    0.252    2.742
  357.750   96.101    0.564    0.247    2.694
  358.000   96.120    0.572    0.241    2.648
  358.250   96.151    0.566    0.249    2.649
  358.500   96.188    0.560    0.275    2.753
  358.750   96.207    0.560    0.280    2.807
  359.000   95.043    0.555    0.290    2.915
  359.250   92.089    0.543    0.291    2.972
  359.500   89.142    0.533    0.293    3.203
  359.750   84.412    0.521    0.296    3.583
  360.000   79.682    0.512    0.300    3.862
  360.250   77.329    0.503    0.303    3.939
  360.500   80.338    0.502    0.304    4.094
  360.750   82.734    0.508    0.304    4.095
  361.000   83.954    0.519    0.297    4.253
  361.250   82.778    0.523    0.278    4.418
  361.500   81.025    0.512    0.268    4.588
  361.750   79.861    0.493    0.271    4.947
  362.000   78.697    0.471    0.277    5.333
  362.250   76.951    0.458    0.285    5.541
  362.500   75.781    0.455    0.294    5.647
  362.750   75.205    0.460    0.293    5.867
  363.000   74.048    0.469    0.285    5.980
  363.250   73.472    0.474    0.283    6.331
  363.500   72.908    0.472    0.284    6.697
  363.750   72.339    0.465    0.286    7.353
  364.000   70.580    0.458    0.292    8.226
  364.250   68.228    0.455    0.300    9.032
  364.500   66.469    0.460    0.307    9.733
  364.750   64.111    0.462    0.314   10.888
  365.000   63.541    0.461    0.317   11.310
  365.250   71.893    0.461    0.320   11.320
  365.500   73.713    0.463    0.321   11.540
  365.750   73.725    0.462    0.325   11.556
  366.000   74.351    0.463    0.326   11.565
  366.250   74.382    0.466    0.331   11.578
  366.500   74.394    0.468    0.335   11.595
  366.750   66.698    0.462    0.337   11.600
  367.000   66.723    0.447    0.336   11.398
  367.250   67.943    0.441    0.332   11.409
  367.500   68.549    0.436    0.326   11.423
  367.750   69.775    0.440    0.321   11.219
  368.000   69.794    0.442    0.312   11.229
  368.250   68.630    0.441    0.293   11.243
  368.500   64.500    0.442    0.279   11.047
  368.750   62.742    0.447    0.287   11.063
  369.000   62.767    0.449    0.299   11.071
  369.250   63.386    0.458    0.306   10.880
  369.500   63.410    0.468    0.317   10.888
  369.750   63.435    0.474    0.329   10.896
  370.000   63.454    0.470    0.338   10.909
  370.250   63.478    0.458    0.340   10.719
  370.500   63.509    0.445    0.341   10.729
  370.750   63.540    0.434    0.343   10.547
  371.000   64.159    0.428    0.341   10.555
  371.250   64.178    0.427    0.340   10.371
  371.500   64.803    0.435    0.340   10.379
  371.750   64.828    0.437    0.340   10.391
  372.000   64.264    0.440    0.340   10.595
  372.250   63.682    0.450    0.342   10.605
  372.500   62.519    0.458    0.346   10.618
  372.750   60.766    0.457    0.349   10.821
  373.000   59.596    0.453    0.352   10.831
  373.250   57.844    0.453    0.349   11.047
  373.500   57.274    0.455    0.344   11.057
  373.750   58.494    0.456    0.342   11.274
  374.000   59.107    0.450    0.342   11.285
  374.250   60.320    0.445    0.342   11.299
  374.500   60.940    0.445    0.344   11.306
  374.750   61.565    0.446    0.347   11.323
  375.000   61.583    0.447    0.348   11.328
  375.250   61.020    0.451    0.350   11.131
  375.500   61.051    0.453    0.350   11.144
  375.750   60.469    0.449    0.350   11.155
  376.000   60.500    0.442    0.344   11.165
  376.250   60.531    0.436    0.344   11.178
  376.500   59.955    0.442    0.344   10.981
  376.750   59.398    0.454    0.344   10.997
  377.000   58.822    0.465    0.343   10.803
  377.250   59.441    0.464    0.343   10.813
  377.500   59.466    0.455    0.343   10.628
  377.750   60.685    0.453    0.340   10.633
  378.000   60.704    0.448    0.336   10.258
  378.250   61.911    0.440    0.334   10.080
  378.500   63.137    0.429    0.334    9.547
  378.750   65.539    0.436    0.334    9.209
  379.000   69.124    0.443    0.324    8.560
  379.250   74.504    0.454    0.302    8.105
  379.500   78.089    0.458    0.288    7.816
  379.750   81.091    0.467    0.277    7.680
  380.000   80.522    0.479    0.277    7.408
  380.250   79.358    0.489    0.276    7.015
  380.500   81.172    0.495    0.275    6.522
  380.750   82.973    0.496    0.270    6.290
  381.000   84.781    0.497    0.265    5.637
  381.250   86.595    0.500    0.266    5.436
  381.500   87.208    0.501    0.270    5.054
  381.750   88.434    0.502    0.272    4.873
  382.000   88.452    0.504    0.276    4.614
  382.250   89.672    0.506    0.283    4.452
  382.500   90.285    0.508    0.299    4.457
  382.750   89.133    0.505    0.321    4.716
  383.000   86.768    0.501    0.322    4.897
  383.250   83.227    0.485    0.319    5.581
  383.500   79.091    0.492    0.311    6.359
  383.750   77.933    0.489    0.297    7.110
  384.000   79.741    0.469    0.278    7.809
  384.250   82.738    0.465    0.264    7.962
  384.500   85.134    0.464    0.259    7.680
  384.750   86.942    0.456    0.259    7.272
  385.000   87.573    0.445    0.262    7.148
  385.250   88.186    0.450    0.263    7.153
  385.500   88.217    0.461    0.263    7.295
  385.750   87.641    0.469    0.263    7.302
  386.000   86.477    0.471    0.263    7.307
  386.250   88.285    0.469    0.264    6.921
  386.500   89.504    0.469    0.265    6.677
  386.750   88.929    0.469    0.271    6.559
  387.000   86.588    0.469    0.276    6.211
  387.250   86.601    0.470    0.278    6.103
  387.500   89.003    0.472    0.281    5.887
  387.750   93.194    0.478    0.284    5.678
  388.000   96.191    0.485    0.286    5.479
  388.250   97.999    0.514    0.285    5.283
  388.500   97.435    0.545    0.283    4.911
  388.750   96.265    0.562    0.279    4.319
  389.000   94.513    0.570    0.277    3.798
  389.250   93.343    0.543    0.274    3.531
  389.500   91.584    0.487    0.271    3.667
  389.750   90.420    0.470    0.267    3.953
  390.000   90.451    0.480    0.263    4.421
  390.250   90.476    0.489    0.262    4.765
