~VERSION INFORMATION
 VERS.                 2.0:   CWLS LOG ASCII STANDARD -VERSION 2.0
 WRAP.                  NO:   ONE LINE PER DEPTH STEP
~WELL INFORMATION BLOCK
#MNEM.UNIT           DATA                    DESCRIPTION OF MNEMONIC
#---------    -------------------            -------------------------------
# Generated from Intellog Unique Number	CS_73_76/WELL/3275
WELL.         CANADIAN WORLDWIDE ENERGY      : Well_name    - WELL
LOC .         00/13-17-076-04W4/0            : Location     - LOCATION
UWI .         00/13-17-076-04W4/0            : Uwi          - UNIQUE WELL ID
ENTR.         SP                             : Entered      - ENTERED BY
SRVC.         SCHLUMBERGER                   : Scn          - SERVICE COMPANY
STRT.M        150                            : top_depth    - START DEPTH
STOP.M        450                            : bot_depth    - STOP DEPTH
STEP.M        0.25                           : increment    - STEP LENGTH
 NULL. -999.2500:NULL Value
~CURVE INFORMATION BLOCK
#MNEM UNIT       ERCB CURVE CODE    CURVE DESCRIPTION
#-----------   ------------------   ----------------------------------
DEPT.M        00 001 00 00         : DEPTH        - DEPTH
ILD .OHMM     00 120 00 00         : RESD         - DEEP RESISTIVITY (DIL)
GR  .API      00 310 00 00         : GR           - GAMMA RAY
DPHI.V/V      00 890 00 00         : PHID         - DENSITY POROSITY (LIMESTONE)
NPHI.V/V      00 330 00 00         : PHIN         - NEUTRON POROSITY (LIMESTONE)
~PARAMETER INFORMATION
#MNEM.UNIT           DATA             DESCRIPTION OF MNEMONIC
#---------         -----------     ------------------------------
GL  .M        623.19               : gl           - GROUND LEVEL ELEVATION
EREF.M        626.29               : kb           - ELEVATION OF DEPTH REFERENCE
DATM.M        623.19               : datum        - DATUM ELEVATION
TDD .M        453                  : tdd          - TOTAL DEPTH DRILLER
RUN .         ONE                  : Run          - RUN NUMBER
ENG .         BILL                 : Engineer     - RECORDING ENGINEER
WIT .         JIM                  : Witness      - WITNESSED BY
MUD .         GEL                  : Mud_type     - MUD TYPE
MATR.         LIMESTONE            : Logunit      - NEUTRON MATRIX
TMAX.C        18                   : BHT          - MAXIMUM RECORDED TEMPERATURE
BHTD.M        453                  : BHTDEP       - MAXIMUM RECORDED TEMPERATURE
MATR.         1                    : LOGUNIT      - NEUTRON MATRIX
RMT .C        25                   : MDTP         - TEMPERATURE OF MUD
NEUT.         1                    : NEUTRON      - NEUTRON TYPE
RESI.         0                    : RESIST       - RESISTIVITY TYPE
RMC .OHMM     0.25                 : RMC          - RESISTIVITY OF MUD CAKE
RMF .OHMM     0.25                 : RMF          - RESISTIVITY OF MUD FILTRATE
SUFT.C        15                   : SUFT         - SURFACE TEMPERATURE
~A  DEPTH     RESD       GR     PHID     PHIN
# ...
  411.000   15.608   73.117    0.210    0.302
  411.250   14.481   75.576    0.207    0.309
  411.500   13.689   85.965    0.238    0.326
  411.750   16.199   76.835    0.213    0.388
  412.000   17.457   51.856    0.239    0.414
  412.250   19.900   50.043    0.302    0.387
  412.500   21.850   67.140    0.262    0.350
  412.750   23.547   66.552    0.228    0.355
  413.000   25.375   53.764    0.222    0.388
  413.250   29.472   48.904    0.261    0.391
  413.500   37.590   48.315    0.292    0.387
  413.750   42.849   45.285    0.295    0.388
  414.000   42.844   41.047    0.293    0.390
  414.250   34.868   41.055    0.317    0.393
  414.500   30.015   50.832    0.324    0.373
  414.750   26.327   63.658    0.301    0.326
  415.000   20.255   77.704    0.280    0.318
  415.250   18.792   78.335    0.206    0.328
  415.500   19.506   75.302    0.213    0.334
  415.750   21.021   63.736    0.247    0.335
  416.000   22.234   43.023    0.307    0.328
  416.250   23.961   35.118    0.276    0.315
  416.500   26.309   31.478    0.240    0.301
  416.750   28.888   32.719    0.253    0.304
  417.000   31.720   33.962    0.249    0.328
  417.250   34.183   33.367    0.243    0.330
  417.500   44.421   32.776    0.241    0.306
  417.750   61.060   33.410    0.249    0.282
  418.000   70.918   33.427    0.258    0.265
  418.250   83.925   30.397    0.237    0.267
  418.500  105.053   31.641    0.237    0.257
  418.750  129.060   32.876    0.238    0.255
  419.000  144.390   35.335    0.238    0.260
  419.250  158.540   36.572    0.238    0.269
  419.500  158.526   39.035    0.238    0.274
  419.750  170.835   39.053    0.234    0.279
  420.000  184.103   31.754    0.229    0.288
  420.250  205.964   30.556    0.227    0.274
  420.500  213.809   28.138    0.223    0.256
  420.750  226.134   25.718    0.272    0.292
  421.000  234.743   25.132    0.293    0.307
  421.250  234.722   25.146    0.310    0.333
  421.500  226.069   26.999    0.308    0.348
  421.750  221.858   28.848    0.296    0.339
  422.000  221.840   30.086    0.288    0.333
  422.250  205.812   31.324    0.281    0.320
  422.500  187.407   30.125    0.287    0.309
  422.750  161.326   30.141    0.298    0.324
  423.000  124.118   38.090    0.306    0.337
  423.250  101.014   51.523    0.309    0.352
  423.500   66.908   61.909    0.311    0.351
  423.750   55.480   72.908    0.310    0.348
  424.000   46.004   81.463    0.300    0.351
  424.250   38.866   91.237    0.277    0.364
  424.500   34.733   73.574    0.255    0.381
  424.750   34.731   74.207    0.269    0.402
  425.000   39.590   79.711    0.287    0.408
  425.250   50.494   66.929    0.282    0.399
  425.500   73.419   56.581    0.272    0.382
  425.750  121.696   49.282    0.293    0.374
  426.000  141.343   51.740    0.321    0.358
  426.250  133.610   59.691    0.331    0.352
  426.500  108.735   63.982    0.333    0.361
  426.750   73.384   67.049    0.332    0.364
  427.000   64.365   65.852    0.316    0.393
  427.250   70.672   62.210    0.304    0.415
  427.500   80.561   56.128    0.320    0.405
  427.750   93.567   49.443    0.329    0.389
  428.000  102.739   45.194    0.336    0.378
  428.250  108.665   46.435    0.327    0.374
  428.500  108.652   47.060    0.321    0.361
  428.750  106.630   44.039    0.309    0.350
  429.000   97.093   42.224    0.303    0.348
  429.250   82.031   43.463    0.307    0.343
  429.500   63.112   49.584    0.293    0.311
  429.750   57.468   53.257    0.278    0.322
  430.000   61.931   56.324    0.262    0.334
  430.250   70.594   53.912    0.271    0.339
  430.500   83.541   51.489    0.276    0.351
  430.750  106.550   49.068    0.276    0.370
  431.000  119.204   49.702    0.285    0.376
  431.250  126.076   50.335    0.289    0.350
  431.500  128.446   49.132    0.282    0.332
  431.750  128.430   47.926    0.292    0.329
  432.000  128.422   49.168    0.298    0.322
  432.250  128.407   49.795    0.284    0.306
  432.500  128.402   46.770    0.270    0.303
  432.750  119.124   47.402    0.270    0.309
  433.000  114.739   48.034    0.278    0.316
  433.250  110.508   48.049    0.283    0.318
  433.500  110.498   48.066    0.283    0.306
  433.750  112.580   46.868    0.283    0.305
  434.000  116.860   42.619    0.265    0.300
  434.250  114.681   40.807    0.246    0.268
  434.500  114.674   42.048    0.238    0.255
  434.750  114.662   42.068    0.238    0.257
  435.000  114.652   39.648    0.238    0.271
  435.250  116.806   42.719    0.238    0.286
  435.500  114.631   45.174    0.261    0.300
  435.750  106.350   48.242    0.271    0.300
  436.000  100.533   46.434    0.266    0.289
  436.250   95.035   45.235    0.262    0.284
  436.500   88.170   46.488    0.256    0.279
  436.750   75.900   47.121    0.255    0.278
  437.000   59.499   47.139    0.256    0.277
  437.250   55.202   46.532    0.256    0.280
  437.500   52.182   38.624    0.266    0.289
  437.750   56.234   32.547    0.280    0.300
  438.000   59.477   29.520    0.286    0.309
  438.250   65.307   28.936    0.291    0.320
  438.500   73.063   29.558    0.300    0.331
  438.750   81.739   36.895    0.306    0.333
  439.000   88.088   35.697    0.311    0.339
  439.250   94.928   31.447    0.316    0.328
  439.500  104.232   30.256    0.317    0.340
  439.750  112.324   30.268    0.317    0.359
  440.000  116.598   30.287    0.318    0.361
  440.250  114.427   31.533    0.314    0.346
  440.500  108.167   32.160    0.306    0.348
  440.750   75.787   34.613    0.302    0.370
  441.000   31.437   43.173    0.320    0.387
  441.250   20.823   54.775    0.337    0.381
  441.500   13.537   73.698    0.319    0.343
  441.750   11.017   88.964    0.121    0.331
  442.000    9.135   90.818    0.129    0.337
  442.250    8.635   89.616    0.139    0.342
  442.500    8.474   85.362    0.132    0.349
  442.750    8.473   79.894    0.117    0.359
  443.000    8.315   75.646    0.122    0.338
  443.250    8.314   72.617    0.140    0.331
  443.500    8.314   75.685    0.150    0.321
  443.750    8.159   77.534    0.146    0.316
  444.000    8.158   77.554    0.141    0.330
  444.250    8.157   68.428    0.156    0.335
  444.500    8.310   67.837    0.162    0.342
  444.750    8.310   66.036    0.178    0.336
  445.000    8.309   64.828    0.169    0.333
  445.250    8.788   63.629    0.065    0.332
  445.500    9.123   64.260    0.000    0.348
  445.750   10.207   51.475    0.000    0.360
  446.000   28.575   37.467    0.000    0.334
  446.250   40.776   31.389    0.000    0.172
  446.500   47.359   30.189    0.012    0.144
  446.750   50.091   30.213    0.022    0.160
  447.000   48.245   30.851    0.027    0.171
  447.250   40.760   30.861    0.015    0.176
  447.500   38.532   30.878    0.000    0.179
  447.750   37.814   24.191    0.000    0.183
  448.000   37.809    2.872    0.000    0.186
  448.250   38.521    2.900    0.000    0.187
  448.500   39.244    2.909    0.000    0.187
  448.750   39.982    4.164    0.000    0.187
  449.000   39.978    4.180    0.000    0.189
  449.250   40.729    4.803    0.000    0.193
  449.500   39.971    4.817    0.007    0.194
  449.750   39.226    4.838    0.015    0.193
  450.000   38.495    4.856    0.021    0.188
