~VERSION INFORMATION
 VERS.                 2.0:   CWLS LOG ASCII STANDARD -VERSION 2.0
 WRAP.                  NO:   ONE LINE PER DEPTH STEP
~WELL INFORMATION BLOCK
#MNEM.UNIT           DATA                    DESCRIPTION OF MNEMONIC
#---------    -------------------            -------------------------------
# Generated from Intellog Unique Number	CS_71_72/WELL/927
WELL.         ET AL SCHELTENS                : Well_name    - WELL
LOC .         00/16-13-071-01W4/0            : Location     - LOCATION
UWI .         00/16-13-071-01W4/0            : Uwi          - UNIQUE WELL ID
ENTR.         SP                             : Entered      - ENTERED BY
SRVC.         SCHLUMBERGER                   : Scn          - SERVICE COMPANY
STRT.M        365                            : top_depth    - START DEPTH
STOP.M        620                            : bot_depth    - STOP DEPTH
STEP.M        0.25                           : increment    - STEP LENGTH
 NULL. -999.2500:NULL Value
~CURVE INFORMATION BLOCK
#MNEM UNIT       ERCB CURVE CODE    CURVE DESCRIPTION
#-----------   ------------------   ----------------------------------
DEPT.M        00 001 00 00         : DEPTH        - DEPTH
ILD .OHMM     00 120 00 00         : RESD         - DEEP RESISTIVITY (DIL)
DPHI.V/V      00 890 00 00         : PHID         - DENSITY POROSITY (LIMESTONE)
NPHI.V/V      00 330 00 00         : PHIN         - NEUTRON POROSITY (LIMESTONE)
GR  .API      00 310 00 00         : GR           - GAMMA RAY
~PARAMETER INFORMATION
#MNEM.UNIT           DATA             DESCRIPTION OF MNEMONIC
#---------         -----------     ------------------------------
GL  .M        708.9                : gl           - GROUND LEVEL ELEVATION
EREF.M        713.2                : kb           - ELEVATION OF DEPTH REFERENCE
DATM.M        708.9                : datum        - DATUM ELEVATION
TDD .M        825                  : tdd          - TOTAL DEPTH DRILLER
RUN .         ONE                  : Run          - RUN NUMBER
ENG .         BILL                 : Engineer     - RECORDING ENGINEER
WIT .         JIM                  : Witness      - WITNESSED BY
MUD .         GEL                  : Mud_type     - MUD TYPE
MATR.         LIMESTONE            : Logunit      - NEUTRON MATRIX
TMAX.C        23                   : BHT          - MAXIMUM RECORDED TEMPERATURE
BHTD.M        825                  : BHTDEP       - MAXIMUM RECORDED TEMPERATURE
MATR.         1                    : LOGUNIT      - NEUTRON MATRIX
RMT .C        25                   : MDTP         - TEMPERATURE OF MUD
NEUT.         1                    : NEUTRON      - NEUTRON TYPE
RESI.         0                    : RESIST       - RESISTIVITY TYPE
RMC .OHMM     0.25                 : RMC          - RESISTIVITY OF MUD CAKE
RMF .OHMM     0.25                 : RMF          - RESISTIVITY OF MUD FILTRATE
SUFT.C        15                   : SUFT         - SURFACE TEMPERATURE
~A  DEPTH     RESD     PHID     PHIN       GR
# ...
  495.500   15.236    0.191    0.385   58.029
  495.750   14.127    0.345    0.417   60.142
  496.000   13.148    0.355    0.453   60.368
  496.250   12.329    0.359    0.474   57.482
  496.500   12.097    0.360    0.463   57.704
  496.750   11.825    0.359    0.465   60.549
  497.000   11.779    0.358    0.483   62.359
  497.250   11.798    0.357    0.471   62.827
  497.500   11.819    0.354    0.462   62.560
  497.750   11.662    0.353    0.466   62.233
  498.000   11.882    0.351    0.477   62.036
  498.250   12.175    0.349    0.474   57.928
  498.500   12.857    0.348    0.469   55.474
  498.750   13.655    0.348    0.473   54.540
  499.000   14.974    0.350    0.489   56.588
  499.250   16.701    0.351    0.510   58.154
  499.500   18.875    0.354    0.531   58.746
  499.750   20.543    0.359    0.501   57.018
  500.000   21.450    0.363    0.405   51.938
  500.250   20.459    0.372    0.331   49.543
  500.500   17.826    0.366    0.358   48.853
  500.750   15.070    0.353    0.457   53.829
  501.000   13.380    0.345    0.479   58.321
  501.250   12.313    0.337    0.483   61.043
  501.500   11.590    0.323    0.467   61.755
  501.750   11.159    0.316    0.452   62.282
  502.000   10.928    0.315    0.441   62.141
  502.250   10.682    0.313    0.449   61.938
  502.500   10.600    0.316    0.461   64.353
  502.750   10.499    0.324    0.449   65.247
  503.000   10.438    0.330    0.439   64.922
  503.250   10.417    0.324    0.455   64.475
  503.500   10.414    0.319    0.480   64.764
  503.750   10.413    0.324    0.474   65.776
  504.000   10.392    0.334    0.470   66.856
  504.250   10.370    0.332    0.474   68.176
  504.500   10.368    0.324    0.476   67.907
  504.750   10.367    0.320    0.468   67.341
  505.000   10.365    0.318    0.467   66.593
  505.250   10.325    0.319    0.474   65.229
  505.500   10.284    0.322    0.477   64.174
  505.750   10.263    0.327    0.473   62.693
  506.000   10.165    0.331    0.473   63.343
  506.250    9.993    0.327    0.479   67.040
  506.500    9.389    0.318    0.496   69.519
  506.750    8.430    0.313    0.506   70.902
  507.000    7.415    0.315    0.507   72.095
  507.250    6.497    0.312    0.490   72.504
  507.500    5.845    0.273    0.476   72.730
  507.750    5.410    0.249    0.486   72.893
  508.000    5.398    0.246    0.482   72.447
  508.250    5.658    0.244    0.479   70.963
  508.500    6.844    0.253    0.498   66.613
  508.750    8.420    0.241    0.519   64.097
  509.000   10.899    0.101    0.502   60.603
  509.250   14.486    0.097    0.290   53.514
  509.500   18.437    0.141    0.222   51.419
  509.750   23.642    0.233    0.243   51.645
  510.000   23.998    0.076    0.261   51.382
  510.250   19.281    0.053    0.239   50.509
  510.500   15.816    0.073    0.210   51.768
  510.750   13.294    0.292    0.254   54.369
  511.000   11.916    0.314    0.316   58.364
  511.250   11.007    0.320    0.418   61.209
  511.500    9.644    0.323    0.457   63.689
  511.750    7.350    0.317    0.447   65.745
  512.000    5.425    0.315    0.444   69.255
  512.250    4.166    0.318    0.463   71.497
  512.500    3.211    0.339    0.498   73.425
  512.750    2.517    0.358    0.547   72.918
  513.000    2.231    0.371    0.597   71.130
  513.250    2.231    0.382    0.579   69.830
  513.500    2.320    0.389    0.565   69.263
  513.750    2.423    0.389    0.555   70.035
  514.000    2.637    0.374    0.559   72.575
  514.250    2.743    0.350    0.569   72.797
  514.500    2.935    0.339    0.535   69.792
  514.750    2.940    0.335    0.501   68.553
  515.000    2.939    0.336    0.493   69.686
  515.250    2.933    0.342    0.506   70.401
  515.500    3.115    0.341    0.518   70.565
  515.750    3.943    0.323    0.506   70.058
  516.000    4.796    0.308    0.511   65.892
  516.250    5.693    0.309    0.527   63.435
  516.500    6.618    0.331    0.517   65.181
  516.750    7.042    0.329    0.494   66.498
  517.000    6.819    0.324    0.474   66.727
  517.250    6.204    0.321    0.456   65.549
  517.500    5.395    0.325    0.490   63.761
  517.750    4.974    0.326    0.525   64.900
  518.000    4.691    0.308    0.553   65.793
  518.250    4.559    0.294    0.548   65.651
  518.500    4.897    0.285    0.524   65.936
  518.750    5.371    0.280    0.489   66.587
  519.000    5.812    0.286    0.495   67.114
  519.250    6.012    0.295    0.508   66.364
  519.500    5.734    0.299    0.512   68.719
  519.750    5.149    0.312    0.516   71.075
  520.000    4.738    0.335    0.515   72.032
  520.250    4.255    0.351    0.544   72.683
  520.500    3.721    0.344    0.521   73.575
  520.750    3.457    0.330    0.490   74.226
  521.000    3.248    0.324    0.490   74.755
  521.250    3.121    0.323    0.511   74.919
  521.500    3.091    0.331    0.537   73.985
  521.750    3.365    0.334    0.556   72.562
  522.000    3.648    0.332    0.565   70.591
  522.250    4.154    0.313    0.555   68.804
  522.500    4.573    0.289    0.542   66.224
  522.750    4.912    0.276    0.524   63.889
  523.000    5.033    0.262    0.505   64.721
  523.250    5.108    0.264    0.472   68.176
  523.500    5.041    0.272    0.447   72.604
  523.750    5.165    0.272    0.464   73.743
  524.000    5.685    0.265    0.484   72.443
  524.250    6.584    0.260    0.476   70.227
  524.500    7.386    0.268    0.443   67.710
  524.750    8.443    0.277    0.432   64.581
  525.000    9.596    0.267    0.432   59.076
  525.250   10.191    0.204    0.436   54.240
  525.500   10.132    0.203    0.422   50.077
  525.750    9.922    0.254    0.415   53.592
  526.000    9.680    0.292    0.428   56.314
  526.250    9.660    0.309    0.441   57.086
  526.500    9.622    0.315    0.429   56.517
  526.750    9.531    0.312    0.430   57.654
  527.000   10.008    0.288    0.436   60.438
  527.250    9.562    0.266    0.419   63.040
  527.500    9.348    0.269    0.407   60.642
  527.750    8.984    0.312    0.410   56.234
  528.000    8.112    0.319    0.415   56.824
  528.250    7.368    0.323    0.406   57.840
  528.500    5.809    0.306    0.402   62.209
  528.750    4.756    0.295    0.410   72.915
  529.000    4.183    0.292    0.429   75.333
  529.250    4.050    0.295    0.466   63.307
  529.500    4.718    0.302    0.532   56.154
  529.750    5.859    0.308    0.461   58.086
  530.000    6.560    0.299    0.433   63.487
  530.250    6.448    0.284    0.419   66.635
  530.500    6.209    0.279    0.416   67.654
  530.750    5.933    0.283    0.448   67.755
  531.000    6.091    0.299    0.471   66.211
  531.250    6.642    0.320    0.497   63.389
  531.500    7.174    0.326    0.452   60.322
  531.750    7.548    0.320    0.427   58.046
  532.000    7.866    0.316    0.411   56.381
  532.250    8.151    0.317    0.396   55.690
  532.500    8.305    0.303    0.390   57.865
  532.750    8.414    0.283    0.378   63.877
  533.000    8.508    0.270    0.398   68.307
  533.250    8.555    0.268    0.412   71.578
  533.500    8.635    0.270    0.401   73.326
  533.750    8.683    0.273    0.399   74.523
  534.000    8.813    0.280    0.399   75.232
  534.250    8.946    0.266    0.398   74.302
  534.500    9.097    0.247    0.393   69.650
  534.750    9.216    0.249    0.386   67.680
  535.000    9.215    0.258    0.383   70.886
  535.250    9.110    0.255    0.392   73.732
  535.500    8.871    0.242    0.401   76.818
  535.750    8.736    0.234    0.409   78.570
  536.000    8.735    0.236    0.429   70.200
  536.250    8.833    0.305    0.455   56.649
  536.500    8.966    0.324    0.412   56.629
  536.750    8.998    0.314    0.386   61.240
  537.000    9.014    0.289    0.373   65.793
  537.250    9.029    0.286    0.375   71.745
  537.500    8.994    0.294    0.382   78.244
  537.750    8.875    0.297    0.390   81.942
  538.000    8.740    0.262    0.399   84.789
  538.250    8.673    0.247    0.410   85.315
  538.500    8.558    0.266    0.421   79.812
  538.750    8.492    0.302    0.441   66.688
