~VERSION INFORMATION
 VERS.                 2.0:   CWLS LOG ASCII STANDARD -VERSION 2.0
 WRAP.                  NO:   ONE LINE PER DEPTH STEP
~WELL INFORMATION BLOCK
#MNEM.UNIT           DATA                    DESCRIPTION OF MNEMONIC
#---------    -------------------            -------------------------------
# Generated from Intellog Unique Number	CW_70_72/WELL/1069
NULL.         -999.25                        : NULL_VALUE
WELL.         NORCEN ET AL BLANCHE 14-35     : Well_name    - WELL              
LOC .         14-35-072-02W5                 : Location     - LOCATION          
UWI .         00/14-35-072-02W5/0            : Uwi          - UNIQUE WELL ID    
ENTR.         JAYE                           : Entered      - ENTERED BY        
SRVC.         COMPUTALOG                     : Scn          - SERVICE COMPANY   
DATE.         6 JAN 86                       : Date         - LOG DATE          
STRT.M        375                            : top_depth    - START DEPTH       
STOP.M        615                            : bot_depth    - STOP DEPTH        
STEP.M        0.25                           : increment    - STEP LENGTH       
~CURVE INFORMATION BLOCK
#MNEM UNIT       ERCB CURVE CODE    CURVE DESCRIPTION
#-----------   ------------------   ----------------------------------
DEPT.M        00 001 00 00         : DEPTH        - DEPTH                       
DPHI.V/V      00 890 00 00         : PHID         - DENSITY POROSITY (SANDSTONE)
NPHI.V/V      00 330 00 00         : PHIN         - NEUTRON POROSITY (SANDSTONE)
CALI.MM       00 280 01 00         : CAL          - CALIPER                     
GR  .API      00 310 00 00         : GR           - GAMMA RAY                   
ILD .OHMM     00 120 00 00         : RESD         - DEEP RESISTIVITY (DIL)      
~PARAMETER INFORMATION       
#MNEM.UNIT           DATA             DESCRIPTION OF MNEMONIC
#---------         -----------     ------------------------------
GL  .M        587.75               : gl           - GROUND LEVEL ELEVATION      
EREF.M        591.25               : kb           - ELEVATION OF DEPTH REFERENCE
DATM.M        587.75               : datum        - DATUM ELEVATION             
TDD .M        628                  : tdd          - TOTAL DEPTH DRILLER         
RUN .         ONE                  : Run          - RUN NUMBER                  
ENG .         CALDERWOOD           : Engineer     - RECORDING ENGINEER          
WIT .         HUGHES               : Witness      - WITNESSED BY                
BASE.         EDM                  : Branch       - HOME BASE OF LOGGING UNIT   
MUD .         GEL CHEM             : Mud_type     - MUD TYPE                    
MATR.         SANDSTONE            : Logunit      - NEUTRON MATRIX              
TMAX.C        50                   : BHT          - MAXIMUM RECORDED TEMPERATURE
BHTD.M        633.1                : BHTDEP       - MAXIMUM RECORDED TEMPERATURE
RMT .C        15.6                 : MDTP         - TEMPERATURE OF MUD          
MUDD.KG/M     1170                 : MWT          - MUD DENSITY                 
NEUT.         1                    : NEUTRON      - NEUTRON TYPE                
RESI.         0                    : RESIST       - RESISTIVITY TYPE            
RM  .OHMM     4                    : RM           - RESISTIVITY OF MUD          
RMC .OHMM     5                    : RMC          - RESISTIVITY OF MUD CAKE     
RMF .OHMM     4.8                  : RMF          - RESISTIVITY OF MUD FILTRATE 
SUFT.C        0                    : SUFT         - SURFACE TEMPERATURE         
~A  DEPTH     PHID     PHIN      CAL       GR     RESD
# ...
  411.500    0.227    0.446  196.343   94.260    3.695
  411.750    0.249    0.444  194.878   94.085    3.806
  412.000    0.243    0.437  194.271   86.557    3.913
  412.250    0.231    0.435  194.840   79.997    3.969
  412.500    0.240    0.433  195.402   77.886    4.004
  412.750    0.233    0.421  196.510   77.259    4.031
  413.000    0.222    0.428  197.070   78.373    4.043
  413.250    0.203    0.426  197.421   79.874    4.048
  413.500    0.219    0.413  197.667   80.988    4.015
  413.750    0.241    0.407  197.489   79.070    3.960
  414.000    0.268    0.404  197.946   74.575    3.861
  414.250    0.276    0.402  198.943   70.206    3.736
  414.500    0.276    0.399  199.827   66.870    3.589
  414.750    0.277    0.393  200.284   63.663    3.454
  415.000    0.278    0.388  199.675   60.714    3.458
  415.250    0.276    0.386  198.534   57.764    3.534
  415.500    0.267    0.384  197.506   58.877    3.640
  415.750    0.247    0.382  197.215   62.958    3.728
  416.000    0.232    0.382  197.143   67.813    3.818
  416.250    0.261    0.403  196.844   71.055    3.866
  416.500    0.273    0.405  196.668   70.751    3.885
  416.750    0.270    0.390  197.236   70.124    3.868
  417.000    0.262    0.377  197.261   69.689    3.865
  417.250    0.257    0.379  197.617   69.706    3.848
  417.500    0.263    0.391  198.079   70.110    3.824
  417.750    0.267    0.408  198.327   70.453    3.771
  418.000    0.272    0.425  198.353   70.016    3.705
  418.250    0.275    0.433  198.391   67.778    3.689
  418.500    0.278    0.411  198.633   64.634    3.665
  418.750    0.282    0.393  198.780   62.845    3.670
  419.000    0.288    0.379  198.909   62.799    3.632
  419.250    0.296    0.371  199.371   61.270    3.536
  419.500    0.297    0.384  199.614   58.513    3.467
  419.750    0.294    0.393  199.754   54.276    3.368
  420.000    0.289    0.387  199.469   51.582    3.321
  420.250    0.283    0.396  199.285   49.021    3.294
  420.500    0.288    0.409  198.888   47.167    3.279
  420.750    0.303    0.399  198.395   46.798    3.283
  421.000    0.304    0.390  198.209   47.654    3.275
  421.250    0.300    0.393  197.919   50.446    3.291
  421.500    0.295    0.389  197.735   52.590    3.313
  421.750    0.290    0.376  197.769   53.898    3.374
  422.000    0.310    0.360  197.484   53.979    3.423
  422.250    0.319    0.368  197.093   53.287    3.420
  422.500    0.313    0.387  196.801   50.469    3.373
  422.750    0.307    0.401  196.720   50.678    3.271
  423.000    0.310    0.401  196.755   52.696    3.183
  423.250    0.312    0.399  196.788   53.809    3.105
  423.500    0.305    0.399  196.822   52.666    3.050
  423.750    0.310    0.403  196.854   50.684    3.008
  424.000    0.322    0.414  196.882   49.478    2.972
  424.250    0.316    0.403  196.810   49.432    2.975
  424.500    0.304    0.385  196.414   49.899    2.951
  424.750    0.298    0.373  196.018   51.400    2.922
  425.000    0.305    0.399  195.734   53.094    2.903
  425.250    0.310    0.421  195.658   56.272    2.912
  425.500    0.308    0.404  195.794   57.450    3.021
  425.750    0.304    0.389  195.934   55.403    3.106
  426.000    0.300    0.379  196.284   52.391    3.145
  426.250    0.298    0.412  196.107   50.668    3.191
  426.500    0.300    0.417  195.922   50.168    3.219
  426.750    0.303    0.398  195.739   51.604    3.217
  427.000    0.305    0.378  196.202   54.073    3.221
  427.250    0.303    0.388  196.345   55.896    3.212
  427.500    0.296    0.403  196.372   58.299    3.240
  427.750    0.286    0.407  196.509   60.832    3.293
  428.000    0.275    0.408  196.866   57.688    3.398
  428.250    0.247    0.405  197.749   59.125    3.567
  428.500    0.227    0.404  202.055   63.915    3.800
  428.750    0.202    0.413  204.755   70.640    4.087
  429.000    0.247    0.440  205.003   80.137    4.480
  429.250    0.358    0.470  202.581   79.320    4.819
  429.500    0.412    0.490  199.404   74.561    5.047
  429.750    0.331    0.467  196.663   72.064    5.267
  430.000    0.263    0.445  198.404   77.372    5.477
  430.250    0.309    0.432  200.676   82.159    5.587
  430.500    0.362    0.477  202.846   85.660    5.541
  430.750    0.414    0.499  205.012   82.195    5.253
  431.000    0.362    0.517  206.541   80.601    4.960
  431.250    0.302    0.512  207.218   81.846    4.579
  431.500    0.275    0.506  207.140   83.923    4.252
  431.750    0.249    0.486  206.531   88.844    3.978
  432.000    0.232    0.464  205.172   91.957    3.756
  432.250    0.224    0.437  202.003   92.940    3.608
  432.500    0.242    0.415  195.416   87.670    3.518
  432.750    0.263    0.409  193.950   82.852    3.456
  433.000    0.279    0.405  193.873   76.225    3.500
  433.250    0.267    0.399  194.656   76.887    3.544
  433.500    0.267    0.389  196.077   75.358    3.636
  433.750    0.263    0.374  197.817   72.215    3.809
  434.000    0.239    0.372  200.522   70.684    3.975
  434.250    0.226    0.381  202.051   76.894    4.164
  434.500    0.212    0.400  202.400   84.778    4.353
  434.750    0.212    0.432  202.326   89.374    4.475
  435.000    0.212    0.442  201.929   80.365    4.388
  435.250    0.204    0.437  200.999   78.190    4.098
  435.500    0.198    0.421  200.283   78.852    3.877
  435.750    0.223    0.432  197.860   81.384    3.641
  436.000    0.246    0.436  195.433   83.271    3.412
  436.250    0.270    0.421  195.149   80.130    3.216
  436.500    0.290    0.408  195.499   74.923    3.032
  436.750    0.299    0.397  197.350   70.233    2.906
  437.000    0.304    0.394  198.668   67.540    2.823
  437.250    0.307    0.394  199.335   66.978    2.891
  437.500    0.307    0.395  199.581   65.706    3.116
  437.750    0.301    0.397  199.720   65.917    3.263
  438.000    0.296    0.397  199.750   67.933    3.577
  438.250    0.285    0.394  200.212   67.695    3.980
  438.500    0.266    0.390  201.632   66.033    4.462
  438.750    0.216    0.359  202.842   64.955    4.919
  439.000    0.178    0.323  203.405   62.974    5.493
  439.250    0.149    0.298  203.223   59.573    6.101
  439.500    0.227    0.319  199.302   56.881    6.307
  439.750    0.253    0.333  195.600   54.771    6.375
  440.000    0.263    0.348  194.033   55.370    6.371
  440.250    0.263    0.360  193.951   56.870    6.342
  440.500    0.254    0.377  194.630   60.048    6.327
  440.750    0.242    0.393  195.303   62.838    6.273
  441.000    0.242    0.405  196.081   66.918    6.245
  441.250    0.254    0.409  196.432   68.677    6.230
  441.500    0.256    0.402  196.782   63.599    6.249
  441.750    0.254    0.390  197.140   62.971    6.209
  442.000    0.249    0.391  197.380   63.506    5.976
  442.250    0.243    0.403  197.413   64.039    5.664
  442.500    0.253    0.412  197.665   63.540    5.219
  442.750    0.264    0.418  198.121   64.398    5.013
  443.000    0.282    0.402  198.684   65.317    5.114
  443.250    0.295    0.391  199.364   66.365    5.439
  443.500    0.241    0.383  200.353   65.610    5.784
  443.750    0.202    0.333  201.775   59.371    6.105
  444.000    0.187    0.299  202.661   52.166    6.147
  444.250    0.203    0.296  203.656   55.794    5.871
  444.500    0.220    0.315  204.434   60.264    5.597
  444.750    0.211    0.345  205.002   63.956    5.376
  445.000    0.212    0.372  205.034   68.036    5.155
  445.250    0.215    0.374  204.637   77.147    4.959
  445.500    0.207    0.372  203.923   76.330    4.693
  445.750    0.201    0.382  202.887   75.764    4.341
  446.000    0.215    0.388  201.530   75.717    4.060
  446.250    0.238    0.379  200.491   76.249    3.805
  446.500    0.270    0.373  199.563   74.592    3.760
  446.750    0.281    0.367  199.705   70.416    3.764
  447.000    0.243    0.366  200.589   68.886    3.877
  447.250    0.188    0.382  201.905   70.258    4.131
  447.500    0.171    0.405  202.894   75.564    4.426
  447.750    0.159    0.415  203.787   81.126    4.672
