~VERSION INFORMATION
 VERS.                 2.0:   CWLS LOG ASCII STANDARD -VERSION 2.0
 WRAP.                  NO:   ONE LINE PER DEPTH STEP
~WELL INFORMATION BLOCK
#MNEM.UNIT           DATA                    DESCRIPTION OF MNEMONIC
#---------    -------------------            -------------------------------
# Generated from Intellog Unique Number	CN_91_93/WELL/1164
WELL.         PARAMOUNT RESOURCES LTD.       : Well_name    - WELL
LOC .         00/11-03-091-20W4/0            : Location     - LOCATION
UWI .         00/11-03-091-20W4/0            : Uwi          - UNIQUE WELL ID
ENTR.         JOETTE                         : Entered      - ENTERED BY
SRVC.         SCHLUMBERGER                   : Scn          - SERVICE COMPANY
DATE.         01/15/92                       : Date         - LOG DATE
STRT.F        262.467                        : top_depth    - START DEPTH
STOP.F        738.189                        : bot_depth    - STOP DEPTH
STEP.F        0.82                           : increment    - STEP LENGTH
 NULL. -999.2500:NULL Value
~CURVE INFORMATION BLOCK
#MNEM UNIT       ERCB CURVE CODE    CURVE DESCRIPTION
#-----------   ------------------   ----------------------------------
DEPT.F        00 001 00 00         : DEPTH        - DEPTH
ILD .OHMM     00 120 00 00         : RESD         - DEEP RESISTIVITY (DIL)
DPHI.V/V      00 890 00 00         : PHID         - DENSITY POROSITY (SANDSTONE)
NPHI.V/V      00 330 00 00         : PHIN         - NEUTRON POROSITY (SANDSTONE)
CALI.IN       00 280 01 00         : CAL          - CALIPER
GR  .API      00 310 00 00         : GR           - GAMMA RAY
~PARAMETER INFORMATION
#MNEM.UNIT           DATA             DESCRIPTION OF MNEMONIC
#---------         -----------     ------------------------------
GL  .F        1635.5               : gl           - GROUND LEVEL ELEVATION
EREF.F        1647.97              : kb           - ELEVATION OF DEPTH REFERENCE
DATM.F        1647.97              : datum        - DATUM ELEVATION
TDD .F        738.189              : tdd          - TOTAL DEPTH DRILLER
RUN .         ONE                  : Run          - RUN NUMBER
ENG .         BILL                 : Engineer     - RECORDING ENGINEER
WIT .         JIM                  : Witness      - WITNESSED BY
MUD .         GEL                  : Mud_type     - MUD TYPE
MATR.         SANDSTONE            : Logunit      - NEUTRON MATRIX
TMAX.F        77                   : BHT          - MAXIMUM RECORDED TEMPERATURE
BHTD.F        738.189              : BHTDEP       - MAXIMUM RECORDED TEMPERATURE
RMT .F        47                   : MDTP         - TEMPERATURE OF MUD
MUDD.LB/G     9.16666              : MWT          - MUD DENSITY
NEUT.         1                    : NEUTRON      - NEUTRON TYPE
RESI.         0                    : RESIST       - RESISTIVITY TYPE
RM  .OHMM     7.42                 : RM           - RESISTIVITY OF MUD
RMC .OHMM     4.8                  : RMC          - RESISTIVITY OF MUD CAKE
RMF .OHMM     5                    : RMF          - RESISTIVITY OF MUD FILTRATE
SUFT.F        39.2                 : SUFT         - SURFACE TEMPERATURE
~A  DEPTH     RESD     PHID     PHIN      CAL       GR
# ...
  501.969   19.234    0.204    0.346    6.363   65.849
  502.789   20.011    0.172    0.345    6.325   68.995
  503.609   21.003    0.154    0.351    6.325   73.376
  504.429   22.049    0.135    0.337    6.314   78.692
  505.249   22.518    0.099    0.326    6.337   78.454
  506.070   21.142    0.058    0.290    6.422   76.341
  506.890   17.434    0.092    0.286    6.446   73.926
  507.710   15.056    0.187    0.320    6.429   76.138
  508.530   12.648    0.198    0.346    6.473   88.867
  509.350   10.926    0.200    0.373    6.640   96.956
  510.171   11.686    0.206    0.390    6.704  105.985
  510.991   12.498    0.227    0.393    6.667  104.181
  511.811   11.205    0.232    0.386    6.590  100.531
  512.631   10.239    0.213    0.368    6.614   97.189
  513.451   10.073    0.194    0.356    6.614  107.756
  514.272   10.671    0.177    0.364    6.683  109.365
  515.092   11.199    0.114    0.369    6.726  101.375
  515.912   11.224    0.130    0.362    6.730   89.384
  516.732   10.446    0.162    0.353    6.288   81.717
  517.552    9.453    0.198    0.355    6.454   89.188
  518.373    9.130    0.208    0.384    6.640   97.894
  519.193    9.231    0.213    0.403    6.584  104.137
  520.013    9.513    0.212    0.397    6.586  105.429
  520.833    9.989    0.197    0.380    6.611  103.948
  521.654   10.790    0.162    0.368    6.574   99.672
  522.474   11.427    0.121    0.365    6.578   95.404
  523.294   12.460    0.165    0.352    6.605   96.388
  524.114   12.954    0.198    0.349    6.606   99.540
  524.934   13.352    0.219    0.354    6.590  102.068
  525.755   13.503    0.227    0.353    6.552  102.427
  526.575   13.284    0.237    0.343    6.535  101.887
  527.395   12.947    0.231    0.331    6.479  100.076
  528.215   12.619    0.200    0.332    7.010   97.970
  529.035   12.765    0.145    0.328    6.648   93.694
  529.856   12.934    0.139    0.337    6.571   89.735
  530.676   13.314    0.158    0.357    6.595   94.734
  531.496   13.845    0.169    0.359    6.619  107.464
  532.316   13.751    0.151    0.358    6.562  108.145
  533.136   13.159    0.119    0.362    6.525  102.943
  533.957   12.358    0.169    0.369    6.489  100.528
  534.777   11.931    0.203    0.375    6.495  102.755
  535.597   11.931    0.201    0.383    6.476  108.990
  536.417   11.883    0.187    0.385    6.520  109.664
  537.238   11.899    0.190    0.389    6.625  107.558
  538.058   11.928    0.196    0.392    6.730  106.997
  538.878   11.620    0.199    0.387    6.777  107.678
  539.698   10.718    0.197    0.401    6.818  108.978
  540.518   10.248    0.194    0.412    6.818  109.947
  541.339    9.632    0.192    0.396    6.909  113.100
  542.159    9.468    0.191    0.381    6.993  111.921
  542.979    9.468    0.189    0.375    6.996  107.035
  543.799    9.425    0.172    0.373    6.776  101.524
  544.619    9.625    0.184    0.356    6.456   97.880
  545.440   10.006    0.193    0.338    6.359   97.319
  546.260   10.704    0.173    0.328    6.321  101.700
  547.080   11.556    0.139    0.322    6.366   99.588
  547.900   12.474    0.122    0.311    6.349   94.392
  548.720   13.599    0.144    0.310    6.272   90.124
  549.541   14.544    0.201    0.314    6.296   92.961
  550.361   15.265    0.220    0.327    6.441  103.837
  551.181   17.107    0.218    0.335    6.587  108.843
  552.001   17.629    0.214    0.333    6.550  107.046
  552.822   15.514    0.205    0.334    6.514  107.096
  553.642   13.909    0.196    0.338    6.497  107.777
  554.462   13.307    0.192    0.345    6.521  109.070
  555.282   12.846    0.194    0.355    6.525  110.671
  556.102   12.521    0.205    0.356    6.529  111.977
  556.923   12.324    0.214    0.354    6.533  109.548
  557.743   12.345    0.209    0.349    6.415  107.141
  558.563   12.494    0.165    0.342    6.357  103.490
  559.383   13.117    0.147    0.325    6.357  101.384
  560.203   13.899    0.176    0.348    6.407  102.677
  561.024   14.728    0.183    0.361    6.491  107.051
  561.844   15.606    0.152    0.385    6.575  111.447
  562.664   15.791    0.131    0.375    6.660  113.041
  563.484   15.822    0.152    0.369    6.562  110.015
  564.304   13.927    0.185    0.366    6.465  106.976
  565.125   12.832    0.198    0.369    6.367  108.282
  565.945   12.276    0.188    0.363    6.411  109.251
  566.765   12.276    0.154    0.355    6.496  108.079
  567.585   12.331    0.123    0.338    6.460  104.113
  568.406   12.364    0.158    0.373    6.403  100.462
  569.226   12.857    0.230    0.400    6.386  102.063
  570.046   14.271    0.238    0.447    6.552  110.461
  570.866   14.844    0.232    0.439    6.536  116.092
  571.686   14.468    0.212    0.421    6.536  117.378
  572.507    6.705    0.206    0.411    6.522  114.661
  573.327    5.529    0.205    0.397    6.506  113.173
  574.147    5.239    0.207    0.390    6.530  111.067
  574.967    5.607    0.206    0.393    6.534  104.622
  575.787    5.884    0.197    0.393    6.538  104.061
  576.608    6.593    0.177    0.384    6.521  101.344
  577.428    8.652    0.146    0.373    6.444   99.863
  578.248   10.063    0.142    0.376    6.448  101.766
  579.068   11.488    0.169    0.391    6.451  102.441
  579.888   12.287    0.193    0.401    6.495  100.953
  580.709   12.200    0.198    0.406    6.560  108.423
  581.529   11.361    0.196    0.410    6.584  110.650
  582.349   11.064    0.189    0.404    6.547  111.640
  583.169   10.588    0.132    0.359    6.470  110.770
  583.990   10.514    0.078    0.338    6.352   91.652
  584.810   10.635    0.148    0.326    6.355   89.237
  585.630   11.062    0.186    0.334    6.380   94.552
  586.450   11.610    0.195    0.340    6.384  104.200
  587.270   12.421    0.194    0.349    6.387  102.705
  588.091   13.412    0.184    0.349    6.371  101.835
  588.911   14.344    0.188    0.344    6.294  103.436
  589.731   15.345    0.206    0.345    6.277  100.410
  590.551   15.957    0.208    0.341    6.240   97.364
  591.371   16.141    0.202    0.336    6.223   91.242
  592.192   15.447    0.195    0.320    6.207   91.923
  593.012   15.334    0.204    0.326    6.211   93.208
  593.832   15.806    0.204    0.334    6.215   92.029
  594.652   16.445    0.197    0.339    6.198   92.395
  595.472   16.947    0.146    0.338    6.182   89.053
  596.293   17.459    0.097    0.330    6.165   86.638
  597.113   17.341    0.056    0.284    6.128   82.370
  597.933   17.537    0.028    0.245    6.152   75.637
  598.753   18.761    0.035    0.226    6.196   70.744
  599.573   20.441    0.041    0.208    6.201   69.558
  600.394   22.480    0.035    0.204    6.185   63.436
  601.214   26.390    0.014    0.198    6.147   56.696
  602.034   31.260    0.007    0.186    6.090   56.128
  602.854   36.358    0.002    0.156    6.012   54.647
  603.675   42.287    0.001    0.151    6.097   55.013
  604.495   44.822    0.000    0.153    6.162   55.694
  605.315   45.775    0.010    0.162    6.206   56.986
  606.135   46.304    0.102    0.208    6.206   58.272
  606.955   46.813    0.114    0.244    6.215   61.417
  607.776   46.930    0.145    0.266    6.218   68.277
  608.596   47.033    0.192    0.284    6.201   72.048
  609.416   45.418    0.209    0.327    6.327   79.519
  610.236   41.087    0.144    0.354    6.391   86.681
  611.056   32.950    0.111    0.366    6.375   98.175
  611.877   27.674    0.146    0.362    6.338   98.856
  612.697   22.610    0.179    0.356    6.341   93.345
  613.517   20.077    0.190    0.360    6.386   97.425
  614.337   18.167    0.190    0.375    6.451  105.513
  615.157   18.377    0.186    0.382    6.474  108.975
  615.978   18.084    0.170    0.384    6.479  110.274
  616.798   16.516    0.128    0.376    6.442  108.478
  617.618   14.945    0.136    0.360    6.404  105.438
  618.438   13.774    0.176    0.363    6.347   99.625
  619.259   13.056    0.187    0.373    6.270   94.732
  620.079   13.088    0.185    0.379    6.274  100.040
  620.899   13.488    0.147    0.387    6.318  109.371
