~VERSION INFORMATION
 VERS.                 2.0:   CWLS LOG ASCII STANDARD -VERSION 2.0
 WRAP.                  NO:   ONE LINE PER DEPTH STEP
~WELL INFORMATION BLOCK
#MNEM.UNIT           DATA                    DESCRIPTION OF MNEMONIC
#---------    -------------------            -------------------------------
# Generated from Intellog Unique Number	CX_WELLS/WELL/2984
WELL.         ULSTER HANDST                  : Well_name    - WELL
LOC .         00/11-25-082-11W4/0            : Location     - LOCATION
UWI .         00/11-25-082-11W400            : Uwi          - UNIQUE WELL ID
ENTR.         T                              : Entered      - ENTERED BY
SRVC.         SCHLUMBERGER                   : Scn          - SERVICE COMPANY
STRT.M        265                            : top_depth    - START DEPTH
STOP.M        487                            : bot_depth    - STOP DEPTH
STEP.M        0.25                           : increment    - STEP LENGTH
 NULL. -999.2500:NULL Value
~CURVE INFORMATION BLOCK
#MNEM UNIT       ERCB CURVE CODE    CURVE DESCRIPTION
#-----------   ------------------   ----------------------------------
DEPT.M        00 001 00 00         : DEPTH        - DEPTH
GR  .API      00 310 00 00         : GR           - GAMMA RAY
NPHI.V/V      00 330 00 00         : PHIN         - NEUTRON POROSITY (SANDSTONE)
DPHI.V/V      00 890 00 00         : PHID         - DENSITY POROSITY (SANDSTONE)
ILD .OHMM     00 120 00 00         : RESD         - DEEP RESISTIVITY (OTHER)
~PARAMETER INFORMATION
#MNEM.UNIT           DATA             DESCRIPTION OF MNEMONIC
#---------         -----------     ------------------------------
GL  .M        716                  : gl           - GROUND LEVEL ELEVATION
EREF.M        719.1                : kb           - ELEVATION OF DEPTH REFERENCE
DATM.M        719.1                : datum        - DATUM ELEVATION
TDD .M        492                  : tdd          - TOTAL DEPTH DRILLER
RUN .         ONE                  : Run          - RUN NUMBER
ENG .         BILL                 : Engineer     - RECORDING ENGINEER
WIT .         JIM                  : Witness      - WITNESSED BY
MUD .         GEL                  : Mud_type     - MUD TYPE
MATR.         SANDSTONE            : Logunit      - NEUTRON MATRIX
TMAX.C        16                   : BHT          - MAXIMUM RECORDED TEMPERATURE
BHTD.M        492                  : BHTDEP       - MAXIMUM RECORDED TEMPERATURE
MATR.         1                    : LOGUNIT      - NEUTRON MATRIX
RMT .C        20                   : MDTP         - TEMPERATURE OF MUD
NEUT.         1                    : NEUTRON      - NEUTRON TYPE
RESI.         6.3                  : RESIST       - RESISTIVITY TYPE
RMC .OHMM     7.17                 : RMC          - RESISTIVITY OF MUD CAKE
RMF .OHMM     7.17                 : RMF          - RESISTIVITY OF MUD FILTRATE
SUFT.C        4                    : SUFT         - SURFACE TEMPERATURE
~A  DEPTH       GR     PHIN     PHID     RESD
# ...
  439.000   54.250    0.373    0.326   12.892
  439.250   59.250    0.373    0.327   13.651
  439.500   63.625    0.368    0.318   14.455
  439.750   63.626    0.360    0.311   15.601
  440.000   63.626    0.362    0.307   16.206
  440.250   63.002    0.369    0.307   18.163
  440.500   61.753    0.380    0.311   21.547
  440.750   59.254    0.374    0.316   25.562
  441.000   56.130    0.364    0.326   30.318
  441.250   53.631    0.359    0.331   32.721
  441.500   52.382    0.358    0.318   30.351
  441.750   54.883    0.365    0.290   26.596
  442.000   64.257    0.376    0.283   21.204
  442.250   76.131    0.385    0.270   16.589
  442.500   86.130    0.374    0.253   15.099
  442.750   82.381    0.370    0.241   15.397
  443.000   65.510    0.376    0.242   16.304
  443.250   53.012    0.384    0.248   19.709
  443.500   43.015    0.392    0.364   29.900
  443.750   36.766    0.397    0.380   31.064
  444.000   37.392    0.400    0.369   35.480
  444.250   38.642    0.400    0.369   52.818
  444.500   42.393    0.400    0.370   63.849
  444.750   48.642    0.400    0.373   66.358
  445.000   54.267    0.400    0.371   67.642
  445.250   58.643    0.400    0.366   68.975
  445.500   55.519    0.400    0.359   70.318
  445.750   52.395    0.395    0.352   69.033
  446.000   54.895    0.390    0.345   57.161
  446.250   60.520    0.379    0.336   51.052
  446.500   67.395    0.363    0.326   45.596
  446.750   61.771    0.364    0.316   36.362
  447.000   39.900    0.371    0.308   32.471
  447.250   36.152    0.369    0.313   27.924
  447.500   36.777    0.365    0.317   23.564
  447.750   49.276    0.360    0.326   23.136
  448.000   56.151    0.370    0.302   23.144
  448.250   66.775    0.364    0.279   22.721
  448.500   75.524    0.354    0.273   21.078
  448.750   82.399    0.347    0.261   19.549
  449.000   93.023    0.339    0.244   17.134
  449.250   98.023    0.339    0.226   15.597
  449.500  103.023    0.339    0.222   15.022
  449.750  108.023    0.340    0.222   13.678
  450.000  114.273    0.347    0.224   13.426
  450.250   97.401    0.351    0.232   13.181
  450.500   95.527    0.361    0.245   12.940
  450.750   99.902    0.366    0.250   12.944
  451.000  103.027    0.374    0.254   12.708
  451.250  108.652    0.377    0.253   12.714
  451.500  108.653    0.379    0.247   12.722
  451.750  105.529    0.376    0.242   12.728
  452.000  100.531    0.372    0.229   12.734
  452.250   87.408    0.364    0.198   12.983
  452.500   72.412    0.350    0.126   13.492
  452.750   75.537    0.343    0.160   14.287
  453.000   86.161    0.346    0.207   15.128
  453.250   91.785    0.350    0.227   16.325
  453.500  103.659    0.351    0.229   16.333
  453.750  110.534    0.348    0.232   16.655
  454.000  111.785    0.348    0.244   16.661
  454.250   96.163    0.348    0.245   17.312
  454.500   75.542    0.354    0.253   18.682
  454.750   60.545    0.360    0.266   20.160
  455.000   56.171    0.369    0.272   22.594
  455.250   48.673    0.367    0.281   25.809
  455.500   45.549    0.362    0.325   29.477
  455.750   49.300    0.361    0.328   33.033
  456.000   51.800    0.359    0.301   33.053
  456.250   58.050    0.356    0.283   30.087
  456.500   67.424    0.357    0.276   27.911
  456.750   74.298    0.359    0.274   26.881
  457.000   83.048    0.360    0.265   24.940
  457.250   83.049    0.357    0.256   24.479
  457.500   84.924    0.352    0.250   23.145
  457.750   86.175    0.348    0.244   22.719
  458.000   86.801    0.339    0.237   21.476
  458.250   86.176    0.332    0.225   21.081
  458.500   85.552    0.324    0.217   20.310
  458.750   82.428    0.325    0.214   19.942
  459.000   78.680    0.328    0.220   19.951
  459.250   77.431    0.330    0.223   19.958
  459.500   76.181    0.334    0.222   19.968
  459.750   74.307    0.338    0.227   19.977
  460.000   71.183    0.344    0.239   20.371
  460.250   71.184    0.346    0.243   21.169
  460.500   73.060    0.339    0.228   21.579
  460.750   73.061    0.330    0.233   22.427
  461.000   71.812    0.333    0.244   22.438
  461.250   71.187    0.339    0.249   22.875
  461.500   70.563    0.343    0.252   23.323
  461.750   70.564    0.345    0.243   23.782
  462.000   72.439    0.333    0.236   24.708
  462.250   74.314    0.336    0.233   27.176
  462.500   70.566    0.342    0.233   28.234
  462.750   67.442    0.349    0.240   31.647
  463.000   64.318    0.355    0.265   35.472
  463.250   62.444    0.360    0.282   39.010
  463.500   59.946    0.366    0.293   42.896
  463.750   56.822    0.367    0.302   48.993
  464.000   53.698    0.370    0.312   57.033
  464.250   46.200    0.375    0.319   62.714
  464.500   39.327    0.379    0.323   75.829
  464.750   34.328    0.384    0.325   86.608
  465.000   31.204    0.388    0.331   98.907
  465.250   29.330    0.394    0.342  112.966
  465.500   28.706    0.399    0.361  129.023
  465.750   28.707    0.405    0.368  113.074
  466.000   28.083    0.414    0.372   95.417
  466.250   29.958    0.409    0.376   66.647
  466.500   34.958    0.405    0.388   58.408
  466.750   39.333    0.395    0.350   46.568
  467.000   48.083    0.389    0.318   43.195
  467.250   53.707    0.395    0.299   50.277
  467.500   54.333    0.398    0.324   59.638
  467.750   52.459    0.400    0.336   72.102
  468.000   51.210    0.399    0.352   85.526
  468.250   50.586    0.392    0.352   95.841
  468.500   51.212    0.384    0.350  120.339
  468.750   51.837    0.382    0.352  140.069
  469.000   51.838    0.381    0.355  157.000
  469.250   51.839    0.381    0.357  157.056
  469.500   51.215    0.381    0.364  157.150
  469.750   51.215    0.379    0.364  154.279
  470.000   51.216    0.378    0.363  151.442
  470.250   51.217    0.378    0.362  148.693
  470.500   51.217    0.378    0.355  143.258
  470.750   51.218    0.379    0.352  140.641
  471.000   50.594    0.380    0.351  140.708
  471.250   49.970    0.382    0.357  157.697
  471.500   49.345    0.383    0.364  176.738
  471.750   48.721    0.379    0.372  194.342
  472.000   46.847    0.376    0.372  222.020
  472.250   46.223    0.376    0.364  209.820
  472.500   46.849    0.380    0.353  170.502
  472.750   47.475    0.385    0.342  123.655
  473.000   47.475    0.390    0.334  114.725
  473.250   44.352    0.393    0.338  110.505
  473.500   41.852    0.395    0.354  141.384
  473.750   39.353    0.398    0.366  231.329
  474.000   35.605    0.399    0.361  269.257
  474.250   34.356    0.399    0.356  331.705
  474.500   32.482    0.394    0.361  290.736
  474.750   31.858    0.390    0.370  250.052
  475.000   31.858    0.387    0.375  227.565
  475.250   31.859    0.385    0.373  203.244
  475.500   31.860    0.385    0.369  178.162
  475.750   32.486    0.387    0.363  168.393
  476.000   33.111    0.390    0.362  159.159
  476.250   33.737    0.395    0.366  147.648
  476.500   33.737    0.399    0.369  142.234
  476.750   34.363    0.401    0.372  142.285
  477.000   34.989    0.405    0.368  145.089
  477.250   34.990    0.401    0.362  145.159
  477.500   34.990    0.399    0.363  142.507
  477.750   35.616    0.394    0.370  137.281
  478.000   36.242    0.393    0.375  129.769
  478.250   38.117    0.394    0.374  118.113
  478.500   41.242    0.395    0.361  103.537
  478.750   38.744    0.398    0.358   97.848
  479.000   38.744    0.401    0.362   89.070
  479.250   39.370    0.402    0.363   84.186
  479.500   39.995    0.399    0.363   78.097
  479.750   42.496    0.388    0.363   75.233
  480.000   43.121    0.381    0.354   69.784
  480.250   43.747    0.389    0.343   64.729
  480.500   43.123    0.394    0.339   61.187
  480.750   42.499    0.401    0.347   61.223
  481.000   43.124    0.405    0.358   62.415
  481.250   48.124    0.409    0.368   60.134
  481.500   53.124    0.413    0.374   54.726
  481.750   61.873    0.405    0.370   37.513
  482.000   73.747    0.389    0.368   34.139
  482.250   81.872    0.375    0.360   31.069
