~VERSION INFORMATION
 VERS.                 2.0:   CWLS LOG ASCII STANDARD -VERSION 2.0
 WRAP.                  NO:   ONE LINE PER DEPTH STEP
~WELL INFORMATION BLOCK
#MNEM.UNIT           DATA                    DESCRIPTION OF MNEMONIC
#---------    -------------------            -------------------------------
# Generated from Intellog Unique Number	CS_67_68/WELL/806
WELL.         BURNT LAKE                     : Well_name    - WELL
LOC .         00/10-26-068-04W4/0            : Location     - LOCATION
UWI .         00/10-26-068-04W4/0            : Uwi          - UNIQUE WELL ID
ENTR.         SP                             : Entered      - ENTERED BY
SRVC.         SCHLUMBERGER                   : Scn          - SERVICE COMPANY
STRT.M        365                            : top_depth    - START DEPTH
STOP.M        595                            : bot_depth    - STOP DEPTH
STEP.M        0.25                           : increment    - STEP LENGTH
 NULL. -999.2500:NULL Value
~CURVE INFORMATION BLOCK
#MNEM UNIT       ERCB CURVE CODE    CURVE DESCRIPTION
#-----------   ------------------   ----------------------------------
DEPT.M        00 001 00 00         : DEPTH        - DEPTH
GR  .API      00 310 00 00         : GR           - GAMMA RAY
NPHI.V/V      00 330 00 00         : PHIN         - NEUTRON POROSITY (LIMESTONE)
DPHI.V/V      00 890 00 00         : PHID         - DENSITY POROSITY (LIMESTONE)
ILD .OHMM     00 120 00 00         : RESD         - DEEP RESISTIVITY (DIL)
~PARAMETER INFORMATION
#MNEM.UNIT           DATA             DESCRIPTION OF MNEMONIC
#---------         -----------     ------------------------------
GL  .M        731.85               : gl           - GROUND LEVEL ELEVATION
EREF.M        735.7                : kb           - ELEVATION OF DEPTH REFERENCE
DATM.M        731.85               : datum        - DATUM ELEVATION
TDD .M        600.34               : tdd          - TOTAL DEPTH DRILLER
RUN .         ONE                  : Run          - RUN NUMBER
ENG .         BILL                 : Engineer     - RECORDING ENGINEER
WIT .         JIM                  : Witness      - WITNESSED BY
MUD .         GEL                  : Mud_type     - MUD TYPE
MATR.         LIMESTONE            : Logunit      - NEUTRON MATRIX
TMAX.C        20                   : BHT          - MAXIMUM RECORDED TEMPERATURE
BHTD.M        600.34               : BHTDEP       - MAXIMUM RECORDED TEMPERATURE
MATR.         1                    : LOGUNIT      - NEUTRON MATRIX
RMT .C        25                   : MDTP         - TEMPERATURE OF MUD
NEUT.         1                    : NEUTRON      - NEUTRON TYPE
RESI.         0                    : RESIST       - RESISTIVITY TYPE
RMC .OHMM     0.25                 : RMC          - RESISTIVITY OF MUD CAKE
RMF .OHMM     0.25                 : RMF          - RESISTIVITY OF MUD FILTRATE
SUFT.C        15                   : SUFT         - SURFACE TEMPERATURE
~A  DEPTH       GR     PHIN     PHID     RESD
  365.000  100.365    0.496    0.299    2.836
  365.250  100.896    0.505    0.277    2.737
  365.500   99.420    0.519    0.281    2.789
  365.750   96.424    0.529    0.288    2.836
  366.000   92.523    0.513    0.287    2.895
  366.250   93.722    0.504    0.274    2.950
  366.500   96.196    0.494    0.268    3.005
  366.750   97.760    0.485    0.273    3.056
  367.000   97.560    0.494    0.273    3.091
  367.250   96.086    0.500    0.268    3.108
  367.500   97.891    0.499    0.264    3.114
  367.750   97.025    0.483    0.256    3.114
  368.000   94.455    0.462    0.247    3.137
  368.250   99.359    0.471    0.238    3.167
  368.500  102.926    0.482    0.232    3.209
  368.750  104.795    0.495    0.230    3.263
  369.000  102.834    0.477    0.232    3.312
  369.250   97.956    0.481    0.238    3.362
  369.500   99.884    0.496    0.250    3.375
  369.750   99.928    0.504    0.256    3.394
  370.000   97.665    0.497    0.254    3.400
  370.250   98.559    0.504    0.245    3.368
  370.500   96.111    0.500    0.243    3.306
  370.750   91.600    0.488    0.245    3.184
  371.000   97.051    0.468    0.249    3.067
  371.250  101.531    0.472    0.252    2.966
  371.500  102.546    0.496    0.254    2.905
  371.750  100.829    0.510    0.256    2.889
  372.000   98.986    0.506    0.256    2.911
  372.250   99.031    0.497    0.256    2.994
  372.500   98.713    0.490    0.255    3.073
  372.750   97.845    0.484    0.253    3.155
  373.000   96.736    0.498    0.248    3.232
  373.250   90.886    0.512    0.229    3.768
  373.500   84.734    0.510    0.194    4.232
  373.750   75.299    0.410    0.058    4.621
  374.000   77.105    0.366    0.178    4.860
  374.250   88.754    0.362    0.234    5.008
  374.500   96.636    0.392    0.252    5.036
  374.750   96.619    0.426    0.247    4.493
  375.000   98.305    0.431    0.241    4.076
  375.250  103.511    0.436    0.234    3.971
  375.500  105.379    0.457    0.232    4.031
  375.750  104.753    0.477    0.239    4.239
  376.000  104.738    0.491    0.246    4.743
  376.250  104.479    0.484    0.231    5.387
  376.500  102.032    0.459    0.218    5.904
  376.750   99.464    0.432    0.204    6.557
  377.000   99.265    0.410    0.201    6.948
  377.250   96.940    0.405    0.204    7.281
  377.500   94.067    0.400    0.201    7.630
  377.750   98.666    0.394    0.191    7.788
  378.000  100.900    0.395    0.200    8.378
  378.250   95.719    0.391    0.230    9.304
  378.500   86.407    0.376    0.241   10.159
  378.750   83.109    0.359    0.245   10.806
  379.000   81.571    0.358    0.247   11.302
  379.250   81.311    0.355    0.246   11.494
  379.500   83.604    0.345    0.238   11.689
  379.750   84.317    0.344    0.232   11.843
  380.000   81.628    0.353    0.241   11.624
  380.250   77.358    0.339    0.247   11.134
  380.500   77.281    0.330    0.250   10.645
  380.750   84.067    0.344    0.237   10.467
  381.000   87.575    0.363    0.215   10.369
  381.250   89.686    0.377    0.222   10.330
  381.500   90.398    0.369    0.231   10.350
  381.750   91.108    0.364    0.231   10.427
  382.000   92.249    0.380    0.245   10.486
  382.250   94.419    0.375    0.263   10.644
  382.500   94.828    0.393    0.274   10.865
  382.750   92.381    0.412    0.248   11.154
  383.000   88.963    0.403    0.235   11.493
  383.250   84.993    0.380    0.239   11.864
  383.500   82.670    0.362    0.238   12.363
  383.750   78.948    0.341    0.248   13.101
  384.000   73.100    0.335    0.271   14.172
  384.250   69.741    0.319    0.288   13.832
  384.500   79.202    0.303    0.311   12.906
  384.750   86.052    0.332    0.306   13.474
  385.000   87.676    0.359    0.291   14.440
  385.250   85.228    0.379    0.280   15.216
  385.500   83.267    0.358    0.291   15.915
  385.750   79.300    0.337    0.280   16.337
  386.000   73.635    0.317    0.259   15.945
  386.250   67.603    0.311    0.242   15.216
  386.500   65.036    0.302    0.272   14.493
  386.750   65.566    0.292    0.293   13.960
  387.000   69.436    0.292    0.322   13.223
  387.250   71.667    0.343    0.268   12.338
  387.500   69.949    0.365    0.249   11.664
  387.750   65.922    0.374    0.261   10.864
  388.000   65.240    0.338    0.290   10.328
  388.250   74.394    0.318    0.309    9.967
  388.500   78.026    0.353    0.277    9.565
  388.750   78.494    0.375    0.274    9.231
  389.000   73.679    0.379    0.276    8.992
  389.250   71.292    0.378    0.271    8.892
  389.500   71.700    0.386    0.261    8.678
  389.750   72.109    0.377    0.252    8.390
  390.000   86.978    0.370    0.242    8.097
  390.250   97.107    0.380    0.230    7.814
  390.500  100.067    0.394    0.216    7.626
  390.750   99.867    0.396    0.202    7.513
  391.000   98.030    0.412    0.203    7.513
  391.250   94.489    0.424    0.203    7.626
  391.500   86.939    0.407    0.201    7.727
  391.750   91.115    0.386    0.198    7.785
  392.000   91.281    0.368    0.192    7.784
  392.250   89.196    0.379    0.197    7.264
  392.500   93.249    0.375    0.222    7.223
  392.750   95.544    0.379    0.241    7.611
  393.000   91.699    0.406    0.262    8.265
  393.250   82.995    0.423    0.262    9.299
  393.500   72.165    0.416    0.239    9.947
  393.750   65.829    0.409    0.217   10.700
  394.000   74.680    0.417    0.228   10.097
  394.250   78.554    0.404    0.266    9.689
  394.500   82.059    0.399    0.284    9.333
  394.750   83.078    0.413    0.276    9.126
  395.000   82.211    0.452    0.277    9.007
  395.250   79.399    0.444    0.268    9.007
  395.500   82.238    0.440    0.254    8.990
  395.750   83.498    0.442    0.236    8.757
  396.000   84.209    0.447    0.234    8.218
  396.250   83.038    0.452    0.261    7.916
  396.500   81.686    0.448    0.286    7.812
  396.750   78.084    0.431    0.306    7.886
  397.000   71.990    0.416    0.325    7.871
  397.250   68.207    0.401    0.339    7.725
  397.500   68.374    0.391    0.348    7.525
  397.750   73.640    0.409    0.362    7.386
  398.000   75.025    0.417    0.361    7.303
  398.250   70.873    0.420    0.353    7.317
  398.500   68.125    0.419    0.348    7.372
  398.750   65.675    0.422    0.350    7.469
  399.000   67.181    0.427    0.353    7.553
  399.250   75.241    0.431    0.335    7.610
  399.500   79.846    0.416    0.309    7.652
  399.750   86.876    0.407    0.293    7.667
  400.000   92.267    0.392    0.277    7.710
  400.250   95.409    0.381    0.266    7.724
  400.500   95.757    0.376    0.267    7.782
  400.750   94.768    0.383    0.256    7.782
  401.000   93.294    0.412    0.236    7.753
  401.250   89.147    0.422    0.243    7.666
  401.500   87.547    0.388    0.238    7.552
  401.750   90.995    0.378    0.222    7.398
  402.000   94.742    0.382    0.214    7.221
  402.250   96.552    0.401    0.210    7.100
  402.500   96.718    0.412    0.209    7.073
  402.750   94.393    0.416    0.208    7.034
  403.000   96.198    0.407    0.213    7.020
  403.250   97.700    0.416    0.209    7.034
  403.500   97.684    0.428    0.226    7.033
  403.750   93.717    0.425    0.244    7.060
  404.000   87.991    0.407    0.250    7.099
  404.250   83.479    0.395    0.254    7.139
  404.500   84.252    0.387    0.246    7.220
  404.750   84.657    0.388    0.253    7.301
  405.000   85.310    0.387    0.261    7.411
  405.250   85.839    0.380    0.265    7.594
  405.500   84.793    0.388    0.254    7.766
  405.750   81.921    0.382    0.255    7.958
  406.000   81.175    0.376    0.258    8.002
  406.250   82.312    0.398    0.257    7.943
  406.500   79.806    0.412    0.264    7.883
  406.750   76.812    0.415    0.272    7.839
  407.000   77.342    0.406    0.265    7.839
  407.250   76.170    0.395    0.259    7.854
  407.500   74.514    0.386    0.258    7.883
  407.750   72.611    0.390    0.267    7.927
  408.000   72.229    0.384    0.273    7.972
  408.250   73.550    0.380    0.262    8.032
