~VERSION INFORMATION
 VERS.                 2.0:   CWLS LOG ASCII STANDARD -VERSION 2.0
 WRAP.                  NO:   ONE LINE PER DEPTH STEP
~WELL INFORMATION BLOCK
#MNEM.UNIT           DATA                    DESCRIPTION OF MNEMONIC
#---------    -------------------            -------------------------------
# Generated from Intellog Unique Number	CS_73_76/WELL/2185
WELL.         AMOCO KIRBEY                   : Well_name    - WELL
LOC .         00/10-08-074-04W4/0            : Location     - LOCATION
UWI .         00/10-08-074-04W4/0            : Uwi          - UNIQUE WELL ID
ENTR.         SP                             : Entered      - ENTERED BY
SRVC.         SCHLUMBERGER                   : Scn          - SERVICE COMPANY
STRT.M        207.264                        : top_depth    - START DEPTH
STOP.M        405.014                        : bot_depth    - STOP DEPTH
STEP.M        0.25                           : increment    - STEP LENGTH
 NULL. -999.2500:NULL Value
~CURVE INFORMATION BLOCK
#MNEM UNIT       ERCB CURVE CODE    CURVE DESCRIPTION
#-----------   ------------------   ----------------------------------
DEPT.M        00 001 00 00         : DEPTH        - DEPTH
GR  .API      00 310 00 00         : GR           - GAMMA RAY
DPHI.V/V      00 890 00 00         : PHID         - DENSITY POROSITY (SANDSTONE)
NPHI.V/V      00 330 00 00         : PHIN         - NEUTRON POROSITY (SANDSTONE)
ILD .OHMM     00 120 00 00         : RESD         - DEEP RESISTIVITY (DIL)
~PARAMETER INFORMATION
#MNEM.UNIT           DATA             DESCRIPTION OF MNEMONIC
#---------         -----------     ------------------------------
GL  .M        613.867              : gl           - GROUND LEVEL ELEVATION
EREF.M        616.915              : kb           - ELEVATION OF DEPTH REFERENCE
DATM.M        613.867              : datum        - DATUM ELEVATION
TDD .M        417.576              : tdd          - TOTAL DEPTH DRILLER
RUN .         ONE                  : Run          - RUN NUMBER
ENG .         BILL                 : Engineer     - RECORDING ENGINEER
WIT .         JIM                  : Witness      - WITNESSED BY
MUD .         GEL                  : Mud_type     - MUD TYPE
MATR.         SANDSTONE            : Logunit      - NEUTRON MATRIX
TMAX.C        23.3333              : BHT          - MAXIMUM RECORDED TEMPERATURE
BHTD.M        417.576              : BHTDEP       - MAXIMUM RECORDED TEMPERATURE
MATR.         1                    : LOGUNIT      - NEUTRON MATRIX
RMT .C        25                   : MDTP         - TEMPERATURE OF MUD
NEUT.         1                    : NEUTRON      - NEUTRON TYPE
RESI.         0                    : RESIST       - RESISTIVITY TYPE
RMC .OHMM     0.25                 : RMC          - RESISTIVITY OF MUD CAKE
RMF .OHMM     0.25                 : RMF          - RESISTIVITY OF MUD FILTRATE
SUFT.C        15                   : SUFT         - SURFACE TEMPERATURE
~A  DEPTH       GR     PHID     PHIN     RESD
# ...
  381.264   45.691    0.203    0.385    9.630
  381.514   45.843    0.201    0.397   11.721
  381.764   46.882    0.203    0.399   14.318
  382.014   48.438    0.208    0.391   16.745
  382.264   50.954    0.214    0.381   20.371
  382.514   52.925    0.219    0.371   24.899
  382.764   54.038    0.221    0.377   28.656
  383.014   53.444    0.226    0.382   29.066
  383.264   51.433    0.229    0.374   28.226
  383.514   49.498    0.230    0.367   26.724
  383.764   49.860    0.230    0.358   24.633
  384.014   47.818    0.227    0.359   22.389
  384.264   50.117    0.222    0.356   22.083
  384.514   51.859    0.217    0.349   21.368
  384.764   51.505    0.209    0.339   21.003
  385.014   50.590    0.215    0.327   20.430
  385.264   51.192    0.216    0.324   18.861
  385.514   53.976    0.220    0.335   17.168
  385.764   55.369    0.223    0.343   15.934
  386.014   58.980    0.224    0.350   14.029
  386.264   61.724    0.227    0.361   13.488
  386.514   63.687    0.231    0.374   12.662
  386.764   65.266    0.234    0.378   12.285
  387.014   65.326    0.237    0.376   12.022
  387.264   65.339    0.232    0.378   12.040
  387.514   65.830    0.205    0.385   10.465
  387.764   66.264    0.197    0.382    9.473
  388.014   68.405    0.185    0.375    7.885
  388.264   69.289    0.170    0.371    6.961
  388.514   71.894    0.154    0.378    6.445
  388.764   73.770    0.145    0.384    6.091
  389.014   76.142    0.137    0.387    5.951
  389.264   77.817    0.134    0.385    3.739
  389.514   77.685    0.142    0.385    3.323
  389.764   75.544    0.151    0.385    3.188
  390.014   69.282    0.166    0.381    3.310
  390.264   63.746    0.175    0.375    3.744
  390.514   59.102    0.189    0.368    4.471
  390.764   56.876    0.192    0.362    5.376
  391.014   56.293    0.196    0.358    6.207
  391.264   56.455    0.196    0.356    6.593
  391.514   57.498    0.193    0.356    5.931
  391.764   59.535    0.184    0.358    4.925
  392.014   60.634    0.177    0.355    4.688
  392.264   63.435    0.172    0.346    4.553
  392.514   65.395    0.169    0.339    4.543
  392.764   68.858    0.167    0.345    4.644
  393.014   72.997    0.166    0.347    4.700
  393.264   76.238    0.169    0.345    4.971
  393.514   80.270    0.172    0.350    5.013
  393.764   82.495    0.177    0.354    5.109
  394.014   80.214    0.169    0.348    5.074
  394.264   78.355    0.171    0.353    5.112
  394.514   77.422    0.164    0.355    5.275
  394.764   78.597    0.144    0.341    5.658
  395.014   77.433    0.124    0.327    7.699
  395.264   68.744    0.117    0.312   10.374
  395.514   56.295    0.126    0.295   13.146
  395.764   46.912    0.167    0.279   17.335
  396.014   40.313    0.210    0.292   23.721
  396.264   35.472    0.226    0.320   30.069
  396.514   34.004    0.229    0.332   33.052
  396.764   34.102    0.223    0.324   34.166
  397.014   35.149    0.217    0.326   35.257
  397.264   36.538    0.211    0.330   36.447
  397.514   38.540    0.219    0.331   35.164
  397.764   37.640    0.214    0.318   28.887
  398.014   34.983    0.224    0.303   24.944
  398.264   31.963    0.232    0.313   23.058
  398.514   32.691    0.233    0.320   21.397
  398.764   32.997    0.232    0.326   22.494
  399.014   34.075    0.233    0.332   28.298
  399.264   34.626    0.234    0.322   25.820
  399.514   33.398    0.231    0.324   24.336
  399.764   32.807    0.238    0.330   27.566
  400.014   33.823    0.234    0.331   31.120
  400.264   34.780    0.229    0.336   34.149
  400.514   36.451    0.231    0.328   34.896
  400.764   37.880    0.226    0.334   32.246
  401.014   38.048    0.234    0.331   28.618
  401.264   35.347    0.238    0.322   24.653
  401.514   34.575    0.242    0.320   22.172
  401.764   36.479    0.229    0.322   19.084
  402.014   42.685    0.214    0.325   17.535
  402.264   47.620    0.201    0.327   15.156
  402.514   54.086   -0.007    0.298   13.125
  402.764   59.610    0.002    0.215   11.557
  403.014   63.091    0.000    0.195   11.241
  403.264   58.085    0.000    0.204   11.260
  403.514   45.227   -0.000    0.214   11.762
  403.764   42.159   -0.000    0.219   12.462
  404.014   40.829    0.000    0.223   13.072
  404.264   40.084    0.000    0.225   13.995
  404.514   40.765    0.000    0.226   15.061
  404.764   39.702   -0.000    0.220   15.729
  405.014   37.787   -0.000    0.205   17.276
