~VERSION INFORMATION
 VERS.                 2.0:   CWLS LOG ASCII STANDARD -VERSION 2.0
 WRAP.                  NO:   ONE LINE PER DEPTH STEP
~WELL INFORMATION BLOCK
#MNEM.UNIT           DATA                    DESCRIPTION OF MNEMONIC
#---------    -------------------            -------------------------------
# Generated from Intellog Unique Number	CS_73_76/WELL/3277
WELL.         STAR OIL & GAS LTD.            : Well_name    - WELL
LOC .         00/14-04-076-10W4/0            : Location     - LOCATION
UWI .         00/14-04-076-10W4/0            : Uwi          - UNIQUE WELL ID
ENTR.         SP                             : Entered      - ENTERED BY
SRVC.         SCHLUMBERGER                   : Scn          - SERVICE COMPANY
STRT.M        265                            : top_depth    - START DEPTH
STOP.M        485                            : bot_depth    - STOP DEPTH
STEP.M        0.25                           : increment    - STEP LENGTH
 NULL. -999.2500:NULL Value
~CURVE INFORMATION BLOCK
#MNEM UNIT       ERCB CURVE CODE    CURVE DESCRIPTION
#-----------   ------------------   ----------------------------------
DEPT.M        00 001 00 00         : DEPTH        - DEPTH
ILD .OHMM     00 120 00 00         : RESD         - DEEP RESISTIVITY (DIL)
DPHI.V/V      00 890 00 00         : PHID         - DENSITY POROSITY (LIMESTONE)
NPHI.V/V      00 330 00 00         : PHIN         - NEUTRON POROSITY (LIMESTONE)
GR  .API      00 310 00 00         : GR           - GAMMA RAY
~PARAMETER INFORMATION
#MNEM.UNIT           DATA             DESCRIPTION OF MNEMONIC
#---------         -----------     ------------------------------
GL  .M        662.45               : gl           - GROUND LEVEL ELEVATION
EREF.M        665.5                : kb           - ELEVATION OF DEPTH REFERENCE
DATM.M        662.45               : datum        - DATUM ELEVATION
TDD .M        530                  : tdd          - TOTAL DEPTH DRILLER
RUN .         ONE                  : Run          - RUN NUMBER
ENG .         BILL                 : Engineer     - RECORDING ENGINEER
WIT .         JIM                  : Witness      - WITNESSED BY
MUD .         GEL                  : Mud_type     - MUD TYPE
MATR.         LIMESTONE            : Logunit      - NEUTRON MATRIX
TMAX.C        24                   : BHT          - MAXIMUM RECORDED TEMPERATURE
BHTD.M        530                  : BHTDEP       - MAXIMUM RECORDED TEMPERATURE
MATR.         1                    : LOGUNIT      - NEUTRON MATRIX
RMT .C        25                   : MDTP         - TEMPERATURE OF MUD
NEUT.         1                    : NEUTRON      - NEUTRON TYPE
RESI.         0                    : RESIST       - RESISTIVITY TYPE
RMC .OHMM     0.25                 : RMC          - RESISTIVITY OF MUD CAKE
RMF .OHMM     0.25                 : RMF          - RESISTIVITY OF MUD FILTRATE
SUFT.C        15                   : SUFT         - SURFACE TEMPERATURE
~A  DEPTH     RESD     PHID     PHIN       GR
# ...
  395.500    6.310    0.355    0.445   60.903
  395.750    6.077    0.357    0.439   63.399
  396.000    5.964    0.350    0.431   71.519
  396.250    5.965    0.328    0.445   79.639
  396.500    5.855    0.294    0.464   83.386
  396.750    5.856    0.273    0.472   86.507
  397.000    5.856    0.282    0.483   83.377
  397.250    5.970    0.293    0.485   79.623
  397.500    6.201    0.303    0.486   75.869
  397.750    6.321    0.299    0.466   75.240
  398.000    6.443    0.297    0.449   76.484
  398.250    6.567    0.298    0.453   76.480
  398.500    6.694    0.305    0.460   76.477
  398.750    6.695    0.298    0.465   73.972
  399.000    5.978    0.293    0.458   70.842
  399.250    5.867    0.302    0.454   68.339
  399.500    5.544    0.318    0.444   65.834
  399.750    5.441    0.334    0.425   65.206
  400.000    5.871    0.340    0.425   63.951
  400.250    5.342    0.346    0.430   63.947
  400.500    5.445    0.355    0.433   63.941
  400.750    5.550    0.359    0.424   63.314
  401.000    5.657    0.362    0.422   62.685
  401.250    5.766    0.359    0.423   60.805
  401.500    5.877    0.357    0.429   60.175
  401.750    6.222    0.357    0.437   60.172
  402.000    6.463    0.359    0.434   61.418
  402.250    6.714    0.357    0.432   61.413
  402.500    6.843    0.355    0.430   59.532
  402.750    7.244    0.354    0.417   58.904
  403.000    7.669    0.355    0.386   57.649
  403.250    8.118    0.357    0.370   57.646
  403.500    7.528    0.362    0.354   58.891
  403.750    7.250    0.360    0.369   59.514
  404.000    6.982    0.351    0.396   62.009
  404.250    6.853    0.349    0.416   63.254
  404.500    6.854    0.344    0.427   63.251
  404.750    7.120    0.341    0.417   61.996
  405.000    7.257    0.331    0.411   58.240
  405.250    7.682    0.319    0.375   56.362
  405.500    8.446    0.305    0.341   53.859
  405.750    8.941    0.292    0.147   48.854
  406.000    9.288    0.215    0.130   44.474
  406.250    9.467    0.000    0.125   43.221
  406.500    9.469    0.000    0.134   45.091
  406.750    8.616    0.044    0.148   49.462
  407.000    7.839    0.157    0.247   54.458
  407.250    7.133    0.211    0.315   58.204
  407.500    6.614    0.309    0.346   60.698
  407.750    6.370    0.343    0.387   61.944
  408.000    6.371    0.349    0.413   61.316
  408.250    6.373    0.354    0.426   61.311
  408.500    6.495    0.359    0.429   60.683
  408.750    6.621    0.360    0.424   60.676
  409.000    6.622    0.354    0.422   60.674
  409.250    6.750    0.345    0.433   60.669
  409.500    6.751    0.340    0.443   60.039
  409.750    6.752    0.340    0.438   58.786
  410.000    6.754    0.346    0.435   56.281
  410.250    6.755    0.351    0.443   56.903
  410.500    6.630    0.353    0.440   58.773
  410.750    6.631    0.354    0.432   59.393
  411.000    6.632    0.351    0.422   59.388
  411.250    6.633    0.344    0.417   58.758
  411.500    6.635    0.341    0.414   58.131
  411.750    6.512    0.345    0.411   58.127
  412.000    6.514    0.353    0.422   58.748
  412.250    6.639    0.354    0.435   59.993
  412.500    6.640    0.353    0.428   59.364
  412.750    6.768    0.351    0.422   58.110
  413.000    6.769    0.350    0.414   59.355
  413.250    6.900    0.350    0.411   61.225
  413.500    6.901    0.351    0.413   61.847
  413.750    6.773    0.344    0.400   59.967
  414.000    6.774    0.320    0.359   58.087
  414.250    6.650    0.290    0.346   58.084
  414.500    6.651    0.271    0.358   59.955
  414.750    6.652    0.306    0.387   61.826
  415.000    6.653    0.332    0.402   63.071
  415.250    6.530    0.340    0.407   63.693
  415.500    6.530    0.351    0.413   63.688
  415.750    6.289    0.355    0.418   62.433
  416.000    6.172    0.356    0.418   60.554
  416.250    6.058    0.354    0.417   59.300
  416.500    6.060    0.351    0.417   59.296
  416.750    5.835    0.345    0.419   59.913
  417.000    5.727    0.343    0.421   59.910
  417.250    5.728    0.342    0.415   59.907
  417.500    5.729    0.343    0.421   59.905
  417.750    5.730    0.349    0.443   59.273
  418.000    5.841    0.351    0.458   59.896
  418.250    5.954    0.354    0.444   61.141
  418.500    6.069    0.354    0.427   62.387
  418.750    5.956    0.353    0.392   64.883
  419.000    5.845    0.348    0.397   68.629
  419.250    5.524    0.332    0.406   75.499
  419.500    5.220    0.292    0.416   80.495
  419.750    5.027    0.257    0.424   82.991
  420.000    4.841    0.257    0.431   86.734
  420.250    4.842    0.257    0.458   88.607
  420.500    4.843    0.257    0.476   91.103
  420.750    5.031    0.257    0.473   92.973
  421.000    5.226    0.260    0.465   93.593
  421.250    5.429    0.261    0.463   93.589
  421.500    5.639    0.261    0.464   93.585
  421.750    5.970    0.260    0.468   94.205
  422.000    6.320    0.256    0.459   94.827
  422.250    6.442    0.254    0.447   94.820
  422.500    6.691    0.245    0.448   94.818
  422.750    6.821    0.244    0.447   94.189
  423.000    6.952    0.244    0.443   94.185
  423.250    6.954    0.238    0.433   96.055
  423.500    6.955    0.232    0.427   97.925
  423.750    6.572    0.230    0.412   99.172
  424.000    6.211    0.234    0.421   97.917
  424.250    5.869    0.233    0.432   95.414
  424.500    5.652    0.230    0.447   91.034
  424.750    5.341    0.237    0.458   86.031
  425.000    4.860    0.243    0.463   85.400
  425.250    4.339    0.240    0.451   87.270
  425.500    3.801    0.235    0.453   87.892
  425.750    3.394    0.269    0.460   86.012
  426.000    2.918    0.287    0.470   84.759
  426.250    2.655    0.302    0.481   84.755
  426.500    2.509    0.313    0.493   84.750
  426.750    2.371    0.322    0.511   85.370
  427.000    2.371    0.316    0.520   85.365
  427.250    2.372    0.301    0.530   84.738
  427.500    2.417    0.295    0.531   83.484
  427.750    2.418    0.298    0.516   81.604
  428.000    2.465    0.302    0.494   82.850
  428.250    2.512    0.296    0.488   84.720
  428.500    2.513    0.292    0.503   87.216
  428.750    2.610    0.287    0.510   90.962
  429.000    2.711    0.280    0.503   93.457
  429.250    2.870    0.277    0.505   93.453
  429.500    3.156    0.274    0.525   92.198
  429.750    3.470    0.269    0.538   90.945
  430.000    3.673    0.259    0.516   87.190
  430.250    4.115    0.240    0.479   86.562
  430.500    4.611    0.228    0.446   88.431
  430.750    4.975    0.202    0.441   90.303
  431.000    5.367    0.209    0.446   86.547
  431.250    5.682    0.216    0.446   85.920
  431.500    5.791    0.206    0.435   88.415
  431.750    5.903    0.204    0.417   92.161
  432.000    5.794    0.217    0.415   94.657
  432.250    5.579    0.225    0.428   92.152
  432.500    5.077    0.230    0.436   90.898
  432.750    4.619    0.226    0.443   92.144
  433.000    4.283    0.230    0.462   95.889
  433.250    3.972    0.235    0.474   98.385
  433.500    3.753    0.239    0.485   97.756
  433.750    3.547    0.238    0.475   95.875
  434.000    3.481    0.234    0.469   94.623
  434.250    3.482    0.234    0.472   92.744
  434.500    3.483    0.238    0.478   92.115
  434.750    3.550    0.243    0.482   88.985
  435.000    3.551    0.240    0.489   90.855
  435.250    3.551    0.235    0.482   91.477
  435.500    3.485    0.231    0.478   93.347
  435.750    3.486    0.228    0.485   93.343
  436.000    3.421    0.224    0.493   93.339
  436.250    3.422    0.222    0.499   93.335
  436.500    3.422    0.212    0.500   95.204
  436.750    3.488    0.196    0.505   97.701
  437.000    3.489    0.213    0.503  102.071
  437.250    3.556    0.228    0.490  101.442
  437.500    3.557    0.235    0.478   95.188
  437.750    3.558    0.211    0.468   92.058
  438.000    3.559    0.185    0.473   92.054
  438.250    3.559    0.200    0.480   94.549
  438.500    3.493    0.213    0.500   97.046
  438.750    3.494    0.226    0.495   98.917
