~Version Information Block
VERS .                 2.00:  CWLS LOG ASCII STANDARD - VERSION 2.00
WRAP.                  NO:
~Well Information Block
#MNEM.UNIT        Data Type   Information
#---------- ----------------  -----------
STRT.M           130.2000:
STOP.M           354.0000:
STEP.M             0.3000:
NULL.           -999.2500:
COMP.  :COMPANY
WELL.  :WELL
FLD.   :FIELD
LOC.   :LOCATION
CTRY.  :COUNTRY
PROV.  :PROVINCE
SRVC.  :SERVICE COMPANY
DATE.  :LOG DATE
UWI.   00/10-08-083-05W4/0:UNIQUE WELL ID
~Parameter Information Block
#MNEM.UNIT            Value   Description
#---------- ----------------  -----------
PROJECT.             SURMOUNT:  
SET  .                  RAW:  
~Curve Information Block
#MNEM.UNIT          API CODE    Curve Description
#-----------    ------------    -------------------------------------
DEPT.M                      :   DEPTH
DPHI .V/V                   :   DPHI
DT   .us/m                  :   DT
GR   .API                   :   GR
ILD  .Ohmm                  :   ILD
NPHI .V/V                   :   NPHI
PHID .                      :   Created by graphical digitiser entry.
RHOB .gm/c3                 :   RHOB
~A  Depth           DPHI          DT          GR         ILD        NPHI        PHID        RHOB
# ...
304.5000       -999.2500   -999.2500    106.7412      2.9917      0.5375      0.2814   2185.6384
304.8000       -999.2500   -999.2500    110.3105      3.3349      0.5564      0.2920   2168.2249
305.1000       -999.2500   -999.2500    104.6800      3.6502      0.5577      0.3169   2127.0378
305.4000       -999.2500   -999.2500    102.2465      3.9548      0.5717      0.3294   2106.4976
305.7000       -999.2500   -999.2500    103.5008      4.0416      0.5643      0.3344   2098.2341
306.0000       -999.2500   -999.2500    104.6266      3.9974      0.5527      0.3321   2102.1074
306.3000       -999.2500   -999.2500    104.9634      3.9174      0.5473      0.3236   2116.0583
306.6000       -999.2500   -999.2500    104.7343      3.7596      0.5319      0.3055   2145.8760
306.9000       -999.2500   -999.2500    104.2689      3.5689      0.5413      0.2922   2167.8279
307.2000       -999.2500   -999.2500    103.6163      3.4049      0.5426      0.2887   2173.5815
307.5000       -999.2500   -999.2500    102.6682      3.4338      0.5347      0.2975   2159.1873
307.8000       -999.2500   -999.2500    100.3988      3.6413      0.5418      0.3094   2139.4124
308.1000       -999.2500   -999.2500     93.7583      4.1190      0.5047      0.3232   2116.6396
308.4000       -999.2500   -999.2500     82.9881      4.7006      0.4970      0.3548   2064.6147
308.7000       -999.2500   -999.2500     71.4032      5.1355      0.4893      0.4007   1988.9125
309.0000       -999.2500   -999.2500     62.1779      5.2560      0.4815      0.4546   1899.9615
309.3000       -999.2500   -999.2500     55.4658      5.2182      0.2952      0.3593   2057.2222
309.6000       -999.2500   -999.2500     37.9524      5.3286      0.2596      0.1748   2361.5691
309.9000       -999.2500   -999.2500     28.4608      5.7937      0.2567      0.1207   2450.8672
310.2000       -999.2500   -999.2500     31.5780      6.6286      0.2614      0.1219   2448.9409
310.5000       -999.2500   -999.2500     40.8600      7.7485      0.2710      0.1024   2481.0686
310.8000       -999.2500   -999.2500     38.4723      9.2269      0.2476      0.0870   2506.4656
311.1000       -999.2500   -999.2500     29.5779     11.4399      0.2025      0.0699   2534.7319
311.4000       -999.2500   -999.2500     25.9527     13.6590      0.2011      0.0409   2582.4373
311.7000       -999.2500   -999.2500     25.8707     15.3942      0.1913      0.0100   2633.5200
312.0000       -999.2500   -999.2500     24.4792     16.8368      0.1738      0.0046   2642.3801
312.3000       -999.2500   -999.2500     19.9557     18.1349      0.1415      0.0300   2600.5369
312.6000       -999.2500   -999.2500     16.3381     19.2929      0.1390      0.0358   2590.9783
312.9000       -999.2500   -999.2500     18.1727     20.3106      0.1503      0.0326   2596.1829
313.2000       -999.2500   -999.2500     19.4082     21.2192      0.1485      0.0413   2581.8794
313.5000       -999.2500   -999.2500     18.8055     21.6235      0.1345      0.0471   2572.2583
313.8000       -999.2500   -999.2500     17.6980     21.8007      0.1287      0.0396   2584.6548
314.1000       -999.2500   -999.2500     16.7571     21.9874      0.1225      0.0209   2615.4771
314.4000       -999.2500   -999.2500     17.7648     22.3226      0.1216      0.0045   2642.4929
314.7000       -999.2500   -999.2500     19.5539     22.9241      0.1228      0.0066   2639.0776
315.0000       -999.2500   -999.2500     20.5520     23.6313      0.1276      0.0205   2616.1982
315.3000       -999.2500   -999.2500     21.1190     24.4227      0.1297      0.0403   2583.4600
315.6000       -999.2500   -999.2500     20.1636     25.2539      0.1292      0.0406   2582.9980
315.9000       -999.2500   -999.2500     18.4629     26.0851      0.1285      0.0286   2602.8179
316.2000       -999.2500   -999.2500     17.4441     26.7981      0.1297      0.0107   2632.3770
316.5000       -999.2500   -999.2500     17.9033     27.5032      0.1372      0.0226   2612.6860
316.8000       -999.2500   -999.2500     19.3226     28.3158      0.1482      0.0406   2583.0703
317.1000       -999.2500   -999.2500     23.0347     29.1345      0.1619      0.0358   2590.8733
317.4000       -999.2500   -999.2500     23.6481     38.7142      0.1473      0.0332   2595.1733
317.7000       -999.2500   -999.2500     20.8052     41.4998      0.1355      0.0288   2602.5186
318.0000       -999.2500   -999.2500     17.0502     35.6325      0.1260      0.0266   2606.0815
318.3000       -999.2500   -999.2500     14.7956     29.2357      0.1226      0.0180   2620.3281
318.6000       -999.2500   -999.2500     13.9550     25.2445      0.1200      0.0136   2627.6045
318.9000       -999.2500   -999.2500     14.4529     26.5966      0.1156      0.0108   2632.1707
319.2000       -999.2500   -999.2500     16.4626     34.1455      0.1144      0.0031   2644.8184
319.5000       -999.2500   -999.2500     18.8251     41.1100      0.1109      0.0014   2647.7305
319.8000       -999.2500   -999.2500     21.0653     42.3718      0.1130      0.0073   2637.9009
320.1000       -999.2500   -999.2500     21.5160     39.4925      0.1206      0.0096   2634.1606
320.4000       -999.2500   -999.2500     21.5284     35.8645      0.1260      0.0038   2643.7371
320.7000       -999.2500   -999.2500     22.3943     32.4094      0.1351      0.0075   2637.7053
321.0000       -999.2500   -999.2500     25.6489     30.5927      0.1466      0.0062   2639.7844
321.3000       -999.2500   -999.2500     29.7861     30.4545      0.1561      0.0077   2637.2305
321.6000       -999.2500   -999.2500     31.5088     32.3524      0.1537      0.0114   2631.2712
321.9000       -999.2500   -999.2500     29.8900     35.6661      0.1512      0.0220   2613.7197
322.2000       -999.2500   -999.2500     30.8353     39.0228      0.1486      0.0213   2614.9236
322.5000       -999.2500   -999.2500     31.7871     41.4963      0.1420      0.0062   2639.8477
322.8000       -999.2500   -999.2500     31.6821     43.1934      0.1429      0.0000   2649.9917
323.1000       -999.2500   -999.2500     32.1649     44.6504      0.1417      0.0064   2639.4731
323.4000       -999.2500   -999.2500     33.0778     45.8352      0.1460      0.0208   2615.7412
323.7000       -999.2500   -999.2500     31.8375     46.8937      0.1510      0.0341   2593.6753
324.0000       -999.2500   -999.2500     25.9130     46.7492      0.1067      0.0292   2601.8513
324.3000       -999.2500   -999.2500     21.9436     45.2932      0.1038      0.0106   2632.5583
324.6000       -999.2500   -999.2500     24.0535     43.4368      0.1207      0.0012   2648.0825
324.9000       -999.2500   -999.2500     34.8376     41.5439      0.1399      0.0000   2649.9917
325.2000       -999.2500   -999.2500     47.1570     40.6124      0.1687      0.0115   2630.9460
325.5000       -999.2500   -999.2500     40.4382     41.1854      0.1989      0.0263   2606.6462
325.8000       -999.2500   -999.2500     30.6607     43.6282      0.1314      0.0129   2628.7144
326.1000       -999.2500   -999.2500     42.9650     46.7507      0.1618      0.0182   2619.9812
326.4000       -999.2500   -999.2500     51.7417     49.8008      0.1964      0.0339   2594.1367
326.7000       -999.2500   -999.2500     45.0133     49.5426      0.1465      0.0322   2596.8354
327.0000       -999.2500   -999.2500     33.6462     46.7143      0.1262      0.0190   2618.5867
327.3000       -999.2500   -999.2500     31.8463     42.4594      0.1427      0.0048   2642.0608
327.6000       -999.2500   -999.2500     44.6028     38.7342      0.1712      0.0134   2627.9263
327.9000       -999.2500   -999.2500     51.2728     39.7442      0.1994      0.0147   2625.7114
328.2000       -999.2500   -999.2500     49.7409     43.9857      0.2109      0.0051   2641.6667
328.5000       -999.2500   -999.2500     44.3739     50.0254      0.1910      0.0275   2604.6699
328.8000       -999.2500   -999.2500     38.7633     54.4004      0.1588      0.0368   2589.3315
329.1000       -999.2500   -999.2500     35.5889     57.6330      0.1510      0.0363   2590.0828
