~VERSION INFORMATION
 VERS.                 2.0:   CWLS LOG ASCII STANDARD -VERSION 2.0
 WRAP.                  NO:   ONE LINE PER DEPTH STEP
~WELL INFORMATION BLOCK
#MNEM.UNIT           DATA                    DESCRIPTION OF MNEMONIC
#---------    -------------------            -------------------------------
# Generated from Intellog Unique Number	CS_77_79/WELL/3305
WELL.         12-28-078-15W4                 : Well_name    - WELL
LOC .         00/12-28-078-15W4/0            : Location     - LOCATION
UWI .         00/12-28-078-15W4/0            : Uwi          - UNIQUE WELL ID
ENTR.         JOETTE                         : Entered      - ENTERED BY
SRVC.         SCHLUMBERGER                   : Scn          - SERVICE COMPANY
DATE.         08/18/92                       : Date         - LOG DATE
STRT.M        250                            : top_depth    - START DEPTH
STOP.M        473                            : bot_depth    - STOP DEPTH
STEP.M        0.25                           : increment    - STEP LENGTH
 NULL. -999.2500:NULL Value
~CURVE INFORMATION BLOCK
#MNEM UNIT       ERCB CURVE CODE    CURVE DESCRIPTION
#-----------   ------------------   ----------------------------------
DEPT.M        00 001 00 00         : DEPTH        - DEPTH
GR  .API      00 310 00 00         : GR           - GAMMA RAY
NPHI.V/V      00 330 00 00         : PHIN         - NEUTRON POROSITY (SANDSTONE)
DPHI.V/V      00 890 00 00         : PHID         - DENSITY POROSITY (SANDSTONE)
ILD .OHMM     00 120 00 00         : RESD         - DEEP RESISTIVITY (DIL)
~PARAMETER INFORMATION
#MNEM.UNIT           DATA             DESCRIPTION OF MNEMONIC
#---------         -----------     ------------------------------
GL  .M        656.5                : gl           - GROUND LEVEL ELEVATION
EREF.M        660.5                : kb           - ELEVATION OF DEPTH REFERENCE
DATM.M        660.5                : datum        - DATUM ELEVATION
TDD .M        476                  : tdd          - TOTAL DEPTH DRILLER
RUN .         ONE                  : Run          - RUN NUMBER
ENG .         BILL                 : Engineer     - RECORDING ENGINEER
WIT .         JIM                  : Witness      - WITNESSED BY
MUD .         GEL                  : Mud_type     - MUD TYPE
MATR.         SANDSTONE            : Logunit      - NEUTRON MATRIX
TMAX.C        31                   : BHT          - MAXIMUM RECORDED TEMPERATURE
BHTD.M        476                  : BHTDEP       - MAXIMUM RECORDED TEMPERATURE
RMT .C        22                   : MDTP         - TEMPERATURE OF MUD
MUDD.KG/M     1120                 : MWT          - MUD DENSITY
NEUT.         1                    : NEUTRON      - NEUTRON TYPE
RESI.         0                    : RESIST       - RESISTIVITY TYPE
RM  .OHMM     5.7                  : RM           - RESISTIVITY OF MUD
RMC .OHMM     3.2                  : RMC          - RESISTIVITY OF MUD CAKE
RMF .OHMM     7.8                  : RMF          - RESISTIVITY OF MUD FILTRATE
SUFT.C        4                    : SUFT         - SURFACE TEMPERATURE
~A  DEPTH       GR     PHIN     PHID     RESD
# ...
  337.000   39.741    0.429    0.334   14.717
  337.250   38.534    0.419    0.339   14.159
  337.500   38.529    0.427    0.344   12.895
  337.750   39.726    0.439    0.345   13.887
  338.000   39.721    0.454    0.345   13.879
  338.250   39.716    0.490    0.344   14.129
  338.500   38.510    0.488    0.343   14.120
  338.750   42.710    0.484    0.342   14.376
  339.000   45.707    0.484    0.340   14.370
  339.250   46.301    0.476    0.338   14.364
  339.500   45.698    0.476    0.336   14.622
  339.750   43.892    0.476    0.336   14.618
  340.000   41.483    0.470    0.336   14.883
  340.250   44.483    0.471    0.336   14.874
  340.500   44.475    0.478    0.336   14.865
  340.750   43.270    0.483    0.334   14.859
  341.000   43.866    0.478    0.334   15.130
  341.250   42.060    0.477    0.334   15.119
  341.500   40.253    0.486    0.336   14.833
  341.750   39.045    0.489    0.336   14.017
  342.000   39.041    0.487    0.336   11.839
  342.250   39.037    0.482    0.333    9.818
  342.500   40.833    0.487    0.332    8.294
  342.750   42.031    0.499    0.330    6.380
  343.000   44.428    0.508    0.322    5.808
  343.250   48.027    0.519    0.314    5.592
  343.500   52.828    0.528    0.291    5.484
  343.750   61.832    0.520    0.283    5.482
  344.000   63.628    0.520    0.280    5.479
  344.250   65.427    0.536    0.272    5.475
  344.500   72.029    0.550    0.268    5.575
  344.750   70.823    0.554    0.283    5.677
  345.000   64.210    0.541    0.310    5.782
  345.250   64.805    0.519    0.320    6.226
  345.500   67.805    0.492    0.327    6.960
  345.750   68.400    0.512    0.278    7.638
  346.000   66.593    0.500    0.256    8.538
  346.250   64.184    0.467    0.246    8.694
  346.500   65.382    0.433    0.211    8.370
  346.750   70.783    0.488    0.234    7.478
  347.000   70.778    0.505    0.248    6.935
  347.250   70.171    0.515    0.253    6.804
  347.500   71.968    0.534    0.253    6.800
  347.750   72.564    0.588    0.250    6.796
  348.000   72.561    0.576    0.250    7.050
  348.250   70.753    0.576    0.255    7.592
  348.500   69.548    0.591    0.259    7.590
  348.750   69.542    0.596    0.255    7.445
  349.000   71.339    0.588    0.255    7.035
  349.250   71.936    0.584    0.260    6.403
  349.500   70.129    0.591    0.260    5.720
  349.750   70.725    0.605    0.260    5.508
  350.000   71.321    0.611    0.257    5.107
  350.250   70.113    0.605    0.257    5.011
  350.500   72.512    0.613    0.263    4.915
  350.750   77.310    0.614    0.265    4.913
  351.000   76.705    0.599    0.264    5.192
  351.250   77.901    0.572    0.261    5.487
  351.500   79.698    0.545    0.264    5.589
  351.750   77.892    0.529    0.272    5.908
  352.000   74.284    0.536    0.273    6.244
  352.250   70.075    0.571    0.272    6.477
  352.500   70.671    0.600    0.271    6.596
  352.750   70.665    0.629    0.270    6.591
  353.000   67.658    0.623    0.273    6.590
  353.250   65.251    0.613    0.283    6.586
  353.500   67.647    0.617    0.291    6.582
  353.750   70.046    0.594    0.306    6.578
  354.000   69.441    0.554    0.314    6.574
  354.250   64.630    0.510    0.305    6.694
  354.500   65.226    0.535    0.297    6.566
  354.750   67.021    0.557    0.302    6.090
  355.000   67.617    0.560    0.318    5.144
  355.250   65.809    0.545    0.326    4.033
  355.500   63.404    0.534    0.331    3.344
  355.750   62.798    0.510    0.321    2.721
  356.000   67.599    0.508    0.283    2.431
  356.250   73.599    0.500    0.283    2.341
  356.500   77.198    0.534    0.287    2.296
  356.750   78.995    0.604    0.295    2.295
  357.000   80.192    0.617    0.306    2.294
  357.250   79.586    0.625    0.305    2.424
  357.500   78.380    0.637    0.300    2.611
  357.750   78.375    0.649    0.300    2.811
  358.000   78.370    0.659    0.300    3.028
  358.250   76.565    0.654    0.299    3.448
  358.500   75.358    0.630    0.296    3.646
  358.750   74.753    0.623    0.287    4.075
  359.000   70.544    0.612    0.277    4.308
  359.250   73.542    0.588    0.262    4.639
  359.500   75.939    0.556    0.258    4.724
  359.750   72.930    0.544    0.263    5.281
  360.000   74.127    0.553    0.270    5.687
  360.250   75.924    0.576    0.284    6.012
  360.500   73.517    0.596    0.296    6.721
  360.750   68.707    0.526    0.323    7.514
  361.000   63.297    0.463    0.374    8.885
  361.250   58.487    0.368    0.445   11.111
  361.500   53.677    0.264    0.438   12.421
  361.750   49.468    0.277    0.384   11.305
  362.000   47.661    0.318    0.377   10.684
  362.250   47.055    0.353    0.371    9.725
  362.500   47.049    0.449    0.366    9.363
  362.750   47.645    0.478    0.361    9.183
  363.000   47.640    0.482    0.358    9.179
  363.250   45.233    0.457    0.356    9.004
  363.500   43.424    0.446    0.361    8.999
  363.750   45.823    0.448    0.364    8.992
  364.000   46.419    0.464    0.368    9.156
  364.250   45.212    0.481    0.366    9.501
  364.500   44.006    0.493    0.361    9.857
  364.750   45.803    0.489    0.367   10.614
  365.000   47.602    0.489    0.366   11.013
  365.250   45.194    0.487    0.361   11.424
  365.500   42.184    0.467    0.358   11.415
  365.750   42.181    0.406    0.360   11.199
  366.000   43.977    0.437    0.358   10.783
  366.250   46.977    0.463    0.353   10.380
  366.500   50.576    0.474    0.348   10.375
  366.750   49.968    0.487    0.354   10.369
  367.000   49.966    0.480    0.359   10.960
  367.250   49.360    0.457    0.357   11.804
  367.500   49.353    0.443    0.347   12.950
  367.750   49.946    0.431    0.343   13.948
  368.000   49.943    0.439    0.349   16.189
  368.250   49.940    0.453    0.357   22.646
  368.500   50.534    0.453    0.361   25.317
  368.750   50.531    0.447    0.363   28.836
  369.000   49.925    0.419    0.355   34.728
  369.250   48.720    0.365    0.319   33.440
  369.500   44.509    0.184    0.191   31.604
  369.750   40.901    0.165    0.112   26.204
  370.000   39.695    0.267    0.040   20.543
  370.250   44.496    0.421    0.325   17.033
  370.500   49.296    0.445    0.364   11.936
  370.750   55.298    0.415    0.357   10.082
  371.000   57.095    0.378    0.336    9.708
  371.250   56.488    0.349    0.257    9.344
  371.500   55.883    0.447    0.249    8.997
  371.750   55.877    0.498    0.307    8.826
  372.000   56.475    0.496    0.343    8.656
  372.250   57.668    0.489    0.342    8.654
  372.500   57.664    0.497    0.336    8.488
  372.750   58.260    0.496    0.339    8.326
  373.000   57.655    0.497    0.340    8.166
  373.250   57.650    0.498    0.339    8.012
  373.500   58.247    0.498    0.339    7.858
  373.750   59.442    0.494    0.340    7.853
  374.000   61.239    0.494    0.340    7.849
  374.250   61.835    0.504    0.335    7.845
  374.500   61.231    0.520    0.327    7.988
  374.750   60.025    0.520    0.321    8.135
  375.000   59.419    0.507    0.315    8.440
  375.250   60.015    0.510    0.308    8.918
  375.500   62.413    0.510    0.296    9.603
  375.750   63.609    0.508    0.297    9.780
  376.000   62.403    0.503    0.304   10.336
  376.250   59.996    0.509    0.312   10.727
  376.500   59.988    0.512    0.315   10.922
  376.750   60.583    0.506    0.310   11.120
  377.000   59.980    0.506    0.305   10.907
  377.250   59.374    0.520    0.303   10.502
  377.500   61.170    0.518    0.306    9.926
  377.750   63.569    0.516    0.310    8.867
  378.000   62.363    0.452    0.309    8.380
  378.250   62.959    0.442    0.303    7.626
  378.500   68.359    0.465    0.294    7.343
  378.750   71.958    0.507    0.281    7.071
  379.000   71.953    0.521    0.275    6.807
  379.250   71.948    0.509    0.278    6.678
  379.500   69.541    0.507    0.273    6.674
  379.750   70.736    0.530    0.260    6.669
  380.000   72.535    0.555    0.260    6.667
  380.250   74.332    0.563    0.260    6.537
