~VERSION INFORMATION
 VERS.                 2.0:   CWLS LOG ASCII STANDARD -VERSION 2.0
 WRAP.                  NO:   ONE LINE PER DEPTH STEP
~WELL INFORMATION BLOCK
#MNEM.UNIT           DATA                    DESCRIPTION OF MNEMONIC
#---------    -------------------            -------------------------------
# Generated from Intellog Unique Number	CS_67_68/WELL/811
WELL.         DOME PETROLEUM LIMITED         : Well_name    - WELL
LOC .         00/10-28-068-03W4/0            : Location     - LOCATION
UWI .         00/10-28-068-03W4/0            : Uwi          - UNIQUE WELL ID
ENTR.         SP                             : Entered      - ENTERED BY
SRVC.         SCHLUMBERGER                   : Scn          - SERVICE COMPANY
STRT.M        395                            : top_depth    - START DEPTH
STOP.M        615                            : bot_depth    - STOP DEPTH
STEP.M        0.25                           : increment    - STEP LENGTH
 NULL. -999.2500:NULL Value
~CURVE INFORMATION BLOCK
#MNEM UNIT       ERCB CURVE CODE    CURVE DESCRIPTION
#-----------   ------------------   ----------------------------------
DEPT.M        00 001 00 00         : DEPTH        - DEPTH
GR  .API      00 310 00 00         : GR           - GAMMA RAY
NPHI.V/V      00 330 00 00         : PHIN         - NEUTRON POROSITY (LIMESTONE)
DPHI.V/V      00 890 00 00         : PHID         - DENSITY POROSITY (LIMESTONE)
ILD .OHMM     00 120 00 00         : RESD         - DEEP RESISTIVITY (DIL)
~PARAMETER INFORMATION
#MNEM.UNIT           DATA             DESCRIPTION OF MNEMONIC
#---------         -----------     ------------------------------
GL  .M        748.86               : gl           - GROUND LEVEL ELEVATION
EREF.M        752.86               : kb           - ELEVATION OF DEPTH REFERENCE
DATM.M        748.86               : datum        - DATUM ELEVATION
TDD .M        621                  : tdd          - TOTAL DEPTH DRILLER
RUN .         ONE                  : Run          - RUN NUMBER
ENG .         BILL                 : Engineer     - RECORDING ENGINEER
WIT .         JIM                  : Witness      - WITNESSED BY
MUD .         GEL                  : Mud_type     - MUD TYPE
MATR.         LIMESTONE            : Logunit      - NEUTRON MATRIX
TMAX.C        23.3                 : BHT          - MAXIMUM RECORDED TEMPERATURE
BHTD.M        621                  : BHTDEP       - MAXIMUM RECORDED TEMPERATURE
MATR.         1                    : LOGUNIT      - NEUTRON MATRIX
RMT .C        25                   : MDTP         - TEMPERATURE OF MUD
NEUT.         1                    : NEUTRON      - NEUTRON TYPE
RESI.         0                    : RESIST       - RESISTIVITY TYPE
RMC .OHMM     0.25                 : RMC          - RESISTIVITY OF MUD CAKE
RMF .OHMM     0.25                 : RMF          - RESISTIVITY OF MUD FILTRATE
SUFT.C        15                   : SUFT         - SURFACE TEMPERATURE
~A  DEPTH       GR     PHIN     PHID     RESD
# ...
  438.500   87.258    0.430    0.244    8.537
  438.750   87.794    0.446    0.261    8.552
  439.000   89.292    0.449    0.269    8.471
  439.250   85.442    0.430    0.266    8.375
  439.500   82.434    0.415    0.268    8.265
  439.750   80.928    0.405    0.267    7.960
  440.000   84.347    0.412    0.245    7.638
  440.250   86.926    0.431    0.234    7.234
  440.500   89.865    0.443    0.233    7.046
  440.750   87.697    0.454    0.263    6.940
  441.000   82.526    0.467    0.296    6.900
  441.250   79.217    0.461    0.299    7.029
  441.500   77.411    0.454    0.218    7.630
  441.750   73.201    0.467    0.159    8.361
  442.000   68.691    0.391    0.112    9.316
  442.250   69.707    0.327    0.204   10.076
  442.500   74.028    0.346    0.245   10.074
  442.750   76.547    0.383    0.262    9.757
  443.000   77.744    0.407    0.277    8.919
  443.250   67.226    0.436    0.286    8.001
  443.500   57.910    0.412    0.299    7.465
  443.750   53.040    0.403    0.306    6.772
  444.000   54.897    0.417    0.314    6.609
  444.250   57.175    0.423    0.321    6.485
  444.500   59.214    0.421    0.330    6.448
  444.750   61.311    0.415    0.342    6.399
  445.000   59.625    0.424    0.349    6.338
  445.250   57.878    0.431    0.348    6.266
  445.500   57.453    0.444    0.344    6.219
  445.750   59.371    0.444    0.339    6.149
  446.000   61.349    0.420    0.334    6.136
  446.250   61.104    0.408    0.331    6.112
  446.500   59.177    0.405    0.334    6.100
  446.750   56.769    0.403    0.340    6.065
  447.000   58.386    0.425    0.327    6.064
  447.250   62.226    0.416    0.318    6.040
  447.500   63.783    0.405    0.310    6.028
  447.750   62.998    0.398    0.314    6.061
  448.000   61.191    0.392    0.328    6.117
  448.250   61.607    0.410    0.339    6.254
  448.500   64.246    0.427    0.346    6.336
  448.750   67.485    0.413    0.341    6.382
  449.000   70.963    0.407    0.331    6.441
  449.250   72.522    0.407    0.322    6.464
  449.500   72.156    0.411    0.312    6.463
  449.750   68.067    0.412    0.306    6.474
  450.000   69.084    0.401    0.308    6.509
  450.250   69.559    0.414    0.315    6.545
  450.500   67.632    0.425    0.311    6.655
  450.750   68.109    0.431    0.298    6.792
  451.000   71.347    0.414    0.287    6.854
  451.250   73.626    0.398    0.278    6.943
  451.500   75.842    0.387    0.270    6.955
  451.750   76.620    0.392    0.282    6.915
  452.000   74.694    0.419    0.304    6.837
  452.250   69.041    0.431    0.316    6.760
  452.500   66.573    0.434    0.326    6.510
  452.750   65.547    0.437    0.330    6.365
  453.000   65.484    0.441    0.320    6.400
  453.250   65.598    0.460    0.316    6.556
  453.500   65.895    0.466    0.315    6.629
  453.750   68.894    0.452    0.318    6.396
  454.000   72.434    0.462    0.307    6.360
  454.250   71.948    0.482    0.289    6.102
  454.500   64.734    0.494    0.269    5.900
  454.750   59.504    0.452    0.262    5.671
  455.000   57.157    0.421    0.285    5.618
  455.250   56.792    0.405    0.293    5.680
  455.500   54.683    0.399    0.297    5.863
  455.750   53.418    0.402    0.301    5.928
  456.000   51.550    0.404    0.312    5.883
  456.250   50.346    0.406    0.328    5.838
  456.500   49.200    0.408    0.326    5.750
  456.750   52.919    0.407    0.322    5.717
  457.000   55.978    0.406    0.315    5.695
  457.250   59.218    0.412    0.309    5.620
  457.500   62.397    0.432    0.307    5.546
  457.750   55.844    0.449    0.313    5.545
  458.000   50.252    0.433    0.322    5.544
  458.250   49.167    0.415    0.326    5.543
  458.500   51.565    0.413    0.329    5.511
  458.750   55.465    0.403    0.313    5.510
  459.000   58.284    0.406    0.288    5.520
  459.250   60.442    0.418    0.270    5.529
  459.500   62.359    0.421    0.256    5.559
  459.750   64.156    0.408    0.248    5.527
  460.000   64.934    0.408    0.243    5.505
  460.250   64.448    0.438    0.242    5.484
  460.500   60.599    0.457    0.269    5.442
  460.750   55.669    0.436    0.307    5.431
  461.000   51.099    0.418    0.330    5.390
  461.250   49.232    0.428    0.329    5.349
  461.500   52.110    0.422    0.323    5.279
  461.750   53.366    0.411    0.322    5.248
  462.000   53.062    0.401    0.333    5.238
  462.250   52.036    0.399    0.338    5.207
  462.500   52.873    0.417    0.339    5.187
  462.750   57.133    0.423    0.335    5.147
  463.000   60.432    0.440    0.328    5.118
  463.250   57.664    0.437    0.315    5.098
  463.500   52.734    0.425    0.308    5.078
  463.750   51.107    0.405    0.312    5.068
  464.000   52.004    0.401    0.328    5.058
  464.250   54.763    0.408    0.333    5.028
  464.500   53.856    0.408    0.336    5.028
  464.750   52.710    0.419    0.338    5.027
  465.000   51.925    0.436    0.340    5.007
  465.250   51.259    0.424    0.337    4.997
  465.500   50.414    0.416    0.330    4.959
  465.750   48.788    0.410    0.328    4.949
  466.000   47.401    0.418    0.328    4.957
  466.250   46.976    0.422    0.333    5.012
  466.500   49.074    0.412    0.336    5.144
  466.750   51.171    0.402    0.331    5.172
  467.000   53.390    0.401    0.327    5.095
  467.250   55.127    0.407    0.321    4.935
  467.500   52.539    0.412    0.321    4.578
  467.750   50.072    0.417    0.316    3.905
  468.000   52.831    0.398    0.296    3.596
  468.250   63.158    0.386    0.263    3.496
  468.500   74.147    0.415    0.236    3.496
  468.750   86.217    0.484    0.261    3.881
  469.000   82.848    0.483    0.285    4.423
  469.250   75.635    0.497    0.305    5.202
  469.500   68.782    0.489    0.318    5.679
  469.750   62.710    0.437    0.330    5.994
  470.000   58.080    0.399    0.342    6.072
  470.250   57.415    0.413    0.340    6.117
  470.500   57.109    0.425    0.337    6.081
  470.750   55.904    0.431    0.335    6.058
  471.000   54.757    0.415    0.339    6.046
  471.250   53.551    0.405    0.349    6.056
  471.500   52.886    0.403    0.343    6.077
  471.750   54.023    0.393    0.343    6.111
  472.000   56.721    0.396    0.344    6.144
  472.250   55.756    0.413    0.334    6.189
  472.500   53.707    0.427    0.337    6.235
  472.750   52.742    0.416    0.339    6.315
  473.000   52.678    0.399    0.340    6.350
  473.250   55.196    0.412    0.343    6.397
  473.500   55.492    0.422    0.345    6.444
  473.750   52.965    0.415    0.348    6.466
  474.000   51.158    0.404    0.341    6.453
  474.250   51.754    0.398    0.331    6.464
  474.500   52.350    0.397    0.322    6.500
  474.750   51.925    0.392    0.322    6.523
  475.000   50.477    0.386    0.330    6.546
  475.250   49.813    0.382    0.334    6.570
  475.500   49.268    0.384    0.329    6.593
  475.750   51.786    0.391    0.327    6.629
  476.000   54.244    0.402    0.327    6.665
  476.250   54.721    0.414    0.331    6.702
  476.500   53.995    0.423    0.335    6.738
  476.750   54.711    0.414    0.340    6.762
  477.000   57.109    0.404    0.342    6.786
  477.250   58.967    0.406    0.339    6.785
  477.500   58.422    0.398    0.336    6.733
  477.750   55.353    0.389    0.335    6.695
  478.000   52.105    0.393    0.338    6.694
  478.250   50.238    0.395    0.343    6.743
  478.500   52.336    0.384    0.346    6.830
  478.750   53.352    0.373    0.336    6.893
  479.000   53.288    0.370    0.330    6.931
  479.250   52.982    0.372    0.326    6.969
  479.500   52.678    0.382    0.330    6.994
  479.750   50.450    0.391    0.333    7.006
  480.000   49.605    0.398    0.331    7.044
  480.250   51.643    0.397    0.328    7.043
  480.500   51.097    0.381    0.325    7.042
  480.750   50.011    0.372    0.324    7.001
  481.000   49.946    0.387    0.327    6.987
  481.250   50.542    0.389    0.333    6.986
  481.500   52.280    0.401    0.336    6.945
  481.750   53.297    0.410    0.325    6.931
