~VERSION INFORMATION
 VERS.                 2.0:   CWLS LOG ASCII STANDARD -VERSION 2.0
 WRAP.                  NO:   ONE LINE PER DEPTH STEP
~WELL INFORMATION BLOCK
#MNEM.UNIT           DATA                    DESCRIPTION OF MNEMONIC
#---------    -------------------            -------------------------------
# Generated from Intellog Unique Number	CW_76_78/WELL/2806
WELL.         10-20-076-24W4                 : Well_name    - WELL
LOC .         00/10-20-076-24W4/0            : Location     - LOCATION
UWI .         00/10-20-076-24W4/0            : Uwi          - UNIQUE WELL ID
ENTR.         JJ                             : Entered      - ENTERED BY
SRVC.         WESTERN ATLAS                  : Scn          - SERVICE COMPANY
DATE.         1 MAR 67                       : Date         - LOG DATE
STRT.M        746.76                         : top_depth    - START DEPTH
STOP.M        899.26                         : bot_depth    - STOP DEPTH
STEP.M        0.25                           : increment    - STEP LENGTH
 NULL. -999.2500:NULL Value
~CURVE INFORMATION BLOCK
#MNEM UNIT       ERCB CURVE CODE    CURVE DESCRIPTION
#-----------   ------------------   ----------------------------------
DEPT.M        00 001 00 00         : DEPTH        - DEPTH
DELT.US/F     00 520 00 00         : DELT         - SONIC TRAVEL TIME
GR  .API      00 310 00 00         : GR           - GAMMA RAY
CALI.MM       00 280 01 00         : CAL          - CALIPER
ILD .OHMM     00 120 00 00         : RESD         - DEEP RESISTIVITY (DIL)
~PARAMETER INFORMATION
#MNEM.UNIT           DATA             DESCRIPTION OF MNEMONIC
#---------         -----------     ------------------------------
GL  .M        938.479              : gl           - GROUND LEVEL ELEVATION
EREF.M        942.137              : kb           - ELEVATION OF DEPTH REFERENCE
DATM.M        942.137              : datum        - DATUM ELEVATION
TDD .M        905.256              : tdd          - TOTAL DEPTH DRILLER
RUN .         ONE                  : Run          - RUN NUMBER
ENG .         LUNN                 : Engineer     - RECORDING ENGINEER
WIT .         TERRILL              : Witness      - WITNESSED BY
MUD .         GEL                  : Mud_type     - MUD TYPE
MATR.         SANDSTONE            : Logunit      - NEUTRON MATRIX
TMAX.C        36.1111              : BHT          - MAXIMUM RECORDED TEMPERATURE
BHTD.M        904.037              : BHTDEP       - MAXIMUM RECORDED TEMPERATURE
RMT .C        21.1111              : MDTP         - TEMPERATURE OF MUD
MUDD.KG/M     1080                 : MWT          - MUD DENSITY
NEUT.         1                    : NEUTRON      - NEUTRON TYPE
RESI.         0                    : RESIST       - RESISTIVITY TYPE
RM  .OHMM     4.5                  : RM           - RESISTIVITY OF MUD
RMC .OHMM     3.31                 : RMC          - RESISTIVITY OF MUD CAKE
RMF .OHMM     4.84                 : RMF          - RESISTIVITY OF MUD FILTRATE
SUFT.C        5                    : SUFT         - SURFACE TEMPERATURE
~A  DEPTH     DELT       GR      CAL     RESD
# ...
  833.760  317.305  105.929  236.286    8.275
  834.010  325.274  110.432  230.732    8.384
  834.260  327.467  110.900  225.384    8.328
  834.510  317.033  112.514  226.270    8.150
  834.760  320.299  107.943  223.988    8.076
  835.010  318.932  105.865  224.019    8.081
  835.260  314.546  113.863  224.906    8.312
  835.510  326.811  111.786  226.527    8.684
  835.760  326.924  114.495  229.093    8.670
  836.010  328.109  118.252  231.347    8.472
  836.260  338.894  112.784  231.697    8.070
  836.510  342.567  113.549  229.625    7.525
  836.760  343.756  115.962  226.604    7.062
  837.010  342.852  119.169  226.744    6.598
  837.260  340.080  119.786  229.841    6.175
  837.510  338.514  116.962  232.094    5.692
  837.760  355.818  115.682  232.025    5.228
  838.010  374.332  111.013  224.254    4.744
  838.260  394.997  114.570  219.332    4.199
  838.510  411.697  109.303  222.646    3.613
  838.760  416.778  100.296  222.469    3.129
  839.010  397.413   77.478  219.233    2.789
  839.260  348.559   65.081  216.103    3.101
  839.510  332.214   66.344  211.497    4.065
  839.760  341.058   67.908  208.788    5.928
  840.010  319.203   65.483  214.951    7.648
  840.260  301.785   68.493  220.582   10.471
  840.510  283.961   68.359  227.159   11.926
  840.760  284.747   67.481  225.613   11.688
  841.010  270.013   73.283  226.073   11.000
  841.260  317.879   74.098  231.177    9.944
  841.510  311.944   61.998  226.568    8.931
  841.760  313.462   52.593  220.592    8.445
  842.010  317.805   39.099  217.888    7.757
  842.260  323.359   32.534  214.861    7.192
  842.510  329.246   31.754  211.308    6.403
  842.760  325.388   33.816  212.190    5.980
  843.010  324.027   33.036  217.714    5.660
  843.260  322.658   29.314  218.704    5.522
  843.510  321.293   26.091  218.106    5.528
  843.760  320.130   26.856  220.573    5.595
  844.010  317.082   26.823  219.658    5.725
  844.260  317.394   31.878  217.796    5.771
  844.510  318.310   37.179  218.470    5.796
  844.760  316.140   42.232  221.777    5.905
  845.010  314.908   40.507  223.291    6.094
  845.260  316.764   44.363  219.949    6.285
  845.510  317.678   49.265  215.135    6.514
  845.760  318.396   52.624  217.173    6.785
  846.010  317.904   55.734  217.849    6.975
  846.260  319.828   60.885  219.257    6.961
  846.510  322.422   65.142  219.715    7.089
  846.760  313.061   61.618  219.012    7.585
  847.010  304.846   63.382  217.573    8.611
  847.260  293.741   62.552  215.712    9.577
  847.510  289.689   65.063  215.329    9.847
  847.760  306.321   70.713  216.628    9.364
  848.010  326.649   78.061  219.412    8.248
  848.260  340.462   90.045  224.511    7.560
  848.510  333.051   96.044  232.463    7.381
  848.760  321.742   88.635  229.968    7.693
  849.010  308.217   81.870  223.147    8.924
  849.260  300.606   73.563  220.972    9.910
  849.510  299.036   68.893  219.104   10.773
  849.760  307.676   64.272  217.246   11.126
  850.010  313.835   68.130  215.595   10.703
  850.260  319.185   70.241  214.362   10.077
  850.510  316.878   72.803  214.714    9.817
  850.760  311.950   67.483  217.180    9.925
  851.010  307.226   68.299  220.381   10.400
  851.260  304.853   73.103  216.619   10.978
  851.510  303.955   73.422  217.188   11.228
  851.760  304.398   69.801  214.899   11.338
  852.010  306.325   67.073  203.117   11.118
  852.260  308.789   76.464  209.066   10.615
  852.510  311.648   79.674  219.232   10.253
  852.760  313.040   81.834  217.267    9.830
  853.010  314.822   75.972  218.673    9.346
  853.260  315.612   74.839  221.986    8.964
  853.510  317.001   74.956  221.175    8.909
  853.760  312.338   76.520  221.529   10.119
  854.010  302.176   78.132  223.154   12.635
  854.260  284.556   69.225  227.092   16.111
  854.510  243.695   74.129  230.927   19.076
  854.760  232.052   78.683  230.649   20.796
  855.010  257.418   81.047  227.415   20.803
  855.260  272.908   87.843  225.659   17.992
  855.510  287.526   94.145  232.455   14.916
  855.760  299.931   99.844  232.485   12.820
  856.010  310.919  105.995  226.506   10.397
  856.260  322.988  111.696  222.850    8.771
  856.510  344.526  102.340  226.689    7.592
  856.760  359.882   92.137  225.463    6.761
  857.010  363.017   66.727  223.281    6.197
  857.260  334.514   50.741  216.877    5.855
  857.510  328.445   42.980  208.157    5.821
  857.760  318.013   33.923  211.152    5.867
  858.010  290.317   25.814  216.573    5.587
  858.260  290.966   24.833  219.983    5.103
  858.510  301.413   26.994  222.454    4.762
  858.760  308.849   31.548  223.336    4.341
  859.010  315.141   32.514  223.470    4.142
  859.260  314.782   39.065  223.722    4.006
  859.510  311.669   42.321  221.962    3.990
  859.760  308.890   48.671  217.887    4.139
  860.010  323.645   60.505  214.658    4.390
  860.260  369.629   68.700  214.157    4.824
  860.510  385.189   79.138  218.316    5.341
  860.760  408.336   90.972  221.514    5.693
  861.010  410.059  103.255  223.673    6.128
  861.260  398.885  110.254  224.122    6.155
  861.510  390.804  115.904  223.845    5.630
  861.760  416.102  121.107  224.199    5.085
  862.010  402.040  124.765  221.488    4.724
  862.260  397.046  125.429  223.742    4.586
  862.510  374.321  123.554  224.413    4.633
  862.760  367.918  115.595  225.507    4.884
  863.010  355.133  109.528  224.172    5.175
  863.260  346.914   98.328  220.303    5.712
  863.510  345.145   97.099  220.446    6.167
  863.760  338.068  107.886  223.967    6.908
  864.010  354.637  116.030  228.541    7.423
  864.260  369.456  123.276  232.273    7.144
  864.510  376.150  124.392  227.878    6.558
  864.760  365.045  107.157  223.377    5.830
  865.010  363.877  101.642  225.845    5.733
  865.260  357.270   97.122  230.838    6.270
  865.510  341.464   93.099  230.558    6.664
  865.760  345.809   86.436  222.575    6.609
  866.010  328.322   79.623  217.761    6.349
  866.260  333.066   82.433  210.092    5.988
  866.510  333.510   90.477  204.533    5.850
  866.760  329.393   92.191  217.235    6.061
  867.010  327.017   95.002  218.434    6.536
  867.260  325.517   90.531  215.516    6.828
  867.510  325.090   94.438  215.869    6.691
  867.760  326.747   93.956  219.917    6.472
  868.010  323.566   93.624  220.808    6.234
  868.260  313.601   88.557  220.099    6.300
  868.510  305.250   79.251  219.503    6.775
  868.760  290.586   72.288  218.165    9.048
  869.010  276.121   73.003  221.790   10.788
  869.260  250.508   70.328  229.957   13.916
  869.510  231.008   66.757  231.579   22.841
  869.760  240.854   64.531  230.666   33.317
  870.010  236.264   71.877  229.120   27.078
  870.260  237.587   73.938  224.726   17.246
  870.510  236.620   83.928  221.805   10.905
  870.760  246.137   84.594  222.370    8.380
  871.010  290.375   93.984  223.463    6.896
  871.260  308.818  102.179  225.926    6.413
  871.510  304.698  109.675  227.122    7.134
  871.760  305.819  111.838  228.744    8.078
  872.010  312.915  116.491  225.300    8.043
  872.260  321.289  103.347  215.204    7.376
  872.510  344.102  108.651  203.633    6.667
  872.760  348.778  106.723  197.337    6.509
  873.010  340.558  110.679  215.736    6.577
  873.260  333.016  117.177  225.591    6.582
  873.510  312.706  116.397  212.644    6.446
  873.760  327.394  111.429  219.233    6.186
  874.010  345.975  117.979  219.795    5.845
  874.260  358.042  119.891  220.673    5.320
  874.510  362.519  119.808  219.022    4.878
  874.760  353.695  102.375  216.947    4.884
  875.010  335.338   89.132  216.881    5.074
  875.260  335.111   89.498  217.548    5.325
  875.510  352.012  102.377  221.387    5.575
  875.760  362.805  111.420  228.388    5.928
  876.010  364.258  117.022  222.941    6.200
  876.260  347.309  119.832  214.744    6.307
  876.510  343.122  114.715  215.835    6.048
  876.760  345.512  115.482  217.561    6.218
  877.010  350.262  120.233  224.043    6.672
