~VERSION INFORMATION
 VERS.                 2.0:   CWLS LOG ASCII STANDARD -VERSION 2.0
 WRAP.                  NO:   ONE LINE PER DEPTH STEP
~WELL INFORMATION BLOCK
#MNEM.UNIT           DATA                    DESCRIPTION OF MNEMONIC
#---------    -------------------            -------------------------------
# Generated from Intellog Unique Number	CW_70_72/WELL/1072
NULL.         -999.25                        : NULL_VALUE
WELL.         CABRE ET AL MITSUE 16-07       : Well_name    - WELL              
LOC .         16-07-072-03W5                 : Location     - LOCATION          
UWI .         00/16-07-072-03W5/0            : Uwi          - UNIQUE WELL ID    
ENTR.         JAYE                           : Entered      - ENTERED BY        
SRVC.         COMPUTALOG                     : Scn          - SERVICE COMPANY   
DATE.         21 DEC 84                      : Date         - LOG DATE          
STRT.M        500                            : top_depth    - START DEPTH       
STOP.M        710                            : bot_depth    - STOP DEPTH        
STEP.M        0.25                           : increment    - STEP LENGTH       
~CURVE INFORMATION BLOCK
#MNEM UNIT       ERCB CURVE CODE    CURVE DESCRIPTION
#-----------   ------------------   ----------------------------------
DEPT.M        00 001 00 00         : DEPTH        - DEPTH                       
DPHI.V/V      00 890 00 00         : PHID         - DENSITY POROSITY (SANDSTONE)
NPHI.V/V      00 330 00 00         : PHIN         - NEUTRON POROSITY (SANDSTONE)
GR  .API      00 310 00 00         : GR           - GAMMA RAY                   
CALI.MM       00 280 01 00         : CAL          - CALIPER                     
ILD .OHMM     00 120 00 00         : RESD         - DEEP RESISTIVITY (DIL)      
~PARAMETER INFORMATION       
#MNEM.UNIT           DATA             DESCRIPTION OF MNEMONIC
#---------         -----------     ------------------------------
GL  .M        694.7                : gl           - GROUND LEVEL ELEVATION      
EREF.M        699.4                : kb           - ELEVATION OF DEPTH REFERENCE
DATM.M        694.7                : datum        - DATUM ELEVATION             
TDD .M        724                  : tdd          - TOTAL DEPTH DRILLER         
RUN .         ONE                  : Run          - RUN NUMBER                  
BASE.         EDM                  : Branch       - HOME BASE OF LOGGING UNIT   
MUD .         GEL CHEN             : Mud_type     - MUD TYPE                    
MATR.         SANDSTONE            : Logunit      - NEUTRON MATRIX              
TMAX.C        32                   : BHT          - MAXIMUM RECORDED TEMPERATURE
BHTD.M        720.7                : BHTDEP       - MAXIMUM RECORDED TEMPERATURE
RMT .C        20                   : MDTP         - TEMPERATURE OF MUD          
MUDD.KG/M     1100                 : MWT          - MUD DENSITY                 
NEUT.         1                    : NEUTRON      - NEUTRON TYPE                
RESI.         0                    : RESIST       - RESISTIVITY TYPE            
RM  .OHMM     5                    : RM           - RESISTIVITY OF MUD          
RMC .OHMM     3.4                  : RMC          - RESISTIVITY OF MUD CAKE     
RMF .OHMM     6.7                  : RMF          - RESISTIVITY OF MUD FILTRATE 
SUFT.C        0                    : SUFT         - SURFACE TEMPERATURE         
~A  DEPTH     PHID     PHIN       GR      CAL     RESD
# ...
  682.500    0.161    0.307   81.282  151.279    9.194
  682.750    0.158    0.313   86.322  152.663    8.728
  683.000    0.153    0.313   92.114  154.887    7.976
  683.250    0.145    0.317   97.530  156.379    7.316
  683.500    0.135    0.334  101.628  157.452    7.026
  683.750    0.128    0.385   97.559  157.578    6.944
  684.000    0.135    0.371   94.244  157.920    6.913
  684.250    0.134    0.361   95.768  158.148    6.910
  684.500    0.134    0.355   98.106  158.276    6.934
  684.750    0.134    0.349  100.443  158.298    7.038
  685.000    0.127    0.337  102.216  158.636    7.225
  685.250    0.133    0.339  101.478  158.976    7.706
  685.500    0.132    0.349   99.229  159.417    8.249
  685.750    0.120    0.350  100.563  159.756    7.967
  686.000    0.102    0.323  105.036  160.302    7.549
  686.250    0.112    0.306  109.135  160.744    7.139
  686.500    0.124    0.316  110.218  161.082    6.714
  686.750    0.128    0.311  111.613  161.322    6.111
  687.000    0.127    0.306  113.386  161.554    4.668
  687.250    0.124    0.301  118.488  161.996    3.797
  687.500    0.128    0.318  121.143  162.334    2.708
  687.750    0.168    0.358  117.887  162.777    2.056
  688.000    0.200    0.414  111.370  163.109    1.685
  688.250    0.228    0.483  106.044  163.552    1.457
  688.500    0.253    0.506  106.374  163.997    1.402
  688.750    0.251    0.520  107.958  164.235    1.415
  689.000    0.249    0.523  110.861  164.357    1.495
  689.250    0.234    0.513  112.948  164.486    1.601
  689.500    0.221    0.463  113.466  164.301    1.750
  689.750    0.204    0.447  113.480  163.908    1.931
  690.000    0.201    0.427  112.867  163.510    2.157
  690.250    0.204    0.433  112.252  163.221    2.468
  690.500    0.189    0.448  108.497  163.141    2.798
  690.750    0.113    0.418  103.486  162.748    3.239
  691.000    0.093    0.365  102.622  162.246    4.033
  691.250    0.077    0.362  103.390  161.324    4.822
  691.500    0.086    0.368  103.718  157.998    6.284
  691.750    0.094    0.353  104.550  154.045    6.379
  692.000    0.098    0.326  105.693  153.335    6.160
  692.250    0.097    0.317  107.467  154.720    5.927
  692.500    0.098    0.326  109.554  156.629    5.946
  692.750    0.091    0.322  111.892  157.281    6.048
  693.000    0.081    0.315  100.537  157.199    6.102
  693.250    0.070    0.301  104.071  158.166    6.471
  693.500    0.065    0.294  106.470  161.748    6.668
  693.750    0.062    0.295  105.731  163.348    6.082
  694.000    0.058    0.307  108.258  163.472    5.249
  694.250    0.068    0.332  111.979  163.075    4.591
  694.500    0.084    0.350  116.452  162.263    4.342
  694.750    0.118    0.367  119.983  161.763    4.578
  695.000    0.119    0.375  114.911  161.371    4.958
  695.250    0.097    0.354  109.522  161.503    5.287
  695.500    0.077    0.309   96.220  161.626    5.398
  695.750    0.055    0.275   92.718  161.648    5.213
  696.000    0.065    0.300  103.661  161.673    4.959
  696.250    0.098    0.346  116.426  161.384    4.843
  696.500    0.135    0.404  121.905  160.886    5.040
  696.750    0.120    0.385  113.503  160.488    5.702
  697.000    0.113    0.339  106.167  159.883    6.490
  697.250    0.108    0.311  100.906  159.487    7.358
  697.500    0.093    0.292  100.984  160.142    7.160
  697.750    0.068    0.302  105.771  160.585    6.929
  698.000    0.072    0.321  112.569  161.450    6.913
  698.250    0.090    0.334  117.234  161.576    7.218
  698.500    0.108    0.323  117.623  161.597    8.390
  698.750    0.139    0.269   94.584  161.099   10.187
  699.000    0.211    0.233   75.755  160.075   12.803
  699.250    0.319    0.195   59.500  157.481   15.338
  699.500    0.341    0.158   49.778  154.156   20.412
  699.750    0.315    0.191   53.186  152.403   21.731
  700.000    0.288    0.208   58.601  152.002   20.748
  700.250    0.272    0.218   64.205  151.506   19.849
  700.500    0.263    0.226   62.212  151.108   18.808
  700.750    0.252    0.233   64.550  150.716   17.754
  701.000    0.240    0.240   69.840  150.738   16.571
  701.250    0.234    0.244   72.304  150.973   16.061
  701.500    0.240    0.246   70.873  151.204   15.336
  701.750    0.242    0.255   68.688  151.751   14.044
  702.000    0.241    0.254   64.180  153.243   12.710
  702.250    0.242    0.256   58.416  155.152   11.330
  702.500    0.245    0.271   64.083  156.955   10.392
  702.750    0.234    0.275   72.640  158.128    9.588
  703.000    0.101    0.268   82.013  158.991    8.780
  703.250    0.024    0.252   88.120  160.164    8.161
  703.500    0.010    0.222   95.359  161.657    7.516
  703.750    0.023    0.228  107.809  162.306    7.040
  704.000    0.040    0.245  126.793  162.434    6.672
  704.250    0.059    0.263  134.471  162.042    6.273
  704.500    0.068    0.268  130.779  162.173    5.831
  704.750    0.062    0.262  124.198  162.401    5.401
  705.000    0.058    0.256  128.170  162.741    5.069
  705.250    0.069    0.254  142.757  162.868    5.057
  705.500    0.083    0.283  131.152  162.684    5.435
  705.750    0.071    0.311  120.487  162.708    6.115
  706.000    0.057    0.223   82.561  162.310    6.959
  706.250    0.047    0.191   56.446  161.707    8.133
  706.500    0.032    0.176   49.990  161.207    9.634
  706.750    0.023    0.179   52.705  160.185   11.262
  707.000    0.020    0.178   56.991  158.219   12.103
  707.250    0.023    0.169   54.933  155.731   12.667
  707.500    0.027    0.147   48.666  155.649   13.127
  707.750    0.028    0.147   47.109  155.465   13.602
  708.000    0.034    0.154   46.432  154.860   14.399
  708.250    0.040    0.161   44.186  154.569   15.562
  708.500    0.043    0.149   41.186  154.907   17.342
  708.750    0.040    0.131   39.442  154.303   20.309
  709.000    0.031    0.110   37.886  153.385   23.829
  709.250    0.018    0.094   31.931  153.407   28.011
  709.500    0.012    0.082   26.355  153.746   31.040
  709.750    0.013    0.077   25.239  154.400   32.475
  710.000    0.015    0.085   26.071  155.265   32.531
