~VERSION INFORMATION
VERS.                2.00:   CWLS LOG ASCII STANDARD -VERSION 2.0
WRAP.                  NO:
~WELL INFORMATION BLOCK
#MNEM.UNIT           DATA                    DESCRIPTION OF MNEMONIC
#---------    -------------------            -------------------------------
# Generated from Intellog Unique Number	CC_80_83/WELL/2471
LOC .         00/10-22-083-08W4/0            : Location     - LOCATION
UWI .         00/10-22-083-08W4/0            : Uwi          - UNIQUE WELL ID
ENTR.         DW                             : Entered      - ENTERED BY
STRT.M             259.08:
STOP.M             511.83:
STEP.M               0.25:
NULL.             -999.25:
COMP.  :COMPANY
WELL.  ARC0 ET AL SURMONT:WELL
FLD.   :FIELD
LOC.   :LOCATION
CTRY.  :COUNTRY
PROV.  :PROVINCE
SRVC.  SCHLUMBERGER:SERVICE COMPANY
DATE.  :LOG DATE
UWI.   :UNIQUE WELL ID
~PARAMETER INFORMATION
#MNEM.UNIT           DATA             DESCRIPTION OF MNEMONIC
#---------         -----------     ------------------------------
GL  .M        732.13               : gl           - GROUND LEVEL ELEVATION
EREF.M        735.178              : kb           - ELEVATION OF DEPTH REFERENCE
DATM.M        735.178              : datum        - DATUM ELEVATION
TDD .M        515.722              : tdd          - TOTAL DEPTH DRILLER
RUN .         ONE                  : Run          - RUN NUMBER
ENG .         BILL                 : Engineer     - RECORDING ENGINEER
WIT .         JIM                  : Witness      - WITNESSED BY
MUD .         GEL                  : Mud_type     - MUD TYPE
MATR.         SANDSTONE            : Logunit      - NEUTRON MATRIX
TMAX.C        20                   : BHT          - MAXIMUM RECORDED TEMPERATURE
BHTD.M        515.722              : BHTDEP       - MAXIMUM RECORDED TEMPERATURE
MATR.         1                    : LOGUNIT      - NEUTRON MATRIX
RMT .C        25                   : MDTP         - TEMPERATURE OF MUD
NEUT.         1                    : NEUTRON      - NEUTRON TYPE
RESI.         0                    : RESIST       - RESISTIVITY TYPE
RMC .OHMM     0.25                 : RMC          - RESISTIVITY OF MUD CAKE
RMF .OHMM     0.25                 : RMF          - RESISTIVITY OF MUD FILTRATE
SUFT.C        15                   : SUFT         - SURFACE TEMPERATURE
~Curve Information Block
#MNEM UNIT       ERCB CURVE CODE    CURVE DESCRIPTION
#MNEM.UNIT         API CODE    Curve Description
#----------    ------------    --------------------
DEPT.M                     :   DEPTH
DPHI.V/V                   :   DPHI
DT  .us/m                  :   DT
GR  .API       00 310 00 00:   GR
ILD .Ohmm      00 120 00 00:   ILD
NPHI.V/V       00 330 00 00:   NPHI
RHOB.gm/c3                 :   RHOB
~A  Depth           DPHI          DT          GR         ILD        NPHI        RHOB
# ...
306.58           -999.25     -999.25       63.16       23.26        0.35     -999.25
306.83           -999.25     -999.25       57.21       23.86        0.32     -999.25
307.08           -999.25     -999.25       48.42       21.48        0.33     -999.25
307.33           -999.25     -999.25       39.71       17.09        0.35     -999.25
307.58           -999.25     -999.25       41.88       12.55        0.32     -999.25
307.83           -999.25     -999.25       61.07        9.80        0.34     -999.25
308.08           -999.25     -999.25       67.79        8.95        0.33     -999.25
308.33           -999.25     -999.25       60.61        9.19        0.31     -999.25
308.58           -999.25     -999.25       50.07        9.84        0.30     -999.25
308.83           -999.25     -999.25       43.12       11.79        0.30     -999.25
309.08           -999.25     -999.25       40.72       14.78        0.30     -999.25
309.33           -999.25     -999.25       42.60       15.55        0.32     -999.25
309.58           -999.25     -999.25       52.51       15.47        0.32     -999.25
309.83           -999.25     -999.25       56.08       14.58        0.32     -999.25
310.08           -999.25     -999.25       55.45       12.97        0.32     -999.25
310.33           -999.25     -999.25       61.17       11.48        0.33     -999.25
310.58           -999.25     -999.25       68.30       10.47        0.33     -999.25
310.83           -999.25     -999.25       70.25        9.77        0.33     -999.25
311.08           -999.25     -999.25       71.62        9.66        0.32     -999.25
311.33           -999.25     -999.25       76.16       10.20        0.32     -999.25
311.58           -999.25     -999.25       75.49       11.13        0.32     -999.25
311.83           -999.25     -999.25       66.18       11.96        0.33     -999.25
312.08           -999.25     -999.25       64.39       12.17        0.36     -999.25
312.33           -999.25     -999.25       69.28       11.88        0.32     -999.25
312.58           -999.25     -999.25       72.92       11.33        0.29     -999.25
312.83           -999.25     -999.25       81.91       10.95        0.29     -999.25
313.08           -999.25     -999.25       93.99       11.47        0.29     -999.25
313.33           -999.25     -999.25       92.77       13.07        0.32     -999.25
313.58           -999.25     -999.25       85.99       14.78        0.33     -999.25
313.83           -999.25     -999.25       82.23       16.94        0.33     -999.25
314.08           -999.25     -999.25       80.93       18.29        0.31     -999.25
314.33           -999.25     -999.25       84.05       18.49        0.30     -999.25
314.58           -999.25     -999.25       91.31       18.46        0.31     -999.25
314.83           -999.25     -999.25       89.19       18.45        0.33     -999.25
315.08           -999.25     -999.25       70.83       18.64        0.34     -999.25
315.33           -999.25     -999.25       59.56       17.57        0.35     -999.25
315.58           -999.25     -999.25       62.12       16.53        0.36     -999.25
315.83           -999.25     -999.25       73.96       15.90        0.36     -999.25
316.08           -999.25     -999.25       86.49       14.14        0.36     -999.25
316.33           -999.25     -999.25       78.36       12.85        0.35     -999.25
316.58           -999.25     -999.25       72.03       11.84        0.33     -999.25
316.83           -999.25     -999.25       74.11       11.17        0.31     -999.25
317.08           -999.25     -999.25       77.48       11.09        0.30     -999.25
317.33           -999.25     -999.25       78.55       11.27        0.32     -999.25
317.58           -999.25     -999.25       79.55       11.25        0.32     -999.25
317.83           -999.25     -999.25       81.93       11.67        0.33     -999.25
318.08           -999.25     -999.25       84.59       12.61        0.33     -999.25
318.33           -999.25     -999.25       86.85       13.46        0.32     -999.25
318.58           -999.25     -999.25       85.48       14.51        0.31     -999.25
318.83           -999.25     -999.25       78.26       16.21        0.29     -999.25
319.08           -999.25     -999.25       70.96       17.51        0.30     -999.25
319.33           -999.25     -999.25       64.42       19.25        0.33     -999.25
319.58           -999.25     -999.25       45.12       20.64        0.34     -999.25
319.83           -999.25     -999.25       24.86       21.32        0.33     -999.25
320.08           -999.25     -999.25       21.36       21.50        0.32     -999.25
320.33           -999.25     -999.25       26.26       21.14        0.32     -999.25
320.58           -999.25     -999.25       31.13       20.86        0.31     -999.25
320.83           -999.25     -999.25       30.42       20.10        0.33     -999.25
321.08           -999.25     -999.25       26.81       19.06        0.34     -999.25
321.33           -999.25     -999.25       26.67       18.33        0.33     -999.25
321.58           -999.25     -999.25       30.57       18.14        0.32     -999.25
321.83           -999.25     -999.25       32.56       18.43        0.32     -999.25
322.08           -999.25     -999.25       34.91       18.60        0.34     -999.25
322.33           -999.25     -999.25       37.30       17.96        0.35     -999.25
322.58           -999.25     -999.25       37.53       16.46        0.37     -999.25
322.83           -999.25     -999.25       37.45       14.68        0.39     -999.25
323.08           -999.25     -999.25       42.41       12.95        0.36     -999.25
323.33           -999.25     -999.25       52.76       11.22        0.31     -999.25
323.58           -999.25     -999.25       64.12       10.00        0.31     -999.25
323.83           -999.25     -999.25       80.76        8.25        0.32     -999.25
324.08           -999.25     -999.25       92.19        6.49        0.33     -999.25
324.33           -999.25     -999.25       90.97        5.99        0.33     -999.25
324.58           -999.25     -999.25       96.28        5.79        0.34     -999.25
324.83           -999.25     -999.25       99.42        5.95        0.35     -999.25
325.08           -999.25     -999.25       98.99        6.06        0.34     -999.25
325.33           -999.25     -999.25       96.11        6.57        0.33     -999.25
325.58           -999.25     -999.25       90.91        7.39        0.33     -999.25
325.83           -999.25     -999.25       85.39        7.70        0.31     -999.25
326.08           -999.25     -999.25       82.87        8.37        0.29     -999.25
326.33           -999.25     -999.25       84.24        9.73        0.29     -999.25
326.58           -999.25     -999.25       86.23       10.50        0.31     -999.25
326.83           -999.25     -999.25       85.14       10.38        0.31     -999.25
327.08           -999.25     -999.25       82.03        9.99        0.29     -999.25
327.33           -999.25     -999.25       81.57        9.22        0.30     -999.25
327.58           -999.25     -999.25       83.11        8.61        0.31     -999.25
327.83           -999.25     -999.25       87.04        8.26        0.31     -999.25
328.08           -999.25     -999.25       91.60        8.11        0.29     -999.25
328.33           -999.25     -999.25       94.48        8.21        0.29     -999.25
328.58           -999.25     -999.25       96.50        8.48        0.31     -999.25
328.83           -999.25     -999.25       98.75        8.71        0.33     -999.25
329.08           -999.25     -999.25       92.67        9.42        0.34     -999.25
329.33           -999.25     -999.25       85.71       10.52        0.36     -999.25
329.58           -999.25     -999.25       81.16       11.20        0.37     -999.25
329.83           -999.25     -999.25       77.85       11.30        0.36     -999.25
330.08           -999.25     -999.25       78.62       11.49        0.36     -999.25
