~VERSION INFORMATION
 VERS.                 2.0:   CWLS LOG ASCII STANDARD -VERSION 2.0
 WRAP.                  NO:   ONE LINE PER DEPTH STEP
~WELL INFORMATION BLOCK
#MNEM.UNIT           DATA                    DESCRIPTION OF MNEMONIC
#---------    -------------------            -------------------------------
# Generated from Intellog Unique Number	CS_77_79/WELL/980
WELL.         MESA H. B. THORNBURY           : Well_name    - WELL
LOC .         00/10-33-078-11W4/0            : Location     - LOCATION
UWI .         00/10-33-078-11W4/0            : Uwi          - UNIQUE WELL ID
ENTR.         JHS                            : Entered      - ENTERED BY
SRVC.         SCHLUMBERGER                   : Scn          - SERVICE COMPANY
STRT.M        275                            : top_depth    - START DEPTH
STOP.M        501                            : bot_depth    - STOP DEPTH
STEP.M        0.25                           : increment    - STEP LENGTH
 NULL. -999.2500:NULL Value
~CURVE INFORMATION BLOCK
#MNEM UNIT       ERCB CURVE CODE    CURVE DESCRIPTION
#-----------   ------------------   ----------------------------------
DEPT.M        00 001 00 00         : DEPTH        - DEPTH
DPHI.V/V      00 890 00 00         : PHID         - DENSITY POROSITY (LIMESTONE)
NPHI.V/V      00 330 00 00         : PHIN         - NEUTRON POROSITY (LIMESTONE)
GR  .API      00 310 00 00         : GR           - GAMMA RAY
ILD .OHMM     00 120 00 00         : RESD         - DEEP RESISTIVITY (DIL)
RHOB.KG/M3    00 350 00 00         : DENS         - BULK DENSITY
~PARAMETER INFORMATION
#MNEM.UNIT           DATA             DESCRIPTION OF MNEMONIC
#---------         -----------     ------------------------------
GL  .M        695.6                : gl           - GROUND LEVEL ELEVATION
EREF.M        699.7                : kb           - ELEVATION OF DEPTH REFERENCE
DATM.M        699.7                : datum        - DATUM ELEVATION
TDD .M        502                  : tdd          - TOTAL DEPTH DRILLER
RUN .         ONE                  : Run          - RUN NUMBER
ENG .         BILL                 : Engineer     - RECORDING ENGINEER
WIT .         JIM                  : Witness      - WITNESSED BY
MUD .         GEL                  : Mud_type     - MUD TYPE
MATR.         LIMESTONE            : Logunit      - NEUTRON MATRIX
TMAX.C        22                   : BHT          - MAXIMUM RECORDED TEMPERATURE
BHTD.M        502                  : BHTDEP       - MAXIMUM RECORDED TEMPERATURE
MATR.         1                    : LOGUNIT      - NEUTRON MATRIX
RMT .C        25                   : MDTP         - TEMPERATURE OF MUD
NEUT.         1                    : NEUTRON      - NEUTRON TYPE
RESI.         0                    : RESIST       - RESISTIVITY TYPE
RMC .OHMM     0.25                 : RMC          - RESISTIVITY OF MUD CAKE
RMF .OHMM     0.25                 : RMF          - RESISTIVITY OF MUD FILTRATE
SUFT.C        15                   : SUFT         - SURFACE TEMPERATURE
~A  DEPTH     PHID     PHIN       GR     RESD     DENS
# ...
  421.000    0.361    0.483   69.288    6.882    0.000
  421.250    0.360    0.497   71.730    6.389    0.000
  421.500    0.354    0.486   72.950    6.155    0.000
  421.750    0.361    0.489   72.332    6.044    0.000
  422.000    0.360    0.492   70.489    6.045    0.000
  422.250    0.353    0.477   68.646    6.161    0.000
  422.500    0.346    0.480   72.312    6.278    0.000
  422.750    0.332    0.493   75.368    6.399    0.000
  423.000    0.324    0.489   79.645    6.400    0.000
  423.250    0.349    0.492   80.253    6.283    0.000
  423.500    0.354    0.482   79.636    6.055    0.000
  423.750    0.343    0.478   75.955    5.944    0.000
  424.000    0.329    0.460   72.276    5.946    0.000
  424.250    0.321    0.465   69.209    5.948    0.000
  424.500    0.325    0.480   71.652    5.949    0.000
  424.750    0.338    0.495   76.543    6.063    0.000
  425.000    0.341    0.483   79.599    6.065    0.000
  425.250    0.347    0.470   80.817    6.066    0.000
  425.500    0.349    0.470   79.585    6.068    0.000
  425.750    0.339    0.466   75.294    6.069    0.000
  426.000    0.311    0.470   73.453    6.071    0.000
  426.250    0.294    0.469   74.057    6.073    0.000
  426.500    0.308    0.460   75.888    6.074    0.000
  426.750    0.319    0.479   76.493    5.964    0.000
  427.000    0.312    0.480   75.877    5.855    0.000
  427.250    0.306    0.472   75.870    5.857    0.000
  427.500    0.302    0.459   77.088    5.857    0.000
  427.750    0.286    0.452   80.755    5.751    0.000
  428.000    0.268    0.454   84.423    5.753    0.000
  428.250    0.251    0.460   89.315    5.754    0.000
  428.500    0.267    0.475   89.920    5.544    0.000
  428.750    0.328    0.516   86.854    5.343    0.000
  429.000    0.320    0.490   78.277    5.344    0.000
  429.250    0.319    0.487   70.312    5.549    0.000
  429.500    0.312    0.490   67.244    5.550    0.000
  429.750    0.299    0.493   72.134    5.763    0.000
  430.000    0.284    0.486   75.191    5.985 2224.470
  430.250    0.282    0.477   76.409    5.986 2228.620
  430.500    0.288    0.468   75.176    6.100 2218.190
  430.750    0.278    0.464   73.948    6.216 2234.820
  431.000    0.274    0.454   73.330    6.218 2241.050
  431.250    0.280    0.448   78.221    6.457 2230.630
  431.500    0.301    0.454   83.112    6.339 2195.230
  431.750    0.277    0.457   84.944    6.109 2236.830
  432.000    0.249    0.463   82.489    5.996 2284.680
  432.250    0.244    0.467   80.033    6.227 2292.980
  432.500    0.238    0.454   82.477    6.587 2303.370
  432.750    0.244    0.454   86.756    7.234 2292.950
  433.000    0.260    0.470   88.585    7.372 2265.880
  433.250    0.257    0.487   89.192    7.654 2270.030
  433.500    0.252    0.474   89.797    7.375 2278.330
  433.750    0.237    0.478   87.954    6.847 2305.370
  434.000    0.222    0.481   86.724    6.238 2330.320
  434.250    0.235    0.478   88.555    6.011 2307.410
  434.500    0.238    0.467   89.775    5.793 2303.230
  434.750    0.240    0.470   89.767    5.794 2299.050
  435.000    0.229    0.483   93.435    5.795 2317.760
  435.250    0.233    0.474   94.653    5.906 2311.500
  435.500    0.256    0.474   91.587    6.019 2271.940
  435.750    0.244    0.476   93.417    6.021 2292.740
  436.000    0.231    0.469   98.309    5.801 2315.610
  436.250    0.217    0.462   97.689    6.138 2338.490
  436.500    0.206    0.453   92.173    6.254 2357.200
  436.750    0.248    0.447   92.169    6.494 2286.430
  437.000    0.229    0.435   96.448    6.744 2317.620
  437.250    0.216    0.429   95.829    6.620 2340.500
  437.500    0.226    0.427   91.537    6.380 2323.830
  437.750    0.244    0.438   92.143    6.148 2292.600
  438.000    0.237    0.456   92.750    6.035 2305.060
  438.250    0.217    0.478   91.519    5.815 2338.350
  438.500    0.233    0.485   87.228    5.201 2311.270
  438.750    0.221    0.457   84.159    4.919 2332.060
  439.000    0.225    0.472   84.154    4.481 2325.810
  439.250    0.262    0.464   84.148    4.007 2261.280
  439.500    0.286    0.485   85.978    3.388 2221.720
  439.750    0.290    0.524   88.421    2.974 2213.380
  440.000    0.290    0.569   83.518    2.610 2213.360
  440.250    0.295    0.535   85.959    2.469 2205.010
  440.500    0.300    0.545   85.953    2.249 2196.670
  440.750    0.298    0.559   85.335    2.088 2200.810
  441.000    0.280    0.563   85.943    2.050 2232.020
  441.250    0.266    0.559   89.609    2.050 2254.890
  441.500    0.263    0.540   92.051    2.169 2261.110
  441.750    0.256    0.534   93.883    2.338 2271.500
  442.000    0.239    0.516   92.652    2.767 2300.620
  442.250    0.219    0.486   89.585    2.982 2335.980
  442.500    0.204    0.482   92.639    3.463 2360.930
  442.750    0.205    0.477   94.471    3.875 2358.830
  443.000    0.216    0.463   93.241    4.335 2340.090
  443.250    0.185    0.445   85.887    4.942 2394.180
  443.500    0.159    0.434   90.164    5.427 2437.860
  443.750    0.163    0.424   91.996    6.303 2431.600
  444.000    0.238    0.444   90.767    6.304 2302.560
  444.250    0.229    0.482   90.759    5.638 2319.190
  444.500    0.207    0.473   93.201    5.042 2356.630
  444.750    0.210    0.472   94.422    4.425 2350.370
  445.000    0.224    0.488   95.027    4.108 2327.460
  445.250    0.212    0.501   93.185    3.885 2348.250
  445.500    0.215    0.477   89.506    4.110 2341.990
  445.750    0.219    0.457   83.990    4.514 2335.730
  446.000    0.210    0.429   82.759    4.775 2350.280
  446.250    0.210    0.408   87.037    5.342 2350.260
  446.500    0.224    0.416   90.093    5.758 2327.350
  446.750    0.226    0.443   93.148    5.759 2323.170
  447.000    0.234    0.476   93.755    4.962 2310.670
  447.250    0.246    0.499   95.584    4.355 2289.840
  447.500    0.247    0.513   99.865    3.894 2287.740
  447.750    0.243    0.522   96.185    3.683 2293.970
  448.000    0.254    0.498   97.402    3.484 2275.220
  448.250    0.208    0.479   99.846    3.685 2354.280
  448.500    0.207    0.466   97.391    3.827 2356.350
  448.750    0.209    0.459   93.712    3.973 2352.160
  449.000    0.204    0.475   94.930    4.125 2360.470
  449.250    0.201    0.492   96.147    4.126 2366.700
  449.500    0.209    0.507   96.143    4.205 2352.110
  449.750    0.201    0.522   94.910    4.366 2366.660
  450.000    0.192    0.431   91.430    5.433 2382.330
  450.250    0.209    0.454   93.841    5.222 2353.050
  450.500    0.216    0.473   96.865    5.312 2340.440
  450.750    0.208    0.483   96.838    5.612 2354.930
  451.000    0.210    0.447   92.543    6.156 2350.660
  451.250    0.191    0.441   88.864    6.754 2383.910
  451.500    0.192    0.446   95.542    7.690 2381.710
  451.750    0.196    0.402   90.024    8.758 2375.360
  452.000    0.207    0.382   83.296    9.975 2356.510
  452.250    0.256    0.393   74.737   11.577 2273.030
  452.500    0.278    0.409   82.022   13.945 2235.400
  452.750    0.279    0.410   85.653   15.016 2233.220
  453.000    0.279    0.417   81.355   15.565 2233.110
  453.250    0.272    0.406   79.506   15.835 2245.520
  453.500    0.261    0.397   78.865   17.370 2264.200
  453.750    0.263    0.407   81.279   20.155 2259.920
  454.000    0.286    0.421   78.815   21.295 2220.220
  454.250    0.280    0.424   74.523   20.860 2230.540
  454.500    0.248    0.410   69.617   20.442 2286.720
  454.750    0.272    0.408   76.906   19.645 2244.920
  455.000    0.262    0.398   78.709   18.539 2261.490
  455.250    0.238    0.406   77.456   17.829 2303.100
  455.500    0.217    0.410   78.037   16.202 2338.430
  455.750    0.188    0.390   78.631   14.183 2388.380
  456.000    0.227    0.394   84.089   12.181 2321.560
  456.250    0.221    0.413   95.037   10.462 2331.890
  456.500    0.209    0.433  105.371    9.158 2352.630
  456.750    0.203    0.450  111.443    8.015 2362.960
  457.000    0.223    0.461  112.626    7.562 2329.500
  457.250    0.213    0.469  110.166    7.693 2346.080
