~VERSION INFORMATION
 VERS.                 2.0:   CWLS LOG ASCII STANDARD -VERSION 2.0
 WRAP.                  NO:   ONE LINE PER DEPTH STEP
~WELL INFORMATION BLOCK
#MNEM.UNIT           DATA                    DESCRIPTION OF MNEMONIC
#---------    -------------------            -------------------------------
# Generated from Intellog Unique Number	CS_69_70/WELL/889
WELL.         BOW VALLEY INDUSTRIES          : Well_name    - WELL
LOC .         00/11-21-069-13W4/0            : Location     - LOCATION
UWI .         00/11-21-069-13W4/0            : Uwi          - UNIQUE WELL ID
ENTR.         SP                             : Entered      - ENTERED BY
SRVC.         SCHLUMBERGER                   : Scn          - SERVICE COMPANY
STRT.M        270                            : top_depth    - START DEPTH
STOP.M        472                            : bot_depth    - STOP DEPTH
STEP.M        0.25                           : increment    - STEP LENGTH
 NULL. -999.2500:NULL Value
~CURVE INFORMATION BLOCK
#MNEM UNIT       ERCB CURVE CODE    CURVE DESCRIPTION
#-----------   ------------------   ----------------------------------
DEPT.M        00 001 00 00         : DEPTH        - DEPTH
ILD .OHMM     00 120 00 00         : RESD         - DEEP RESISTIVITY (DIL)
DPHI.V/V      00 890 00 00         : PHID         - DENSITY POROSITY (LIMESTONE)
NPHI.V/V      00 330 00 00         : PHIN         - NEUTRON POROSITY (LIMESTONE)
GR  .API      00 310 00 00         : GR           - GAMMA RAY
~PARAMETER INFORMATION
#MNEM.UNIT           DATA             DESCRIPTION OF MNEMONIC
#---------         -----------     ------------------------------
GL  .M        568.76               : gl           - GROUND LEVEL ELEVATION
EREF.M        571.5                : kb           - ELEVATION OF DEPTH REFERENCE
DATM.M        568.76               : datum        - DATUM ELEVATION
TDD .M        480                  : tdd          - TOTAL DEPTH DRILLER
RUN .         ONE                  : Run          - RUN NUMBER
ENG .         BILL                 : Engineer     - RECORDING ENGINEER
WIT .         JIM                  : Witness      - WITNESSED BY
MUD .         GEL                  : Mud_type     - MUD TYPE
MATR.         LIMESTONE            : Logunit      - NEUTRON MATRIX
TMAX.C        24.2                 : BHT          - MAXIMUM RECORDED TEMPERATURE
BHTD.M        480                  : BHTDEP       - MAXIMUM RECORDED TEMPERATURE
MATR.         1                    : LOGUNIT      - NEUTRON MATRIX
RMT .C        25                   : MDTP         - TEMPERATURE OF MUD
NEUT.         1                    : NEUTRON      - NEUTRON TYPE
RESI.         0                    : RESIST       - RESISTIVITY TYPE
RMC .OHMM     0.25                 : RMC          - RESISTIVITY OF MUD CAKE
RMF .OHMM     0.25                 : RMF          - RESISTIVITY OF MUD FILTRATE
SUFT.C        15                   : SUFT         - SURFACE TEMPERATURE
~A  DEPTH     RESD     PHID     PHIN       GR
  270.000    2.495    0.281    0.489   99.436
  270.250    2.571    0.317    0.499   98.289
  270.500    2.630    0.349    0.519  101.196
  270.750    2.684    0.364    0.545  103.859
  271.000    2.741    0.304    0.515  106.221
  271.250    2.772    0.278    0.510  104.651
  271.500    2.793    0.237    0.523  102.719
  271.750    2.815    0.240    0.536  101.813
  272.000    2.836    0.255    0.545  101.090
  272.250    2.863    0.264    0.512   99.037
  272.500    2.875    0.292    0.506   97.345
  272.750    2.864    0.313    0.518   96.138
  273.000    2.797    0.303    0.523   97.532
  273.250    2.751    0.337    0.528   98.865
  273.500    2.731    0.312    0.523   99.231
  273.750    2.737    0.325    0.532   96.694
  274.000    2.753    0.306    0.544   93.974
  274.250    2.769    0.291    0.553   87.747
  274.500    2.821    0.307    0.560   84.362
  274.750    2.995    0.321    0.512   77.409
  275.000    3.144    0.283    0.481   71.485
  275.250    3.318    0.233    0.420   65.499
  275.500    3.307    0.206    0.413   61.752
  275.750    3.169    0.182    0.391   58.609
  276.000    3.048    0.218    0.382   58.370
  276.250    2.868    0.246    0.381   63.393
  276.500    2.805    0.264    0.383   68.294
  276.750    2.754    0.261    0.391   74.043
  277.000    2.729    0.259    0.401   79.005
  277.250    2.750    0.262    0.408   82.395
  277.500    2.828    0.252    0.393   85.724
  277.750    2.925    0.257    0.397   86.271
  278.000    3.082    0.268    0.389   96.496
  278.250    3.333    0.241    0.382  104.845
  278.500    3.652    0.229    0.387  110.352
  278.750    3.883    0.235    0.403  114.891
  279.000    4.061    0.209    0.415  118.038
  279.250    4.123    0.214    0.429  118.585
  279.500    3.951    0.242    0.446  116.048
  279.750    3.717    0.261    0.454  110.183
  280.000    3.445    0.273    0.468  101.053
  280.250    3.193    0.297    0.479   92.648
  280.500    2.894    0.290    0.443   82.732
  280.750    2.728    0.280    0.427   74.206
  281.000    2.500    0.303    0.402   64.652
  281.250    2.348    0.330    0.383   59.816
  281.500    2.258    0.318    0.374   59.758
  281.750    2.297    0.301    0.378   62.846
  282.000    2.438    0.293    0.398   65.932
  282.250    2.521    0.277    0.409   70.593
  282.500    2.682    0.265    0.415   74.103
  282.750    2.789    0.258    0.418   78.219
  283.000    2.938    0.239    0.414   82.758
  283.250    3.154    0.221    0.422   85.966
  283.500    3.354    0.217    0.423   89.597
  283.750    3.515    0.204    0.396   88.935
  284.000    3.615    0.215    0.408   87.183
  284.250    3.636    0.209    0.411   85.372
  284.500    3.609    0.205    0.404   84.588
  284.750    3.524    0.227    0.408   84.530
  285.000    3.454    0.236    0.419   85.319
  285.250    3.378    0.242    0.426   89.314
  285.500    3.310    0.252    0.420   91.251
  285.750    3.317    0.251    0.408   94.763
  286.000    3.469    0.235    0.405   97.063
  286.250    3.669    0.220    0.407  101.542
  286.500    3.895    0.210    0.410  103.298
  286.750    4.051    0.205    0.416  102.696
  287.000    4.189    0.208    0.447  101.550
  287.250    4.128    0.225    0.432   99.435
  287.500    3.812    0.228    0.455  101.555
  287.750    3.323    0.241    0.535  105.186
  288.000    2.881    0.285    0.555  101.318
  288.250    2.621    0.315    0.567   97.692
  288.500    2.442    0.344    0.572   98.541
  288.750    2.332    0.324    0.556  103.866
  289.000    2.294    0.300    0.542  106.288
  289.250    2.342    0.376    0.570  103.024
  289.500    2.490    0.309    0.559  100.124
  289.750    2.634    0.283    0.528   99.643
  290.000    2.791    0.265    0.503   99.040
  290.250    2.919    0.259    0.483   94.507
  290.500    3.069    0.278    0.465   90.699
  290.750    3.252    0.284    0.441   86.589
  291.000    3.596    0.267    0.420   81.934
  291.250    3.831    0.136    0.400   77.219
  291.500    4.300    0.101    0.371   73.774
  291.750    4.590    0.072    0.293   69.845
  292.000    4.342    0.059    0.256   69.001
  292.250    3.871    0.132    0.316   74.024
  292.500    3.661    0.181    0.343   79.531
  292.750    3.509    0.203    0.374   81.529
  293.000    3.589    0.231    0.404   86.250
  293.250    3.698    0.220    0.419   88.853
  293.500    3.911    0.182    0.411   92.061
  293.750    4.105    0.153    0.403   98.173
  294.000    4.068    0.142    0.405  102.348
  294.250    3.972    0.180    0.427  109.489
  294.500    3.736    0.203    0.480  113.180
  294.750    3.457    0.193    0.475  116.570
  295.000    3.369    0.194    0.474  113.367
  295.250    3.277    0.242    0.473  116.333
  295.500    3.217    0.290    0.497  119.542
  295.750    3.242    0.340    0.519  120.149
  296.000    3.328    0.311    0.536  118.942
  296.250    3.513    0.289    0.493  122.816
  296.500    3.785    0.282    0.469  126.629
  296.750    4.033    0.263    0.442  127.962
  297.000    4.033    0.249    0.426  124.819
  297.250    3.556    0.235    0.433  118.774
  297.500    3.351    0.229    0.433  110.309
  297.750    3.077    0.238    0.427  106.077
  298.000    2.900    0.252    0.419   99.669
  298.250    2.753    0.269    0.414   97.252
  298.500    2.708    0.286    0.411   96.106
  298.750    2.734    0.290    0.419   96.048
  299.000    2.755    0.279    0.428   97.683
  299.250    2.818    0.272    0.434  100.831
  299.500    2.882    0.278    0.428  101.559
  299.750    3.082    0.252    0.423  104.767
  300.000    3.339    0.227    0.426  112.573
  300.250    3.409    0.210    0.431  113.785
  300.500    3.273    0.227    0.438  110.158
  300.750    2.928    0.253    0.452  104.234
  301.000    2.572    0.265    0.464   96.373
  301.250    2.318    0.289    0.475   87.666
  301.500    2.117    0.306    0.475   82.225
  301.750    2.014    0.325    0.459   79.748
  302.000    2.018    0.336    0.448   79.509
  302.250    2.102    0.345    0.440   82.717
  302.500    2.320    0.329    0.440   89.071
  302.750    2.533    0.302    0.424   95.545
  303.000    2.972    0.276    0.411  102.987
  303.250    3.361    0.251    0.412  107.949
  303.500    3.655    0.221    0.417  112.126
  303.750    3.916    0.194    0.419  114.487
  304.000    4.013    0.200    0.415  116.667
  304.250    4.028    0.210    0.415  116.670
  304.500    3.977    0.217    0.427  116.430
  304.750    3.855    0.224    0.441  115.102
  305.000    3.667    0.239    0.464  116.073
  305.250    3.411    0.274    0.490  116.922
  305.500    3.293    0.297    0.497  116.864
  305.750    3.162    0.306    0.502  116.201
  306.000    3.081    0.308    0.507  114.510
  306.250    3.014    0.294    0.489  112.819
  306.500    2.965    0.290    0.478  111.370
  306.750    2.960    0.290    0.471  111.071
  307.000    2.972    0.298    0.466  111.618
  307.250    2.995    0.307    0.472  112.285
  307.500    3.034    0.299    0.475  113.377
  307.750    3.080    0.293    0.465  114.408
  308.000    3.098    0.299    0.450  115.379
  308.250    3.070    0.290    0.438  116.107
  308.500    2.987    0.286    0.449  117.259
  308.750    2.900    0.285    0.463  117.866
  309.000    2.842    0.296    0.470  118.232
  309.250    2.811    0.306    0.473  116.722
  309.500    2.801    0.296    0.480  113.700
  309.750    2.807    0.290    0.471  112.191
  310.000    2.828    0.277    0.479  111.528
  310.250    2.871    0.269    0.490  110.865
  310.500    2.904    0.271    0.472  108.812
  310.750    2.888    0.266    0.470  106.274
  311.000    2.878    0.265    0.479  102.768
  311.250    2.906    0.283    0.470   99.687
  311.500    2.950    0.295    0.438   97.028
  311.750    3.097    0.276    0.435   94.551
  312.000    3.281    0.263    0.444   93.224
  312.250    3.431    0.253    0.424   92.741
  312.500    3.555    0.246    0.413   91.716
  312.750    3.596    0.239    0.413   91.234
  313.000    3.617    0.244    0.426   91.358
  313.250    3.631    0.229    0.435   93.115
