~VERSION INFORMATION
 VERS.                 2.0:   CWLS LOG ASCII STANDARD -VERSION 2.0
 WRAP.                  NO:   ONE LINE PER DEPTH STEP
~WELL INFORMATION BLOCK
#MNEM.UNIT           DATA                    DESCRIPTION OF MNEMONIC
#---------    -------------------            -------------------------------
# Generated from Intellog Unique Number	CW_73_75/WELL/2753
WELL.         COBRA ET AL MITSUE 16-29       : Well_name    - WELL
LOC .         00/16-29-073-05W5/0            : Location     - LOCATION
UWI .         00/16-29-073-05W5/0            : Uwi          - UNIQUE WELL ID
ENTR.         JAYE                           : Entered      - ENTERED BY
SRVC.         SCHLUMBERGER                   : Scn          - SERVICE COMPANY
DATE.         6 MAR 81                       : Date         - LOG DATE
STRT.M        360                            : top_depth    - START DEPTH
STOP.M        595                            : bot_depth    - STOP DEPTH
STEP.M        0.25                           : increment    - STEP LENGTH
 NULL. -999.2500:NULL Value
~CURVE INFORMATION BLOCK
#MNEM UNIT       ERCB CURVE CODE    CURVE DESCRIPTION
#-----------   ------------------   ----------------------------------
DEPT.M        00 001 00 00         : DEPTH        - DEPTH
DPHI.V/V      00 890 00 00         : PHID         - DENSITY POROSITY (SANDSTONE)
NPHI.V/V      00 330 00 00         : PHIN         - NEUTRON POROSITY (SANDSTONE)
GR  .API      00 310 00 00         : GR           - GAMMA RAY
CALI.MM       00 280 01 00         : CAL          - CALIPER
ILD .OHMM     00 120 00 00         : RESD         - DEEP RESISTIVITY (DIL)
~PARAMETER INFORMATION
#MNEM.UNIT           DATA             DESCRIPTION OF MNEMONIC
#---------         -----------     ------------------------------
GL  .M        581.61               : gl           - GROUND LEVEL ELEVATION
EREF.M        586.26               : kb           - ELEVATION OF DEPTH REFERENCE
DATM.M        581.61               : datum        - DATUM ELEVATION
TDD .M        1686                 : tdd          - TOTAL DEPTH DRILLER
RUN .         ONE                  : Run          - RUN NUMBER
ENG .         ADLAKHA              : Engineer     - RECORDING ENGINEER
WIT .         HEATHER              : Witness      - WITNESSED BY
BASE.         EDMONTON             : Branch       - HOME BASE OF LOGGING UNIT
MUD .         GEL CHEN             : Mud_type     - MUD TYPE
MATR.         SANDSTONE            : Logunit      - NEUTRON MATRIX
TMAX.C        54                   : BHT          - MAXIMUM RECORDED TEMPERATURE
BHTD.M        1686.3               : BHTDEP       - MAXIMUM RECORDED TEMPERATURE
RMT .C        15.5                 : MDTP         - TEMPERATURE OF MUD
MUDD.KG/M     1080                 : MWT          - MUD DENSITY
NEUT.         1                    : NEUTRON      - NEUTRON TYPE
RESI.         0                    : RESIST       - RESISTIVITY TYPE
RM  .OHMM     0.85                 : RM           - RESISTIVITY OF MUD
RMC .OHMM     0                    : RMC          - RESISTIVITY OF MUD CAKE
RMF .OHMM     0.77                 : RMF          - RESISTIVITY OF MUD FILTRATE
SUFT.C        0                    : SUFT         - SURFACE TEMPERATURE
~A  DEPTH     PHID     PHIN       GR      CAL     RESD
# ...
  542.500    0.208    0.451   69.660  270.408    5.830
  542.750    0.156    0.462   63.377  269.151    6.469
  543.000    0.076    0.211   57.959  265.517    7.040
  543.250    0.035    0.141   50.991  263.738    7.691
  543.500    0.038    0.167   49.620  263.214    7.971
  543.750    0.138    0.195   60.109  264.756    7.080
  544.000    0.182    0.324   67.128  267.327    6.092
  544.250    0.209    0.407   71.595  272.177    5.533
  544.500    0.198    0.435   73.447  278.590    4.888
  544.750    0.199    0.410   71.823  282.407    4.423
  545.000    0.210    0.385   71.632  284.676    4.081
  545.250    0.204    0.374   74.358  285.901    3.907
  545.500    0.201    0.383   77.271  288.483    3.886
  545.750    0.210    0.399   77.885  291.376    3.937
  546.000    0.206    0.410   77.005  293.112    3.989
  546.250    0.193    0.410   83.896  295.496    4.112
  546.500    0.184    0.408   80.597  297.342    4.286
  546.750    0.179    0.402   77.044  299.505    4.303
  547.000    0.187    0.394   79.963  301.668    4.215
  547.250    0.191    0.397   80.636  303.625    4.060
  547.500    0.184    0.429   77.331  304.949    3.932
  547.750    0.174    0.449   77.826  306.597    3.881
  548.000    0.185    0.454   78.249  306.069    3.969
  548.250    0.201    0.427   75.453  302.430    4.461
  548.500    0.210    0.406   72.641  299.404    4.846
  548.750    0.209    0.398   70.273  298.675    5.197
  549.000    0.204    0.400   68.710  302.394    5.336
  549.250    0.197    0.412   68.769  304.861    5.286
  549.500    0.184    0.397   71.558  306.712    5.053
  549.750    0.172    0.382   75.838  308.565    4.839
  550.000    0.166    0.405   78.502  309.477    4.584
  550.250    0.176    0.407   80.544  309.997    4.422
  550.500    0.180    0.391   80.659  308.848    4.266
  550.750    0.189    0.428   79.727  308.196    4.109
  551.000    0.200    0.468   79.596  307.254    3.958
  551.250    0.210    0.488   79.205  306.005    3.819
  551.500    0.191    0.449   77.274  305.887    3.713
  551.750    0.178    0.413   78.697  306.187    3.871
  552.000    0.198    0.442   80.238  309.068    4.025
  552.250    0.223    0.480   80.231  313.817    4.374
  552.500    0.258    0.476   77.800  316.602    4.602
  552.750    0.234    0.438   77.108  308.519    4.952
  553.000    0.191    0.413   75.176  302.281    5.372
  553.250    0.197    0.404   72.991  294.088    5.484
  553.500    0.215    0.400   71.242  285.690    5.504
  553.750    0.226    0.413   69.683  277.593    5.600
  554.000    0.232    0.423   68.122  271.684    5.869
  554.250    0.239    0.408   66.000  267.733    6.245
  554.500    0.244    0.398   63.573  266.165    6.785
  554.750    0.240    0.375   62.255  269.055    7.512
  555.000    0.183    0.349   61.378  273.598    8.442
  555.250    0.137    0.329   61.681  274.726    9.597
  555.500    0.098    0.278   59.687  272.228   10.230
  555.750    0.082    0.252   56.013  269.733   10.643
  556.000    0.061    0.229   56.005  267.429   10.194
  556.250    0.079    0.219   58.920  264.102    9.278
  556.500    0.128    0.249   59.715  260.781    8.134
  556.750    0.154    0.281   55.234  256.418    7.445
  557.000    0.179    0.307   55.175  261.176    7.009
  557.250    0.207    0.325   56.962  260.022    6.417
  557.500    0.229    0.345   60.001  255.549    6.053
  557.750    0.246    0.359   62.661  251.296    5.798
  558.000    0.257    0.382   65.142  249.938    5.637
  558.250    0.249    0.399   63.954  250.327    5.420
  558.500    0.242    0.412   64.067  252.808    5.308
  558.750    0.236    0.418   64.684  255.696    5.179
  559.000    0.233    0.380   63.681  257.959    4.970
  559.250    0.229    0.379   62.241  260.948    4.813
  559.500    0.241    0.396   64.787  263.939    4.655
  559.750    0.251    0.403   66.268  267.451    4.516
  560.000    0.257    0.416   66.196  270.019    4.350
  560.250    0.261    0.449   65.567  273.015    4.166
  560.500    0.261    0.459   65.186  276.421    4.042
  560.750    0.256    0.449   65.869  280.036    3.974
  561.000    0.253    0.445   66.909  283.851    3.885
  561.250    0.248    0.440   69.517  287.266    3.736
  561.500    0.237    0.435   72.674  290.253    3.591
  561.750    0.216    0.417   76.832  292.094    3.510
  562.000    0.207    0.378   80.615  293.855    3.485
  562.250    0.205    0.380   81.601  294.767    3.491
  562.500    0.240    0.404   80.478  296.514    3.498
  562.750    0.280    0.455   79.472  300.127    3.466
  563.000    0.321    0.477   77.662  315.649    3.356
  563.250    0.379    0.494   74.925  331.689    3.281
  563.500    0.419    0.525   73.235  331.777    3.332
  563.750    0.419    0.552   72.174  329.176    3.447
  564.000    0.395    0.490   73.403  336.118    3.593
  564.250    0.366    0.469   78.492  344.067    3.824
  564.500    0.199    0.446   83.581  332.655    4.106
  564.750    0.167    0.428   80.780  314.214    4.811
  565.000    0.142    0.375   77.723  299.177    5.583
  565.250    0.136    0.402   74.675  292.442    6.346
  565.500    0.128    0.399   73.179  289.735    6.816
  565.750    0.116    0.380   73.598  289.209    6.922
  566.000    0.088    0.342   78.876  289.714    6.753
  566.250    0.117    0.311   80.544  290.838    6.371
  566.500    0.143    0.346   79.800  293.104    6.101
  566.750    0.156    0.380   78.851  292.873    5.876
  567.000    0.169    0.372   79.597  292.768    5.746
  567.250    0.177    0.387   80.391  293.473    5.659
  567.500    0.186    0.418   79.889  293.049    5.618
  567.750    0.194    0.423   77.702  289.613    5.683
  568.000    0.198    0.395   79.502  288.252    5.692
  568.250    0.193    0.384   82.720  289.792    5.714
  568.500    0.183    0.399   80.540  292.275    5.856
  568.750    0.180    0.399   79.229  292.980    5.969
  569.000    0.188    0.389   80.278  290.791    6.003
  569.250    0.199    0.377   76.474  287.051    5.992
  569.500    0.200    0.367   75.409  277.402    5.902
  569.750    0.191    0.370   77.954  282.160    5.781
  570.000    0.185    0.392   81.484  287.121    5.589
  570.250    0.182    0.407   76.569  290.214    5.332
  570.500    0.192    0.416   73.203  290.921    5.155
  570.750    0.189    0.395   74.628  292.880    5.031
  571.000    0.181    0.367   77.227  297.840    4.949
  571.250    0.199    0.393   77.785  304.761    4.901
  571.500    0.204    0.391   78.518  307.654    4.864
  571.750    0.195    0.377   77.145  305.357    4.846
  572.000    0.186    0.393   78.565  303.379    4.819
  572.250    0.180    0.420   81.726  304.003    4.792
  572.500    0.171    0.423   80.725  304.297    4.784
  572.750    0.167    0.410   78.050  304.065    4.758
  573.000    0.167    0.422   75.117  306.440    4.730
  573.250    0.229    0.417   75.234  314.914    4.608
  573.500    0.283    0.433   78.955  333.438    4.202
  573.750    0.426    0.474   85.284  377.341    3.494
  574.000    0.498    0.500   77.632  405.081    2.762
  574.250    0.580    0.519   69.676  465.556    2.301
  574.500    0.600    0.554   65.504  478.902    1.939
  574.750    0.683    0.580   54.989  490.074    1.668
  575.000    0.695    0.613   45.731  491.621    1.470
  575.250    0.716    0.641   43.606  492.439    1.328
  575.500    0.716    0.667   43.474  494.076    1.239
  575.750    0.672    0.680   44.713  495.615    1.204
  576.000    0.699    0.696   46.690  495.191    1.193
  576.250    0.783    0.704   51.535  482.125    1.284
  576.500    0.767    0.606   55.431  412.001    1.411
  576.750    0.748    0.590   61.953  430.521    1.542
  577.000    0.687    0.562   67.783  428.024    1.756
  577.250    0.292    0.522   74.177  317.088    2.057
  577.500    0.258    0.490   74.298  293.467    2.455
  577.750    0.225    0.472   69.193  310.743    3.026
  578.000    0.274    0.449   67.505  310.635    3.968
  578.250    0.324    0.472   67.869  331.851    5.117
  578.500    0.371    0.502   68.184  398.432    5.205
  578.750    0.536    0.496   67.420  385.573    5.226
