~VERSION INFORMATION
 VERS.                 2.0:   CWLS LOG ASCII STANDARD -VERSION 2.0
 WRAP.                  NO:   ONE LINE PER DEPTH STEP
~WELL INFORMATION BLOCK
#MNEM.UNIT           DATA                    DESCRIPTION OF MNEMONIC
#---------    -------------------            -------------------------------
# Generated from Intellog Unique Number	CS_73_76/WELL/812
WELL.         ARGO PETROLEUM CORPORATION     : Well_name    - WELL
LOC .         00/10-06-073-10W4/0            : Location     - LOCATION
UWI .         00/10-06-073-10W4/0            : Uwi          - UNIQUE WELL ID
ENTR.         SP                             : Entered      - ENTERED BY
SRVC.         SCHLUMBERGER                   : Scn          - SERVICE COMPANY
STRT.M        310.896                        : top_depth    - START DEPTH
STOP.M        527.646                        : bot_depth    - STOP DEPTH
STEP.M        0.25                           : increment    - STEP LENGTH
 NULL. -999.2500:NULL Value
~CURVE INFORMATION BLOCK
#MNEM UNIT       ERCB CURVE CODE    CURVE DESCRIPTION
#-----------   ------------------   ----------------------------------
DEPT.M        00 001 00 00         : DEPTH        - DEPTH
GR  .API      00 310 00 00         : GR           - GAMMA RAY
DPHI.V/V      00 890 00 00         : PHID         - DENSITY POROSITY (SANDSTONE)
NPHI.V/V      00 330 00 00         : PHIN         - NEUTRON POROSITY (SANDSTONE)
ILD .OHMM     00 120 00 00         : RESD         - DEEP RESISTIVITY (DIL)
~PARAMETER INFORMATION
#MNEM.UNIT           DATA             DESCRIPTION OF MNEMONIC
#---------         -----------     ------------------------------
GL  .M        661.721              : gl           - GROUND LEVEL ELEVATION
EREF.M        665.074              : kb           - ELEVATION OF DEPTH REFERENCE
DATM.M        661.721              : datum        - DATUM ELEVATION
TDD .M        530.657              : tdd          - TOTAL DEPTH DRILLER
RUN .         ONE                  : Run          - RUN NUMBER
ENG .         BILL                 : Engineer     - RECORDING ENGINEER
WIT .         JIM                  : Witness      - WITNESSED BY
MUD .         GEL                  : Mud_type     - MUD TYPE
MATR.         SANDSTONE            : Logunit      - NEUTRON MATRIX
TMAX.C        12.2222              : BHT          - MAXIMUM RECORDED TEMPERATURE
BHTD.M        530.657              : BHTDEP       - MAXIMUM RECORDED TEMPERATURE
MATR.         1                    : LOGUNIT      - NEUTRON MATRIX
RMT .C        25                   : MDTP         - TEMPERATURE OF MUD
NEUT.         1                    : NEUTRON      - NEUTRON TYPE
RESI.         0                    : RESIST       - RESISTIVITY TYPE
RMC .OHMM     0.25                 : RMC          - RESISTIVITY OF MUD CAKE
RMF .OHMM     0.25                 : RMF          - RESISTIVITY OF MUD FILTRATE
SUFT.C        15                   : SUFT         - SURFACE TEMPERATURE
~A  DEPTH       GR     PHID     PHIN     RESD
# ...
  354.396   99.083    0.276    0.490   12.111
  354.646  100.839    0.269    0.483   11.858
  354.896  102.731    0.268    0.471   11.389
  355.146  105.862    0.271    0.463   10.430
  355.396  106.326    0.264    0.470    9.711
  355.646  103.649    0.262    0.465    9.708
  355.896  101.781    0.263    0.444    9.662
  356.146  104.888    0.259    0.435    9.546
  356.396  107.402    0.256    0.431    9.168
  356.646  108.091    0.241    0.450    8.978
  356.896  106.720    0.228    0.464    8.969
  357.146  102.019    0.258    0.476    9.401
  357.396   98.744    0.276    0.487   10.307
  357.646   94.837    0.282    0.489   11.240
  357.896   95.519    0.268    0.500   12.523
  358.146   94.774    0.291    0.516   13.743
  358.396   93.123    0.309    0.528   14.621
  358.646   89.633    0.306    0.512   15.131
  358.896   87.577    0.297    0.489   15.329
  359.146   88.560    0.287    0.492   14.961
  359.396   92.122    0.271    0.495   13.620
  359.646   95.789    0.256    0.479   12.678
  359.896   97.544    0.255    0.477   10.853
  360.146  100.067    0.248    0.484    8.660
  360.396  102.652    0.242    0.480    6.608
  360.646  103.964    0.229    0.526    5.617
  360.896  106.084    0.223    0.540    5.718
  361.146   98.085    0.231    0.509    6.206
  361.396   88.279    0.255    0.486    7.386
  361.646   79.641    0.270    0.489    8.218
  361.896   74.683    0.294    0.481   10.381
  362.146   73.010    0.318    0.469   14.108
  362.396   75.827    0.335    0.461   17.267
  362.646   77.511    0.334    0.462   19.752
  362.896   79.237    0.326    0.475   21.409
  363.146   79.731    0.311    0.481   22.410
  363.396   79.094    0.303    0.484   21.951
  363.646   78.521    0.304    0.477   19.916
  363.896   82.749    0.295    0.470   16.973
  364.146   86.633    0.292    0.479   15.173
  364.396   90.814    0.283    0.480   13.949
  364.646   94.158    0.269    0.475   12.713
  364.896   95.183    0.251    0.483   12.067
  365.146   93.300    0.250    0.486   12.721
  365.396   88.868    0.265    0.487   13.514
  365.646   85.402    0.286    0.467   14.408
  365.896   81.539    0.295    0.460   15.269
  366.146   86.972    0.298    0.449   15.716
  366.396   87.769    0.295    0.439   16.159
  366.646   89.284    0.283    0.429   16.395
  366.896   91.965    0.261    0.420   16.403
  367.146   94.598    0.236    0.412   16.745
  367.396   93.682    0.258    0.416   16.279
  367.646   91.933    0.270    0.428   15.137
  367.896   92.701    0.262    0.439   14.464
  368.146   92.716    0.253    0.446   13.769
  368.396   92.872    0.254    0.451   13.361
  368.646   93.349    0.250    0.444   13.209
  368.896   93.371    0.249    0.439   12.939
  369.146   93.460    0.269    0.444   12.960
  369.396   93.999    0.265    0.446   12.961
  369.646   94.000    0.250    0.441   12.961
  369.896   93.163    0.263    0.440   12.964
  370.146   91.604    0.259    0.443   12.784
  370.396   92.013    0.236    0.450   12.351
  370.646   94.620    0.224    0.462   11.145
  370.896   93.213    0.251    0.475    9.288
  371.146   92.547    0.264    0.489    7.383
  371.396   93.442    0.275    0.516    6.571
  371.646   92.222    0.291    0.525    7.428
  371.896   77.982    0.307    0.495    8.225
  372.146   73.013    0.319    0.463    9.534
  372.396   71.456    0.308    0.458   11.631
  372.646   75.546    0.298    0.458   12.384
  372.896   78.460    0.288    0.445   14.038
  373.146   80.125    0.281    0.453   15.068
  373.396   80.055    0.296    0.456   16.157
  373.646   79.713    0.307    0.460   16.631
  373.896   76.698    0.321    0.462   17.058
  374.146   77.028    0.324    0.463   17.029
  374.396   80.328    0.313    0.460   16.650
  374.646   83.293    0.306    0.452   15.543
  374.896   87.355    0.292    0.427   13.732
  375.146   89.018    0.271    0.422   12.690
  375.396   90.799    0.257    0.429   11.737
  375.646   92.841    0.253    0.443   11.235
  375.896   93.925    0.250    0.452   10.848
  376.146   94.148    0.265    0.461   10.989
  376.396   93.355    0.268    0.467   11.120
  376.646   89.128    0.257    0.472   11.449
  376.896   81.081    0.252    0.457   12.043
  377.146   75.828    0.263    0.443   12.538
  377.396   75.566    0.270    0.426   13.236
  377.646   79.516    0.258    0.419   12.712
  377.896   87.129    0.241    0.408   10.975
  378.146   92.083    0.235    0.405   10.003
  378.396   97.156    0.241    0.424    8.995
  378.646   99.188    0.248    0.436    8.544
  378.896   95.569    0.246    0.445    8.531
  379.146   86.756    0.244    0.457    9.075
  379.396   77.408    0.254    0.453   10.044
  379.646   66.375    0.277    0.439   11.694
  379.896   60.436    0.303    0.448   13.480
  380.146   56.085    0.323    0.463   17.136
  380.396   57.670    0.338    0.473   18.993
  380.646   58.654    0.354    0.481   20.276
  380.896   59.548    0.355    0.468   21.229
  381.146   59.525    0.356    0.460   21.187
  381.396   60.394    0.355    0.462   20.158
  381.646   64.199    0.350    0.470   19.675
  381.896   65.617    0.358    0.472   19.042
  382.146   65.653    0.362    0.463   19.016
  382.396   65.630    0.362    0.459   18.596
  382.646   64.534    0.357    0.474   18.613
  382.896   64.219    0.349    0.486   18.479
  383.146   63.849    0.342    0.497   18.285
  383.396   63.234    0.348    0.507   18.030
  383.646   63.326    0.339    0.502   17.953
  383.896   62.684    0.333    0.488   17.943
  384.146   62.364    0.329    0.481   17.942
  384.396   61.363    0.332    0.472   17.946
  384.646   59.229    0.340    0.467   17.924
  384.896   56.804    0.345    0.470   18.311
  385.146   55.992    0.340    0.477   18.325
  385.396   57.658    0.331    0.482   18.594
  385.646   58.775    0.337    0.488   19.113
  385.896   59.068    0.325    0.486   19.668
  386.146   59.088    0.329    0.481   19.609
  386.396   59.105    0.342    0.483   20.046
  386.646   59.112    0.349    0.474   20.007
  386.896   60.199    0.338    0.466   20.264
  387.146   60.356    0.333    0.461   20.364
  387.396   60.322    0.331    0.465   20.374
  387.646   61.613    0.328    0.480   20.383
  387.896   62.163    0.323    0.489   20.446
  388.146   61.546    0.319    0.484   20.754
  388.396   62.218    0.311    0.488   20.744
  388.646   62.883    0.313    0.483   20.730
  388.896   63.331    0.313    0.474   21.059
  389.146   64.584    0.315    0.457   21.112
  389.396   65.919    0.318    0.448   21.121
  389.646   65.341    0.320    0.456   21.117
  389.896   64.472    0.320    0.471   21.088
  390.146   64.131    0.311    0.478   21.507
  390.396   64.727    0.319    0.493   21.520
  390.646   65.420    0.317    0.485   20.914
  390.896   65.435    0.313    0.468   19.994
  391.146   64.050    0.316    0.468   19.774
  391.396   64.152    0.314    0.475   19.573
  391.646   64.669    0.314    0.490   19.260
  391.896   65.449    0.319    0.503   19.431
  392.146   65.377    0.325    0.496   19.613
  392.396   64.786    0.315    0.487   19.619
  392.646   64.749    0.316    0.482   19.616
  392.896   66.123    0.319    0.483   19.615
  393.146   67.779    0.323    0.484   19.655
  393.396   67.733    0.326    0.490   19.245
  393.646   67.316    0.322    0.491   18.916
  393.896   67.306    0.313    0.492   18.730
  394.146   67.207    0.309    0.489   18.131
  394.396   66.732    0.306    0.482   17.904
  394.646   67.132    0.305    0.477   17.361
  394.896   66.718    0.305    0.467   17.217
  395.146   68.888    0.311    0.457   16.903
  395.396   71.428    0.314    0.473   17.394
  395.646   73.249    0.312    0.494   17.918
  395.896   68.997    0.314    0.511   18.465
  396.146   69.397    0.316    0.515   19.053
  396.396   70.488    0.314    0.498   19.244
  396.646   72.800    0.305    0.487   19.590
  396.896   76.516    0.311    0.478   19.277
  397.146   77.785    0.319    0.473   17.093
  397.396   79.312    0.315    0.481   11.539
  397.646   83.628    0.297    0.475    7.003
