~VERSION INFORMATION
 VERS.                 2.0:   CWLS LOG ASCII STANDARD -VERSION 2.0
 WRAP.                  NO:   ONE LINE PER DEPTH STEP
~WELL INFORMATION BLOCK
#MNEM.UNIT           DATA                    DESCRIPTION OF MNEMONIC
#---------    -------------------            -------------------------------
# Generated from Intellog Unique Number	CS_73_76/WELL/818
WELL.         BOW VALLEY INDUSTRIES LTD      : Well_name    - WELL
LOC .         00/10-11-073-17W4/0            : Location     - LOCATION
UWI .         00/10-11-073-17W4/0            : Uwi          - UNIQUE WELL ID
ENTR.         SP                             : Entered      - ENTERED BY
SRVC.         SCHLUMBERGER                   : Scn          - SERVICE COMPANY
STRT.M        234.696                        : top_depth    - START DEPTH
STOP.M        423.446                        : bot_depth    - STOP DEPTH
STEP.M        0.25                           : increment    - STEP LENGTH
 NULL. -999.2500:NULL Value
~CURVE INFORMATION BLOCK
#MNEM UNIT       ERCB CURVE CODE    CURVE DESCRIPTION
#-----------   ------------------   ----------------------------------
DEPT.M        00 001 00 00         : DEPTH        - DEPTH
GR  .API      00 310 00 00         : GR           - GAMMA RAY
DPHI.V/V      00 890 00 00         : PHID         - DENSITY POROSITY (SANDSTONE)
NPHI.V/V      00 330 00 00         : PHIN         - NEUTRON POROSITY (SANDSTONE)
ILD .OHMM     00 120 00 00         : RESD         - DEEP RESISTIVITY (DIL)
~PARAMETER INFORMATION
#MNEM.UNIT           DATA             DESCRIPTION OF MNEMONIC
#---------         -----------     ------------------------------
GL  .M        567.385              : gl           - GROUND LEVEL ELEVATION
EREF.M        570.433              : kb           - ELEVATION OF DEPTH REFERENCE
DATM.M        567.385              : datum        - DATUM ELEVATION
TDD .M        568.147              : tdd          - TOTAL DEPTH DRILLER
RUN .         ONE                  : Run          - RUN NUMBER
ENG .         BILL                 : Engineer     - RECORDING ENGINEER
WIT .         JIM                  : Witness      - WITNESSED BY
MUD .         GEL                  : Mud_type     - MUD TYPE
MATR.         SANDSTONE            : Logunit      - NEUTRON MATRIX
TMAX.C        11.6667              : BHT          - MAXIMUM RECORDED TEMPERATURE
BHTD.M        568.147              : BHTDEP       - MAXIMUM RECORDED TEMPERATURE
MATR.         1                    : LOGUNIT      - NEUTRON MATRIX
RMT .C        25                   : MDTP         - TEMPERATURE OF MUD
NEUT.         1                    : NEUTRON      - NEUTRON TYPE
RESI.         0                    : RESIST       - RESISTIVITY TYPE
RMC .OHMM     0.25                 : RMC          - RESISTIVITY OF MUD CAKE
RMF .OHMM     0.25                 : RMF          - RESISTIVITY OF MUD FILTRATE
SUFT.C        15                   : SUFT         - SURFACE TEMPERATURE
~A  DEPTH       GR     PHID     PHIN     RESD
# ...
  321.696   75.974    0.355    0.463    6.422
  321.946   76.368    0.350    0.473    6.341
  322.196   76.730    0.351    0.481    6.411
  322.446   75.444    0.354    0.457    6.517
  322.696   74.472    0.360    0.435    6.538
  322.946   77.988    0.352    0.432    6.544
  323.196   78.968    0.347    0.433    6.636
  323.446   78.840    0.339    0.429    6.669
  323.696   76.824    0.330    0.436    6.678
  323.946   75.842    0.333    0.441    6.757
  324.196   76.819    0.343    0.444    6.803
  324.446   74.128    0.339    0.447    6.811
  324.696   70.498    0.346    0.450    6.817
  324.946   72.304    0.353    0.448    6.834
  325.196   73.589    0.354    0.453    6.952
  325.446   76.295    0.347    0.447    6.954
  325.696   78.218    0.343    0.440    6.961
  325.946   79.245    0.341    0.438    7.089
  326.196   79.438    0.333    0.431    7.362
  326.446   76.931    0.321    0.418    7.918
  326.696   76.242    0.298    0.405    8.711
  326.946   74.206    0.275    0.375    9.123
  327.196   72.844    0.237    0.332    9.854
  327.446   72.119    0.185    0.300   10.171
  327.696   72.903    0.153    0.300   10.207
  327.946   72.367    0.150    0.334   10.075
  328.196   70.142    0.165    0.383    9.882
  328.446   68.684    0.264    0.412    9.679
  328.696   69.152    0.323    0.431    9.669
  328.946   69.952    0.304    0.415    9.995
  329.196   69.900    0.247    0.385   10.096
  329.446   67.929    0.189    0.324   10.438
  329.696   66.214    0.158    0.339   10.074
  329.946   68.139    0.244    0.404    8.907
  330.196   72.409    0.299    0.438    8.159
  330.446   74.283    0.336    0.457    7.747
  330.696   73.669    0.349    0.449    7.432
  330.946   71.382    0.338    0.437    7.219
  331.196   69.963    0.331    0.443    7.023
  331.446   68.949    0.335    0.448    7.046
  331.696   69.292    0.348    0.452    6.908
  331.946   72.035    0.350    0.460    6.773
  332.196   73.562    0.344    0.448    6.665
  332.446   73.387    0.337    0.439    6.673
  332.696   70.700    0.332    0.439    6.677
  332.946   70.717    0.335    0.443    6.597
  333.196   71.583    0.335    0.449    6.573
  333.446   71.943    0.339    0.445    6.451
  333.696   72.989    0.336    0.445    6.453
  333.946   73.273    0.328    0.452    6.455
  334.196   73.800    0.324    0.458    6.449
  334.446   73.859    0.325    0.457    6.579
  334.696   73.188    0.337    0.447    6.717
  334.946   72.729    0.344    0.444    6.602
  335.196   72.464    0.342    0.440    6.543
  335.446   71.442    0.345    0.448    6.476
  335.696   71.866    0.344    0.457    6.388
  335.946   72.733    0.339    0.465    6.366
  336.196   72.692    0.344    0.455    6.366
  336.446   71.931    0.339    0.446    6.369
  336.696   71.577    0.343    0.439    6.372
  336.946   71.501    0.337    0.432    6.374
  337.196   73.711    0.331    0.443    6.315
  337.446   76.656    0.330    0.451    6.273
  337.696   80.055    0.331    0.462    6.172
  337.946   83.226    0.313    0.477    6.173
  338.196   85.467    0.302    0.482    6.044
  338.446   87.860    0.293    0.459    6.053
  338.696   88.453    0.298    0.482    6.016
  338.946   84.061    0.298    0.466    5.950
  339.196   80.096    0.317    0.458    5.952
  339.446   77.893    0.327    0.457    5.958
  339.696   75.889    0.341    0.460    5.956
  339.946   76.257    0.331    0.465    6.072
  340.196   76.474    0.320    0.468    6.216
  340.446   76.472    0.304    0.471    6.406
  340.696   77.704    0.287    0.462    6.600
  340.946   79.770    0.301    0.450    6.789
  341.196   81.800    0.312    0.457    6.992
  341.446   82.444    0.318    0.467    7.221
  341.696   80.010    0.318    0.464    7.609
  341.946   78.169    0.319    0.429    8.095
  342.196   75.449    0.308    0.415    8.374
  342.446   74.816    0.298    0.408    8.635
  342.696   76.437    0.300    0.419    8.810
  342.946   77.283    0.317    0.426    8.807
  343.196   77.214    0.326    0.434    7.947
  343.446   78.183    0.333    0.462    7.175
  343.696   79.144    0.339    0.479    6.657
  343.946   80.692    0.340    0.481    6.363
  344.196   82.019    0.343    0.474    6.175
  344.446   83.359    0.345    0.468    6.132
  344.696   85.428    0.333    0.462    6.042
  344.946   86.534    0.330    0.461    6.026
  345.196   86.875    0.347    0.466    6.025
  345.446   88.013    0.339    0.474    6.028
  345.696   87.473    0.333    0.478    6.032
  345.946   86.361    0.327    0.481    6.035
  346.196   85.062    0.320    0.474    6.039
  346.446   85.134    0.312    0.480    6.046
  346.696   85.189    0.307    0.477    5.945
  346.946   84.184    0.304    0.470    5.941
  347.196   83.908    0.306    0.465    5.941
  347.446   83.896    0.314    0.460    5.943
  347.696   84.166    0.305    0.459    5.947
  347.946   85.902    0.308    0.461    5.949
  348.196   86.779    0.310    0.481    5.953
  348.446   88.337    0.309    0.481    5.957
  348.696   88.242    0.308    0.479    5.959
  348.946   89.285    0.308    0.482    5.887
  349.196   92.192    0.314    0.482    5.840
  349.446   95.188    0.307    0.476    5.570
  349.696  100.166    0.299    0.471    5.006
  349.946  102.930    0.283    0.486    4.381
  350.196  106.962    0.248    0.495    3.897
  350.446  110.015    0.237    0.506    3.425
  350.696  112.995    0.231    0.511    3.079
  350.946  115.580    0.227    0.494    2.802
  351.196  115.700    0.227    0.485    2.915
  351.446  116.412    0.231    0.487    3.230
  351.696  118.803    0.249    0.479    3.653
  351.946  120.595    0.257    0.459    4.018
  352.196  117.666    0.246    0.444    4.313
  352.446  114.127    0.235    0.450    4.622
  352.696  111.431    0.245    0.456    4.876
  352.946  110.535    0.246    0.457    5.095
  353.196  110.394    0.240    0.446    5.100
  353.446  107.086    0.233    0.440    5.104
  353.696  103.656    0.234    0.433    5.107
  353.946  103.099    0.243    0.443    5.109
  354.196  106.522    0.239    0.448    5.110
  354.446  105.501    0.226    0.434    5.187
  354.696  105.819    0.203    0.445    5.209
  354.946  108.241    0.212    0.460    5.214
  355.196  110.264    0.223    0.481    5.227
  355.446  111.415    0.230    0.493    5.117
  355.696  111.842    0.234    0.491    5.127
  355.946  112.178    0.243    0.455    5.072
  356.196  113.338    0.251    0.445    5.024
  356.446  116.445    0.247    0.463    4.955
  356.696  118.804    0.242    0.473    4.854
  356.946  114.947    0.240    0.484    4.866
  357.196  110.642    0.241    0.484    4.871
  357.446  108.420    0.241    0.482    4.910
  357.696  108.886    0.243    0.477    4.968
  357.946  103.941    0.241    0.462    5.064
  358.196   95.321    0.231    0.453    5.054
  358.446   92.368    0.226    0.450    5.155
  358.696   92.505    0.260    0.446    5.210
  358.946   92.917    0.291    0.438    5.376
  359.196   92.136    0.276    0.431    5.632
  359.446   83.188    0.259    0.428    6.164
  359.696   70.330    0.229    0.342    6.754
  359.946   63.448    0.193    0.295    7.159
  360.196   59.034    0.135    0.274    7.538
  360.446   61.115    0.170    0.317    7.569
  360.696   64.144    0.272    0.387    7.014
  360.946   67.691    0.313    0.414    6.292
  361.196   69.894    0.316    0.432    5.887
  361.446   71.970    0.326    0.441    5.601
  361.696   72.249    0.335    0.441    5.593
  361.946   71.778    0.333    0.454    5.489
  362.196   68.495    0.330    0.451    5.491
  362.446   67.648    0.330    0.454    5.491
  362.696   70.418    0.338    0.460    5.494
  362.946   69.301    0.336    0.460    5.497
  363.196   68.113    0.332    0.458    5.501
  363.446   69.597    0.334    0.455    5.503
  363.696   71.711    0.337    0.462    5.504
  363.946   72.270    0.342    0.451    5.504
  364.196   69.428    0.339    0.438    5.364
  364.446   69.286    0.342    0.426    5.867
  364.696   68.272    0.341    0.421    5.828
  364.946   67.257    0.335    0.425    5.900
