~VERSION INFORMATION
 VERS.                 2.0:   CWLS LOG ASCII STANDARD -VERSION 2.0
 WRAP.                  NO:   ONE LINE PER DEPTH STEP
~WELL INFORMATION BLOCK
#MNEM.UNIT           DATA                    DESCRIPTION OF MNEMONIC
#---------    -------------------            -------------------------------
# Generated from Intellog Unique Number	CW_73_75/WELL/2749
WELL.         COSEKA ETAL MITSUE 12-31       : Well_name    - WELL
LOC .         00/12-31-073-04W5/0            : Location     - LOCATION
UWI .         00/12-31-073-04W5/0            : Uwi          - UNIQUE WELL ID
ENTR.         JAYE                           : Entered      - ENTERED BY
SRVC.         WESTERN ATLAS                  : Scn          - SERVICE COMPANY
DATE.         19 JUNE 84                     : Date         - LOG DATE
STRT.M        365                            : top_depth    - START DEPTH
STOP.M        585                            : bot_depth    - STOP DEPTH
STEP.M        0.25                           : increment    - STEP LENGTH
 NULL. -999.2500:NULL Value
~CURVE INFORMATION BLOCK
#MNEM UNIT       ERCB CURVE CODE    CURVE DESCRIPTION
#-----------   ------------------   ----------------------------------
DEPT.M        00 001 00 00         : DEPTH        - DEPTH
DPHI.V/V      00 890 00 00         : PHID         - DENSITY POROSITY (SANDSTONE)
NPHI.V/V      00 330 00 00         : PHIN         - NEUTRON POROSITY (SANDSTONE)
GR  .API      00 310 00 00         : GR           - GAMMA RAY
CALI.MM       00 280 01 00         : CAL          - CALIPER
ILD .OHMM     00 120 00 00         : RESD         - DEEP RESISTIVITY (DIL)
~PARAMETER INFORMATION
#MNEM.UNIT           DATA             DESCRIPTION OF MNEMONIC
#---------         -----------     ------------------------------
GL  .M        585.2                : gl           - GROUND LEVEL ELEVATION
EREF.M        598.8                : kb           - ELEVATION OF DEPTH REFERENCE
DATM.M        585.2                : datum        - DATUM ELEVATION
TDD .M        1645                 : tdd          - TOTAL DEPTH DRILLER
RUN .         ONE                  : Run          - RUN NUMBER
ENG .         TAKEYASU             : Engineer     - RECORDING ENGINEER
WIT .         JONES                : Witness      - WITNESSED BY
BASE.         EDM                  : Branch       - HOME BASE OF LOGGING UNIT
MUD .         GEL CHEM             : Mud_type     - MUD TYPE
MATR.         SANDSTONE            : Logunit      - NEUTRON MATRIX
TMAX.C        49                   : BHT          - MAXIMUM RECORDED TEMPERATURE
BHTD.M        1645.6               : BHTDEP       - MAXIMUM RECORDED TEMPERATURE
RMT .C        16                   : MDTP         - TEMPERATURE OF MUD
MUDD.KG/M     1090                 : MWT          - MUD DENSITY
NEUT.         1                    : NEUTRON      - NEUTRON TYPE
RESI.         0                    : RESIST       - RESISTIVITY TYPE
RM  .OHMM     1.2                  : RM           - RESISTIVITY OF MUD
RMC .OHMM     1.2                  : RMC          - RESISTIVITY OF MUD CAKE
RMF .OHMM     0.6                  : RMF          - RESISTIVITY OF MUD FILTRATE
SUFT.C        0                    : SUFT         - SURFACE TEMPERATURE
~A  DEPTH     PHID     PHIN       GR      CAL     RESD
# ...
  511.000    0.204    0.400   79.954  241.522    5.028
  511.250    0.205    0.413   84.098  242.265    5.147
  511.500    0.216    0.386   84.671  242.400    5.238
  511.750    0.217    0.396   83.702  241.915    5.302
  512.000    0.210    0.400   83.719  241.225    5.305
  512.250    0.200    0.389   86.385  241.044    5.240
  512.500    0.189    0.459   83.937  241.384    5.186
  512.750    0.211    0.444   76.746  242.230    5.229
  513.000    0.209    0.403   75.101  243.286    5.321
  513.250    0.210    0.393   78.137  244.344    5.518
  513.500    0.213    0.340   88.195  246.837    5.917
  513.750    0.187    0.384   85.378  250.253    6.477
  514.000    0.172    0.459   86.751  255.517    7.143
  514.250    0.149    0.423   82.209  258.829    7.922
  514.500    0.095    0.371   70.890  247.873    8.062
  514.750    0.041    0.298   60.127  246.052    7.186
  515.000    0.165    0.267   67.660  250.908    6.012
  515.250    0.194    0.333   80.553  256.378    5.289
  515.500    0.216    0.392   85.436  260.717    4.601
  515.750    0.230    0.416   86.193  260.439    4.411
  516.000    0.242    0.450   85.348  255.640    4.599
  516.250    0.241    0.490   85.550  250.131    5.035
  516.500    0.238    0.448   84.457  249.228    5.279
  516.750    0.230    0.463   83.858  250.800    5.303
  517.000    0.242    0.398   83.384  252.366    5.238
  517.250    0.236    0.389   83.215  254.353    5.165
  517.500    0.222    0.364   83.541  255.919    5.092
  517.750    0.206    0.351   81.279  256.558    4.964
  518.000    0.195    0.385   77.969  256.903    4.822
  518.250    0.193    0.378   75.459  256.414    4.772
  518.500    0.192    0.369   80.220  256.133    4.767
  518.750    0.197    0.422   87.506  256.263    4.797
  519.000    0.205    0.423   86.415  256.290    4.892
  519.250    0.221    0.416   80.948  255.908    5.091
  519.500    0.230    0.397   80.165  255.222    5.429
  519.750    0.219    0.362   86.220  254.526    5.704
  520.000    0.220    0.344   79.091  249.011    5.815
  520.250    0.245    0.431   77.691  251.299    5.627
  520.500    0.257    0.428   84.424  253.176    5.217
  520.750    0.240    0.405   88.691  253.617    4.845
  521.000    0.225    0.406   88.584  253.336    4.542
  521.250    0.216    0.390   87.554  253.267    4.203
  521.500    0.214    0.370   92.624  253.086    3.962
  521.750    0.212    0.354   95.598  252.804    3.770
  522.000    0.210    0.363   96.907  252.217    3.916
  522.250    0.208    0.418   94.337  250.911    4.176
  522.500    0.201    0.434   87.886  247.346    4.588
  522.750    0.198    0.354   81.803  241.009    5.004
  523.000    0.215    0.390   84.839  234.773    5.771
  523.250    0.230    0.424   89.292  236.445    6.897
  523.500    0.245    0.451   82.287  242.324    8.000
  523.750    0.234    0.394   71.461  250.671    8.724
  524.000    0.203    0.328   61.929  259.938    9.131
  524.250    0.153    0.298   61.454  266.128    8.656
  524.500    0.154    0.307   63.999  267.081    7.350
  524.750    0.169    0.334   68.572  266.288    6.229
  525.000    0.193    0.359   82.450  267.240    5.067
  525.250    0.185    0.379   92.878  272.301    4.231
  525.500    0.197    0.397   88.706  276.846    3.813
  525.750    0.252    0.412   85.089  278.004    3.588
  526.000    0.281    0.433   82.211  276.184    3.479
  526.250    0.297    0.433   82.721  275.083    3.488
  526.500    0.348    0.451   85.141  274.191    3.597
  526.750    0.266    0.475   82.817  272.472    3.807
  527.000    0.215    0.405   79.506  269.111    4.075
  527.250    0.239    0.368   74.164  271.604    4.329
  527.500    0.236    0.377   71.102  276.561    4.472
  527.750    0.225    0.403   70.501  279.262    4.526
  528.000    0.202    0.419   74.708  281.035    4.446
  528.250    0.187    0.424   81.563  281.574    4.302
  528.500    0.208    0.421   80.225  281.707    4.171
  528.750    0.298    0.423   76.731  283.171    4.074
  529.000    0.386    0.457   81.984  289.053    3.957
  529.250    0.292    0.470   82.496  285.078    3.851
  529.500    0.262    0.439   81.218  278.432    3.712
  529.750    0.244    0.472   79.386  281.028    3.566
  530.000    0.284    0.465   76.754  291.322    3.425
  530.250    0.383    0.417   73.075  308.599    3.327
  530.500    0.344    0.432   72.662  279.674    3.261
  530.750    0.313    0.435   74.403  280.729    3.288
  531.000    0.303    0.370   79.040  282.297    3.481
  531.250    0.278    0.391   87.867  280.688    3.705
  531.500    0.213    0.422   86.221  279.378    3.958
  531.750    0.194    0.448   86.485  279.408    4.213
  532.000    0.185    0.487   89.828  279.750    4.271
  532.250    0.178    0.478   88.676  280.285    3.501
  532.500    0.179    0.437   85.858  280.831    3.114
  532.750    0.186    0.419   81.562  280.653    2.674
  533.000    0.189    0.413   81.703  280.373    2.456
  533.250    0.187    0.406   85.601  280.194    2.381
  533.500    0.183    0.382   85.311  280.329    2.534
  533.750    0.187    0.361   82.740  280.660    2.806
  534.000    0.205    0.356   82.203  281.101    3.378
  534.250    0.234    0.374   81.728  281.131    4.269
  534.500    0.235    0.411   78.109  281.363    4.961
  534.750    0.240    0.399   78.680  281.185    4.928
  535.000    0.223    0.438   78.698  280.913    4.707
  535.250    0.203    0.416   74.340  280.730    4.495
  535.500    0.189    0.399   77.746  280.350    4.294
  535.750    0.188    0.382   82.445  280.272    4.117
  536.000    0.189    0.369   85.543  280.201    4.006
  536.250    0.185    0.356   85.005  279.924    3.812
  536.500    0.179    0.349   81.388  279.539    3.648
  536.750    0.177    0.364   82.390  279.256    3.576
  537.000    0.178    0.400   86.104  279.595    3.639
  537.250    0.185    0.387   82.240  281.162    3.802
  537.500    0.194    0.391   75.541  282.219    4.009
  537.750    0.203    0.438   77.099  282.449    4.397
  538.000    0.216    0.407   77.239  282.686    4.822
  538.250    0.247    0.390   75.593  282.303    5.209
  538.500    0.277    0.426   67.417  281.920    5.463
  538.750    0.287    0.420   67.805  281.847    5.549
  539.000    0.281    0.431   67.758  281.875    5.512
  539.250    0.257    0.419   66.298  281.906    5.325
  539.500    0.244    0.392   69.826  281.834    5.133
  539.750    0.255    0.464   74.648  281.857    4.921
  540.000    0.245    0.435   75.466  282.192    4.630
  540.250    0.207    0.422   82.567  282.530    4.325
  540.500    0.179    0.423   78.950  282.561    4.009
  540.750    0.194    0.403   79.337  282.484    3.514
  541.000    0.197    0.431   86.130  282.617    2.989
  541.250    0.196    0.424   84.669  283.054    2.538
  541.500    0.197    0.404   81.421  283.800    2.424
  541.750    0.197    0.425   86.798  284.551    2.634
  542.000    0.196    0.450   85.336  284.990    2.926
  542.250    0.190    0.525   82.274  285.326    3.338
  542.500    0.190    0.416   88.327  285.557    3.915
  542.750    0.189    0.406   85.510  286.100    4.059
  543.000    0.218    0.529   86.945  287.669    4.201
  543.250    0.249    0.508   89.487  290.673    4.300
  543.500    0.223    0.405   86.548  286.699    4.509
  543.750    0.207    0.398   88.659  282.003    4.954
  544.000    0.200    0.371   83.809  279.464    5.118
  544.250    0.192    0.404   70.519  278.979    5.103
  544.500    0.182    0.391   78.484  279.013    5.031
  544.750    0.173    0.403   83.984  279.038    4.970
  545.000    0.173    0.419   90.840  279.477    4.863
  545.250    0.171    0.432   91.595  280.328    4.697
  545.500    0.170    0.388   88.224  281.894    4.403
  545.750    0.207    0.392   85.840  285.413    4.221
  546.000    0.287    0.398   82.529  290.781    3.980
  546.250    0.323    0.411   77.618  288.346    3.815
  546.500    0.346    0.409   74.185  292.995    3.783
  546.750    0.420    0.416   77.652  301.134    3.864
  547.000    0.468    0.423   81.181  310.814    4.105
  547.250    0.290    0.437   79.780  291.847    4.502
