~VERSION INFORMATION
 VERS.                 2.0:   CWLS LOG ASCII STANDARD -VERSION 2.0
 WRAP.                  NO:   ONE LINE PER DEPTH STEP
~WELL INFORMATION BLOCK
#MNEM.UNIT           DATA                    DESCRIPTION OF MNEMONIC
#---------    -------------------            -------------------------------
# Generated from Intellog Unique Number	CW_70_72/WELL/3310
NULL.         -999.25                        : NULL_VALUE
WELL.         HOME ALMX SMITH                : Well_name    - WELL              
LOC .         10-33-072-26W4                 : Location     - LOCATION          
UWI .         00/10-33-072-26W4/0            : Uwi          - UNIQUE WELL ID    
ENTR.         CAMPBELL                       : Entered      - ENTERED BY        
SRVC.         SCHLUMBERGER                   : Scn          - SERVICE COMPANY   
DATE.         24 NOV 77                      : Date         - LOG DATE          
STRT.M        533.4                          : top_depth    - START DEPTH       
STOP.M        679.65                         : bot_depth    - STOP DEPTH        
STEP.M        0.25                           : increment    - STEP LENGTH       
~CURVE INFORMATION BLOCK
#MNEM UNIT       ERCB CURVE CODE    CURVE DESCRIPTION
#-----------   ------------------   ----------------------------------
DEPT.M        00 001 00 00         : DEPTH        - DEPTH                       
DELT.US/F     00 520 00 00         : DELT         - SONIC TRAVEL TIME           
CALI.MM       00 280 01 00         : CAL          - CALIPER                     
GR  .API      00 310 00 00         : GR           - GAMMA RAY                   
ILD .OHMM     00 120 00 00         : RESD         - DEEP RESISTIVITY (DIL)      
~PARAMETER INFORMATION       
#MNEM.UNIT           DATA             DESCRIPTION OF MNEMONIC
#---------         -----------     ------------------------------
GL  .M        652.272              : gl           - GROUND LEVEL ELEVATION      
EREF.M        656.082              : kb           - ELEVATION OF DEPTH REFERENCE
DATM.M        656.082              : datum        - DATUM ELEVATION             
TDD .M        722.986              : tdd          - TOTAL DEPTH DRILLER         
RUN .         ONE                  : Run          - RUN NUMBER                  
ENG .         PLUME                : Engineer     - RECORDING ENGINEER          
WIT .         WIGGINS              : Witness      - WITNESSED BY                
MUD .         GEL                  : Mud_type     - MUD TYPE                    
MATR.         SANDSTONE            : Logunit      - NEUTRON MATRIX              
TMAX.C        27.2222              : BHT          - MAXIMUM RECORDED TEMPERATURE
BHTD.M        722.986              : BHTDEP       - MAXIMUM RECORDED TEMPERATURE
RMT .C        25                   : MDTP         - TEMPERATURE OF MUD          
MUDD.KG/M     3800                 : MWT          - MUD DENSITY                 
NEUT.         1                    : NEUTRON      - NEUTRON TYPE                
RESI.         0                    : RESIST       - RESISTIVITY TYPE            
RM  .OHMM     2.66                 : RM           - RESISTIVITY OF MUD          
RMC .OHMM     3.01                 : RMC          - RESISTIVITY OF MUD CAKE     
RMF .OHMM     1.71                 : RMF          - RESISTIVITY OF MUD FILTRATE 
SUFT.C        10                   : SUFT         - SURFACE TEMPERATURE         
~A  DEPTH     DELT      CAL       GR     RESD
  533.400  381.288  228.312   56.175    7.350
  533.650  380.928  230.842   52.723    7.505
  533.900  380.906  231.871   53.614    7.351
  534.150  378.639  231.408   56.530    7.081
  534.400  372.851  230.936   60.022    6.733
  534.650  370.260  231.478   56.281    6.424
  534.900  375.031  231.002   56.595    6.502
  535.150  380.434  230.040   56.321    6.734
  535.400  384.885  229.572   57.212    6.464
  535.650  391.890  228.609   59.551    6.039
  535.900  396.977  228.640   58.121    5.769
  536.150  393.427  229.167   54.956    5.885
  536.400  388.918  228.707   54.399    8.555
  536.650  389.212  228.235   54.422   15.016
  536.900  391.414  228.274   54.442   16.641
  537.150  391.069  228.801   54.460   18.808
  537.400  390.720  229.331   55.061   19.389
  537.650  391.967  229.370   56.819   17.803
  537.900  391.937  229.398   58.868   14.747
  538.150  390.942  229.425   58.891   14.129
  538.400  390.281  229.464   58.908   14.942
  538.650  390.248  229.496   58.931   15.561
  538.900  389.576  229.523   59.243   13.627
  539.150  388.587  229.558   59.842    6.897
  539.400  387.283  229.090   60.439    6.239
  539.650  381.814  228.623   61.620    5.582
  539.900  376.350  228.159   60.484    5.351
  540.150  376.953  228.190   57.319    5.274
  540.400  374.369  229.220   57.337    5.274
  540.650  366.986  228.756   56.199    5.004
  540.900  360.238  228.288   54.484    5.043
  541.150  353.495  227.820   54.507    5.159
  541.400  355.064  228.355   56.264    5.353
  541.650  360.464  229.384   58.024    5.586
  541.900  360.435  229.415   57.752    6.553
  542.150  356.569  229.451   57.772    7.366
  542.400  358.142  229.482   57.502    8.527
  542.650  364.508  230.008   55.788    9.766
  542.900  375.670  231.045   55.810    9.534
  543.150  361.568  231.576   54.962    8.451
  543.400  345.868  231.112   52.374    7.214
  543.650  363.745  231.139   51.241    6.828
  543.900  388.340  231.171   53.864    6.673
  544.150  381.916  231.202   56.490    6.674
  544.400  369.413  231.736   53.620    6.597
  544.650  373.221  232.267   54.798    6.327
  544.900  377.988  233.296   56.553    5.901
  545.150  375.397  234.329   58.315    5.438
  545.400  339.233  235.359   58.043    5.167
  545.650  284.200  236.891   57.484    5.361
  545.900  246.753  237.421   53.740    5.787
  546.150  240.329  236.451   48.838    6.484
  546.400  236.775  235.484   48.282    6.368
  546.650  235.787  235.519   49.462    6.098
  546.900  261.665  234.552   47.743    5.944
  547.150  288.175  233.586   49.216    5.867
  547.400  292.622  232.124   50.973    5.867
  547.650  264.132  231.161   45.489    5.945
  547.900  260.902  231.192   45.801    5.984
  548.150  308.203  231.224   49.586    5.753
  548.400  373.729  231.255   56.844    5.366
  548.650  377.853  232.284   67.582    5.290
  548.900  377.828  234.312   67.605    5.251
  549.150  377.152  235.848   65.595    5.290
  549.400  374.888  236.877   64.747    5.368
  549.650  367.821  236.905   64.767    5.794
  549.900  362.996  236.441   64.213    5.988
  550.150  363.606  232.979   63.075    5.795
  550.400  369.652  230.020   62.513    5.679
  550.650  378.253  228.055   59.349    5.719
  550.900  379.506  227.587   57.632    5.874
  551.150  372.759  227.619   57.362    5.952
  551.400  302.694  231.147   57.966    5.836
  551.650  271.006  226.683   58.565    5.682
  551.900  294.962  226.223   56.559    5.450
  552.150  337.783  229.744   56.000    5.451
  552.400  365.575  231.772   59.494    5.529
  552.650  371.930  232.302   59.804    5.568
  552.900  372.864  230.337   60.121    5.607
  553.150  374.118  228.875   58.399    5.607
  553.400  374.405  228.906   57.553    5.608
  553.650  376.617  228.938   58.154    5.647
  553.900  375.945  228.969   60.491    5.647
  554.150  373.038  228.505   61.377    5.648
  554.400  374.604  228.537   61.108    5.571
  554.650  376.497  228.069   57.943    5.687
  554.900  377.104  227.605   55.362    5.765
  555.150  379.313  227.137   62.618    5.804
  555.400  376.723  226.171   65.246    5.805
  555.650  372.857  226.202   60.923    5.767
  555.900  374.739  226.241   58.917    5.728
  556.150  376.635  226.272   58.358    5.806
  556.400  377.242  226.300   60.405    6.000
  556.650  374.655  226.335   64.481    6.233
  556.900  369.830  226.374   66.238    6.465
  557.150  369.477  226.398   63.073    6.659
  557.400  372.649  226.433   67.150    6.892
  557.650  375.810  225.961   68.907    7.124
  557.900  376.105  225.497   58.793    7.318
  558.150  377.991  225.537   65.767    7.435
  558.400  377.642  225.564   63.181    7.358
  558.650  377.293  225.595   64.070    7.242
  558.900  377.264  225.630   63.221    6.972
  559.150  374.993  226.161   63.244    6.740
  559.400  373.685  226.687   64.712    6.663
  559.650  372.693  227.225   68.204    6.625
  559.900  372.344  227.756   65.913    6.587
  560.150  372.635  227.787   64.196    6.471
  560.400  373.568  228.314   64.792    6.433
  560.650  375.134  228.848   65.681    6.434
  560.900  376.381  229.378   66.572    6.511
  561.150  374.113  229.916   69.201    6.628
  561.400  370.887  230.942   66.615    6.744
  561.650  369.898  231.476   66.056    6.900
  561.900  370.829  232.006   67.234    7.171
  562.150  371.116  232.537   68.123    7.713
  562.400  372.358  233.067   67.858    7.636
  562.650  372.656  234.100   65.852    7.056
  562.900  370.066  234.627   65.293    6.515
  563.150  370.040  236.163   73.709    5.897
  563.400  373.521  237.192   71.703    5.858
  563.650  372.536  238.218   67.959    5.897
  563.900  369.946  240.249   67.984    6.246
  564.150  370.236  241.782   68.873    6.633
  564.400  369.564  242.312   70.051    7.098
  564.650  365.698  243.337   70.939    7.679
  564.900  361.512  244.375   69.799    8.066
  565.150  358.282  244.905   72.430    8.183
  565.400  361.774  246.936   74.474    7.641
  565.650  360.785  247.958   75.076    7.449
  565.900  354.997  250.492   74.230    7.526
  566.150  352.726  253.019   73.960    7.566
  566.400  351.422  254.044   73.691    8.185
  566.650  353.624  256.079   73.711   10.468
  566.900  356.792  257.105   68.230   12.093
  567.150  357.402  258.637   68.542   13.796
  567.400  357.054  259.666   70.589   15.111
  567.650  357.664  261.199   72.062   13.796
  567.900  359.230  262.228   72.945   12.366
  568.150  363.042  262.256   72.386   10.780
  568.400  368.768  262.790   69.803    9.852
  568.650  373.851  263.320   68.086    8.692
  568.900  369.346  263.854   67.817    8.306
  569.150  364.520  263.886   66.678    8.229
  569.400  360.651  263.422   63.806    8.191
  569.650  357.744  262.463   64.695    8.191
  569.900  357.715  261.991   69.926    8.307
  570.150  368.557  261.025   76.900    8.269
  570.400  375.243  260.553   79.234    8.154
  570.650  372.972  259.590   77.806    8.077
  570.900  370.704  258.124   77.832    8.155
  571.150  368.117  257.162   75.533    8.426
  571.400  366.809  257.193   72.081    8.774
  571.650  362.940  256.230   73.262    9.239
  571.900  348.202  255.255   75.596   10.091
  572.150  336.658  253.794   79.959   11.136
  572.400  350.059  252.328   85.480   11.948
  572.650  362.500  251.361   75.656   12.452
  572.900  373.026  249.404   66.700   12.684
  573.150  374.912  248.437   67.881   12.994
  573.400  338.108  246.469   67.901   12.879
  573.650  302.899  245.003   64.157   10.520
  573.900  274.729  242.040   58.679    9.089
  574.150  267.345  241.089   58.122    8.393
  574.400  285.222  242.613   57.561    8.161
  574.650  307.256  244.138   58.160    8.046
  574.900  321.939  246.664   60.212    8.201
  575.150  327.985  249.199   62.835    8.317
  575.400  334.990  250.719   64.882    8.356
  575.650  349.030  253.249   65.773    7.970
  575.900  355.073  255.277   73.032    7.622
  576.150  352.486  257.304   74.210    7.391
  576.400  348.300  258.338   68.152    7.159
  576.650  346.992  258.868   65.569    7.005
