~VERSION INFORMATION
 VERS.                 2.0:   CWLS LOG ASCII STANDARD -VERSION 2.0
 WRAP.                  NO:   ONE LINE PER DEPTH STEP
~WELL INFORMATION BLOCK
#MNEM.UNIT           DATA                    DESCRIPTION OF MNEMONIC
#---------    -------------------            -------------------------------
# Generated from Intellog Unique Number	CS_71_72/WELL/3247
WELL.         GEOG WANDER                    : Well_name    - WELL
LOC .         00/11-18-071-13W4/0            : Location     - LOCATION
UWI .         00/11-18-071-13W4/0            : Uwi          - UNIQUE WELL ID
ENTR.         T                              : Entered      - ENTERED BY
SRVC.         SCHLUMBERGER                   : Scn          - SERVICE COMPANY
DATE.         01/30/92                       : Date         - LOG DATE
STRT.M        329.184                        : top_depth    - START DEPTH
STOP.M        545.684                        : bot_depth    - STOP DEPTH
STEP.M        0.25                           : increment    - STEP LENGTH
 NULL. -999.2500:NULL Value
~CURVE INFORMATION BLOCK
#MNEM UNIT       ERCB CURVE CODE    CURVE DESCRIPTION
#-----------   ------------------   ----------------------------------
DEPT.M        00 001 00 00         : DEPTH        - DEPTH
GR  .API      00 310 00 00         : GR           - GAMMA RAY
NPHI.V/V      00 330 00 00         : PHIN         - NEUTRON POROSITY (SANDSTONE)
ILD .OHMM     00 120 00 00         : RESD         - DEEP RESISTIVITY (DIL)
~PARAMETER INFORMATION
#MNEM.UNIT           DATA             DESCRIPTION OF MNEMONIC
#---------         -----------     ------------------------------
GL  .M        644.957              : gl           - GROUND LEVEL ELEVATION
EREF.M        648.005              : kb           - ELEVATION OF DEPTH REFERENCE
DATM.M        648.005              : datum        - DATUM ELEVATION
TDD .M        546.811              : tdd          - TOTAL DEPTH DRILLER
RUN .         ONE                  : Run          - RUN NUMBER
ENG .         BILL                 : Engineer     - RECORDING ENGINEER
WIT .         JIM                  : Witness      - WITNESSED BY
MUD .         GEL                  : Mud_type     - MUD TYPE
MATR.         SANDSTONE            : Logunit      - NEUTRON MATRIX
TMAX.C        26.6667              : BHT          - MAXIMUM RECORDED TEMPERATURE
BHTD.M        546.202              : BHTDEP       - MAXIMUM RECORDED TEMPERATURE
RMT .C        17.7778              : MDTP         - TEMPERATURE OF MUD
MUDD.KG/M     10000                : MWT          - MUD DENSITY
NEUT.         1                    : NEUTRON      - NEUTRON TYPE
RESI.         0                    : RESIST       - RESISTIVITY TYPE
RM  .OHMM     5                    : RM           - RESISTIVITY OF MUD
RMC .OHMM     4.1                  : RMC          - RESISTIVITY OF MUD CAKE
RMF .OHMM     3.5                  : RMF          - RESISTIVITY OF MUD FILTRATE
SUFT.C        4                    : SUFT         - SURFACE TEMPERATURE
~A  DEPTH       GR     PHIN     RESD
# ...
  383.434   97.478    0.429    4.027
  383.684   95.736    0.433    4.190
  383.934   93.993    0.440    4.445
  384.184   92.250    0.446    4.535
  384.434   90.514    0.452    4.117
  384.684   92.316    0.459    3.810
  384.934   94.700    0.465    3.595
  385.184   97.099    0.473    3.460
  385.434   98.309    0.484    3.530
  385.684   97.747    0.484    3.895
  385.934   94.831    0.478    4.213
  386.184   91.907    0.470    4.928
  386.434   90.754    0.458    5.028
  386.684   90.791    0.441    5.130
  386.934   91.403    0.416    5.337
  387.184   91.432    0.416    5.341
  387.434   91.462    0.416    5.344
  387.684   90.893    0.416    5.348
  387.934   90.346    0.416    5.351
  388.184   90.375    0.416    5.355
  388.434   90.995    0.414    5.359
  388.684   91.031    0.411    5.466
  388.934   91.636    0.408    5.470
  389.184   91.665    0.387    5.581
  389.434   93.466    0.371    5.695
  389.684   92.912    0.374    5.697
  389.934   92.358    0.375    5.702
  390.184   94.159    0.380    5.705
  390.434   94.771    0.380    5.599
  390.684   95.398    0.385    5.388
  390.934   93.655    0.386    5.288
  391.184   92.496    0.389    5.290
  391.434   91.351    0.393    5.294
  391.684   90.789    0.393    5.297
  391.934   92.598    0.394    5.301
  392.184   93.217    0.397    5.304
  392.434   92.058    0.397    5.307
  392.684   88.543    0.399    5.312
  392.934   83.847    0.403    5.314
  393.184   77.380    0.411    5.316
  393.434   73.275    0.418    5.320
  393.684   72.130    0.416    5.323
  393.934   72.151    0.414    5.329
  394.184   71.597    0.414    5.332
  394.434   71.619    0.414    5.334
  394.684   72.246    0.416    5.336
  394.934   74.047    0.413    5.340
  395.184   77.620    0.408    5.343
  395.434   81.200    0.396    5.347
  395.684   84.765    0.398    5.351
  395.934   88.929    0.398    5.354
  396.184   91.328    0.399    5.357
  396.434   88.994    0.399    5.360
  396.684   84.306    0.401    5.470
  396.934   81.382    0.406    5.366
  397.184   79.639    0.417    5.370
  397.434   79.661    0.433    5.068
  397.684   80.878    0.428    4.690
  397.934   82.081    0.425    4.428
  398.184   83.292    0.423    4.430
  398.434   85.691    0.420    4.433
  398.684   89.271    0.410    4.523
  398.934   94.017    0.403    4.706
  399.184   97.590    0.398    4.801
  399.434  100.572    0.397    4.899
  399.684  101.199    0.397    4.999
  399.934  101.228    0.398    5.002
  400.184  101.265    0.400    5.005
  400.434  100.710    0.400    5.008
  400.684  100.725    0.401    4.915
  400.934  100.754    0.408    4.822
  401.184  100.200    0.409    4.921
  401.434   99.040    0.403    4.923
  401.684   97.888    0.396    5.023
  401.934   96.145    0.390    5.027
  402.184   97.363    0.383    5.031
  402.434   97.392    0.378    5.033
  402.684   96.247    0.377    5.036
  402.934   94.505    0.376    5.040
  403.184   93.345    0.378    4.945
  403.434   92.193    0.381    4.758
  403.684   90.450    0.388    4.491
  403.934   89.298    0.396    3.922
  404.184   87.555    0.407    3.773
  404.434   86.994    0.415    3.631
  404.684   85.258    0.418    3.361
  404.934   83.516    0.424    3.497
  405.184   81.189    0.427    3.710
  405.434   78.863    0.424    3.859
  405.684   77.106    0.421    4.094
  405.934   73.599    0.414    4.517
  406.184   70.084    0.409    4.792
  406.434   65.388    0.409    4.795
  406.684   60.685    0.409    4.798
  406.934   53.044    0.414    4.800
  407.184   53.073    0.417    4.804
  407.434   53.685    0.417    4.807
  407.684   54.903    0.419    4.810
  407.934   55.523    0.422    4.813
  408.184   56.733    0.423    4.815
  408.434   57.352    0.428    4.820
  408.684   57.382    0.428    4.821
  408.934   57.418    0.429    4.826
  409.184   57.454    0.433    4.828
  409.434   56.878    0.434    4.830
  409.684   56.317    0.432    4.650
  409.934   57.527    0.424    4.562
  410.184   59.933    0.419    4.391
  410.434   59.962    0.407    4.225
  410.684   59.394    0.403    4.148
  410.934   57.075    0.402    4.068
  411.184   56.506    0.402    4.071
  411.434   55.944    0.401    4.074
  411.684   58.329    0.405    3.998
  411.934   61.325    0.406    4.000
  412.184   63.133    0.408    3.925
  412.434   64.329    0.408    3.853
  412.684   64.358    0.412    3.854
  412.934   62.630    0.425    3.782
  413.184   61.471    0.430    3.711
  413.434   60.909    0.430    3.713
  413.684   61.529    0.430    3.716
  413.934   61.558    0.430    3.719
  414.184   62.776    0.430    3.720
  414.434   63.979    0.429    3.871
  414.684   64.606    0.431    3.950
  414.934   64.051    0.433    4.030
  415.184   64.073    0.434    4.033
  415.434   63.504    0.434    3.957
  415.684   64.131    0.436    3.882
  415.934   65.342    0.437    3.812
  416.184   66.559    0.437    3.813
  416.434   66.581    0.435    3.741
  416.684   66.610    0.432    3.672
  416.934   66.647    0.432    3.603
  417.184   67.259    0.430    3.606
  417.434   67.879    0.429    3.537
  417.684   69.096    0.429    3.540
  417.934   69.723    0.429    3.543
  418.184   71.524    0.428    3.614
  418.434   72.137    0.428    3.761
  418.684   73.952    0.428    3.913
  418.934   75.746    0.427    4.232
  419.184   76.373    0.422    4.950
  419.434   75.797    0.417    5.678
  419.684   75.250    0.412    6.771
  419.934   75.272    0.405    8.730
  420.184   74.710    0.397   11.478
  420.434   73.565    0.386   13.687
  420.684   71.232    0.306   21.035
  420.934   67.710    0.223   28.198
  421.184   63.014    0.100   37.072
  421.434   58.909    0.093   41.699
  421.684   55.394    0.101   41.730
  421.934   55.438    0.095   40.949
  422.184   56.043    0.088   39.413
  422.434   56.663    0.080   36.472
  422.684   59.062    0.073   31.223
  422.934   61.460    0.070   24.246
  423.184   63.845    0.070   18.108
  423.434   67.425    0.081   12.510
  423.684   69.816    0.091   10.300
  423.934   71.019    0.102    8.157
  424.184   74.614    0.149    7.260
  424.434   75.226    0.239    6.337
  424.684   76.429    0.267    5.642
  424.934   78.238    0.243    5.428
  425.184   78.857    0.222    5.026
  425.434   79.477    0.385    4.836
  425.684   80.097    0.409    4.654
  425.934   81.322    0.417    4.479
  426.184   81.934    0.429    4.481
  426.434   82.554    0.437    4.398
  426.684   82.590    0.439    4.401
  426.934   82.605    0.437    4.318
  427.184   83.822    0.432    4.321
  427.434   84.435    0.429    4.323
  427.684   85.069    0.424    4.411
  427.934   85.098    0.418    4.414
  428.184   85.718    0.416    4.503
  428.434   86.330    0.416    4.506
  428.684   87.548    0.416    4.509
  428.934   88.168    0.422    4.512
  429.184   88.189    0.425    4.516
  429.434   88.823    0.425    4.518
  429.684   88.845    0.422    4.520
  429.934   88.882    0.417    4.524
  430.184   88.911    0.417    4.527
  430.434   88.940    0.415    4.529
  430.684   89.560    0.415    4.531
  430.934   90.172    0.415    4.534
  431.184   91.397    0.415    4.538
  431.434   91.419    0.415    4.540
  431.684   90.865    0.417    4.543
  431.934   89.712    0.423    4.547
  432.184   88.560    0.426    4.549
  432.434   87.999    0.423    4.551
  432.684   86.847    0.421    4.466
  432.934   86.883    0.423    4.470
  433.184   86.314    0.427    4.472
  433.434   86.336    0.431    4.475
  433.684   86.372    0.432    4.478
  433.934   86.409    0.430    4.480
  434.184   87.028    0.429    4.483
  434.434   87.050    0.429    4.400
  434.684   88.260    0.429    4.402
  434.934   88.290    0.430    4.405
  435.184   87.735    0.424    4.408
  435.434   87.772    0.420    4.411
  435.684   87.786    0.417    4.329
  435.934   90.185    0.417    4.331
  436.184   91.403    0.419    4.250
  436.434   92.606    0.425    4.252
  436.684   92.635    0.428    4.173
  436.934   92.664    0.430    4.175
  437.184   90.921    0.431    4.178
  437.434   88.588    0.418    4.100
