~VERSION INFORMATION
 VERS.                 2.0:   CWLS LOG ASCII STANDARD -VERSION 2.0
 WRAP.                  NO:   ONE LINE PER DEPTH STEP
~WELL INFORMATION BLOCK
#MNEM.UNIT           DATA                    DESCRIPTION OF MNEMONIC
#---------    -------------------            -------------------------------
# Generated from Intellog Unique Number	CS_67_68/WELL/819
WELL.         GULF OIL CANADA LTD            : Well_name    - WELL
LOC .         00/11-07-068-17W4/0            : Location     - LOCATION
UWI .         00/11-07-068-17W4/0            : Uwi          - UNIQUE WELL ID
ENTR.         SP                             : Entered      - ENTERED BY
SRVC.         SCHLUMBERGER                   : Scn          - SERVICE COMPANY
STRT.M        298.704                        : top_depth    - START DEPTH
STOP.M        545.454                        : bot_depth    - STOP DEPTH
STEP.M        0.25                           : increment    - STEP LENGTH
 NULL. -999.2500:NULL Value
~CURVE INFORMATION BLOCK
#MNEM UNIT       ERCB CURVE CODE    CURVE DESCRIPTION
#-----------   ------------------   ----------------------------------
DEPT.M        00 001 00 00         : DEPTH        - DEPTH
GR  .API      00 310 00 00         : GR           - GAMMA RAY
DPHI.V/V      00 890 00 00         : PHID         - DENSITY POROSITY (SANDSTONE)
NPHI.V/V      00 330 00 00         : PHIN         - NEUTRON POROSITY (SANDSTONE)
ILD .OHMM     00 120 00 00         : RESD         - DEEP RESISTIVITY (DIL)
~PARAMETER INFORMATION
#MNEM.UNIT           DATA             DESCRIPTION OF MNEMONIC
#---------         -----------     ------------------------------
GL  .M        176.376              : gl           - GROUND LEVEL ELEVATION
EREF.M        177.595              : kb           - ELEVATION OF DEPTH REFERENCE
DATM.M        176.376              : datum        - DATUM ELEVATION
TDD .M        169.362              : tdd          - TOTAL DEPTH DRILLER
RUN .         ONE                  : Run          - RUN NUMBER
ENG .         BILL                 : Engineer     - RECORDING ENGINEER
WIT .         JIM                  : Witness      - WITNESSED BY
MUD .         GEL                  : Mud_type     - MUD TYPE
MATR.         SANDSTONE            : Logunit      - NEUTRON MATRIX
TMAX.C        20                   : BHT          - MAXIMUM RECORDED TEMPERATURE
BHTD.M        169.362              : BHTDEP       - MAXIMUM RECORDED TEMPERATURE
MATR.         1                    : LOGUNIT      - NEUTRON MATRIX
RMT .C        25                   : MDTP         - TEMPERATURE OF MUD
NEUT.         1                    : NEUTRON      - NEUTRON TYPE
RESI.         0                    : RESIST       - RESISTIVITY TYPE
RMC .OHMM     0.25                 : RMC          - RESISTIVITY OF MUD CAKE
RMF .OHMM     0.25                 : RMF          - RESISTIVITY OF MUD FILTRATE
SUFT.C        15                   : SUFT         - SURFACE TEMPERATURE
~A  DEPTH       GR     PHID     PHIN     RESD
# ...
  385.704  107.907    0.215    0.437    3.434
  385.954  110.751    0.225    0.428    3.538
  386.204  113.211    0.236    0.434    3.644
  386.454  114.381    0.242    0.429    3.744
  386.704  111.970    0.250    0.422    3.853
  386.954  107.731    0.258    0.430    3.969
  387.204  103.453    0.241    0.438    4.084
  387.454  100.484    0.229    0.429    4.151
  387.704  100.653    0.220    0.417    4.176
  387.954  102.415    0.211    0.410    4.074
  388.204  105.088    0.213    0.425    3.904
  388.454  107.270    0.226    0.436    3.785
  388.704  108.608    0.233    0.451    3.640
  388.954  109.053    0.238    0.473    3.557
  389.204  109.145    0.246    0.486    3.470
  389.454  109.572    0.238    0.498    3.423
  389.704  110.574    0.231    0.484    3.363
  389.954  111.557    0.224    0.465    3.245
  390.204  111.492    0.219    0.446    3.160
  390.454  109.905    0.216    0.430    3.268
  390.704  108.218    0.218    0.419    3.439
  390.954  107.439    0.224    0.423    3.638
  391.204  107.130    0.229    0.432    3.918
  391.454  106.989    0.226    0.440    4.270
  391.704  106.243    0.228    0.433    4.524
  391.954  103.243    0.233    0.427    4.696
  392.204   98.519    0.255    0.419    4.767
  392.454   94.638    0.279    0.415    4.649
  392.704   89.347    0.295    0.411    4.298
  392.954   83.334    0.302    0.410    3.814
  393.204   78.967    0.296    0.414    3.422
  393.454   80.691    0.289    0.430    3.026
  393.704   85.084    0.281    0.438    2.773
  393.954   88.420    0.274    0.431    2.624
  394.204   92.237    0.265    0.422    2.593
  394.454   95.071    0.254    0.415    2.761
  394.704   97.229    0.244    0.421    2.894
  394.954   99.256    0.238    0.429    3.103
  395.204  100.263    0.230    0.437    3.287
  395.454  100.412    0.228    0.421    3.509
  395.704   99.356    0.231    0.399    3.774
  395.954   98.629    0.240    0.385    3.987
  396.204   97.612    0.250    0.383    4.149
  396.454   95.695    0.256    0.396    4.219
  396.704   92.779    0.259    0.417    4.164
  396.954   89.959    0.262    0.420    4.054
  397.204   88.916    0.274    0.414    3.958
  397.454   88.229    0.287    0.425    3.809
  397.704   87.414    0.299    0.434    3.501
  397.954   86.107    0.308    0.431    3.305
  398.204   84.155    0.300    0.419    3.083
  398.454   81.361    0.309    0.411    2.881
  398.704   77.915    0.324    0.400    2.692
  398.954   75.175    0.332    0.391    2.494
  399.204   72.375    0.333    0.388    2.319
  399.454   71.329    0.327    0.399    2.140
  399.704   70.783    0.332    0.402    2.068
  399.954   71.011    0.334    0.392    1.978
  400.204   72.214    0.325    0.396    1.887
  400.454   73.999    0.315    0.404    1.824
  400.704   76.335    0.309    0.412    1.771
  400.954   79.642    0.311    0.417    1.702
  401.204   82.944    0.302    0.424    1.688
  401.454   85.301    0.292    0.435    1.762
  401.704   87.365    0.285    0.425    1.926
  401.954   89.939    0.289    0.414    2.140
  402.204   92.705    0.282    0.407    2.361
  402.454   96.257    0.266    0.405    2.539
  402.704   99.026    0.252    0.398    2.732
  402.954   99.367    0.238    0.391    2.814
  403.204   98.328    0.232    0.407    2.965
  403.454   96.188    0.242    0.423    3.161
  403.704   94.315    0.256    0.434    3.338
  403.954   93.305    0.268    0.446    3.445
  404.204   91.981    0.283    0.440    3.460
  404.454   91.545    0.283    0.424    3.410
  404.704   93.432    0.279    0.413    3.302
  404.954   95.867    0.262    0.412    3.200
  405.204   96.709    0.265    0.414    3.173
  405.454   97.096    0.273    0.420    3.153
  405.704   98.290    0.256    0.429    3.172
  405.954  100.439    0.237    0.438    3.271
  406.204  103.049    0.227    0.442    3.353
  406.454  104.367    0.230    0.423    3.417
  406.704  103.261    0.241    0.403    3.492
  406.954  103.616    0.247    0.387    3.568
  407.204  106.552    0.244    0.387    3.628
  407.454  108.764    0.226    0.400    3.712
  407.704  110.848    0.210    0.415    3.829
  407.954  112.059    0.221    0.422    3.996
  408.204  107.797    0.231    0.432    4.148
  408.454  104.355    0.234    0.441    4.112
  408.704  101.776    0.237    0.448    4.045
  408.954   99.594    0.243    0.451    3.957
  409.204   95.061    0.255    0.450    3.780
  409.454   89.942    0.273    0.443    3.655
  409.704   86.434    0.290    0.431    3.449
  409.954   85.809    0.311    0.424    3.135
  410.204   86.897    0.295    0.415    2.761
  410.454   88.222    0.290    0.407    2.582
  410.704   89.483    0.297    0.404    2.462
  410.954   90.297    0.300    0.409    2.369
  411.204   89.741    0.300    0.403    2.301
  411.454   87.498    0.309    0.399    2.250
  411.704   83.579    0.301    0.398    2.248
  411.954   80.653    0.291    0.400    2.305
  412.204   83.312    0.281    0.398    2.413
  412.454   85.217    0.274    0.396    2.525
  412.704   86.734    0.276    0.394    2.658
  412.954   87.325    0.278    0.395    2.795
  413.204   87.323    0.285    0.402    2.828
  413.454   87.056    0.296    0.414    2.725
  413.704   86.876    0.301    0.428    2.632
  413.954   87.837    0.283    0.424    2.579
  414.204   90.771    0.257    0.431    2.561
  414.454   96.229    0.246    0.432    2.606
  414.704  102.046    0.237    0.421    2.684
  414.954  105.771    0.230    0.413    2.737
  415.204  106.544    0.225    0.410    2.806
  415.454  103.592    0.231    0.414    2.870
  415.704  100.232    0.238    0.422    2.932
  415.954   96.356    0.243    0.438    3.000
  416.204   93.217    0.243    0.448    3.081
  416.454   90.844    0.242    0.455    3.141
  416.704   88.614    0.241    0.446    3.221
  416.954   86.747    0.248    0.436    3.222
  417.204   84.156    0.259    0.426    3.150
  417.454   81.077    0.273    0.418    2.956
  417.704   78.348    0.290    0.410    2.703
  417.954   75.249    0.301    0.403    2.473
  418.204   73.040    0.266    0.396    2.344
  418.454   69.949    0.200    0.381    2.406
  418.704   66.239    0.122    0.238    3.035
  418.954   61.722    0.043    0.200    3.739
  419.204   56.941    0.118    0.205    5.044
  419.454   57.999    0.166    0.264    6.884
  419.704   61.996    0.209    0.300    8.803
  419.954   64.725    0.247    0.345    8.904
  420.204   68.089    0.268    0.387    6.245
  420.454   70.677    0.299    0.406    4.437
  420.704   71.290    0.321    0.425    3.298
  420.954   70.705    0.329    0.435    2.625
  421.204   70.769    0.332    0.435    2.389
  421.454   72.351    0.328    0.424    2.221
  421.704   73.880    0.326    0.422    2.161
  421.954   75.182    0.328    0.424    2.164
  422.204   76.255    0.331    0.424    2.177
  422.454   77.413    0.325    0.425    2.196
  422.704   78.669    0.319    0.423    2.209
  422.954   79.422    0.315    0.411    2.212
  423.204   80.358    0.312    0.405    2.220
  423.454   81.299    0.311    0.409    2.215
  423.704   81.270    0.315    0.417    2.215
  423.954   79.840    0.316    0.422    2.214
  424.204   78.364    0.316    0.429    2.238
  424.454   77.822    0.308    0.425    2.275
  424.704   79.544    0.300    0.421    2.316
  424.954   82.370    0.288    0.422    2.472
  425.204   84.014    0.284    0.416    2.537
  425.454   85.236    0.287    0.408    2.661
  425.704   86.487    0.284    0.403    2.921
  425.954   87.805    0.270    0.403    3.105
  426.204   88.860    0.259    0.408    3.365
  426.454   90.097    0.251    0.408    3.541
  426.704   90.947    0.245    0.401    3.784
  426.954   92.088    0.243    0.405    3.874
  427.204   93.398    0.242    0.410    3.865
  427.454   94.864    0.234    0.412    3.804
  427.704   96.285    0.224    0.413    3.955
  427.954   97.452    0.212    0.411    4.001
  428.204   96.058    0.187    0.401    4.100
  428.454   93.232    0.150    0.369    4.208
  428.704   89.841    0.154    0.341    4.367
  428.954   86.394    0.175    0.367    4.569
