~VERSION INFORMATION
 VERS.                 2.0:   CWLS LOG ASCII STANDARD -VERSION 2.0
 WRAP.                  NO:   ONE LINE PER DEPTH STEP
~WELL INFORMATION BLOCK
#MNEM.UNIT           DATA                    DESCRIPTION OF MNEMONIC
#---------    -------------------            -------------------------------
# Generated from Intellog Unique Number	CS_73_76/WELL/851
WELL.         BOW VALLEY INDUSTRIES LTD.     : Well_name    - WELL
LOC .         00/11-30-073-13W4/0            : Location     - LOCATION
UWI .         00/11-30-073-13W4/0            : Uwi          - UNIQUE WELL ID
ENTR.         SP                             : Entered      - ENTERED BY
SRVC.         SCHLUMBERGER                   : Scn          - SERVICE COMPANY
STRT.M        325                            : top_depth    - START DEPTH
STOP.M        557                            : bot_depth    - STOP DEPTH
STEP.M        0.25                           : increment    - STEP LENGTH
 NULL. -999.2500:NULL Value
~CURVE INFORMATION BLOCK
#MNEM UNIT       ERCB CURVE CODE    CURVE DESCRIPTION
#-----------   ------------------   ----------------------------------
DEPT.M        00 001 00 00         : DEPTH        - DEPTH
ILD .OHMM     00 120 00 00         : RESD         - DEEP RESISTIVITY (DIL)
DPHI.V/V      00 890 00 00         : PHID         - DENSITY POROSITY (LIMESTONE)
NPHI.V/V      00 330 00 00         : PHIN         - NEUTRON POROSITY (LIMESTONE)
GR  .API      00 310 00 00         : GR           - GAMMA RAY
~PARAMETER INFORMATION
#MNEM.UNIT           DATA             DESCRIPTION OF MNEMONIC
#---------         -----------     ------------------------------
GL  .M        672.66               : gl           - GROUND LEVEL ELEVATION
EREF.M        676.31               : kb           - ELEVATION OF DEPTH REFERENCE
DATM.M        672.31               : datum        - DATUM ELEVATION
TDD .M        665                  : tdd          - TOTAL DEPTH DRILLER
RUN .         ONE                  : Run          - RUN NUMBER
ENG .         BILL                 : Engineer     - RECORDING ENGINEER
WIT .         JIM                  : Witness      - WITNESSED BY
MUD .         GEL                  : Mud_type     - MUD TYPE
MATR.         LIMESTONE            : Logunit      - NEUTRON MATRIX
TMAX.C        24                   : BHT          - MAXIMUM RECORDED TEMPERATURE
BHTD.M        665                  : BHTDEP       - MAXIMUM RECORDED TEMPERATURE
MATR.         1                    : LOGUNIT      - NEUTRON MATRIX
RMT .C        25                   : MDTP         - TEMPERATURE OF MUD
NEUT.         1                    : NEUTRON      - NEUTRON TYPE
RESI.         0                    : RESIST       - RESISTIVITY TYPE
RMC .OHMM     0.25                 : RMC          - RESISTIVITY OF MUD CAKE
RMF .OHMM     0.25                 : RMF          - RESISTIVITY OF MUD FILTRATE
SUFT.C        15                   : SUFT         - SURFACE TEMPERATURE
~A  DEPTH     RESD     PHID     PHIN       GR
# ...
  499.000    9.608    0.106    0.348   66.192
  499.250   11.593    0.135    0.351   66.206
  499.500   13.223    0.200    0.359   63.212
  499.750   14.527    0.228    0.363   60.813
  500.000   18.729    0.223    0.391   64.011
  500.250   18.366    0.213    0.402   65.825
  500.500   18.018    0.209    0.388   64.582
  500.750   16.709    0.209    0.403   64.562
  501.000   15.204    0.183    0.407   65.769
  501.250   14.637    0.172    0.393   71.237
  501.500   14.626    0.206    0.358   76.704
  501.750   15.743    0.225    0.363   79.736
  502.000   16.329    0.221    0.370   80.324
  502.250   16.626    0.206    0.365   75.426
  502.500   16.924    0.200    0.355   71.756
  502.750   16.600    0.204    0.340   70.515
  503.000   15.394    0.206    0.329   77.812
  503.250   13.496    0.207    0.347   95.474
  503.500   11.835    0.204    0.362  100.945
  503.750   10.378    0.205    0.394  101.532
  504.000    8.763    0.211    0.380  100.905
  504.250    8.280    0.209    0.373  101.499
  504.500    7.824    0.199    0.394  104.525
  504.750    7.392    0.193    0.400  106.945
  505.000    6.855    0.188    0.405  108.150
  505.250    7.519    0.183    0.417  105.691
  505.500    8.403    0.205    0.433   98.966
  505.750    9.749    0.226    0.437   89.802
  506.000   11.961    0.236    0.373   84.298
  506.250   14.951    0.214    0.356   78.182
  506.500   16.399    0.208    0.366   72.675
  506.750   16.697    0.216    0.380   68.391
  507.000   16.681    0.223    0.391   72.641
  507.250   15.755    0.231    0.398   74.451
  507.500   15.748    0.240    0.398   75.647
  507.750   15.446    0.249    0.403   75.632
  508.000   15.720    0.248    0.410   73.173
  508.250   16.000    0.228    0.400   71.938
  508.500   15.993    0.224    0.374   73.139
  508.750   15.977    0.220    0.368   70.069
  509.000   15.964    0.207    0.359   67.610
  509.250   15.956    0.205    0.356   70.639
  509.500   15.943    0.219    0.341   70.623
  509.750   15.343    0.234    0.336   68.169
  510.000   14.499    0.233    0.326   73.013
  510.250   12.474    0.180    0.342   74.219
  510.500   11.571    0.142    0.348   74.816
  510.750   13.174    0.138    0.362   74.191
  511.000   14.724    0.150    0.368   72.343
  511.250   14.710    0.170    0.374   73.541
  511.500   14.701    0.196    0.373   75.353
  511.750   14.417    0.187    0.358   74.114
  512.000   14.674    0.203    0.349   69.831
  512.250   15.222    0.212    0.341   63.712
  512.500   17.007    0.223    0.346   58.206
  512.750   17.977    0.242    0.360   55.144
  513.000   20.849    0.260    0.371   52.074
  513.250   22.873    0.269    0.363   50.837
  513.500   26.043    0.273    0.372   51.429
  513.750   29.110    0.281    0.392   48.968
  514.000   30.767    0.270    0.375   53.219
  514.250   23.670    0.241    0.360   61.737
  514.500   17.220    0.202    0.355   69.034
  514.750   14.010    0.176    0.355   74.497
  515.000   12.520    0.160    0.397   75.706
  515.250   10.186    0.136    0.431   84.218
  515.500    8.765    0.124    0.459   87.861
  515.750    8.130    0.140    0.479   86.620
  516.000    8.750    0.198    0.499   78.066
  516.250    9.424    0.226    0.402   70.126
  516.500   11.561    0.237    0.359   74.371
  516.750   13.666    0.228    0.371   75.576
  517.000   16.456    0.261    0.397   62.136
  517.250   17.387    0.270    0.424   56.026
  517.500   17.053    0.284    0.413   50.521
  517.750   17.358    0.300    0.375   44.407
  518.000   17.670    0.306    0.360   48.043
  518.250   17.662    0.303    0.352   51.073
  518.500   18.317    0.300    0.373   52.275
  518.750   18.646    0.299    0.384   49.202
  519.000   18.980    0.286    0.395   48.581
  519.250   18.969    0.257    0.406   50.393
  519.500   17.918    0.228    0.415   54.638
  519.750   16.306    0.224    0.398   61.936
  520.000   15.702    0.231    0.383   69.845
  520.250   14.024    0.229    0.390   78.361
  520.500   12.293    0.223    0.397   77.737
  520.750   11.402    0.210    0.396   84.420
  521.000    9.628    0.187    0.393   88.060
  521.250    9.271    0.183    0.371   89.872
  521.500    8.598    0.177    0.382   91.680
  521.750    7.972    0.170    0.391   95.314
  522.000    7.818    0.179    0.393   97.735
  522.250    7.811    0.183    0.396  100.160
  522.500    7.806    0.181    0.403   98.313
  522.750    7.798    0.176    0.384   91.584
  523.000    7.941    0.182    0.375   88.522
  523.250    7.934    0.193    0.369   99.472
  523.500    7.780    0.202    0.386  103.117
  523.750    7.774    0.191    0.397  102.490
  524.000    7.916    0.168    0.383   99.418
  524.250    8.365    0.191    0.375   93.914
  524.500    8.838    0.212    0.371   83.531
  524.750    9.513    0.228    0.363   67.665
  525.000    9.687    0.151    0.351   53.624
  525.250   10.046    0.168    0.349   62.749
  525.500   10.230    0.201    0.358   63.949
  525.750    9.663    0.224    0.360   60.272
  526.000    9.479    0.245    0.362   54.768
  526.250    9.294    0.259    0.368   48.652
  526.500    9.462    0.275    0.375   48.633
  526.750   10.185    0.280    0.375   51.655
  527.000   10.566    0.271    0.381   53.473
  527.250   11.163    0.271    0.395   56.504
  527.500   11.157    0.265    0.374   61.973
  527.750   10.739    0.254    0.361   68.659
  528.000   10.147    0.248    0.336   72.300
  528.250    8.896    0.221    0.328   71.061
  528.500    8.251    0.193    0.321   85.066
  528.750    7.795    0.160    0.343   92.366
  529.000    7.503    0.169    0.356   97.835
  529.250    7.356    0.176    0.362  105.736
  529.500    7.352    0.176    0.367  111.207
  529.750    7.343    0.164    0.377  111.191
  530.000    7.475    0.163    0.391  102.634
  530.250    7.752    0.188    0.404   91.033
  530.500    8.043    0.221    0.415   77.600
  530.750    8.345    0.254    0.418   65.392
  531.000    8.983    0.268    0.336   48.911
  531.250    9.492    0.271    0.326   54.378
  531.500    9.666    0.249    0.333   62.285
  531.750   10.026    0.242    0.347   65.316
  532.000   10.206    0.243    0.370   63.459
  532.250   10.389    0.234    0.380   64.670
  532.500   10.378    0.221    0.365   70.136
  532.750   10.180    0.208    0.355   74.990
  533.000    9.801    0.184    0.342   78.022
  533.250    8.921    0.160    0.319   81.663
  533.500    7.967    0.161    0.336   86.517
  533.750    7.387    0.168    0.358   88.333
  534.000    7.247    0.180    0.376   90.147
  534.250    6.976    0.161    0.386   80.984
  534.500    6.970    0.197    0.368   65.722
  534.750    7.229    0.234    0.344   50.462
  535.000    7.499    0.255    0.348   58.979
  535.250    7.776    0.258    0.350   68.710
  535.500    7.918    0.227    0.334   77.221
  535.750    8.061    0.204    0.319   81.475
  536.000    8.051    0.184    0.317   84.512
  536.250    7.897    0.167    0.333   91.198
  536.500    7.744    0.153    0.352   97.886
  536.750    7.736    0.154    0.361  102.133
  537.000    7.732    0.156    0.362  103.947
  537.250    7.727    0.154    0.365  101.490
  537.500    7.863    0.152    0.368   99.033
  537.750    8.006    0.146    0.367   94.743
  538.000    8.152    0.077    0.374   86.189
  538.250    8.454    0.017    0.381   80.078
  538.500    8.932    0.200    0.385   77.008
  538.750    9.096    0.235    0.395   71.503
  539.000    9.612    0.252    0.387   67.218
  539.250    9.785    0.232    0.372   72.687
  539.500    9.418    0.210    0.359   79.374
  539.750    9.066    0.196    0.354   83.015
  540.000    8.728    0.253    0.411   56.168
  540.250    8.401    0.307    0.577   34.810
  540.500    7.787    0.330    0.550   28.087
  540.750    7.494    0.280    0.333   23.191
  541.000    7.214    0.279    0.346   33.528
  541.250    6.944    0.306    0.379   36.567
  541.500    6.811    0.321    0.414   43.255
  541.750    6.680    0.319    0.437   42.622
  542.000    6.677    0.287    0.405   40.170
  542.250    6.672    0.273    0.375   41.371
