~VERSION INFORMATION
 VERS.                 2.0:   CWLS LOG ASCII STANDARD -VERSION 2.0
 WRAP.                  NO:   ONE LINE PER DEPTH STEP
~WELL INFORMATION BLOCK
#MNEM.UNIT           DATA                    DESCRIPTION OF MNEMONIC
#---------    -------------------            -------------------------------
# Generated from Intellog Unique Number	CS_73_76/WELL/3271
WELL.         DOME LEISMER                   : Well_name    - WELL
LOC .         00/12-13-076-10W4/0            : Location     - LOCATION
UWI .         00/12-13-076-10W4/0            : Uwi          - UNIQUE WELL ID
ENTR.         SP                             : Entered      - ENTERED BY
SRVC.         SCHLUMBERGER                   : Scn          - SERVICE COMPANY
STRT.M        250                            : top_depth    - START DEPTH
STOP.M        460                            : bot_depth    - STOP DEPTH
STEP.M        0.25                           : increment    - STEP LENGTH
 NULL. -999.2500:NULL Value
~CURVE INFORMATION BLOCK
#MNEM UNIT       ERCB CURVE CODE    CURVE DESCRIPTION
#-----------   ------------------   ----------------------------------
DEPT.M        00 001 00 00         : DEPTH        - DEPTH
DPHI.V/V      00 890 00 00         : PHID         - DENSITY POROSITY (LIMESTONE)
NPHI.V/V      00 330 00 00         : PHIN         - NEUTRON POROSITY (LIMESTONE)
GR  .API      00 310 00 00         : GR           - GAMMA RAY
ILD .OHMM     00 120 00 00         : RESD         - DEEP RESISTIVITY (DIL)
~PARAMETER INFORMATION
#MNEM.UNIT           DATA             DESCRIPTION OF MNEMONIC
#---------         -----------     ------------------------------
GL  .M        662.72               : gl           - GROUND LEVEL ELEVATION
EREF.M        667                  : kb           - ELEVATION OF DEPTH REFERENCE
DATM.M        667                  : datum        - DATUM ELEVATION
TDD .M        465                  : tdd          - TOTAL DEPTH DRILLER
RUN .         ONE                  : Run          - RUN NUMBER
ENG .         BILL                 : Engineer     - RECORDING ENGINEER
WIT .         JIM                  : Witness      - WITNESSED BY
MUD .         GEL                  : Mud_type     - MUD TYPE
MATR.         LIMESTONE            : Logunit      - NEUTRON MATRIX
TMAX.C        23                   : BHT          - MAXIMUM RECORDED TEMPERATURE
BHTD.M        465                  : BHTDEP       - MAXIMUM RECORDED TEMPERATURE
MATR.         1                    : LOGUNIT      - NEUTRON MATRIX
RMT .C        25                   : MDTP         - TEMPERATURE OF MUD
NEUT.         1                    : NEUTRON      - NEUTRON TYPE
RESI.         0                    : RESIST       - RESISTIVITY TYPE
RMC .OHMM     0.25                 : RMC          - RESISTIVITY OF MUD CAKE
RMF .OHMM     0.25                 : RMF          - RESISTIVITY OF MUD FILTRATE
SUFT.C        15                   : SUFT         - SURFACE TEMPERATURE
~A  DEPTH     PHID     PHIN       GR     RESD
# ...
  380.500    0.334    0.466   46.428    8.250
  380.750    0.257    0.417   47.045    8.092
  381.000    0.242    0.387   48.892    8.240
  381.250    0.263    0.420   51.347    8.235
  381.500    0.333    0.452   53.804    7.928
  381.750    0.345    0.447   51.978    7.775
  382.000    0.349    0.442   53.822    7.769
  382.250    0.350    0.441   55.053    7.622
  382.500    0.349    0.446   58.735    7.619
  382.750    0.345    0.465   57.519    7.758
  383.000    0.346    0.476   56.302    7.755
  383.250    0.350    0.469   56.922    7.750
  383.500    0.331    0.457   58.154    7.746
  383.750    0.315    0.456   60.613    7.741
  384.000    0.310    0.450   62.456    7.738
  384.250    0.314    0.439   65.525    7.734
  384.500    0.303    0.447   66.757    7.876
  384.750    0.285    0.453   63.093    7.872
  385.000    0.284    0.443   61.875    8.169
  385.250    0.295    0.443   60.047    8.165
  385.500    0.309    0.448   58.831    7.860
  385.750    0.326    0.434   57.002    7.565
  386.000    0.337    0.450   55.786    7.561
  386.250    0.356    0.458   55.182    7.700
  386.500    0.355    0.464   55.801    7.697
  386.750    0.346    0.445   55.197    7.406
  387.000    0.338    0.437   53.980    7.404
  387.250    0.337    0.438   52.764    7.684
  387.500    0.337    0.429   52.774    7.537
  387.750    0.331    0.414   54.004    7.254
  388.000    0.324    0.425   54.013    7.114
  388.250    0.316    0.432   54.632    6.978
  388.500    0.340    0.433   53.417    7.106
  388.750    0.348    0.441   51.590    6.971
  389.000    0.338    0.452   51.597    6.968
  389.250    0.325    0.461   52.216    6.964
  389.500    0.325    0.447   54.064    6.959
  389.750    0.333    0.438   54.683    6.955
  390.000    0.337    0.428   55.913    7.085
  390.250    0.338    0.435   58.373    6.948
  390.500    0.337    0.431   58.990    6.945
  390.750    0.333    0.437   58.998    6.940
  391.000    0.330    0.443   57.170    6.937
  391.250    0.331    0.444   57.792    6.935
  391.500    0.334    0.434   59.025    6.930
  391.750    0.337    0.425   60.256    6.927
  392.000    0.342    0.412   60.262    6.922
  392.250    0.338    0.404   60.271    6.790
  392.500    0.357    0.390   56.605    6.786
  392.750    0.378    0.437   54.779    6.911
  393.000    0.388    0.474   54.785    6.908
  393.250    0.360    0.502   56.017    6.904
  393.500    0.344    0.466   56.025    7.032
  393.750    0.338    0.450   56.033    6.897
  394.000    0.350    0.438   56.043    6.894
  394.250    0.354    0.437   56.051    6.890
  394.500    0.347    0.428   56.057    6.885
  394.750    0.352    0.422   57.291    6.881
  395.000    0.359    0.444   59.136    7.010
  395.250    0.358    0.454   56.693    7.412
  395.500    0.348    0.459   53.640    7.549
  395.750    0.355    0.475   54.261    7.688
  396.000    0.359    0.503   53.044    7.540
  396.250    0.353    0.506   51.215    7.397
  396.500    0.344    0.450   53.060    7.254
  396.750    0.344    0.439   56.742    7.249
  397.000    0.349    0.438   57.974    7.247
  397.250    0.350    0.429   57.982    7.242
  397.500    0.344    0.428   57.378    7.103
  397.750    0.342    0.428   54.937    7.101
  398.000    0.344    0.439   55.557    6.964
  398.250    0.348    0.443   56.179    6.831
  398.500    0.349    0.445   57.409    6.827
  398.750    0.342    0.449   56.806    6.824
  399.000    0.349    0.450   57.427    6.820
  399.250    0.361    0.470   58.659    6.945
  399.500    0.356    0.492   60.505    6.813
  399.750    0.353    0.501   58.062    6.809
  400.000    0.359    0.476   56.234    6.678
  400.250    0.355    0.457   57.467    6.675
  400.500    0.351    0.446   58.699    6.798
  400.750    0.343    0.448   57.482    6.667
  401.000    0.343    0.438   56.878    6.662
  401.250    0.340    0.429   56.886    6.787
  401.500    0.341    0.420   58.731    6.783
  401.750    0.340    0.427   57.513    6.779
  402.000    0.333    0.428   58.134    6.777
  402.250    0.335    0.433   59.366    6.772
  402.500    0.338    0.428   59.374    6.897
  402.750    0.335    0.441   57.545    6.894
  403.000    0.338    0.445   58.779    6.762
  403.250    0.331    0.439   57.562    6.630
  403.500    0.331    0.443   58.182    6.753
  403.750    0.333    0.451   59.415    6.750
  404.000    0.331    0.434   58.810    6.746
  404.250    0.345    0.409   58.206    6.743
  404.500    0.356    0.421   54.542    6.867
  404.750    0.352    0.436   56.385    6.864
  405.000    0.344    0.436   57.006    6.861
  405.250    0.345    0.439   55.177    6.603
  405.500    0.336    0.445   56.409    6.600
  405.750    0.335    0.450   55.193    6.721
  406.000    0.334    0.452   55.813    6.845
  406.250    0.334    0.449   56.433    6.842
  406.500    0.332    0.440   57.667    6.711
  406.750    0.336    0.440   59.511    6.835
  407.000    0.337    0.436   61.968    6.704
  407.250    0.331    0.425   61.976    6.701
  407.500    0.336    0.434   60.148    6.572
  407.750    0.342    0.441   58.318    6.567
  408.000    0.337    0.457   55.266    6.563
  408.250    0.329    0.484   53.437    6.685
  408.500    0.332    0.509   52.220    6.682
  408.750    0.337    0.479   51.615    6.553
  409.000    0.341    0.450   54.073    6.674
  409.250    0.341    0.429   56.531    6.671
  409.500    0.336    0.442   58.986    6.668
  409.750    0.332    0.451   62.668    6.540
  410.000    0.325    0.443   74.921    6.413
  410.250    0.311    0.438   84.727    6.291
  410.500    0.230    0.442   87.182    5.512
  410.750    0.237    0.461   85.354    4.829
  411.000    0.236    0.483   86.586    4.477
  411.250    0.245    0.512   86.594    4.150
  411.500    0.254    0.528   89.664    4.307
  411.750    0.251    0.511   93.957    4.640
  412.000    0.228    0.500   93.966    5.001
  412.250    0.235    0.483   95.198    5.288
  412.500    0.235    0.468   97.656    5.386
  412.750    0.231    0.473   94.601    5.590
  413.000    0.223    0.469   91.548    5.911
  413.250    0.228    0.461   89.720    6.370
  413.500    0.228    0.438   91.564    6.737
  413.750    0.225    0.420   94.633    7.124
  414.000    0.223    0.428   94.029    7.120
  414.250    0.222    0.452   92.201    6.983
  414.500    0.220    0.441   90.986    6.722
  414.750    0.205    0.433   89.772    5.779
  415.000    0.202    0.430   89.164    5.668
  415.250    0.213    0.443   87.947    5.355
  415.500    0.215    0.457   84.893    5.057
  415.750    0.197    0.476   84.290    4.778
  416.000    0.194    0.447   86.748    4.186
  416.250    0.248    0.443   87.978    3.736
  416.500    0.273    0.497   85.540    3.213
  416.750    0.312    0.554   85.547    2.660
  417.000    0.316    0.573   85.554    2.420
  417.250    0.300    0.579   82.501    2.373
  417.500    0.264    0.589   81.897    2.463
  417.750    0.269    0.563   81.292    2.508
  418.000    0.276    0.532   77.628    2.507
  418.250    0.280    0.547   76.410    2.459
  418.500    0.282    0.568   75.195    2.458
  418.750    0.286    0.563   78.262    2.503
  419.000    0.274    0.556   86.230    2.502
  419.250    0.270    0.563   86.239    2.596
  419.500    0.268    0.559   86.858    2.746
  419.750    0.249    0.556   88.091    2.904
  420.000    0.250    0.554   89.939    3.311
  420.250    0.255    0.534   89.948    3.636
  420.500    0.249    0.456   89.952    4.068
  420.750    0.237    0.437   90.572    4.467
  421.000    0.218    0.440   97.314    4.905
  421.250    0.213    0.458   94.874    5.386
  421.500    0.222    0.471   89.371    5.805
  421.750    0.163    0.428   81.420    6.495
  422.000    0.104    0.403   78.980    6.615
  422.250    0.130    0.396   82.660    6.248
  422.500    0.179    0.417   86.955    5.684
  422.750    0.225    0.466   88.801    5.075
  423.000    0.224    0.471   86.972    4.704
  423.250    0.218    0.450   90.041    4.279
  423.500    0.204    0.471   94.945    3.966
  423.750    0.197    0.474   93.729    3.890
