~VERSION INFORMATION
 VERS.                 2.0:   CWLS LOG ASCII STANDARD -VERSION 2.0
 WRAP.                  NO:   ONE LINE PER DEPTH STEP
~WELL INFORMATION BLOCK
#MNEM.UNIT           DATA                    DESCRIPTION OF MNEMONIC
#---------    -------------------            -------------------------------
# Generated from Intellog Unique Number	CW_70_72/WELL/1033
NULL.         -999.25                        : NULL_VALUE
WELL.         CHIEFCO ET AL SMITH 10-09      : Well_name    - WELL              
LOC .         10-09-071-26W4                 : Location     - LOCATION          
UWI .         00/10-09-071-26W4/0            : Uwi          - UNIQUE WELL ID    
ENTR.         JAYE                           : Entered      - ENTERED BY        
SRVC.         SCHLUMBERGER                   : Scn          - SERVICE COMPANY   
DATE.         7 JAN 76                       : Date         - LOG DATE          
STRT.M        432.816                        : top_depth    - START DEPTH       
STOP.M        691.816                        : bot_depth    - STOP DEPTH        
STEP.M        0.25                           : increment    - STEP LENGTH       
~CURVE INFORMATION BLOCK
#MNEM UNIT       ERCB CURVE CODE    CURVE DESCRIPTION
#-----------   ------------------   ----------------------------------
DEPT.M        00 001 00 00         : DEPTH        - DEPTH                       
DPHI.V/V      00 890 00 00         : PHID         - DENSITY POROSITY (SANDSTONE)
NPHI.V/V      00 330 00 00         : PHIN         - NEUTRON POROSITY (SANDSTONE)
GR  .API      00 310 00 00         : GR           - GAMMA RAY                   
CALI.MM       00 280 01 00         : CAL          - CALIPER                     
ILD .OHMM     00 120 00 00         : RESD         - DEEP RESISTIVITY (DLL)      
~PARAMETER INFORMATION       
#MNEM.UNIT           DATA             DESCRIPTION OF MNEMONIC
#---------         -----------     ------------------------------
GL  .M        622.365              : gl           - GROUND LEVEL ELEVATION      
EREF.M        625.45               : kb           - ELEVATION OF DEPTH REFERENCE
DATM.M        622.365              : datum        - DATUM ELEVATION             
TDD .M        708.965              : tdd          - TOTAL DEPTH DRILLER         
RUN .         ONE                  : Run          - RUN NUMBER                  
ENG .         MCDONALD             : Engineer     - RECORDING ENGINEER          
WIT .         GARDINER             : Witness      - WITNESSED BY                
BASE.         EDM                  : Branch       - HOME BASE OF LOGGING UNIT   
MUD .         GEL CHEM             : Mud_type     - MUD TYPE                    
MATR.         SANDSTONE            : Logunit      - NEUTRON MATRIX              
TMAX.C        28.3333              : BHT          - MAXIMUM RECORDED TEMPERATURE
BHTD.M        709.27               : BHTDEP       - MAXIMUM RECORDED TEMPERATURE
RMT .C        21.6667              : MDTP         - TEMPERATURE OF MUD          
MUDD.KG/M     0                    : MWT          - MUD DENSITY                 
NEUT.         1                    : NEUTRON      - NEUTRON TYPE                
RESI.         1                    : RESIST       - RESISTIVITY TYPE            
RM  .OHMM     3.34                 : RM           - RESISTIVITY OF MUD          
RMC .OHMM     2.63                 : RMC          - RESISTIVITY OF MUD CAKE     
RMF .OHMM     2.81                 : RMF          - RESISTIVITY OF MUD FILTRATE 
SUFT.C        0                    : SUFT         - SURFACE TEMPERATURE         
~A  DEPTH     PHID     PHIN       GR      CAL     RESD
# ...
  542.316    0.206    0.420   75.020  172.730    2.328
  542.566    0.242    0.440   76.601  172.628    2.327
  542.816    0.256    0.445   78.607  172.629    2.368
  543.066    0.241    0.419   77.453  172.733    2.437
  543.316    0.241    0.430   79.338  172.940    2.511
  543.566    0.234    0.435   82.620  172.941    2.641
  543.816    0.214    0.431   83.168  173.045    2.777
  544.066    0.226    0.426   77.091  173.354    2.893
  544.316    0.227    0.417   72.837  173.355    3.053
  544.566    0.198    0.390   70.285  173.665    3.205
  544.816    0.177    0.321   66.821  173.563    3.340
  545.066    0.149    0.328   67.308  173.770    3.350
  545.316    0.181    0.379   70.530  173.874    3.057
  545.566    0.259    0.432   71.807  173.875    2.821
  545.816    0.254    0.471   73.266  173.773    2.694
  546.066    0.235    0.460   76.427  173.465    2.654
  546.316    0.239    0.453   82.992  173.363    2.643
  546.566    0.254    0.465   85.363  173.262    2.661
  546.816    0.227    0.475   76.550  173.160    2.718
  547.066    0.252    0.485   75.275  173.366    2.842
  547.316    0.263    0.487   77.767  173.985    2.989
  547.566    0.245    0.455   80.138  178.206    3.160
  547.816    0.195    0.416   80.625  183.661    3.346
  548.066    0.187    0.421   82.692  185.824    3.506
  548.316    0.174    0.411   82.146  186.236    3.647
  548.566    0.174    0.399   83.180  186.340    3.862
  548.816    0.170    0.397   84.274  186.444    4.054
  549.066    0.185    0.402   84.700  186.548    4.216
  549.316    0.169    0.413   81.966  186.652    4.229
  549.566    0.175    0.419   84.762  186.550    4.143
  549.816    0.173    0.425   87.376  186.448    4.044
  550.066    0.160    0.431   87.316  186.552    3.948
  550.316    0.191    0.440   86.405  186.656    3.867
  550.566    0.176    0.435   85.919  185.834    3.789
  550.816    0.164    0.430   84.704  180.380    3.705
  551.066    0.178    0.435   81.544  176.367    3.630
  551.316    0.198    0.431   82.335  174.207    3.518
  551.566    0.204    0.418   82.336  173.488    3.403
  551.816    0.179    0.418   80.939  173.386    3.297
  552.066    0.162    0.441   76.077  173.490    3.230
  552.316    0.194    0.438   74.497  173.594    3.176
  552.566    0.201    0.417   75.349  173.801    3.268
  552.816    0.178    0.420   79.482  173.905    3.380
  553.066    0.164    0.423   79.118  174.111    3.535
  553.316    0.170    0.390   76.505  174.112    3.717
  553.566    0.163    0.374   77.296  174.525    3.937
  553.816    0.148    0.366   80.335  174.629    4.087
  554.066    0.133    0.400   83.861  174.733    4.130
  554.316    0.152    0.415   86.293  174.837    3.980
  554.566    0.175    0.431   84.227  175.147    3.726
  554.816    0.186    0.437   85.200  174.118    3.605
  555.066    0.179    0.416   88.179  174.737    3.531
  555.316    0.173    0.434   90.367  174.944    3.491
  555.566    0.163    0.455   92.313  174.842    3.476
  555.816    0.161    0.455   92.800  174.740    3.487
  556.066    0.200    0.439   91.159  174.741    3.491
  556.316    0.195    0.423   90.127  174.948    3.502
  556.566    0.178    0.411   87.879  175.258    3.513
  556.816    0.190    0.422   83.138  176.391    3.523
  557.066    0.192    0.432   84.112  177.524    3.534
  557.316    0.168    0.433   86.118  179.275    3.545
  557.566    0.179    0.432   88.610  180.408    3.562
  557.816    0.190    0.427   90.738  181.026    3.579
  558.066    0.165    0.431   94.021  180.924    3.603
  558.316    0.148    0.446   95.237  181.028    3.634
  558.566    0.163    0.447   95.541  181.132    3.678
  558.816    0.193    0.434   96.879  181.133    3.717
  559.066    0.171    0.426   99.797  181.134    3.776
  559.316    0.153    0.410   95.361  181.753    3.821
  559.566    0.126    0.412   95.544  182.062    3.882
  559.816    0.132    0.427   96.578  182.269    3.887
  560.066    0.160    0.426   97.490  182.373    3.808
  560.316    0.161    0.423   97.977  182.271    3.799
  560.566    0.164    0.426   98.160  182.478    3.831
  560.816    0.159    0.431   97.552  182.685    3.920
  561.066    0.143    0.422   96.034  183.098    4.019
  561.316    0.149    0.429   94.028  182.996    4.105
  561.566    0.143    0.422   88.863  182.482    4.332
  561.816    0.126    0.373   79.868  181.660    4.563
  562.066    0.093    0.340   78.046  180.838    4.652
  562.316    0.078    0.289   87.406  181.559    4.675
  562.566    0.062    0.311   97.678  183.516    4.672
  562.816    0.121    0.369  101.629  185.060    4.528
  563.066    0.134    0.402  102.663  186.090    4.340
  563.316    0.126    0.419   99.260  186.709    4.130
  563.566    0.138    0.431   93.061  187.019    4.010
  563.816    0.134    0.443   89.355  187.123    3.943
  564.066    0.150    0.432   86.073  187.330    3.891
  564.316    0.167    0.412   85.041  187.434    3.846
  564.566    0.186    0.397   88.809  187.640    3.865
  564.816    0.168    0.408   91.727  188.053    3.891
  565.066    0.152    0.415   93.247  188.054    3.881
  565.316    0.166    0.421   96.409  188.158    3.844
  565.566    0.170    0.426   92.519  188.056    3.814
  565.816    0.171    0.423   94.526  188.057    3.847
  566.066    0.150    0.419   96.046  187.852    3.972
  566.316    0.143    0.421   93.068  187.442    4.139
  566.566    0.134    0.420   90.820  186.928    4.329
  566.816    0.161    0.417   91.003  186.003    4.635
  567.066    0.188    0.420   91.550  185.180    4.864
  567.316    0.205    0.414   92.584  183.947    5.096
  567.566    0.167    0.414   95.442  182.610    5.234
  567.816    0.147    0.431   96.901  181.582    5.365
  568.066    0.147    0.452   94.045  180.862    5.520
  568.316    0.158    0.444   86.934  180.040    5.836
  568.566    0.110    0.450   78.730  179.629    6.503
  568.816    0.081    0.270   69.857  179.836    7.597
  569.066    0.022    0.240   59.343  180.557    9.252
  569.316   -0.008    0.224   52.172  181.176   12.073
  569.566   -0.021    0.211   53.510  182.103   12.810
  569.816    0.011    0.206   61.350  183.030    9.895
  570.066    0.041    0.291   74.844  183.752    7.826
  570.316    0.124    0.412   81.652  184.473    6.303
  570.566    0.154    0.401   81.713  185.092    5.360
  570.816    0.182    0.410   83.658  185.916    4.600
  571.066    0.180    0.418   86.516  186.329    4.377
  571.316    0.173    0.429   88.947  186.639    4.343
  571.566    0.161    0.436   88.705  186.948    4.388
  571.816    0.180    0.438   85.059  187.155    4.434
  572.066    0.181    0.433   84.512  187.156    4.553
  572.316    0.178    0.407   85.850  187.158    4.667
  572.566    0.184    0.420   86.033  187.158    4.768
  572.816    0.180    0.425   83.602  187.056    4.887
  573.066    0.203    0.418   79.956  187.057    4.947
  573.316    0.205    0.409   80.382  187.058    4.998
  573.566    0.185    0.396   81.295  187.060    5.032
  573.816    0.156    0.371   83.058  187.061    5.011
  574.066    0.139    0.374   87.252  186.959    4.944
  574.316    0.119    0.384   96.066  186.960    4.861
  574.566    0.136    0.398  101.232  187.064    4.771
  574.816    0.125    0.413   99.349  186.859    4.708
  575.066    0.127    0.416   98.681  186.963    4.671
  575.316    0.120    0.414   98.864  186.861    4.660
  575.566    0.134    0.409   97.953  187.068    4.640
  575.816    0.144    0.400   95.644  187.069    4.629
  576.066    0.156    0.404   92.605  187.173    4.619
  576.316    0.155    0.406   89.567  187.585    4.590
  576.566    0.127    0.403   91.938  187.792    4.580
  576.816    0.129    0.395   93.883  187.896    4.561
  577.066    0.139    0.396   95.768  188.000    4.541
  577.316    0.141    0.402   95.465  187.795    4.531
  577.566    0.140    0.407   93.642  187.590    4.519
  577.816    0.135    0.414   92.549  187.283    4.525
  578.066    0.140    0.425   93.643  187.078    4.530
  578.316    0.153    0.437   92.793  186.770    4.528
  578.566    0.151    0.441   93.341  186.874    4.525
