~VERSION INFORMATION
 VERS.                 2.0:   CWLS LOG ASCII STANDARD -VERSION 2.0
 WRAP.                  NO:   ONE LINE PER DEPTH STEP
~WELL INFORMATION BLOCK
#MNEM.UNIT           DATA                    DESCRIPTION OF MNEMONIC
#---------    -------------------            -------------------------------
# Generated from Intellog Unique Number	CW_82_90/WELL/1030
WELL.         AMOCO BRINTNELL 13-16          : Well_name    - WELL
LOC .         00/13-16-084-23W4/0            : Location     - LOCATION
UWI .         00/13-16-084-23W4/0            : Uwi          - UNIQUE WELL ID
ENTR.         JAYE                           : Entered      - ENTERED BY
SRVC.         SCHLUMBERGER                   : Scn          - SERVICE COMPANY
DATE.         25 FEB 86                      : Date         - LOG DATE
STRT.M        190                            : top_depth    - START DEPTH
STOP.M        410                            : bot_depth    - STOP DEPTH
STEP.M        0.25                           : increment    - STEP LENGTH
 NULL. -999.2500:NULL Value
~CURVE INFORMATION BLOCK
#MNEM UNIT       ERCB CURVE CODE    CURVE DESCRIPTION
#-----------   ------------------   ----------------------------------
DEPT.M        00 001 00 00         : DEPTH        - DEPTH
CALI.MM       00 280 01 00         : CAL          - CALIPER
GR  .API      00 310 00 00         : GR           - GAMMA RAY
NPHI.V/V      00 330 00 00         : PHIN         - NEUTRON POROSITY (SANDSTONE)
DPHI.V/V      00 890 00 00         : PHID         - DENSITY POROSITY (SANDSTONE)
ILD .OHMM     00 120 00 00         : RESD         - DEEP RESISTIVITY (DIL)
~PARAMETER INFORMATION
#MNEM.UNIT           DATA             DESCRIPTION OF MNEMONIC
#---------         -----------     ------------------------------
GL  .M        584.4                : gl           - GROUND LEVEL ELEVATION
EREF.M        588                  : kb           - ELEVATION OF DEPTH REFERENCE
DATM.M        584.4                : datum        - DATUM ELEVATION
TDD .M        413                  : tdd          - TOTAL DEPTH DRILLER
RUN .         ONE                  : Run          - RUN NUMBER
ENG .         VERNER               : Engineer     - RECORDING ENGINEER
WIT .         KOSS                 : Witness      - WITNESSED BY
BASE.         S.L.                 : Branch       - HOME BASE OF LOGGING UNIT
MUD .         GEL CHEM             : Mud_type     - MUD TYPE
MATR.         SANDSTONE            : Logunit      - NEUTRON MATRIX
TMAX.C        20                   : BHT          - MAXIMUM RECORDED TEMPERATURE
BHTD.M        413                  : BHTDEP       - MAXIMUM RECORDED TEMPERATURE
RMT .C        18.3                 : MDTP         - TEMPERATURE OF MUD
MUDD.KG/M     1130                 : MWT          - MUD DENSITY
NEUT.         1                    : NEUTRON      - NEUTRON TYPE
RESI.         0                    : RESIST       - RESISTIVITY TYPE
RM  .OHMM     4.13                 : RM           - RESISTIVITY OF MUD
RMC .OHMM     0                    : RMC          - RESISTIVITY OF MUD CAKE
RMF .OHMM     4.22                 : RMF          - RESISTIVITY OF MUD FILTRATE
SUFT.C        0                    : SUFT         - SURFACE TEMPERATURE
~A  DEPTH      CAL       GR     PHIN     PHID     RESD
# ...
  336.000  246.160   85.241    0.409    0.200   12.323
  336.250  247.756   82.309    0.432    0.207   12.362
  336.500  249.771   80.633    0.438    0.181   12.492
  336.750  251.583   80.591    0.422    0.161   12.582
  337.000  252.133   81.105    0.421    0.191   12.548
  337.250  252.364   81.623    0.424    0.207   12.467
  337.500  252.181   81.138    0.415    0.204   11.848
  337.750  250.538   79.837    0.419    0.182   11.386
  338.000  248.583   80.105    0.433    0.170   11.250
  338.250  246.204   80.436    0.451    0.184   11.101
  338.500  243.305   81.016    0.489    0.189   11.112
  338.750  242.080   82.101    0.481    0.166   11.124
  339.000  241.791   82.617    0.469    0.176   11.137
  339.250  241.926   83.701    0.441    0.217   11.027
  339.500  242.056   84.411    0.426    0.221   10.978
  339.750  242.396   85.617    0.429    0.212   10.969
  340.000  243.889   87.011    0.417    0.199   10.843
  340.250  245.590   85.461    0.417    0.205   10.854
  340.500  247.182   84.912    0.432    0.206   10.909
  340.750  249.514   86.937    0.442    0.197   11.023
  341.000  250.693   87.081    0.440    0.178   11.348
  341.250  250.613   85.717    0.427    0.174   12.062
  341.500  248.864   80.589    0.387    0.155   13.234
  341.750  245.755   77.913    0.347    0.134   14.518
  342.000  242.859   78.304    0.378    0.192   15.688
  342.250  242.478   80.826    0.393    0.226   16.708
  342.500  242.497   84.795    0.385    0.229   16.849
  342.750  243.147   84.122    0.372    0.226   16.467
  343.000  244.224   78.497    0.366    0.223   16.121
  343.250  244.981   78.574    0.392    0.224   15.698
  343.500  246.053   79.721    0.395    0.239   15.454
  343.750  247.338   79.487    0.396    0.238   15.241
  344.000  248.203   78.246    0.400    0.225   15.210
  344.250  249.067   78.580    0.401    0.218   15.251
  344.500  249.511   79.663    0.396    0.225   15.332
  344.750  250.062   79.990    0.380    0.248   15.375
  345.000  250.719   75.556    0.382    0.249   15.537
  345.250  251.477   74.820    0.364    0.241   15.876
  345.500  252.134   76.278    0.432    0.223   16.437
  345.750  252.890   79.304    0.449    0.206   15.977
  346.000  253.125   83.272    0.445    0.181   15.410
  346.250  254.407   80.905    0.427    0.163   14.315
  346.500  258.304   77.788    0.399    0.122   12.792
  346.750  261.260   80.000    0.382    0.138   11.579
  347.000  262.751   90.865    0.421    0.180   10.345
  347.250  263.094   93.079    0.440    0.189    9.006
  347.500  262.809   92.842    0.447    0.195    8.337
  347.750  262.098   91.415    0.456    0.193    8.042
  348.000  258.886   87.357    0.456    0.188    7.991
  348.250  256.933   83.799    0.444    0.188    8.120
  348.500  255.288   81.182    0.443    0.212    9.268
  348.750  253.435   78.249    0.435    0.208   10.810
  349.000  252.830   74.316    0.348    0.180   13.337
  349.250  251.296   68.251    0.312    0.035   16.486
  349.500  249.750   66.259    0.312    0.055   20.266
  349.750  248.318   65.586    0.339    0.085   21.419
  350.000  248.034   63.032    0.326    0.066   22.014
  350.250  248.058   62.671    0.323    0.050   22.088
  350.500  248.506   72.597    0.394    0.142   21.620
  350.750  249.056   78.446    0.410    0.204   20.237
  351.000  248.872   82.664    0.412    0.209   17.715
  351.250  245.976   82.242    0.408    0.213   15.363
  351.500  244.958   81.323    0.403    0.173   13.650
  351.750  246.451   81.651    0.418    0.146   12.850
  352.000  248.148   82.480    0.433    0.177   12.558
  352.250  250.265   81.870    0.442    0.187   12.529
  352.500  252.073   84.082    0.439    0.207   12.496
  352.750  252.725   86.546    0.429    0.211   12.515
  353.000  253.599   86.126    0.441    0.193   12.500
  353.250  253.721   84.948    0.451    0.174   12.284
  353.500  253.439   81.452    0.437    0.138   12.007
  353.750  252.837   79.463    0.409    0.116   11.777
  354.000  252.032   80.294    0.421    0.144   11.530
  354.250  251.952   84.011    0.440    0.181   11.455
  354.500  251.981   88.543    0.456    0.187   11.363
  354.750  252.222   87.809    0.463    0.188   11.213
  355.000  252.141   85.816    0.468    0.173   11.182
  355.250  249.033   85.331    0.459    0.164   11.051
  355.500  246.555   89.112    0.430    0.181   11.001
  355.750  246.580   92.013    0.421    0.177   10.891
  356.000  248.070   92.467    0.422    0.166   10.805
  356.250  251.128   91.858    0.439    0.166   10.756
  356.500  254.817   91.564    0.440    0.186   10.668
  356.750  256.626   92.580    0.436    0.186   10.484
  357.000  257.172   94.292    0.425    0.185   10.304
  357.250  257.726   96.439    0.417    0.189   10.223
  357.500  257.545   95.957    0.426    0.189   10.178
  357.750  253.501   94.906    0.426    0.180   10.148
  358.000  256.133   91.785    0.403    0.177   10.141
  358.250  250.098   90.991    0.374    0.171   10.252
  358.500  250.126   90.941    0.374    0.195   10.474
  358.750  250.259   89.830    0.386    0.196   11.195
  359.000  250.180   86.835    0.392    0.172   12.282
  359.250  249.893   76.629    0.346    0.041   14.524
  359.500  249.615   72.696    0.266    0.053   15.748
  359.750  249.740   74.035    0.290    0.169   18.236
  360.000  249.457   74.610    0.340    0.202   19.785
  360.250  249.488   75.817    0.357    0.207   19.443
  360.500  249.406   78.156    0.352    0.193   18.715
  360.750  249.435   79.927    0.366    0.199   17.360
  361.000  249.147   80.384    0.379    0.209   16.493
  361.250  248.446   80.090    0.390    0.203   15.851
  361.500  247.847   78.536    0.392    0.192   15.577
  361.750  247.557   75.354    0.387    0.200   15.538
  362.000  247.170   68.973    0.394    0.204   15.613
  362.250  247.301   65.669    0.388    0.167   15.865
  362.500  247.121   67.129    0.379    0.163   16.866
  362.750  238.471   67.461    0.366    0.139   18.782
  363.000  240.487   66.469    0.292    0.065   20.641
  363.250  242.395   63.788    0.274    0.027   22.344
  363.500  244.096   63.932    0.287    0.054   22.344
  363.750  245.585   64.830    0.336    0.133   24.699
  364.000  246.972   64.466    0.360    0.165   24.662
  364.250  247.105   58.462    0.354    0.158   24.513
  364.500  245.564   57.353    0.332    0.121   25.481
  364.750  246.533   56.931    0.282    0.070   27.071
  365.000  249.279   55.752    0.284    0.062   30.034
  365.250  250.560   53.450    0.276    0.060   33.445
  365.500  250.589   53.402    0.274    0.066   36.762
  365.750  249.782   56.932    0.281    0.071   38.559
  366.000  249.183   63.284    0.310    0.076   36.651
  366.250  248.999   68.442    0.378    0.165   34.495
  366.500  248.820   72.221    0.395    0.227   30.761
  366.750  248.852   76.064    0.389    0.237   25.796
  367.000  248.876   78.653    0.386    0.228   18.220
  367.250  247.437   78.480    0.387    0.206   16.190
  367.500  244.957   65.012    0.335    0.105   16.027
  367.750  244.050   62.082    0.303    0.038   17.395
  368.000  243.764   60.907    0.258    0.031   19.146
  368.250  243.058   63.058    0.277    0.125   22.632
  368.500  243.085   65.957    0.303    0.173   23.877
  368.750  243.425   70.427    0.379    0.170   23.160
  369.000  245.123   70.443    0.372    0.162   21.839
  369.250  247.972   72.719    0.370    0.155   18.455
  369.500  251.973   77.250    0.369    0.182   18.545
  369.750  255.034   83.225    0.391    0.205   19.132
  370.000  256.737   83.872    0.419    0.214   17.611
  370.250  256.551   80.686    0.433    0.196   16.120
  370.500  255.952   80.767    0.403    0.071   14.759
  370.750  255.560   81.599    0.406    0.076   14.023
  371.000  255.589   83.686    0.404    0.168   13.276
  371.250  255.097   88.530    0.396    0.176   12.733
  371.500  254.709   88.734    0.385    0.179   12.286
  371.750  254.312   82.918    0.400    0.163   12.046
  372.000  251.941   81.373    0.395    0.124   11.750
  372.250  251.340   81.196    0.381    0.074   11.422
