~VERSION INFORMATION
 VERS.                 2.0:   CWLS LOG ASCII STANDARD -VERSION 2.0
 WRAP.                  NO:   ONE LINE PER DEPTH STEP
~WELL INFORMATION BLOCK
#MNEM.UNIT           DATA                    DESCRIPTION OF MNEMONIC
#---------    -------------------            -------------------------------
# Generated from Intellog Unique Number	CW_82_90/WELL/3082
WELL.         NORTHSTAR ET AL WOODEN         : Well_name    - WELL
LOC .         00/14-20-087-21W4/0            : Location     - LOCATION
UWI .         00/14-20-087-21W4/0            : Uwi          - UNIQUE WELL ID
ENTR.         MAX                            : Entered      - ENTERED BY
SRVC.         WESTERN ATLAS                  : Scn          - SERVICE COMPANY
STRT.M        210                            : top_depth    - START DEPTH
STOP.M        310                            : bot_depth    - STOP DEPTH
STEP.M        0.25                           : increment    - STEP LENGTH
 NULL. -999.2500:NULL Value
~CURVE INFORMATION BLOCK
#MNEM UNIT       ERCB CURVE CODE    CURVE DESCRIPTION
#-----------   ------------------   ----------------------------------
DEPT.M        00 001 00 00         : DEPTH        - DEPTH
ILD .OHMM     00 120 00 00         : RESD         - DEEP RESISTIVITY (DIL)
NPHI.V/V      00 330 00 00         : PHIN         - NEUTRON POROSITY (SANDSTONE)
DPHI.V/V      00 890 00 00         : PHID         - DENSITY POROSITY (SANDSTONE)
CALI.MM       00 280 01 00         : CAL          - CALIPER
GR  .API      00 310 00 00         : GR           - GAMMA RAY
~PARAMETER INFORMATION
#MNEM.UNIT           DATA             DESCRIPTION OF MNEMONIC
#---------         -----------     ------------------------------
GL  .M        546.6                : gl           - GROUND LEVEL ELEVATION
EREF.M        550.55               : kb           - ELEVATION OF DEPTH REFERENCE
DATM.M        546.6                : datum        - DATUM ELEVATION
TDD .M        311                  : tdd          - TOTAL DEPTH DRILLER
RUN .         ONE                  : Run          - RUN NUMBER
ENG .         BILL                 : Engineer     - RECORDING ENGINEER
WIT .         JIM                  : Witness      - WITNESSED BY
MUD .         GEL                  : Mud_type     - MUD TYPE
MATR.         SANDSTONE            : Logunit      - NEUTRON MATRIX
TMAX.C        24                   : BHT          - MAXIMUM RECORDED TEMPERATURE
BHTD.M        311                  : BHTDEP       - MAXIMUM RECORDED TEMPERATURE
MATR.         1                    : LOGUNIT      - NEUTRON MATRIX
RMT .C        17                   : MDTP         - TEMPERATURE OF MUD
NEUT.         1                    : NEUTRON      - NEUTRON TYPE
RESI.         0                    : RESIST       - RESISTIVITY TYPE
RMC .OHMM     3.1                  : RMC          - RESISTIVITY OF MUD CAKE
RMF .OHMM     2.9                  : RMF          - RESISTIVITY OF MUD FILTRATE
SUFT.C        -15                  : SUFT         - SURFACE TEMPERATURE
~A  DEPTH     RESD     PHIN     PHID      CAL       GR
# ...
  283.000   14.876    0.322    0.066  166.496   90.567
  283.250   13.962    0.306    0.131  166.015  109.316
  283.500   13.347    0.314    0.174  166.024  111.078
  283.750   12.642    0.338    0.184  166.033  113.720
  284.000   12.304    0.358    0.181  166.041  114.896
  284.250   11.977    0.362    0.180  165.562  112.850
  284.500   12.537    0.362    0.191  165.570  112.856
  284.750   14.773    0.356    0.203  165.091  113.741
  285.000   17.887    0.343    0.209  165.100  109.645
  285.250   21.075    0.319    0.160  166.087  103.499
  285.500   24.384    0.296    0.076  167.072   93.254
  285.750   23.311    0.268   -0.016  167.081   85.058
  286.000   21.482    0.262    0.012  166.599   92.972
  286.250   18.410    0.300    0.112  166.608   95.613
  286.500   16.662    0.321    0.139  166.617   98.839
  286.750   15.499    0.328    0.160  167.115  101.481
  287.000   15.085    0.337    0.188  167.122  104.415
  287.250   14.550    0.346    0.198  167.620  107.057
  287.500   14.294    0.355    0.196  167.627  108.819
  287.750   14.560    0.357    0.181  167.638  105.310
  288.000   15.381    0.359    0.184  167.646  116.737
  288.250   16.248    0.367    0.192  167.656  131.387
  288.500   17.641    0.359    0.080  167.662  117.919
  288.750   17.970    0.338   -0.004  167.185  108.845
  289.000   16.867    0.310   -0.002  166.704  119.102
  289.250   15.546    0.311    0.066  166.713  116.177
  289.500   14.858    0.336    0.155  166.723  110.032
  289.750   13.570    0.360    0.173  166.731  108.281
  290.000   10.716    0.368    0.174  166.738  108.871
  290.250    9.698    0.377    0.185  166.747  113.269
  290.500    8.859    0.390    0.195  166.756  115.032
  290.750    8.390    0.399    0.181  166.767  110.351
  291.000    7.947    0.394    0.170  166.773  108.599
  291.250    7.665    0.394    0.176  166.296  110.361
  291.500    7.327    0.393    0.189  166.305  113.589
  291.750    7.329    0.386    0.186  166.313  115.351
  292.000    7.466    0.381    0.183  165.832  117.406
  292.250    7.675    0.382    0.180  165.842  120.926
  292.500    7.818    0.393    0.183  165.849  124.154
  292.750    7.892    0.397    0.190  165.859  122.402
  293.000    7.966    0.398    0.207  165.380  117.134
  293.250    8.042    0.386    0.211  164.902  111.282
  293.500    8.267    0.388    0.198  164.909  115.681
  293.750    8.733    0.403    0.182  164.429  116.857
  294.000    9.225    0.363    0.155  163.950  101.047
  294.250   10.481    0.331    0.047  163.473   74.107
  294.500   11.379    0.306    0.145  162.992   88.171
  294.750   12.581    0.338    0.199  162.999  108.091
  295.000   14.164    0.358    0.232  163.010  101.361
  295.250   16.241    0.369    0.274  163.019   77.057
  295.500   17.630    0.366    0.303  163.027   69.740
  295.750   20.214    0.373    0.308  163.035   65.644
  296.000   22.552    0.375    0.308  163.532   61.256
  296.250   25.622    0.375    0.303  163.542   59.211
  296.500   30.189    0.380    0.296  163.549   58.338
  296.750   37.912    0.385    0.277  163.557   57.465
  297.000   41.912    0.397    0.248  164.054   56.298
  297.250   43.478    0.400    0.273  164.063   57.769
  297.500   42.320    0.402    0.251  164.074   59.823
  297.750   39.362    0.395    0.227  164.080   59.828
  298.000   34.041    0.369    0.201  164.089   58.078
  298.250   24.321    0.348    0.166  164.098   59.546
  298.500   18.351    0.340    0.048  164.595   75.660
  298.750   11.971    0.347    0.062  164.603   89.723
  299.000   11.546    0.385    0.166  165.101   95.880
  299.250   11.239    0.382    0.189  165.598   94.127
  299.500   11.141    0.375    0.214  165.606   90.618
  299.750   10.844    0.374    0.223  166.104   86.523
  300.000   10.460    0.383    0.208  165.136   84.771
  300.250    9.640    0.392    0.173  163.679   91.513
  300.500    8.187    0.415    0.160  162.712   91.518
  300.750    7.145    0.404    0.161  162.234   90.938
  301.000    6.526    0.383    0.170  162.243   90.650
  301.250    6.410    0.389    0.194  162.251   90.362
  301.500    6.589    0.415    0.199  162.260   89.197
  301.750    7.089    0.411    0.197  162.269   89.202
  302.000    9.151    0.401    0.191  162.278   91.256
  302.250   10.300    0.396    0.183  162.287   94.191
  302.500   13.171    0.389    0.185  162.296   96.832
  302.750   15.660    0.377    0.189  162.302  108.259
  303.000   18.452    0.364    0.246  161.823  113.830
  303.250   21.741    0.313    0.341  161.832   46.764
  303.500   23.389    0.251    0.326  162.330   72.250
  303.750   24.934    0.233    0.235  162.337   91.585
  304.000   25.634    0.270    0.203  162.346  100.964
  304.250   26.111    0.292    0.209  162.356  103.605
  304.500   27.087    0.306    0.232  162.364  104.488
  304.750   28.099    0.304    0.279  162.372  103.615
  305.000   29.416    0.296    0.268  162.381  101.277
  305.250   31.648    0.300    0.241  161.901  100.404
  305.500   33.430    0.317    0.225  160.934   98.652
  305.750   34.679    0.322    0.239  159.479   97.487
  306.000   33.149    0.307    0.266  159.488   97.490
  306.250   31.396    0.297    0.274  159.496   98.960
  306.500   29.469    0.293    0.236  159.505   98.379
  306.750   28.948    0.308    0.202  159.026   96.921
  307.000   28.955    0.322    0.180  158.545   97.219
  307.250   28.965    0.333    0.196  158.555   95.174
  307.500   28.195    0.345    0.216  158.564   91.958
  307.750   27.693    0.349    0.217  158.084   91.669
  308.000   26.711    0.348    0.196  158.093   92.261
  308.250   26.001    0.352    0.177  158.103   93.731
  308.500   25.080    0.353    0.169  158.111   93.735
  308.750   24.861    0.353    0.169  158.119   89.934
  309.000   24.642    0.357    0.173  158.127   88.767
  309.250   25.103    0.359    0.174  158.137   87.308
  309.500   25.571    0.354    0.168  158.145   83.506
  309.750   26.287    0.341    0.168  158.154   82.633
  310.000   26.536    0.336    0.165  158.653   82.345
