~VERSION INFORMATION
 VERS.                 2.0:   CWLS LOG ASCII STANDARD -VERSION 2.0
 WRAP.                  NO:   ONE LINE PER DEPTH STEP
~WELL INFORMATION BLOCK
#MNEM.UNIT           DATA                    DESCRIPTION OF MNEMONIC
#---------    -------------------            -------------------------------
# Generated from Intellog Unique Number	CW_82_90/WELL/702
WELL.         10-14-082-19W4                 : Well_name    - WELL
LOC .         00/10-14-082-19W4/0            : Location     - LOCATION
UWI .         00/10-14-082-19W400            : Uwi          - UNIQUE WELL ID
ENTR.         JAYE                           : Entered      - ENTERED BY
SRVC.         COMPUTALOG                     : Scn          - SERVICE COMPANY
DATE.         FEB 13 77                      : Date         - LOG DATE
STRT.M        155.448                        : top_depth    - START DEPTH
STOP.M        344.448                        : bot_depth    - STOP DEPTH
STEP.M        0.25                           : increment    - STEP LENGTH
 NULL. -999.2500:NULL Value
~CURVE INFORMATION BLOCK
#MNEM UNIT       ERCB CURVE CODE    CURVE DESCRIPTION
#-----------   ------------------   ----------------------------------
DEPT.M        00 001 00 00         : DEPTH        - DEPTH
CALI.MM       00 280 01 00         : CAL          - CALIPER
GR  .API      00 310 00 00         : GR           - GAMMA RAY
NPHI.V/V      00 330 00 00         : PHIN         - NEUTRON POROSITY (SANDSTONE)
DPHI.V/V      00 890 00 00         : PHID         - DENSITY POROSITY (SANDSTONE)
COND.MMHO                          : COND         - DEEP CONDUCTIVITY (DIL)
ILD .OHMM     00 120 00 00         : RESD         - DEEP RESISTIVITY (DIL)
~PARAMETER INFORMATION
#MNEM.UNIT           DATA             DESCRIPTION OF MNEMONIC
#---------         -----------     ------------------------------
GL  .M        573.024              : gl           - GROUND LEVEL ELEVATION
EREF.M        576.682              : kb           - ELEVATION OF DEPTH REFERENCE
DATM.M        573.024              : datum        - DATUM ELEVATION
TDD .M        347.472              : tdd          - TOTAL DEPTH DRILLER
RUN .         ONE                  : Run          - RUN NUMBER
ENG .         KING                 : Engineer     - RECORDING ENGINEER
WIT .         CARS                 : Witness      - WITNESSED BY
BASE.         MEDICINE HAT         : Branch       - HOME BASE OF LOGGING UNIT
MUD .         GEL                  : Mud_type     - MUD TYPE
MATR.         SANDSTONE            : Logunit      - NEUTRON MATRIX
TMAX.C        17.7778              : BHT          - MAXIMUM RECORDED TEMPERATURE
BHTD.M        347.472              : BHTDEP       - MAXIMUM RECORDED TEMPERATURE
RMT .C        17.7778              : MDTP         - TEMPERATURE OF MUD
MUDD.KG/M     9100                 : MWT          - MUD DENSITY
NEUT.         0                    : NEUTRON      - NEUTRON TYPE
RESI.         0                    : RESIST       - RESISTIVITY TYPE
RM  .OHMM     9.5                  : RM           - RESISTIVITY OF MUD
RMC .OHMM     0                    : RMC          - RESISTIVITY OF MUD CAKE
RMF .OHMM     0                    : RMF          - RESISTIVITY OF MUD FILTRATE
SUFT.C        4                    : SUFT         - SURFACE TEMPERATURE
~A  DEPTH      CAL       GR     PHIN     PHID     COND     RESD
# ...
  311.698  163.216  108.565    0.281    0.198  546.184   13.457
  311.948  164.275  100.984    0.265    0.168  544.442   14.126
  312.198  166.565  111.474    0.252    0.166  541.808   14.718
  312.448  168.137  108.546    0.247    0.162  538.569   15.115
  312.698  168.674  112.419    0.313    0.171  536.028   15.004
  312.948  169.009  113.720    0.291    0.194  535.893   14.659
  313.198  167.179  113.856    0.292    0.176  536.550   13.574
  313.448  162.262  108.911    0.286    0.162  537.922   12.879
  313.698  160.744  105.681    0.344    0.169  541.593   12.301
  313.948  160.766  105.017    0.362    0.190  542.756   11.879
  314.198  158.937  100.500    0.350    0.194  542.214   12.080
  314.448  157.006  104.556    0.287    0.192  542.181   13.139
  314.698  156.621  108.186    0.338    0.212  542.542   13.301
  314.948  156.748  110.651    0.407    0.206  540.209   12.568
  315.198  157.805   99.393    0.387    0.200  541.071   11.794
  315.448  159.894  104.064    0.386    0.213  543.441   11.334
  315.698  161.464  112.284    0.375    0.215  545.907   10.989
  315.948  163.242  116.768    0.416    0.212  546.967   10.255
  316.198  164.298  115.925    0.437    0.206  553.342    9.599
  316.448  164.731  122.248    0.420    0.206  555.111    9.567
  316.698  164.865  121.649    0.415    0.212  555.471    9.612
  316.948  164.574  120.683    0.411    0.215  555.429    9.735
  317.198  165.119  114.634    0.405    0.220  555.401    9.860
  317.448  164.424  124.448    0.397    0.226  555.263    9.944
  317.698  163.316  121.828    0.439    0.229  554.621   10.028
  317.948  162.616  121.231    0.418    0.224  553.788   10.073
  318.198  161.202  118.183    0.415    0.217  551.939   10.080
  318.448  160.404  123.158    0.413    0.208  551.007   10.008
  318.698  160.122  120.845    0.440    0.197  550.880    9.860
  318.948  159.942  125.453    0.442    0.199  551.944    9.631
  319.198  159.761  129.937    0.469    0.206  554.007    9.288
  319.448  160.400  135.647    0.465    0.212  556.672    9.022
  319.698  162.485  142.706    0.462    0.214  558.935    8.639
  319.948  164.882  140.147    0.463    0.217  559.910    8.255
  320.198  165.629  140.223    0.429    0.217  561.365    8.028
  320.448  166.166  139.072    0.450    0.209  562.238    7.762
  320.698  166.815  140.435    0.480    0.205  564.300    7.572
  320.948  167.150  145.409    0.493    0.191  566.368    7.384
  321.198  167.686  144.934    0.489    0.198  567.838    7.157
  321.448  168.638  142.191    0.466    0.189  569.903    7.007
  321.698  169.389  146.127    0.432    0.197  572.070    6.819
  321.948  169.928  147.121    0.439    0.201  575.737    6.669
  322.198  170.365  150.564    0.424    0.202  578.906    6.559
  322.448  170.286  157.622    0.455    0.201  581.073    6.565
  322.698  170.111  160.884    0.443    0.197  582.131    6.650
  322.948  169.823  153.179    0.416    0.190  582.196    6.891
  323.198  167.996  147.437    0.428    0.182  581.665    7.091
  323.448  166.061  133.792    0.421    0.174  579.220    7.645
  323.698  164.026  121.618    0.322    0.157  576.286    8.274
  323.948  162.300  116.487    0.300    0.140  570.840    9.606
  324.198  161.400  115.523    0.222    0.099  565.396   10.742
  324.448  160.913  121.538    0.202    0.075  560.758   13.126
  324.698  161.762  130.065    0.295    0.136  554.516   15.121
  324.948  162.300  134.062    0.363    0.205  547.072   17.817
  325.198  162.737  141.731    0.394    0.198  538.827   18.448
  325.448  165.043  143.830    0.327    0.184  532.483   17.869
  325.698  165.571  128.653    0.321    0.179  531.637   17.056
  325.948  166.012  121.258    0.311    0.162  532.308   17.531
  326.198  166.140  117.535    0.211    0.128  532.568   23.483
  326.448  166.265  118.161    0.189    0.113  531.528   25.440
  326.698  166.598  120.321    0.258    0.144  529.091   25.440
  326.948  167.242  126.335    0.349    0.169  527.060   24.657
  327.198  166.546  127.819    0.331    0.213  524.621   24.266
  327.448  164.617  123.668    0.312    0.215  523.772   25.049
  327.698  162.167  101.265    0.316    0.236  524.044   26.223
  327.948  159.828   86.458    0.327    0.255  524.508   28.180
  328.198  158.511   70.670    0.305    0.282  524.477   31.311
  328.448  157.823   59.047    0.297    0.318  522.727   33.660
  328.698  157.538   52.509    0.346    0.324  521.699   38.748
  328.948  157.558   50.502    0.357    0.324  519.157   41.096
  329.198  157.479   54.131    0.349    0.315  516.909   39.922
  329.448  158.020   59.718    0.326    0.308  515.778   38.748
  329.698  159.386   61.139    0.278    0.306  514.647   38.356
  329.948  160.234   53.437    0.290    0.305  513.507   38.356
  330.198  160.259   56.514    0.335    0.306  512.762   39.139
  330.448  160.184   55.672    0.329    0.310  512.632   39.139
  330.698  160.106   56.969    0.326    0.301  512.697   37.573
  330.948  159.522   61.578    0.318    0.304  513.154   34.442
  331.198  159.540   67.228    0.334    0.299  513.525   31.703
  331.448  159.565   73.488    0.336    0.295  514.292   28.963
  331.698  159.592   81.403    0.358    0.285  515.755   27.006
  331.948  159.613   79.519    0.391    0.276  517.222   24.657
  332.198  159.127   76.164    0.413    0.261  519.187   21.526
  332.448  159.050   82.243    0.431    0.270  521.651   18.004
  332.698  159.593   95.425    0.433    0.261  524.126   15.758
  332.948  160.128  100.462    0.413    0.248  529.796   12.724
  333.198  161.184  109.662    0.410    0.226  536.466   10.665
  333.448  162.959  122.232    0.394    0.208  543.635    9.035
  333.698  164.225  132.169    0.383    0.186  550.611    7.833
  333.948  164.660  128.937    0.401    0.179  559.985    6.826
  334.198  166.643  129.810    0.402    0.186  568.856    6.208
  334.448  167.804  128.967    0.439    0.196  581.036    5.669
  334.698  168.344  126.285    0.456    0.185  587.208    5.287
  334.948  167.542  129.423    0.479    0.174  593.777    5.098
  335.198  164.376  135.867    0.415    0.155  598.949    5.105
  335.448  162.652  133.372    0.396    0.148  602.420    5.267
  335.698  162.160  125.483    0.346    0.169  599.770    5.585
  335.948  161.773  124.580    0.389    0.161  596.639    6.138
  336.198  161.182  137.149    0.457    0.183  590.489    6.379
  336.448  160.381  143.719    0.501    0.196  586.154    6.229
  336.698  160.824  148.079    0.498    0.208  584.718    5.767
  336.948  161.566  145.094    0.479    0.211  585.280    4.994
  337.198  164.171  138.127    0.465    0.216  591.151    4.689
  337.448  165.738  148.795    0.493    0.227  603.026    4.697
  337.698  166.791  154.077    0.485    0.233  611.105    4.859
  337.948  163.626  130.940    0.425    0.217  614.366    5.371
  338.198  160.257  122.563    0.302    0.211  611.227    6.157
  338.448  158.838  108.736    0.267    0.230  606.891    8.541
  338.698  157.521   95.703    0.305    0.267  599.445   11.120
  338.948  156.928  106.436    0.328    0.259  586.689   14.557
  339.198  156.857  115.148    0.377    0.234  571.740   14.524
  339.448  156.879  123.492    0.362    0.214  555.987   13.049
  339.698  156.697  114.809    0.275    0.194  537.029   13.017
  339.948  156.414  104.962    0.295    0.233  540.888   13.920
  340.198  157.673   93.032    0.315    0.249  542.163   14.589
  340.448  160.486   88.820    0.326    0.259  539.620   15.531
  340.698  161.535  102.370    0.330    0.246  536.280   16.667
  340.948  160.428  116.288    0.365    0.227  532.643   17.843
  341.198  159.423  119.549    0.338    0.214  531.503   13.874
  341.448  158.832  125.932    0.363    0.216  534.471   11.425
  341.698  158.445  132.990    0.386    0.212  539.343    9.873
  341.948  158.162  131.412    0.455    0.208  554.321    7.813
  342.198  158.498  133.509    0.461    0.213  563.597    7.275
  342.448  158.211  135.176    0.451    0.207  569.369    7.515
  342.698  158.139  140.641    0.345    0.195  573.837    8.145
