~VERSION INFORMATION
 VERS.                 2.0:   CWLS LOG ASCII STANDARD -VERSION 2.0
 WRAP.                  NO:   ONE LINE PER DEPTH STEP
~WELL INFORMATION BLOCK
#MNEM.UNIT           DATA                    DESCRIPTION OF MNEMONIC
#---------    -------------------            -------------------------------
# Generated from Intellog Unique Number	CS_77_79/WELL/979
WELL.         MESA HB THORNBURY              : Well_name    - WELL
LOC .         00/10-32-078-12W4/0            : Location     - LOCATION
UWI .         00/10-32-078-12W4/0            : Uwi          - UNIQUE WELL ID
ENTR.         JHS                            : Entered      - ENTERED BY
SRVC.         SCHLUMBERGER                   : Scn          - SERVICE COMPANY
STRT.M        240                            : top_depth    - START DEPTH
STOP.M        455                            : bot_depth    - STOP DEPTH
STEP.M        0.25                           : increment    - STEP LENGTH
 NULL. -999.2500:NULL Value
~CURVE INFORMATION BLOCK
#MNEM UNIT       ERCB CURVE CODE    CURVE DESCRIPTION
#-----------   ------------------   ----------------------------------
DEPT.M        00 001 00 00         : DEPTH        - DEPTH
DPHI.V/V      00 890 00 00         : PHID         - DENSITY POROSITY (LIMESTONE)
NPHI.V/V      00 330 00 00         : PHIN         - NEUTRON POROSITY (LIMESTONE)
GR  .API      00 310 00 00         : GR           - GAMMA RAY
ILD .OHMM     00 120 00 00         : RESD         - DEEP RESISTIVITY (DIL)
RHOB.KG/M3    00 350 00 00         : DENS         - BULK DENSITY
~PARAMETER INFORMATION
#MNEM.UNIT           DATA             DESCRIPTION OF MNEMONIC
#---------         -----------     ------------------------------
GL  .M        675.6                : gl           - GROUND LEVEL ELEVATION
EREF.M        679.7                : kb           - ELEVATION OF DEPTH REFERENCE
DATM.M        679.7                : datum        - DATUM ELEVATION
TDD .M        470                  : tdd          - TOTAL DEPTH DRILLER
RUN .         ONE                  : Run          - RUN NUMBER
ENG .         BILL                 : Engineer     - RECORDING ENGINEER
WIT .         JIM                  : Witness      - WITNESSED BY
MUD .         GEL                  : Mud_type     - MUD TYPE
MATR.         LIMESTONE            : Logunit      - NEUTRON MATRIX
TMAX.C        26.2                 : BHT          - MAXIMUM RECORDED TEMPERATURE
BHTD.M        470                  : BHTDEP       - MAXIMUM RECORDED TEMPERATURE
MATR.         1                    : LOGUNIT      - NEUTRON MATRIX
RMT .C        25                   : MDTP         - TEMPERATURE OF MUD
NEUT.         1                    : NEUTRON      - NEUTRON TYPE
RESI.         0                    : RESIST       - RESISTIVITY TYPE
RMC .OHMM     0.25                 : RMC          - RESISTIVITY OF MUD CAKE
RMF .OHMM     0.25                 : RMF          - RESISTIVITY OF MUD FILTRATE
SUFT.C        15                   : SUFT         - SURFACE TEMPERATURE
~A  DEPTH     PHID     PHIN       GR     RESD     DENS
# ...
  422.500    0.250    0.496   93.495    4.292 2282.410
  422.750    0.239    0.511   95.334    3.699 2301.230
  423.000    0.237    0.510   97.779    3.371 2305.450
  423.250    0.245    0.512  100.219    3.189 2290.890
  423.500    0.273    0.528  100.840    3.017 2242.980
  423.750    0.260    0.518  100.248    3.076 2265.960
  424.000    0.247    0.513   99.655    3.195 2286.870
  424.250    0.250    0.512  102.098    3.318 2282.750
  424.500    0.235    0.501  101.502    3.578 2307.820
  424.750    0.235    0.492   98.479    3.647 2307.860
  425.000    0.242    0.489   96.066    3.860 2295.400
  425.250    0.240    0.496   95.470    3.861 2299.630
  425.500    0.258    0.483   94.271    3.792 2268.380
  425.750    0.217    0.489   94.892    3.794 2339.340
  426.000    0.217    0.497  100.374    3.942 2339.390
  426.250    0.226    0.505  100.993    4.018 2322.760
  426.500    0.207    0.501   96.760    4.095 2356.170
  426.750    0.195    0.489   97.987    4.334 2377.080
  427.000    0.175    0.479  100.427    4.418 2410.490
  427.250    0.175    0.478  102.267    4.676 2410.530
  427.500    0.197    0.471  100.457    4.856 2373.060
  427.750    0.206    0.462   92.577    5.043 2358.500
  428.000    0.218    0.437   87.123    5.437 2337.690
  428.250    0.204    0.416   81.064    5.862 2360.680
  428.500    0.193    0.432   78.041    6.685 2379.500
  428.750    0.243    0.407   77.448    7.481 2294.040
  429.000    0.243    0.366   76.856    8.066 2294.090
  429.250    0.287    0.341   74.442    8.861 2219.060
  429.500    0.286    0.329   73.241    9.377 2221.210
  429.750    0.276    0.339   75.681    9.558 2237.930
  430.000    0.271    0.377   82.985    9.928 2246.340
  430.250    0.267    0.399   88.471   10.120 2252.620
  430.500    0.258    0.409   89.696   10.125 2269.350
  430.750    0.248    0.416   93.353    9.759 2286.080
  431.000    0.250    0.421   99.441    9.063 2281.970
  431.250    0.222    0.436  105.528    8.259 2329.980
  431.500    0.204    0.454  114.650    7.528 2361.320
  431.750    0.200    0.462  121.953    6.734 2367.610
  432.000    0.209    0.456  122.579    6.137 2353.070
  432.250    0.231    0.448  119.555    6.373 2315.570
  432.500    0.239    0.442  115.924    7.268 2301.030
  432.750    0.248    0.457  112.905    8.602 2286.470
  433.000    0.270    0.471  110.486    9.627 2248.980
  433.250    0.244    0.418  105.639   11.185 2292.830
  433.500    0.227    0.404  100.187   12.995 2322.080
  433.750    0.220    0.396   96.556   14.009 2334.630
  434.000    0.221    0.389   95.966   13.760 2332.600
  434.250    0.235    0.382   94.158   13.767 2307.620
  434.500    0.233    0.377   93.562   14.033 2311.830
  434.750    0.219    0.390   94.791   14.854 2334.830
  435.000    0.217    0.401   93.592   15.424 2339.040
  435.250    0.225    0.399   91.788   16.019 2324.500
  435.500    0.236    0.389   91.800   14.601 2305.780
  435.750    0.229    0.384   93.026   14.075 2318.330
  436.000    0.216    0.377   96.079   13.565 2341.340
  436.250    0.209    0.374   98.520   12.834 2351.800
  436.500    0.218    0.389  100.971   12.606 2337.260
  436.750    0.231    0.406  102.193   12.376 2314.360
  437.000    0.218    0.401  105.243   12.157 2337.350
  437.250    0.214    0.402  104.044   12.162 2343.660
  437.500    0.206    0.391  108.917   11.944 2358.310
  437.750    0.187    0.385  108.323   12.175 2389.630
  438.000    0.151    0.381  105.300   12.645 2452.250
  438.250    0.139    0.371  100.456   13.891 2473.140
  438.500    0.224    0.356   93.787   15.549 2327.210
  438.750    0.314    0.341   85.907   16.450 2172.940
  439.000    0.310    0.345   83.492   18.758 2179.250
  439.250    0.302    0.366   82.903   20.607 2193.880
  439.500    0.279    0.383   81.699   21.807 2233.560
  439.750    0.282    0.393   78.067   22.230 2227.350
  440.000    0.291    0.388   75.045   23.969 2212.800
  440.250    0.280    0.379   73.238   26.822 2231.620
  440.500    0.274    0.407   70.217   31.748 2242.090
  440.750    0.289    0.433   59.295   37.578 2215.030
  441.000    0.288    0.414   53.235   43.660 2217.180
  441.250    0.282    0.404   53.252   48.859 2227.650
  441.500    0.280    0.403   57.520   54.683 2231.860
  441.750    0.292    0.411   61.785   54.708 2211.070
  442.000    0.288    0.416   66.051   41.370 2217.370
  442.250    0.287    0.423   70.924   35.649 2219.510
  442.500    0.289    0.437   73.970   33.104 2215.380
  442.750    0.289    0.439   77.635   31.325 2215.420
  443.000    0.295    0.434   78.249   30.758 2205.040
  443.250    0.296    0.434   81.304   29.645 2203.000
  443.500    0.290    0.428   83.746   28.580 2213.490
  443.750    0.284    0.421   87.404   27.544 2223.960
  444.000    0.285    0.415   90.454   26.057 2221.930
  444.250    0.283    0.412   94.116   24.652 2226.140
  444.500    0.287    0.422   96.555   22.890 2219.930
  444.750    0.278    0.429   97.787   20.861 2234.590
  445.000    0.273    0.423  101.443   17.000 2242.970
  445.250    0.257    0.415  105.100   14.112 2270.120
  445.500    0.206    0.400  108.760   12.160 2357.760
  445.750    0.191    0.413  111.812    9.909 2382.830
  446.000    0.188    0.422  114.864    8.864 2389.150
  446.250    0.195    0.421  116.090    8.543 2376.670
  446.500    0.190    0.417  111.246    8.873 2385.070
  446.750    0.227    0.410  105.793    9.390 2322.550
  447.000    0.219    0.402  101.555    9.936 2335.120
  447.250    0.225    0.407   99.746   10.714 2324.730
  447.500    0.244    0.408   98.547   10.921 2293.500
  447.750    0.242    0.406  100.383   10.727 2295.640
  448.000    0.226    0.390  104.041   10.146 2322.800
  448.250    0.197    0.380  102.844    9.076 2372.900
  448.500    0.185    0.391   99.819    8.586 2393.800
  448.750    0.159    0.417   93.759    8.591 2437.640
  449.000    0.109    0.420   85.269    9.439 2523.190
  449.250    0.080    0.384   48.235   10.366    0.000
  449.500    0.041    0.190   19.095   12.977    0.000
  449.750    0.031    0.168   15.467   24.498    0.000
  450.000    0.034    0.160   14.874   42.917    0.000
  450.250    0.038    0.158   14.886   57.892    0.000
  450.500    0.055    0.155   16.119   59.012    0.000
  450.750    0.071    0.157   17.346   53.783    0.000
  451.000    0.083    0.171   17.361   56.920    0.000
  451.250    0.065    0.187   17.373   61.368    0.000
  451.500    0.070    0.196   17.996   68.674    0.000
  451.750    0.080    0.199   18.008   76.861    0.000
  452.000    0.092    0.203   18.028   82.869    0.000
  452.250    0.095    0.205   18.036   94.497    0.000
  452.500    0.100    0.210   17.446  103.792    0.000
  452.750    0.103    0.211   17.460  105.808    0.000
  453.000    0.092    0.212   16.870  102.007    0.000
  453.250    0.089    0.208   16.879   96.486    0.000
  453.500    0.088    0.201   16.896   81.615    0.000
  453.750    0.090    0.199   16.909   73.010    0.000
  454.000    0.083    0.205   16.925   71.694    0.000
  454.250    0.084    0.209   16.942   70.408    0.000
  454.500    0.109    0.203   16.950   64.167    0.000
  454.750    0.102    0.194   16.964   58.483    0.000
  455.000    0.088    0.190   17.585   60.744    0.000
