~VERSION INFORMATION
 VERS.                 2.0:   CWLS LOG ASCII STANDARD -VERSION 2.0
 WRAP.                  NO:   ONE LINE PER DEPTH STEP
~WELL INFORMATION BLOCK
#MNEM.UNIT           DATA                    DESCRIPTION OF MNEMONIC
#---------    -------------------            -------------------------------
# Generated from Intellog Unique Number	CS_71_72/WELL/915
WELL.         AMOCO AEC IPIATIK INDIA        : Well_name    - WELL
LOC .         00/12-04-072-06W4/0            : Location     - LOCATION
UWI .         00/12-04-072-06W4/0            : Uwi          - UNIQUE WELL ID
ENTR.         SP                             : Entered      - ENTERED BY
SRVC.         SCHLUMBERGER                   : Scn          - SERVICE COMPANY
STRT.M        320                            : top_depth    - START DEPTH
STOP.M        545                            : bot_depth    - STOP DEPTH
STEP.M        0.25                           : increment    - STEP LENGTH
 NULL. -999.2500:NULL Value
~CURVE INFORMATION BLOCK
#MNEM UNIT       ERCB CURVE CODE    CURVE DESCRIPTION
#-----------   ------------------   ----------------------------------
DEPT.M        00 001 00 00         : DEPTH        - DEPTH
ILD .OHMM     00 120 00 00         : RESD         - DEEP RESISTIVITY (DIL)
DPHI.V/V      00 890 00 00         : PHID         - DENSITY POROSITY (LIMESTONE)
NPHI.V/V      00 330 00 00         : PHIN         - NEUTRON POROSITY (LIMESTONE)
GR  .API      00 310 00 00         : GR           - GAMMA RAY
~PARAMETER INFORMATION
#MNEM.UNIT           DATA             DESCRIPTION OF MNEMONIC
#---------         -----------     ------------------------------
GL  .M        690.3                : gl           - GROUND LEVEL ELEVATION
EREF.M        694.56               : kb           - ELEVATION OF DEPTH REFERENCE
DATM.M        690.3                : datum        - DATUM ELEVATION
TDD .M        561                  : tdd          - TOTAL DEPTH DRILLER
RUN .         ONE                  : Run          - RUN NUMBER
ENG .         BILL                 : Engineer     - RECORDING ENGINEER
WIT .         JIM                  : Witness      - WITNESSED BY
MUD .         GEL                  : Mud_type     - MUD TYPE
MATR.         LIMESTONE            : Logunit      - NEUTRON MATRIX
TMAX.C        23                   : BHT          - MAXIMUM RECORDED TEMPERATURE
BHTD.M        561                  : BHTDEP       - MAXIMUM RECORDED TEMPERATURE
MATR.         1                    : LOGUNIT      - NEUTRON MATRIX
RMT .C        25                   : MDTP         - TEMPERATURE OF MUD
NEUT.         1                    : NEUTRON      - NEUTRON TYPE
RESI.         0                    : RESIST       - RESISTIVITY TYPE
RMC .OHMM     0.25                 : RMC          - RESISTIVITY OF MUD CAKE
RMF .OHMM     0.25                 : RMF          - RESISTIVITY OF MUD FILTRATE
SUFT.C        15                   : SUFT         - SURFACE TEMPERATURE
~A  DEPTH     RESD     PHID     PHIN       GR
# ...
  450.500    5.775    0.232    0.452   87.553
  450.750    5.995    0.232    0.444   86.351
  451.000    7.495    0.228    0.436   80.900
  451.250    9.028    0.223    0.430   77.877
  451.500   10.095    0.178    0.432   74.248
  451.750   10.480    0.094    0.408   70.618
  452.000    9.378    0.055    0.266   70.026
  452.250    7.101    0.042    0.301   76.118
  452.500    5.900    0.188    0.382   79.773
  452.750    5.687    0.235    0.433   85.866
  453.000    5.585    0.258    0.461   87.695
  453.250    5.587    0.248    0.476   90.137
  453.500    5.694    0.233    0.471   91.973
  453.750    6.251    0.227    0.460   91.378
  454.000    6.611    0.227    0.439   86.539
  454.250    7.531    0.256    0.417   84.727
  454.500    7.818    0.274    0.405   81.704
  454.750    8.269    0.297    0.389   78.682
  455.000    6.262    0.202    0.376   75.661
  455.250    5.300    0.135    0.364   75.070
  455.500    4.832    0.157    0.343   76.299
  455.750    4.487    0.204    0.390   78.136
  456.000    4.245    0.230    0.435   79.971
  456.250    3.943    0.246    0.447   81.197
  456.500    3.595    0.231    0.455   83.042
  456.750    3.217    0.227    0.462   83.659
  457.000    2.826    0.243    0.465   84.276
  457.250    2.674    0.250    0.485   84.290
  457.500    2.483    0.256    0.508   84.314
  457.750    2.306    0.261    0.524   84.329
  458.000    2.223    0.269    0.555   84.341
  458.250    2.266    0.266    0.564   84.352
  458.500    2.309    0.265    0.549   84.365
  458.750    2.730    0.262    0.539   84.983
  459.000    2.888    0.258    0.537   85.003
  459.250    3.111    0.251    0.537   84.408
  459.500    3.415    0.243    0.542   84.418
  459.750    3.819    0.233    0.545   82.013
  460.000    4.039    0.225    0.522   81.417
  460.250    4.272    0.216    0.476   80.821
  460.500    4.355    0.205    0.470   80.227
  460.750    4.356    0.203    0.472   80.237
  461.000    4.357    0.225    0.474   80.262
  461.250    4.279    0.222    0.475   80.273
  461.500    4.202    0.220    0.478   80.282
  461.750    4.203    0.229    0.477   80.297
  462.000    4.205    0.239    0.470   79.095
  462.250    5.257    0.243    0.462   76.679
  462.500    6.450    0.251    0.470   71.834
  462.750    7.626    0.223    0.475   66.383
  463.000    9.358    0.177    0.443   60.935
  463.250   10.662    0.148    0.421   58.517
  463.500   11.275    0.131    0.394   56.712
  463.750   12.611    0.264    0.411   56.120
  464.000   13.092    0.301    0.443   56.740
  464.250   13.342    0.321    0.471   58.579
  464.500   13.854    0.301    0.462   59.197
  464.750   14.117    0.291    0.457   60.422
  465.000   14.122    0.282    0.456   61.048
  465.250   14.393    0.276    0.467   60.456
  465.500   14.670    0.270    0.473   60.466
  465.750   15.230    0.297    0.468   59.270
  466.000   15.521    0.307    0.466   59.279
  466.250   15.818    0.307    0.466   59.293
  466.500   15.823    0.319    0.479   60.527
  466.750   16.124    0.311    0.485   60.537
  467.000   16.131    0.306    0.484   61.166
  467.250   15.838    0.304    0.472   61.174
  467.500   14.988    0.311    0.465   60.579
  467.750   14.715    0.311    0.462   59.379
  468.000   14.722    0.306    0.467   59.392
  468.250   16.776    0.300    0.470   58.810
  468.500   17.742    0.295    0.444   58.816
  468.750   18.764    0.280    0.430   56.404
  469.000   19.479    0.253    0.414   52.771
  469.250   18.091    0.215    0.391   51.570
  469.500   14.483    0.170    0.377   49.771
  469.750   12.257    0.153    0.388   49.775
  470.000    9.813    0.131    0.411   52.222
  470.250    7.569    0.205    0.420   54.663
  470.500    5.948    0.240    0.431   58.321
  470.750    5.034    0.280    0.447   61.982
  471.000    4.183    0.293    0.441   66.250
  471.250    3.743    0.290    0.432   70.519
  471.500    4.186    0.278    0.437   73.568
  471.750    5.331    0.251    0.454   76.006
  472.000    5.961    0.228    0.459   79.053
  472.250    7.180    0.224    0.454   66.923
  472.500    8.180    0.238    0.435   65.114
  472.750    8.652    0.245    0.413   66.960
  473.000    8.818    0.249    0.397   68.189
  473.250    8.343    0.236    0.407   69.416
  473.500    7.606    0.230    0.410   70.032
  473.750    6.682    0.235    0.414   71.257
  474.000    5.869    0.251    0.415   73.700
  474.250    4.612    0.240    0.416   77.968
  474.500    4.127    0.230    0.432   81.629
  474.750    4.615    0.212    0.439   83.465
  475.000    5.457    0.224    0.454   84.081
  475.250    6.573    0.222    0.463   81.665
  475.500    7.628    0.217    0.460   73.180
  475.750    8.691    0.216    0.444   69.548
  476.000    9.540    0.233    0.420   67.134
  476.250   10.090    0.252    0.393   67.146
  476.500   10.282    0.262    0.384   67.164
  476.750   11.082    0.266    0.378   66.572
  477.000   11.719    0.254    0.377   65.367
  477.250   12.628    0.245    0.381   62.961
  477.500   13.356    0.232    0.391   61.760
  477.750   13.868    0.220    0.399   61.767
  478.000   13.616    0.116    0.390   61.785
  478.250   12.883    0.065    0.374   63.009
  478.500   12.652    0.069    0.356   68.497
  478.750   12.656    0.102    0.376   70.938
  479.000   13.387    0.163    0.388   72.768
  479.250   13.897    0.201    0.394   74.605
  479.500   14.429    0.231    0.402   75.226
  479.750   14.704    0.256    0.422   77.065
  480.000   14.709    0.270    0.426   80.120
  480.250   14.180    0.281    0.435   82.562
  480.500   13.417    0.283    0.446   83.787
  480.750   12.931    0.277    0.438   86.234
  481.000   11.789    0.268    0.418   86.849
  481.250   11.154    0.248    0.403   88.078
  481.500   10.953    0.238    0.384   88.091
  481.750   14.476    0.229    0.379   86.893
  482.000   21.388    0.222    0.378   82.047
  482.250   28.270    0.209    0.379   71.129
  482.500   33.424    0.239    0.381   60.822
  482.750   37.378    0.246    0.382   55.370
  483.000   38.805    0.265    0.387   56.606
  483.250   39.556    0.277    0.396   57.828
  483.500   39.562    0.285    0.401   61.489
  483.750   38.137    0.298    0.397   63.928
  484.000   34.768    0.294    0.390   68.808
  484.250   29.429    0.281    0.387   71.246
  484.500   25.848    0.278    0.387   74.300
  484.750   17.186    0.279    0.393   76.133
  485.000   13.505    0.273    0.398   77.360
  485.250   15.102    0.263    0.409   78.590
  485.500   21.106    0.252    0.425   77.390
  485.750   24.955    0.240    0.437   71.936
  486.000   27.389    0.233    0.432   62.843
  486.250   28.972    0.268    0.406   61.033
  486.500   27.413    0.286    0.380   64.696
  486.750   23.200    0.260    0.377   67.747
  487.000   17.243    0.253    0.376   70.798
  487.250   13.549    0.247    0.369   73.241
  487.500   11.902    0.231    0.362   75.075
  487.750   13.561    0.203    0.379   75.085
  488.000   14.884    0.189    0.387   70.244
  488.250   17.931    0.190    0.382   67.221
  488.500   19.318    0.208    0.379   65.412
  488.750   20.434    0.261    0.378   66.034
  489.000   20.824    0.282    0.391   69.090
  489.250   18.634    0.295    0.404   70.314
  489.500   14.374    0.317    0.412   73.369
  489.750   11.508    0.295    0.413   74.591
  490.000    9.740    0.269    0.403   77.647
  490.250    8.715    0.260    0.396   78.872
  490.500    7.516    0.253    0.389   81.326
  490.750    7.111    0.249    0.378   81.942
  491.000    7.521    0.254    0.372   82.562
  491.250    9.758    0.244    0.375   81.963
  491.500   12.426    0.230    0.378   77.731
  491.750   16.123    0.223    0.379   72.884
  492.000   17.700    0.221    0.379   63.181
  492.250   18.374    0.220    0.384   54.087
  492.500   18.724    0.221    0.398   57.143
  492.750   17.391    0.270    0.382   59.582
  493.000   15.278    0.280    0.378   62.629
  493.250   13.672    0.276    0.387   67.507
  493.500   11.789    0.269    0.392   69.339
  493.750   10.747    0.256    0.394   72.391
