~VERSION INFORMATION
 VERS.                 2.0:   CWLS LOG ASCII STANDARD -VERSION 2.0
 WRAP.                  NO:   ONE LINE PER DEPTH STEP
~WELL INFORMATION BLOCK
#MNEM.UNIT           DATA                    DESCRIPTION OF MNEMONIC
#---------    -------------------            -------------------------------
# Generated from Intellog Unique Number	CW_79_81/WELL/877
WELL.         10-32-079-21W4                 : Well_name    - WELL
LOC .         00/10-32-079-21W4/0            : Location     - LOCATION
UWI .         00/10-32-079-21W4/0            : Uwi          - UNIQUE WELL ID
ENTR.         MAX                            : Entered      - ENTERED BY
SRVC.         SCHLUMBERGER                   : Scn          - SERVICE COMPANY
STRT.M        195                            : top_depth    - START DEPTH
STOP.M        415                            : bot_depth    - STOP DEPTH
STEP.M        0.25                           : increment    - STEP LENGTH
 NULL. -999.2500:NULL Value
~CURVE INFORMATION BLOCK
#MNEM UNIT       ERCB CURVE CODE    CURVE DESCRIPTION
#-----------   ------------------   ----------------------------------
DEPT.M        00 001 00 00         : DEPTH        - DEPTH
ILD .OHMM     00 120 00 00         : RESD         - DEEP RESISTIVITY (DIL)
NPHI.V/V      00 330 00 00         : PHIN         - NEUTRON POROSITY (SANDSTONE)
DPHI.V/V      00 890 00 00         : PHID         - DENSITY POROSITY (SANDSTONE)
CALI.MM       00 280 01 00         : CAL          - CALIPER
GR  .API      00 310 00 00         : GR           - GAMMA RAY
~PARAMETER INFORMATION
#MNEM.UNIT           DATA             DESCRIPTION OF MNEMONIC
#---------         -----------     ------------------------------
GL  .M        576.83               : gl           - GROUND LEVEL ELEVATION
EREF.M        580.8                : kb           - ELEVATION OF DEPTH REFERENCE
DATM.M        576.83               : datum        - DATUM ELEVATION
TDD .M        446.75               : tdd          - TOTAL DEPTH DRILLER
RUN .         ONE                  : Run          - RUN NUMBER
ENG .         BILL                 : Engineer     - RECORDING ENGINEER
WIT .         JIM                  : Witness      - WITNESSED BY
MUD .         GEL                  : Mud_type     - MUD TYPE
MATR.         SANDSTONE            : Logunit      - NEUTRON MATRIX
TMAX.C        27.2                 : BHT          - MAXIMUM RECORDED TEMPERATURE
BHTD.M        446.75               : BHTDEP       - MAXIMUM RECORDED TEMPERATURE
RMT .C        12.2                 : MDTP         - TEMPERATURE OF MUD
MUDD.KG/M     1188                 : MWT          - MUD DENSITY
NEUT.         1                    : NEUTRON      - NEUTRON TYPE
RESI.         0                    : RESIST       - RESISTIVITY TYPE
RM  .OHMM     1.35                 : RM           - RESISTIVITY OF MUD
RMC .OHMM     0                    : RMC          - RESISTIVITY OF MUD CAKE
RMF .OHMM     4.93                 : RMF          - RESISTIVITY OF MUD FILTRATE
SUFT.C        -5                   : SUFT         - SURFACE TEMPERATURE
~A  DEPTH     RESD     PHIN     PHID      CAL       GR
# ...
  377.500   11.700    0.472    0.139  258.117   93.938
  377.750   11.816    0.460    0.110  255.739   90.709
  378.000   12.273    0.401    0.077  252.837   93.463
  378.250   12.863    0.380    0.143  249.449   99.522
  378.500   13.484    0.397    0.160  246.074   99.576
  378.750   14.136    0.409    0.169  244.182   96.055
  379.000   14.679    0.413    0.174  242.775   89.834
  379.250   15.964    0.411    0.177  240.883   80.606
  379.500   17.522    0.395    0.144  239.004   74.700
  379.750   19.771    0.379    0.142  237.111   75.643
  380.000   20.344    0.365    0.163  236.715   88.277
  380.250   20.181    0.353    0.152  236.306   86.843
  380.500   20.198    0.366    0.130  236.434   80.622
  380.750   21.364    0.353    0.026  237.047   73.795
  381.000   23.021    0.311    0.048  237.137   71.769
  381.250   24.584    0.296    0.117  236.740   74.822
  381.500   25.300    0.349    0.164  236.331   82.363
  381.750   25.318    0.385    0.174  235.961   87.824
  382.000   25.360    0.382    0.169  235.551   87.886
  382.250   24.905    0.389    0.173  235.641   85.845
  382.500   23.157    0.403    0.177  237.264   85.615
  382.750   21.728    0.409    0.160  237.354   86.275
  383.000   20.578    0.406    0.155  236.970   83.644
  383.250   19.489    0.398    0.150  237.060   83.398
  383.500   18.460    0.407    0.137  237.175   83.467
  383.750   17.323    0.418    0.167  236.778   90.409
  384.000   15.961    0.431    0.161  236.369   92.273
  384.250   14.978    0.425    0.153  235.998   89.036
  384.500   14.184    0.429    0.153  234.106   88.514
  384.750   14.069    0.412    0.197  231.217   86.474
  385.000   15.018    0.408    0.235  228.328   78.450
  385.250   16.791    0.362    0.265  225.937   69.529
  385.500   21.556    0.342    0.273  224.530   62.411
  385.750   23.227    0.334    0.278  223.661   57.087
  386.000   30.942    0.344    0.267  222.753   55.354
  386.250   31.843    0.343    0.251  221.347   51.817
  386.500   35.931    0.323    0.265  220.465   45.006
  386.750   43.651    0.307    0.307  220.056   39.974
  387.000   49.248    0.300    0.299  218.675   38.248
  387.250   59.829    0.318    0.282  218.279   38.915
  387.500   67.517    0.347    0.270  217.882   37.481
  387.750   76.184    0.369    0.286  217.984   36.928
  388.000   92.541    0.388    0.258  218.598   36.399
  388.250   96.119    0.382    0.262  218.598   35.862
  388.500   91.033    0.373    0.261  218.815   36.514
  388.750   82.323    0.378    0.276  219.403   37.174
  389.000   73.105    0.385    0.275  219.518   38.447
  389.250   71.170    0.381    0.269  219.621   40.311
  389.500   71.245    0.383    0.258  220.209   42.160
  389.750   70.658    0.392    0.276  221.321   44.630
  390.000   70.067    0.408    0.261  222.919   46.478
  390.250   67.603    0.410    0.250  225.003   46.831
  390.500   65.209    0.395    0.250  226.601   48.396
  390.750   61.774    0.392    0.251  229.720   51.748
  391.000   58.498    0.365    0.242  232.303   61.106
  391.250   53.892    0.340    0.215  234.911   64.144
  391.500   46.972    0.346    0.204  237.519   68.102
  391.750   36.658    0.368    0.224  240.612   72.060
  392.000   29.411    0.382    0.190  243.195   75.711
  392.250   24.706    0.378    0.166  246.301   79.362
  392.500   18.931    0.363    0.113  248.411   84.816
  392.750   17.120    0.383    0.106  249.996   90.263
  393.000   13.361    0.404    0.152  251.594   93.638
  393.250   11.329    0.410    0.174  253.704   92.502
  393.500    9.968    0.416    0.185  254.816   90.155
  393.750    9.267    0.416    0.162  255.417   87.225
  394.000    9.106    0.362    0.168  256.005   80.398
  394.250    9.457    0.331    0.150  256.120   72.389
  394.500   11.489    0.302    0.085  257.206   71.246
  394.750   16.323    0.294    0.070  257.833   73.402
  395.000   19.290    0.310    0.105  257.922   81.249
  395.250   19.306    0.381    0.132  258.037   94.182
  395.500   14.521    0.417    0.146  257.628  101.132
  395.750   10.528    0.415    0.166  257.244   98.209
  396.000    9.878    0.417    0.169  256.337   96.475
  396.250    9.272    0.420    0.174  253.972   99.521
  396.500    9.109    0.424    0.168  252.067  101.377
  396.750    9.119    0.427    0.188  250.660   84.079
  397.000    9.469    0.415    0.203  249.279   71.576
  397.250   11.826    0.353    0.225  247.873   66.843
  397.500   14.235    0.325    0.243  246.480   61.213
  397.750   18.442    0.313    0.259  246.083   58.881
  398.000   28.735    0.313    0.262  246.710   58.950
  398.250   32.724    0.319    0.229  247.323   60.208
  398.500   32.759    0.336    0.211  247.425   63.269
  398.750   30.183    0.347    0.195  248.014   66.322
  399.000   27.041    0.348    0.160  248.602   72.067
  399.250   23.356    0.352    0.137  249.202   73.931
  399.500   21.919    0.348    0.113  246.812   76.086
  399.750   21.344    0.331    0.121  246.428   77.643
  400.000   20.591    0.332    0.133  244.549   80.397
  400.250   19.680    0.350    0.155  243.142   85.851
  400.500   17.636    0.385    0.166  240.777   92.210
  400.750   11.986    0.451    0.180  238.872   94.365
  401.000    9.098    0.498    0.185  237.479   94.419
  401.250    6.596    0.501    0.170  237.069   92.394
  401.500    5.912    0.488    0.169  235.689   89.157
  401.750    6.083    0.467    0.148  233.797   85.030
  402.000    7.121    0.443    0.136  230.409   79.998
  402.250    8.650    0.431    0.162  226.535   66.889
  402.500   10.508    0.437    0.201  223.620   55.582
  402.750   11.325    0.456    0.228  221.728   46.669
  403.000   12.544    0.458    0.284  221.331   45.526
  403.250   15.664    0.411    0.329  221.932   44.398
  403.500   17.354    0.347    0.340  222.533   53.434
  403.750   18.871    0.373    0.355  222.661   63.974
  404.000   19.244    0.403    0.255  223.773   69.428
  404.250   18.393    0.417    0.267  224.847   69.197
  404.500   15.594    0.440    0.399  226.944   70.149
  404.750   11.202    0.544    0.415  229.539   78.295
  405.000   10.708    0.582    0.240  234.640   93.030
  405.250   10.719    0.584    0.238  236.263   93.690
  405.500   11.441    0.545    0.273  232.850   80.274
  405.750   14.692    0.504    0.266  220.986   72.258
  406.000   20.305    0.466    0.265  215.603   64.533
  406.250   24.892    0.366    0.283  211.730   54.722
  406.500   25.633    0.328    0.301  210.809   47.596
  406.750   33.188    0.315    0.297  211.423   42.273
  407.000   45.451    0.308    0.289  212.024   38.146
  407.250   59.435    0.281    0.272  212.637   34.610
  407.500   72.204    0.256    0.259  213.737   35.592
  407.750   70.952    0.250    0.255  214.337   36.535
  408.000   66.582    0.275    0.260  214.938   38.391
  408.250   60.219    0.292    0.286  216.536   42.050
  408.500   52.492    0.306    0.308  219.144   45.111
  408.750   41.340    0.314    0.295  223.734   53.556
  409.000   34.417    0.322    0.254  226.828   63.789
  409.250   32.005    0.339    0.237  226.930   71.038
  409.500   29.214    0.360    0.221  227.531   72.004
  409.750   26.664    0.388    0.229  228.132   67.870
  410.000   23.455    0.420    0.203  230.228   52.965
  410.250   22.015    0.409    0.183  233.846   44.044
  410.500   22.858    0.386    0.168  234.933   36.619
  410.750   25.324    0.247    0.005  236.032   34.303
  411.000   31.628    0.243   -0.013  237.157   36.458
  411.250   47.942    0.264    0.024  238.730   42.802
  411.500   52.126    0.292    0.029  240.865   50.649
  411.750   54.636    0.278    0.034  242.949   62.086
  412.000   54.185    0.271    0.035  245.045   71.122
  412.250   41.899    0.286    0.057  246.630   86.456
  412.500   31.226    0.311    0.069  248.740   97.294
  412.750   24.595    0.351    0.088  251.348  108.133
  413.000   19.192    0.391    0.113  252.447  107.895
  413.250   16.885    0.391    0.090  252.051   89.394
  413.500   16.446    0.356    0.062  251.655   76.890
  413.750   17.075    0.321    0.034  251.258   72.457
