~VERSION INFORMATION
 VERS.                 2.0:   CWLS LOG ASCII STANDARD -VERSION 2.0
 WRAP.                  NO:   ONE LINE PER DEPTH STEP
~WELL INFORMATION BLOCK
#MNEM.UNIT           DATA                    DESCRIPTION OF MNEMONIC
#---------    -------------------            -------------------------------
# Generated from Intellog Unique Number	CS_73_76/WELL/3267
WELL.         11-27-076-13W4                 : Well_name    - WELL
LOC .         00/11-27-076-13W4/0            : Location     - LOCATION
UWI .         00/11-27-076-13W4/0            : Uwi          - UNIQUE WELL ID
ENTR.         SP                             : Entered      - ENTERED BY
SRVC.         SCHLUMBERGER                   : Scn          - SERVICE COMPANY
STRT.M        310.896                        : top_depth    - START DEPTH
STOP.M        548.396                        : bot_depth    - STOP DEPTH
STEP.M        0.25                           : increment    - STEP LENGTH
 NULL. -999.2500:NULL Value
~CURVE INFORMATION BLOCK
#MNEM UNIT       ERCB CURVE CODE    CURVE DESCRIPTION
#-----------   ------------------   ----------------------------------
DEPT.M        00 001 00 00         : DEPTH        - DEPTH
GR  .API      00 310 00 00         : GR           - GAMMA RAY
DPHI.V/V      00 890 00 00         : PHID         - DENSITY POROSITY (SANDSTONE)
NPHI.V/V      00 330 00 00         : PHIN         - NEUTRON POROSITY (SANDSTONE)
ILD .OHMM     00 120 00 00         : RESD         - DEEP RESISTIVITY (DIL)
~PARAMETER INFORMATION
#MNEM.UNIT           DATA             DESCRIPTION OF MNEMONIC
#---------         -----------     ------------------------------
GL  .M        699.516              : gl           - GROUND LEVEL ELEVATION
EREF.M        702.564              : kb           - ELEVATION OF DEPTH REFERENCE
DATM.M        699.516              : datum        - DATUM ELEVATION
TDD .M        559.308              : tdd          - TOTAL DEPTH DRILLER
RUN .         ONE                  : Run          - RUN NUMBER
ENG .         BILL                 : Engineer     - RECORDING ENGINEER
WIT .         JIM                  : Witness      - WITNESSED BY
MUD .         GEL                  : Mud_type     - MUD TYPE
MATR.         SANDSTONE            : Logunit      - NEUTRON MATRIX
TMAX.C        32.2222              : BHT          - MAXIMUM RECORDED TEMPERATURE
BHTD.M        559.308              : BHTDEP       - MAXIMUM RECORDED TEMPERATURE
MATR.         1                    : LOGUNIT      - NEUTRON MATRIX
RMT .C        25                   : MDTP         - TEMPERATURE OF MUD
NEUT.         1                    : NEUTRON      - NEUTRON TYPE
RESI.         0                    : RESIST       - RESISTIVITY TYPE
RMC .OHMM     0.25                 : RMC          - RESISTIVITY OF MUD CAKE
RMF .OHMM     0.25                 : RMF          - RESISTIVITY OF MUD FILTRATE
SUFT.C        15                   : SUFT         - SURFACE TEMPERATURE
~A  DEPTH       GR     PHID     PHIN     RESD
# ...
  441.396   55.757    0.330    0.491    5.539
  441.646   56.334    0.335    0.483    5.544
  441.896   56.681    0.326    0.517    5.427
  442.146   56.954    0.323    0.527    5.435
  442.396   56.443    0.323    0.523    5.431
  442.646   56.810    0.330    0.500    5.385
  442.896   58.801    0.336    0.506    5.332
  443.146   59.471    0.337    0.494    5.329
  443.396   57.058    0.341    0.484    5.328
  443.646   57.525    0.332    0.483    5.326
  443.896   58.115    0.333    0.470    5.325
  444.146   58.086    0.336    0.463    5.323
  444.396   58.069    0.335    0.454    5.321
  444.646   57.640    0.329    0.468    5.317
  444.896   58.158    0.319    0.483    5.299
  445.146   57.507    0.321    0.502    5.215
  445.396   57.463    0.330    0.509    5.165
  445.646   57.442    0.337    0.497    5.111
  445.896   57.440    0.331    0.512    5.030
  446.146   57.531    0.335    0.525    4.921
  446.396   56.164    0.338    0.518    4.926
  446.646   54.716    0.348    0.509    4.835
  446.896   54.470    0.355    0.504    4.838
  447.146   54.420    0.354    0.502    4.838
  447.396   55.462    0.343    0.506    4.839
  447.646   55.699    0.349    0.506    4.857
  447.896   56.758    0.343    0.508    4.923
  448.146   56.763    0.331    0.506    4.912
  448.396   56.762    0.318    0.501    5.019
  448.646   56.793    0.324    0.493    5.009
  448.896   55.806    0.336    0.493    5.010
  449.146   55.547    0.335    0.489    5.015
  449.396   56.017    0.343    0.469    5.104
  449.646   56.067    0.346    0.484    5.135
  449.896   56.738    0.344    0.493    5.191
  450.146   56.690    0.334    0.495    5.290
  450.396   56.534    0.335    0.500    5.277
  450.646   56.101    0.322    0.508    5.374
  450.896   55.791    0.313    0.507    5.528
  451.146   54.868    0.300    0.476    5.843
  451.396   54.446    0.279    0.334    6.647
  451.646   52.031    0.212    0.247    7.199
  451.896   51.891    0.162    0.227    8.172
  452.146   52.375    0.118    0.230    9.121
  452.396   53.623    0.169    0.319    9.134
  452.646   54.957    0.195    0.381    8.135
  452.896   56.051    0.231    0.441    7.048
  453.146   56.749    0.276    0.490    6.355
  453.396   56.025    0.319    0.490    5.453
  453.646   56.385    0.336    0.498    4.967
  453.896   57.367    0.335    0.489    4.893
  454.146   58.368    0.334    0.480    4.885
  454.396   58.428    0.331    0.496    4.884
  454.646   57.700    0.330    0.511    4.883
  454.896   58.301    0.326    0.509    4.874
  455.146   58.342    0.323    0.503    4.978
  455.396   58.342    0.315    0.505    4.968
  455.646   58.458    0.315    0.540    4.968
  455.896   57.030    0.320    0.528    4.999
  456.146   57.154    0.326    0.502    5.051
  456.396   58.204    0.335    0.501    4.959
  456.646   58.340    0.341    0.510    4.987
  456.896   57.732    0.332    0.508    5.051
  457.146   56.680    0.325    0.495    5.109
  457.396   56.391    0.318    0.486    5.138
  457.646   55.891    0.318    0.487    5.139
  457.896   55.846    0.325    0.493    5.139
  458.146   56.606    0.325    0.484    5.139
  458.396   57.549    0.329    0.491    5.055
  458.646   58.291    0.328    0.485    5.040
  458.896   58.209    0.321    0.478    5.032
  459.146   57.676    0.321    0.483    4.930
  459.396   56.989    0.326    0.489    5.044
  459.646   57.047    0.331    0.492    5.033
  459.896   57.673    0.323    0.506    5.041
  460.146   57.636    0.313    0.488    4.929
  460.396   57.595    0.307    0.483    4.938
  460.646   58.275    0.315    0.479    4.935
  460.896   58.333    0.322    0.459    4.934
  461.146   58.297    0.314    0.467    4.932
  461.396   57.247    0.311    0.483    4.930
  461.646   56.993    0.310    0.469    4.927
  461.896   56.969    0.305    0.477    5.002
  462.146   56.925    0.301    0.539    5.006
  462.396   57.599    0.310    0.524    5.112
  462.646   58.549    0.310    0.520    5.167
  462.896   59.379    0.313    0.530    5.321
  463.146   59.319    0.323    0.514    5.594
  463.396   58.980    0.315    0.491    5.905
  463.646   57.970    0.314    0.469    6.180
  463.896   56.949    0.315    0.446    6.467
  464.146   56.937    0.318    0.476    6.672
  464.396   56.974    0.326    0.491    6.714
  464.646   57.988    0.321    0.519    6.621
  464.896   58.955    0.317    0.535    6.240
  465.146   59.922    0.315    0.545    5.876
  465.396   60.823    0.314    0.552    5.522
  465.646   62.383    0.311    0.554    5.352
  465.896   65.245    0.310    0.528    5.085
  466.146   67.127    0.312    0.495    4.961
  466.396   70.149    0.314    0.500    4.912
  466.646   72.278    0.292    0.493    4.813
  466.896   73.624    0.270    0.489    4.810
  467.146   72.578    0.261    0.497    4.805
  467.396   69.503    0.258    0.505    4.875
  467.646   67.233    0.255    0.521    5.135
  467.896   65.032    0.259    0.546    5.290
  468.146   63.671    0.267    0.562    5.553
  468.396   60.957    0.251    0.572    5.590
  468.646   59.765    0.236    0.543    5.767
  468.896   60.812    0.244    0.525    5.842
  469.146   62.096    0.254    0.518    5.874
  469.396   64.491    0.262    0.516    5.761
  469.646   66.425    0.274    0.526    5.703
  469.896   68.268    0.280    0.530    5.540
  470.146   69.181    0.268    0.517    5.553
  470.396   69.901    0.270    0.508    5.446
  470.646   70.003    0.261    0.500    5.334
  470.896   71.466    0.247    0.491    5.341
  471.146   72.956    0.227    0.483    5.295
  471.396   75.940    0.214    0.479    5.245
  471.646   76.378    0.220    0.485    5.165
  471.896   75.443    0.231    0.493    5.154
  472.146   75.133    0.237    0.484    5.046
  472.396   75.420    0.231    0.472    5.038
  472.646   78.341    0.227    0.468    5.150
  472.896   80.447    0.223    0.500    5.135
  473.146   80.432    0.216    0.497    5.293
  473.396   79.205    0.210    0.503    5.471
  473.646   77.053    0.211    0.506    5.715
  473.896   76.039    0.206    0.498    6.058
  474.146   75.179    0.197    0.486    6.419
  474.396   76.746    0.180    0.431    6.607
  474.646   78.843    0.194    0.439    6.818
  474.896   81.104    0.208    0.417    6.881
  475.146   82.607    0.210    0.412    7.004
  475.396   84.442    0.197    0.417    6.954
  475.646   86.343    0.194    0.424    6.868
  475.896   89.574    0.181    0.434    6.662
  476.146   91.434    0.169    0.444    6.492
  476.396   93.374    0.187    0.466    6.386
  476.646   93.453    0.191    0.492    6.184
  476.896   92.208    0.200    0.502    6.144
  477.146   92.798    0.210    0.484    6.142
  477.396   93.394    0.217    0.501    6.194
  477.646   93.977    0.225    0.508    6.252
  477.896   92.169    0.219    0.479    6.155
  478.146   88.590    0.208    0.465    6.097
  478.396   84.399    0.202    0.450    5.901
  478.646   82.977    0.200    0.479    5.627
  478.896   83.449    0.198    0.505    5.349
  479.146   82.107    0.205    0.501    5.104
  479.396   80.895    0.198    0.484    4.812
  479.646   82.947    0.193    0.485    4.424
  479.896   83.766    0.211    0.523    3.903
  480.146   84.635    0.229    0.545    3.360
  480.396   82.384    0.262    0.562    2.901
  480.646   82.925    0.277    0.592    2.566
  480.896   84.369    0.276    0.615    2.255
  481.146   85.612    0.266    0.639    2.022
  481.396   84.942    0.257    0.632    1.905
  481.646   85.108    0.273    0.645    1.810
  481.896   86.775    0.271    0.663    1.816
  482.146   88.372    0.262    0.673    1.810
  482.396   89.396    0.252    0.685    1.904
  482.646   88.611    0.234    0.672    2.020
  482.896   86.299    0.223    0.638    2.141
  483.146   84.070    0.214    0.605    2.324
  483.396   82.663    0.200    0.534    2.676
  483.646   82.857    0.182    0.459    2.919
  483.896   86.916    0.169    0.444    3.485
  484.146   88.793    0.168    0.461    4.121
  484.396   89.067    0.166    0.465    4.526
  484.646   86.618    0.156    0.448    5.577
