~VERSION INFORMATION
 VERS.                 2.0:   CWLS LOG ASCII STANDARD -VERSION 2.0
 WRAP.                  NO:   ONE LINE PER DEPTH STEP
~WELL INFORMATION BLOCK
#MNEM.UNIT           DATA                    DESCRIPTION OF MNEMONIC
#---------    -------------------            -------------------------------
# Generated from Intellog Unique Number	CS_77_79/WELL/995
WELL.         HOME LEISTER                   : Well_name    - WELL
LOC .         00/11-14-078-06W4/0            : Location     - LOCATION
UWI .         00/11-14-078-06W4/0            : Uwi          - UNIQUE WELL ID
ENTR.         JHS                            : Entered      - ENTERED BY
SRVC.         SCHLUMBERGER                   : Scn          - SERVICE COMPANY
STRT.M        140                            : top_depth    - START DEPTH
STOP.M        420                            : bot_depth    - STOP DEPTH
STEP.M        0.25                           : increment    - STEP LENGTH
 NULL. -999.2500:NULL Value
~CURVE INFORMATION BLOCK
#MNEM UNIT       ERCB CURVE CODE    CURVE DESCRIPTION
#-----------   ------------------   ----------------------------------
DEPT.M        00 001 00 00         : DEPTH        - DEPTH
DPHI.V/V      00 890 00 00         : PHID         - DENSITY POROSITY (LIMESTONE)
NPHI.V/V      00 330 00 00         : PHIN         - NEUTRON POROSITY (LIMESTONE)
GR  .API      00 310 00 00         : GR           - GAMMA RAY
ILD .OHMM     00 120 00 00         : RESD         - DEEP RESISTIVITY (DIL)
RHOB.KG/M3    00 350 00 00         : DENS         - BULK DENSITY
~PARAMETER INFORMATION
#MNEM.UNIT           DATA             DESCRIPTION OF MNEMONIC
#---------         -----------     ------------------------------
GL  .M        593.32               : gl           - GROUND LEVEL ELEVATION
EREF.M        596.32               : kb           - ELEVATION OF DEPTH REFERENCE
DATM.M        596.32               : datum        - DATUM ELEVATION
TDD .M        430                  : tdd          - TOTAL DEPTH DRILLER
RUN .         ONE                  : Run          - RUN NUMBER
ENG .         BILL                 : Engineer     - RECORDING ENGINEER
WIT .         JIM                  : Witness      - WITNESSED BY
MUD .         GEL                  : Mud_type     - MUD TYPE
MATR.         LIMESTONE            : Logunit      - NEUTRON MATRIX
TMAX.C        24                   : BHT          - MAXIMUM RECORDED TEMPERATURE
BHTD.M        430                  : BHTDEP       - MAXIMUM RECORDED TEMPERATURE
MATR.         1                    : LOGUNIT      - NEUTRON MATRIX
RMT .C        25                   : MDTP         - TEMPERATURE OF MUD
NEUT.         1                    : NEUTRON      - NEUTRON TYPE
RESI.         0                    : RESIST       - RESISTIVITY TYPE
RMC .OHMM     0.25                 : RMC          - RESISTIVITY OF MUD CAKE
RMF .OHMM     0.25                 : RMF          - RESISTIVITY OF MUD FILTRATE
SUFT.C        15                   : SUFT         - SURFACE TEMPERATURE
~A  DEPTH     PHID     PHIN       GR     RESD     DENS
# ...
  176.500    0.254    0.414  110.865    3.269    0.000
  176.750    0.247    0.473  113.341    3.212    0.000
  177.000    0.227    0.454  110.878    3.220    0.000
  177.250    0.226    0.417  107.181    3.222    0.000
  177.500    0.238    0.427  107.187    3.351    0.000
  177.750    0.209    0.407  102.256    3.484    0.000
  178.000    0.184    0.313   93.620    3.906    0.000
  178.250    0.117    0.280   83.749    4.378    0.000
  178.500    0.079    0.249   62.151    5.000    0.000
  178.750    0.172    0.245   51.663    5.929    0.000
  179.000    0.104    0.231   47.348    6.900    0.000
  179.250    0.155    0.254   48.590    8.182    0.000
  179.500    0.218    0.304   42.425    9.174    0.000
  179.750    0.320    0.340   48.604    8.059    0.000
  180.000    0.233    0.392   60.956    6.945    0.000
  180.250    0.237    0.414   91.828    5.874    0.000
  180.500    0.230    0.429  110.971    4.970    0.000
  180.750    0.226    0.446  109.744    4.366    0.000
  181.000    0.217    0.462  102.342    3.980    0.000
  181.250    0.230    0.420  101.732    4.060    0.000
  181.500    0.288    0.374   84.454    6.879    0.000
  181.750    0.331    0.333   59.151    9.842    0.000
  182.000    0.322    0.308   48.047   14.080    0.000
  182.250    0.281    0.279   34.473   18.688    0.000
  182.500    0.298    0.310   30.775   20.172    0.000
  182.750    0.306    0.336   44.364   18.401    0.000
  183.000    0.296    0.364   62.890   16.461    0.000
  183.250    0.282    0.377   80.797   14.189    0.000
  183.500    0.189    0.336   94.385   12.936    0.000
  183.750    0.148    0.326   90.691   11.800    0.000
  184.000    0.218    0.331   93.165   11.383    0.000
  184.250    0.214    0.333  101.196   10.985    0.000
  184.500    0.200    0.336  107.376   10.789    0.000
  184.750    0.236    0.363  106.148   10.810    0.000
  185.000    0.289    0.383   91.339   11.893    0.000
  185.250    0.320    0.356   80.851   12.841    0.000
  185.500    0.289    0.289   79.624   13.601    0.000
  185.750    0.263    0.267   82.100   13.878    0.000
  186.000    0.242    0.277   89.515   12.190    0.000
  186.250    0.230    0.329   95.077   10.119    0.000
  186.500    0.219    0.342  104.961    8.560    0.000
  186.750    0.234    0.369  112.376    7.519    0.000
  187.000    0.272    0.400  114.233    7.389    0.000
  187.250    0.297    0.414  109.918    9.099    0.000
  187.500    0.313    0.376   98.814   10.588    0.000
  187.750    0.310    0.357   92.031   11.867    0.000
  188.000    0.311    0.326   93.272   13.056    0.000
  188.250    0.323    0.304   94.513   13.079    0.000
  188.500    0.307    0.350   89.581   11.925    0.000
  188.750    0.278    0.365   98.230    9.903    0.000
  189.000    0.241    0.392  102.559    9.202    0.000
  189.250    0.228    0.372  104.417    8.709    0.000
  189.500    0.213    0.351  105.660    8.561    0.000
  189.750    0.198    0.335  105.048    8.572    0.000
  190.000    0.193    0.317  106.289    8.428    0.000
  190.250    0.197    0.310  114.322    7.977    0.000
  190.500    0.194    0.336  119.266    7.277    0.000
  190.750    0.203    0.392  126.064    6.638    0.000
  191.000    0.219    0.404  125.454    6.282    0.000
  191.250    0.220    0.421  126.076    6.174    0.000
  191.500    0.220    0.404  124.850    7.052    0.000
  191.750    0.249    0.388  123.004    8.207    0.000
  192.000    0.278    0.392  119.924    9.551    0.000
  192.250    0.268    0.357  116.844   10.703    0.000
  192.500    0.265    0.311  110.678   12.696    0.000
  192.750    0.291    0.289  105.746   13.966    0.000
  193.000    0.518    0.376   94.641   15.358    0.000
  193.250    0.592    0.590   68.721   16.901    0.000
  193.500    0.612    0.619   68.728   18.246    0.000
  193.750    0.472    0.596   86.019   19.697    0.000
  194.000    0.508    0.537   88.495   22.086    0.000
  194.250    0.551    0.557   65.044   24.289    0.000
  194.500    0.483    0.604   41.593   27.756    0.000
  194.750    0.486    0.623   34.193   29.959    0.000
  195.000    0.420    0.540   34.200   31.732    0.000
  195.250    0.350    0.325   34.206   33.630    0.000
  195.500    0.335    0.279   34.212   34.310    0.000
  195.750    0.348    0.282   34.221   35.699    0.000
  196.000    0.364    0.303   34.843   35.755    0.000
  196.250    0.330    0.332   66.949   36.489    0.000
  196.500    0.310    0.341   92.883   36.528    0.000
  196.750    0.318    0.323   86.718   35.913    0.000
  197.000    0.317    0.303   75.612   35.958    0.000
  197.250    0.313    0.299   42.902   35.373    0.000
  197.500    0.319    0.341   41.674   34.758    0.000
  197.750    0.313    0.381   52.175   34.185    0.000
  198.000    0.309    0.391   58.972   33.573    0.000
  198.250    0.305    0.350   63.300   32.990    0.000
  198.500    0.309    0.330   64.542   31.848    0.000
  198.750    0.309    0.319   61.462   31.283    0.000
  199.000    0.321    0.324   55.295   29.616    0.000
  199.250    0.327    0.303   53.450   26.506    0.000
  199.500    0.365    0.384   57.777   20.800    0.000
  199.750    0.533    0.484   59.020   18.966    0.000
  200.000    0.357    0.330   57.174   18.643    0.000
  200.250    0.292    0.313   67.058   17.986    0.000
  200.500    0.303    0.302   71.385   16.708    0.000
  200.750    0.299    0.292   73.862   14.136    0.000
  201.000    0.237    0.311   93.004   12.413    0.000
  201.250    0.201    0.395  122.642   10.306    0.000
  201.500    0.122    0.413  136.229    8.554    0.000
  201.750    0.063    0.376  131.915    7.103    0.000
  202.000    0.026    0.359  113.403    6.356    0.000
  202.250    0.106    0.384  110.323    5.797    0.000
  202.500    0.147    0.388  125.146    5.487    0.000
  202.750    0.188    0.396  122.683    5.197    0.000
  203.000    0.194    0.426  125.776    5.202    0.000
  203.250    0.270    0.495  130.721    5.411    0.000
  203.500    0.322    0.478  116.529    6.415    0.000
  203.750    0.328    0.408   73.942    8.840    0.000
  204.000    0.320    0.350   68.393   10.681    0.000
  204.250    0.273    0.327   78.894   12.199    0.000
  204.500    0.227    0.377   94.950   12.926    0.000
  204.750    0.248    0.295  111.625   12.947    0.000
  205.000    0.259    0.282   96.199   11.372    0.000
  205.250    0.261    0.352   76.452   10.367    0.000
  205.500    0.289    0.379   74.607   11.195    0.000
  205.750    0.304    0.314   72.145   13.529    0.000
  206.000    0.276    0.293   61.657   16.044    0.000
  206.250    0.283    0.315   67.838   17.980    0.000
  206.500    0.315    0.318   67.228   19.412    0.000
  206.750    0.307    0.311   62.912   20.185    0.000
  207.000    0.293    0.315   67.859   19.480    0.000
  207.250    0.287    0.322   72.186   19.142    0.000
  207.500    0.263    0.312   77.130   19.912    0.000
  207.750    0.137    0.289   74.667   19.203    0.000
  208.000    0.129    0.314   67.884   18.182    0.000
  208.250    0.222    0.372   74.064   17.538    0.000
  208.500    0.263    0.383   82.715   17.232    0.000
  208.750    0.277    0.350   88.278   17.595    0.000
  209.000    0.287    0.331   89.518   17.947    0.000
  209.250    0.305    0.306   92.610   18.320    0.000
  209.500    0.311    0.313   99.406   18.346    0.000
  209.750    0.304    0.307  103.118   16.730    0.000
  210.000    0.278    0.311   91.396   14.152    0.000
  210.250    0.237    0.329   83.376   12.197    0.000
  210.500    0.201    0.364  108.694   10.318    0.000
  210.750    0.163    0.386  128.454    8.727    0.000
  211.000    0.133    0.364  134.633    7.526    0.000
  211.250    0.137    0.379  128.468    7.395    0.000
  211.500    0.206    0.435  116.127    8.292    0.000
  211.750    0.288    0.350  114.283    9.466    0.000
  212.000    0.326    0.327  109.968   11.877    0.000
  212.250    0.337    0.323  121.703   14.620    0.000
  212.500    0.341    0.352  145.785   17.666    0.000
  212.750    0.332    0.390  166.780   20.561    0.000
