~VERSION INFORMATION
 VERS.                 2.0:   CWLS LOG ASCII STANDARD -VERSION 2.0
 WRAP.                  NO:   ONE LINE PER DEPTH STEP
~WELL INFORMATION BLOCK
#MNEM.UNIT           DATA                    DESCRIPTION OF MNEMONIC
#---------    -------------------            -------------------------------
# Generated from Intellog Unique Number	CS_71_72/WELL/920
WELL.         AMOCO AEC IPIATIK              : Well_name    - WELL
LOC .         00/12-28-072-06W4/0            : Location     - LOCATION
UWI .         00/12-28-072-06W4/0            : Uwi          - UNIQUE WELL ID
ENTR.         SP                             : Entered      - ENTERED BY
SRVC.         SCHLUMBERGER                   : Scn          - SERVICE COMPANY
STRT.M        340                            : top_depth    - START DEPTH
STOP.M        565                            : bot_depth    - STOP DEPTH
STEP.M        0.25                           : increment    - STEP LENGTH
 NULL. -999.2500:NULL Value
~CURVE INFORMATION BLOCK
#MNEM UNIT       ERCB CURVE CODE    CURVE DESCRIPTION
#-----------   ------------------   ----------------------------------
DEPT.M        00 001 00 00         : DEPTH        - DEPTH
ILD .OHMM     00 120 00 00         : RESD         - DEEP RESISTIVITY (DIL)
DPHI.V/V      00 890 00 00         : PHID         - DENSITY POROSITY (LIMESTONE)
NPHI.V/V      00 330 00 00         : PHIN         - NEUTRON POROSITY (LIMESTONE)
GR  .API      00 310 00 00         : GR           - GAMMA RAY
~PARAMETER INFORMATION
#MNEM.UNIT           DATA             DESCRIPTION OF MNEMONIC
#---------         -----------     ------------------------------
GL  .M        713.57               : gl           - GROUND LEVEL ELEVATION
EREF.M        713.07               : kb           - ELEVATION OF DEPTH REFERENCE
DATM.M        713.57               : datum        - DATUM ELEVATION
TDD .M        580.9                : tdd          - TOTAL DEPTH DRILLER
RUN .         ONE                  : Run          - RUN NUMBER
ENG .         BILL                 : Engineer     - RECORDING ENGINEER
WIT .         JIM                  : Witness      - WITNESSED BY
MUD .         GEL                  : Mud_type     - MUD TYPE
MATR.         LIMESTONE            : Logunit      - NEUTRON MATRIX
TMAX.C        22                   : BHT          - MAXIMUM RECORDED TEMPERATURE
BHTD.M        580.9                : BHTDEP       - MAXIMUM RECORDED TEMPERATURE
MATR.         1                    : LOGUNIT      - NEUTRON MATRIX
RMT .C        25                   : MDTP         - TEMPERATURE OF MUD
NEUT.         1                    : NEUTRON      - NEUTRON TYPE
RESI.         0                    : RESIST       - RESISTIVITY TYPE
RMC .OHMM     0.25                 : RMC          - RESISTIVITY OF MUD CAKE
RMF .OHMM     0.25                 : RMF          - RESISTIVITY OF MUD FILTRATE
SUFT.C        15                   : SUFT         - SURFACE TEMPERATURE
~A  DEPTH     RESD     PHID     PHIN       GR
# ...
  427.000    7.750    0.303    0.481   49.904
  427.250    7.465    0.310    0.491   50.519
  427.500    7.324    0.303    0.498   50.539
  427.750    7.187    0.300    0.509   50.550
  428.000    7.186    0.296    0.514   50.565
  428.250    7.184    0.291    0.524   51.788
  428.500    7.182    0.290    0.530   53.024
  428.750    7.180    0.284    0.514   53.641
  429.000    7.313    0.279    0.519   54.256
  429.250    7.311    0.284    0.504   54.877
  429.500    7.308    0.285    0.489   54.281
  429.750    7.307    0.281    0.483   55.505
  430.000    7.171    0.279    0.489   56.124
  430.250    6.531    0.284    0.493   54.930
  430.500    6.410    0.302    0.477   51.925
  430.750    7.033    0.309    0.471   50.726
  431.000    8.313    0.318    0.443   47.115
  431.250    9.293    0.320    0.474   44.709
  431.500    9.825    0.324    0.475   42.308
  431.750   10.780    0.325    0.465   41.711
  432.000   11.396    0.323    0.457   44.146
  432.250   11.825    0.321    0.469   49.003
  432.500   11.823    0.311    0.479   51.432
  432.750   11.601    0.299    0.486   55.685
  433.000   11.385    0.285    0.495   58.120
  433.250    9.807    0.274    0.504   59.947
  433.500    7.841    0.258    0.523   58.149
  433.750    6.387    0.272    0.545   52.724
  434.000    5.818    0.283    0.514   49.110
  434.250    5.926    0.292    0.487   46.701
  434.500    6.749    0.298    0.474   44.903
  434.750    8.435    0.292    0.474   44.309
  435.000    9.086    0.301    0.477   43.115
  435.250   10.347    0.303    0.476   43.130
  435.500   10.939    0.298    0.486   43.755
  435.750   11.142    0.294    0.491   44.368
  436.000   10.534    0.306    0.482   44.991
  436.250   10.145    0.310    0.475   45.607
  436.500    9.772    0.292    0.463   48.651
  436.750    9.238    0.279    0.458   51.083
  437.000    8.734    0.271    0.455   53.514
  437.250    8.106    0.258    0.456   59.585
  437.500    6.361    0.242    0.466   62.620
  437.750    5.903    0.231    0.483   65.052
  438.000    4.991    0.233    0.504   68.092
  438.250    4.546    0.248    0.524   70.522
  438.500    4.064    0.262    0.568   72.964
  438.750    3.772    0.273    0.589   74.186
  439.000    3.633    0.273    0.576   74.195
  439.250    3.434    0.260    0.573   73.001
  439.500    3.371    0.243    0.584   67.575
  439.750    3.307    0.237    0.565   63.364
  440.000    3.306    0.231    0.554   61.558
  440.250    3.368    0.227    0.538   61.569
  440.500    3.695    0.228    0.518   63.404
  440.750    4.706    0.229    0.503   64.622
  441.000    5.261    0.229    0.486   65.242
  441.250    6.576    0.229    0.470   64.655
  441.500    8.069    0.221    0.460   63.456
  441.750    8.530    0.214    0.468   61.660
  442.000    8.527    0.204    0.478   59.867
  442.250    8.367    0.218    0.489   59.273
  442.500    8.211    0.230    0.488   59.284
  442.750    7.908    0.213    0.504   58.691
  443.000    7.907    0.210    0.516   58.113
  443.250    7.904    0.234    0.525   58.129
  443.500    7.903    0.241    0.525   58.142
  443.750    7.900    0.246    0.493   58.157
  444.000    7.753    0.236    0.478   58.169
  444.250    7.749    0.218    0.498   58.783
  444.500    7.605    0.204    0.516   60.614
  444.750    7.463    0.203    0.531   61.835
  445.000    7.462    0.208    0.541   64.273
  445.250    7.187    0.226    0.547   65.492
  445.500    6.922    0.246    0.531   67.322
  445.750    6.793    0.232    0.523   67.941
  446.000    6.543    0.212    0.502   67.354
  446.250    6.302    0.206    0.525   67.981
  446.500    6.070    0.226    0.542   68.599
  446.750    5.633    0.246    0.530   69.216
  447.000    5.036    0.254    0.513   69.833
  447.250    4.673    0.248    0.520   69.846
  447.500    4.501    0.233    0.535   69.867
  447.750    4.256    0.230    0.547   69.879
  448.000    4.098    0.232    0.556   69.892
  448.250    4.022    0.232    0.553   69.903
  448.500    3.947    0.232    0.545   69.924
  448.750    3.873    0.230    0.564   69.934
  449.000    3.872    0.228    0.596   71.167
  449.250    3.799    0.244    0.586   72.389
  449.500    3.659    0.265    0.570   73.004
  449.750    3.659    0.274    0.562   69.389
  450.000    3.658    0.257    0.555   65.173
  450.250    3.726    0.246    0.537   63.975
  450.500    3.795    0.257    0.527   62.179
  450.750    4.163    0.244    0.514   61.584
  451.000    4.402    0.255    0.520   67.048
  451.250    5.013    0.272    0.517   65.849
  451.500    5.300    0.283    0.527   60.418
  451.750    5.602    0.287    0.533   56.809
  452.000    5.601    0.289    0.539   56.825
  452.250    5.705    0.287    0.532   56.835
  452.500    5.703    0.286    0.510   56.861
  452.750    5.702    0.287    0.500   56.873
  453.000    5.807    0.292    0.493   56.884
  453.250    5.915    0.279    0.490   56.296
  453.500    6.253    0.285    0.488   56.310
  453.750    6.734    0.307    0.486   56.323
  454.000    6.859    0.309    0.481   56.337
  454.250    6.986    0.305    0.475   56.347
  454.500    6.856    0.304    0.470   55.759
  454.750    6.480    0.306    0.467   53.960
  455.000    6.359    0.320    0.465   52.764
  455.250    6.125    0.326    0.494   51.578
  455.500    6.124    0.334    0.512   51.594
  455.750    6.122    0.333    0.523   52.209
  456.000    6.236    0.329    0.528   52.822
  456.250    6.352    0.321    0.523   54.053
  456.500    6.350    0.316    0.502   54.060
  456.750    6.589    0.294    0.492   53.471
  457.000    6.837    0.277    0.483   53.487
  457.250    6.835    0.264    0.484   54.711
  457.500    7.092    0.259    0.489   55.938
  457.750    7.091    0.253    0.483   56.560
  458.000    7.222    0.255    0.475   56.569
  458.250    7.220    0.260    0.477   55.375
  458.500    7.353    0.267    0.484   53.574
  458.750    7.490    0.272    0.483   51.171
  459.000    7.629    0.265    0.469   48.170
  459.250    7.770    0.253    0.466   46.972
  459.500    7.913    0.255    0.474   46.377
  459.750    8.060    0.283    0.469   46.998
  460.000    8.059    0.305    0.467   48.220
  460.250    8.056    0.312    0.467   49.454
  460.500    7.759    0.307    0.470   50.068
  460.750    7.615    0.283    0.482   50.078
  461.000    7.471    0.262    0.493   50.094
  461.250    7.332    0.243    0.490   48.903
  461.500    7.062    0.227    0.491   48.913
  461.750    6.802    0.235    0.492   53.169
  462.000    6.675    0.257    0.482   54.994
  462.250    6.551    0.249    0.476   56.819
  462.500    6.671    0.237    0.465   59.259
  462.750    6.670    0.239    0.477   59.876
  463.000    6.793    0.245    0.492   61.102
  463.250    6.792    0.250    0.494   61.721
  463.500    6.665    0.240    0.495   62.342
  463.750    6.301    0.264    0.513   62.358
  464.000    5.847    0.275    0.532   62.369
  464.250    5.326    0.281    0.540   62.380
  464.500    4.851    0.279    0.538   62.403
  464.750    4.586    0.269    0.524   61.807
  465.000    4.025    0.256    0.501   60.007
  465.250    3.949    0.254    0.492   59.420
  465.500    4.334    0.268    0.477   60.643
  465.750    5.123    0.271    0.481   62.473
  466.000    5.518    0.274    0.491   63.695
  466.250    6.283    0.274    0.523   66.140
  466.500    6.166    0.272    0.555   66.760
  466.750    4.662    0.289    0.574   67.379
  467.000    4.247    0.295    0.580   67.391
  467.250    3.459    0.282    0.598   67.403
  467.500    2.818    0.275    0.595   67.420
  467.750    2.567    0.272    0.571   67.430
  468.000    2.472    0.269    0.549   66.839
  468.250    2.518    0.263    0.549   66.250
  468.500    2.662    0.260    0.552   65.662
  468.750    2.976    0.260    0.546   65.066
  469.000    3.205    0.261    0.527   63.268
  469.250    3.788    0.264    0.510   61.468
  469.500    4.080    0.262    0.498   59.672
  469.750    4.478    0.259    0.484   58.472
  470.000    5.195    0.245    0.464   57.288
  470.250    5.917    0.225    0.460   56.696
