~VERSION INFORMATION
 VERS.                 2.0:   CWLS LOG ASCII STANDARD -VERSION 2.0
 WRAP.                  NO:   ONE LINE PER DEPTH STEP
~WELL INFORMATION BLOCK
#MNEM.UNIT           DATA                    DESCRIPTION OF MNEMONIC
#---------    -------------------            -------------------------------
# Generated from Intellog Unique Number	CS_71_72/WELL/865
WELL.         ALLIED ET AL WANDER            : Well_name    - WELL
LOC .         00/10-20-072-14W4/0            : Location     - LOCATION
UWI .         00/10-20-072-14W4/0            : Uwi          - UNIQUE WELL ID
ENTR.         SP                             : Entered      - ENTERED BY
SRVC.         SCHLUMBERGER                   : Scn          - SERVICE COMPANY
STRT.M        265.176                        : top_depth    - START DEPTH
STOP.M        487.426                        : bot_depth    - STOP DEPTH
STEP.M        0.25                           : increment    - STEP LENGTH
 NULL. -999.2500:NULL Value
~CURVE INFORMATION BLOCK
#MNEM UNIT       ERCB CURVE CODE    CURVE DESCRIPTION
#-----------   ------------------   ----------------------------------
DEPT.M        00 001 00 00         : DEPTH        - DEPTH
GR  .API      00 310 00 00         : GR           - GAMMA RAY
DPHI.V/V      00 890 00 00         : PHID         - DENSITY POROSITY (SANDSTONE)
NPHI.V/V      00 330 00 00         : PHIN         - NEUTRON POROSITY (SANDSTONE)
ILD .OHMM     00 120 00 00         : RESD         - DEEP RESISTIVITY (DIL)
~PARAMETER INFORMATION
#MNEM.UNIT           DATA             DESCRIPTION OF MNEMONIC
#---------         -----------     ------------------------------
GL  .M        606.095              : gl           - GROUND LEVEL ELEVATION
EREF.M        609.143              : kb           - ELEVATION OF DEPTH REFERENCE
DATM.M        606.095              : datum        - DATUM ELEVATION
TDD .M        534.924              : tdd          - TOTAL DEPTH DRILLER
RUN .         ONE                  : Run          - RUN NUMBER
ENG .         BILL                 : Engineer     - RECORDING ENGINEER
WIT .         JIM                  : Witness      - WITNESSED BY
MUD .         GEL                  : Mud_type     - MUD TYPE
MATR.         SANDSTONE            : Logunit      - NEUTRON MATRIX
TMAX.C        30.5556              : BHT          - MAXIMUM RECORDED TEMPERATURE
BHTD.M        534.924              : BHTDEP       - MAXIMUM RECORDED TEMPERATURE
MATR.         1                    : LOGUNIT      - NEUTRON MATRIX
RMT .C        25                   : MDTP         - TEMPERATURE OF MUD
NEUT.         1                    : NEUTRON      - NEUTRON TYPE
RESI.         0                    : RESIST       - RESISTIVITY TYPE
RMC .OHMM     0.25                 : RMC          - RESISTIVITY OF MUD CAKE
RMF .OHMM     0.25                 : RMF          - RESISTIVITY OF MUD FILTRATE
SUFT.C        15                   : SUFT         - SURFACE TEMPERATURE
~A  DEPTH       GR     PHID     PHIN     RESD
# ...
  352.176   84.979    0.273    0.478    5.108
  352.426   77.166    0.291    0.482    5.113
  352.676   76.493    0.300    0.475    5.109
  352.926   79.911    0.296    0.485    5.041
  353.176   82.522    0.307    0.492    4.955
  353.426   84.088    0.300    0.488    4.875
  353.676   82.418    0.296    0.485    4.869
  353.926   78.266    0.300    0.482    4.960
  354.176   74.585    0.308    0.469    5.032
  354.426   72.325    0.326    0.464    5.109
  354.676   69.385    0.332    0.471    5.201
  354.926   68.052    0.337    0.466    5.187
  355.176   66.352    0.329    0.457    5.277
  355.426   66.193    0.326    0.461    5.269
  355.676   66.517    0.338    0.463    5.275
  355.926   69.643    0.326    0.474    5.181
  356.176   70.457    0.322    0.480    5.188
  356.426   71.056    0.318    0.477    5.188
  356.676   70.058    0.329    0.472    5.189
  356.926   67.406    0.335    0.468    5.187
  357.176   67.818    0.341    0.463    5.274
  357.426   68.838    0.344    0.462    5.287
  357.676   69.225    0.336    0.464    5.344
  357.926   68.534    0.338    0.467    5.294
  358.176   68.061    0.330    0.471    5.249
  358.426   68.510    0.327    0.477    5.191
  358.676   70.274    0.328    0.482    4.974
  358.926   70.528    0.329    0.469    4.851
  359.176   70.648    0.332    0.455    4.789
  359.426   69.634    0.322    0.448    4.697
  359.676   68.654    0.320    0.454    4.706
  359.926   69.517    0.328    0.456    4.846
  360.176   72.015    0.318    0.464    4.861
  360.426   75.842    0.314    0.479    4.861
  360.676   78.461    0.327    0.472    4.809
  360.926   81.562    0.331    0.454    4.778
  361.176   85.900    0.319    0.444    4.854
  361.426   88.556    0.301    0.441    4.894
  361.676   90.476    0.280    0.443    5.034
  361.926   92.028    0.264    0.461    5.093
  362.176   92.799    0.284    0.459    5.219
  362.426   95.248    0.272    0.454    5.249
  362.676   98.434    0.255    0.467    5.057
  362.926  100.785    0.241    0.475    4.777
  363.176  102.841    0.233    0.482    4.291
  363.426  103.896    0.230    0.492    3.747
  363.676  104.060    0.227    0.492    3.526
  363.926  103.485    0.228    0.477    3.192
  364.176  102.509    0.232    0.470    3.097
  364.426  101.521    0.228    0.464    3.214
  364.676  100.630    0.235    0.458    3.546
  364.926   98.074    0.250    0.464    4.083
  365.176   95.485    0.257    0.473    4.819
  365.426   93.989    0.269    0.483    5.196
  365.676   93.813    0.283    0.476    5.622
  365.926   91.408    0.287    0.471    5.965
  366.176   89.121    0.294    0.464    6.160
  366.426   84.234    0.308    0.460    6.191
  366.676   80.250    0.304    0.454    6.197
  366.926   76.341    0.292    0.450    6.103
  367.176   72.463    0.275    0.467    6.219
  367.426   67.879    0.259    0.456    6.779
  367.676   65.263    0.231    0.360    7.734
  367.926   62.093    0.211    0.267    8.798
  368.176   59.603    0.093    0.223   10.387
  368.426   57.264    0.013    0.157   12.489
  368.676   56.518    0.010    0.152   32.709
  368.926   58.976    0.004    0.151   60.187
  369.176   62.340    0.014    0.154   43.419
  369.426   64.827    0.050    0.172   22.882
  369.676   69.591    0.155    0.241   20.223
  369.926   75.572    0.217    0.349   10.183
  370.176   77.245    0.244    0.429    9.332
  370.426   78.891    0.284    0.449    8.281
  370.676   80.867    0.316    0.459    7.514
  370.926   83.282    0.314    0.470    6.931
  371.176   84.581    0.297    0.472    6.630
  371.426   85.055    0.291    0.471    6.236
  371.676   83.487    0.297    0.465    5.975
  371.926   84.731    0.289    0.455    5.854
  372.176   87.080    0.276    0.455    5.948
  372.426   89.875    0.258    0.461    5.994
  372.676   89.649    0.246    0.464    6.103
  372.926   90.527    0.254    0.457    6.182
  373.176   92.067    0.267    0.443    6.223
  373.426   93.731    0.266    0.452    6.340
  373.676   95.215    0.259    0.460    6.413
  373.926   96.900    0.262    0.462    6.414
  374.176   97.861    0.265    0.462    6.406
  374.426   98.414    0.258    0.458    6.269
  374.676   96.543    0.253    0.451    6.131
  374.926   94.596    0.248    0.441    6.091
  375.176   93.087    0.251    0.452    6.020
  375.426   92.101    0.260    0.461    5.905
  375.676   91.800    0.266    0.462    5.777
  375.926   93.544    0.259    0.461    5.788
  376.176   96.375    0.251    0.470    5.690
  376.426   98.919    0.264    0.465    5.698
  376.676  100.195    0.271    0.452    5.705
  376.926   99.832    0.245    0.450    5.608
  377.176   97.884    0.272    0.457    5.622
  377.426   94.629    0.288    0.461    5.531
  377.676   92.992    0.292    0.463    5.547
  377.926   93.994    0.276    0.466    5.613
  378.176   94.890    0.265    0.468    5.731
  378.426   94.135    0.257    0.464    5.857
  378.676   91.093    0.248    0.454    6.048
  378.926   87.537    0.255    0.446    6.195
  379.176   84.097    0.246    0.453    6.327
  379.426   80.961    0.247    0.465    6.507
  379.676   84.451    0.275    0.469    6.642
  379.926   88.187    0.274    0.458    6.718
  380.176   90.827    0.267    0.468    6.765
  380.426   92.701    0.268    0.472    6.801
  380.676   93.088    0.269    0.477    6.728
  380.926   94.079    0.274    0.479    6.695
  381.176   94.351    0.277    0.480    6.458
  381.426   95.457    0.269    0.479    6.252
  381.676   95.845    0.268    0.477    6.249
  381.926   94.881    0.262    0.472    6.158
  382.176   93.527    0.255    0.467    6.171
  382.426   91.199    0.262    0.469    6.077
  382.676   88.403    0.269    0.462    6.003
  382.926   86.246    0.270    0.454    6.094
  383.176   81.823    0.276    0.449    6.238
  383.426   79.525    0.266    0.444    6.306
  383.676   78.450    0.260    0.444    6.401
  383.926   79.049    0.254    0.445    6.394
  384.176   80.954    0.270    0.449    6.399
  384.426   84.841    0.269    0.456    6.279
  384.676   87.340    0.269    0.461    6.154
  384.926   89.264    0.277    0.462    6.039
  385.176   92.006    0.277    0.464    5.889
  385.426   92.622    0.296    0.455    5.755
  385.676   91.317    0.301    0.448    5.618
  385.926   89.661    0.291    0.445    5.598
  386.176   91.374    0.287    0.442    5.596
  386.426   92.915    0.292    0.452    5.628
  386.676   95.301    0.292    0.457    5.860
  386.926   96.109    0.292    0.463    5.909
  387.176   97.497    0.289    0.467    6.037
  387.426   98.103    0.285    0.466    6.062
  387.676   98.054    0.284    0.456    5.889
  387.926   98.058    0.284    0.452    5.130
  388.176   98.768    0.279    0.467    4.133
  388.426  102.841    0.263    0.497    3.480
  388.676  106.055    0.257    0.533    2.910
  388.926  109.414    0.260    0.553    2.497
  389.176  111.704    0.258    0.555    2.266
  389.426  112.631    0.239    0.542    2.360
  389.676  113.091    0.233    0.540    2.478
  389.926  112.271    0.236    0.535    2.869
  390.176  108.968    0.247    0.519    3.155
  390.426  106.102    0.242    0.502    3.408
  390.676  104.617    0.243    0.486    3.976
  390.926  104.742    0.239    0.465    4.669
  391.176  106.172    0.240    0.460    5.133
  391.426  107.830    0.234    0.464    5.365
  391.676  104.081    0.236    0.462    5.265
  391.926   99.531    0.238    0.468    5.220
  392.176   95.943    0.252    0.462    5.100
  392.426   92.823    0.271    0.453    5.105
  392.676   94.724    0.254    0.444    5.107
  392.926   97.508    0.235    0.454    5.117
  393.176   95.618    0.233    0.464    5.251
  393.426   92.381    0.219    0.472    5.350
  393.676   92.433    0.212    0.476    5.350
  393.926   93.944    0.241    0.480    5.421
  394.176   95.112    0.247    0.478    5.392
  394.426   92.649    0.244    0.472    5.254
  394.676   86.827    0.245    0.472    5.116
  394.926   82.613    0.259    0.473    5.089
  395.176   77.354    0.253    0.465    5.257
  395.426   74.122    0.242    0.455    5.304
