~VERSION INFORMATION
 VERS.                 2.0:   CWLS LOG ASCII STANDARD -VERSION 2.0
 WRAP.                  NO:   ONE LINE PER DEPTH STEP
~WELL INFORMATION BLOCK
#MNEM.UNIT           DATA                    DESCRIPTION OF MNEMONIC
#---------    -------------------            -------------------------------
# Generated from Intellog Unique Number	CW_82_90/WELL/1037
WELL.         CHEVRON FINA MUSKWA 16-29      : Well_name    - WELL
LOC .         00/16-29-083-02W5/0            : Location     - LOCATION
UWI .         00/16-29-083-02W5/0            : Uwi          - UNIQUE WELL ID
ENTR.         JJ                             : Entered      - ENTERED BY
SRVC.         SCHLUMBERGER                   : Scn          - SERVICE COMPANY
DATE.         9 JAN 74                       : Date         - LOG DATE
STRT.M        286.512                        : top_depth    - START DEPTH
STOP.M        487.762                        : bot_depth    - STOP DEPTH
STEP.M        0.25                           : increment    - STEP LENGTH
 NULL. -999.2500:NULL Value
~CURVE INFORMATION BLOCK
#MNEM UNIT       ERCB CURVE CODE    CURVE DESCRIPTION
#-----------   ------------------   ----------------------------------
DEPT.M        00 001 00 00         : DEPTH        - DEPTH
CALI.MM       00 280 01 00         : CAL          - CALIPER
GR  .API      00 310 00 00         : GR           - GAMMA RAY
DPHI.V/V      00 890 00 00         : PHID         - DENSITY POROSITY (SANDSTONE)
NPHI.V/V      00 330 00 00         : PHIN         - NEUTRON POROSITY (SANDSTONE)
ILD .OHMM     00 120 00 00         : RESD         - DEEP RESISTIVITY (DIL)
~PARAMETER INFORMATION
#MNEM.UNIT           DATA             DESCRIPTION OF MNEMONIC
#---------         -----------     ------------------------------
GL  .M        623.316              : gl           - GROUND LEVEL ELEVATION
EREF.M        627.278              : kb           - ELEVATION OF DEPTH REFERENCE
DATM.M        623.316              : datum        - DATUM ELEVATION
TDD .M        492.252              : tdd          - TOTAL DEPTH DRILLER
RUN .         ONE                  : Run          - RUN NUMBER
ENG .         WOON                 : Engineer     - RECORDING ENGINEER
WIT .         GOLL                 : Witness      - WITNESSED BY
BASE.         EDMONTON             : Branch       - HOME BASE OF LOGGING UNIT
MUD .         GEL CHEM             : Mud_type     - MUD TYPE
MATR.         SANDSTONE            : Logunit      - NEUTRON MATRIX
TMAX.C        30                   : BHT          - MAXIMUM RECORDED TEMPERATURE
BHTD.M        492.252              : BHTDEP       - MAXIMUM RECORDED TEMPERATURE
RMT .C        4.44444              : MDTP         - TEMPERATURE OF MUD
MUDD.KG/M     8600                 : MWT          - MUD DENSITY
NEUT.         1                    : NEUTRON      - NEUTRON TYPE
RESI.         0                    : RESIST       - RESISTIVITY TYPE
RM  .OHMM     9.6                  : RM           - RESISTIVITY OF MUD
RMC .OHMM     5                    : RMC          - RESISTIVITY OF MUD CAKE
RMF .OHMM     7.1                  : RMF          - RESISTIVITY OF MUD FILTRATE
SUFT.C        -17.7778             : SUFT         - SURFACE TEMPERATURE
~A  DEPTH      CAL       GR     PHID     PHIN     RESD
# ...
  359.512  194.496   90.071    0.250    0.527    6.624
  359.762  194.919   86.278    0.243    0.559    5.470
  360.012  195.448   84.254    0.248    0.559    4.675
  360.262  197.796   83.556    0.222    0.553    4.048
  360.512  201.640   81.216    0.303    0.595    3.620
  360.762  206.127   81.466    0.307    0.619    3.165
  361.012  220.453   85.757    0.305    0.618    2.879
  361.262  254.243   85.754    0.369    0.622    2.757
  361.512  273.274   86.697    0.399    0.650    2.897
  361.762  277.867   89.095    0.416    0.678    3.235
  362.012  266.846   88.397    0.421    0.698    3.881
  362.262  201.923   84.541    0.378    0.659    4.819
  362.512  197.853   81.127    0.348    0.616    5.750
  362.762  195.495   76.261    0.289    0.621    6.744
  363.012  194.205   72.784    0.285    0.552    7.602
  363.262  193.988   74.043    0.275    0.519    7.957
  363.512  193.875   76.567    0.270    0.501    7.899
  363.762  194.832   79.658    0.276    0.522    7.651
  364.012  195.362   78.960    0.272    0.529    7.479
  364.262  195.569   78.263    0.281    0.531    7.189
  364.512  197.169   81.101    0.278    0.535    7.002
  364.762  201.227   84.130    0.270    0.545    6.872
  365.012  204.858   85.390    0.240    0.563    6.900
  365.262  206.350   87.723    0.222    0.549    7.114
  365.512  205.596   87.026    0.217    0.530    7.779
  365.762  204.521   82.412    0.210    0.511    9.441
  366.012  204.302   76.535    0.165    0.459   10.742
  366.262  203.333   68.321    0.108    0.310   11.460
  366.512  201.510   65.475    0.099    0.369   11.816
  366.762  198.617   69.893    0.129    0.434   11.597
  367.012  196.578   70.585    0.176    0.487   10.896
  367.262  195.396   66.982    0.284    0.517   10.083
  367.512  195.285   64.768    0.298    0.540    9.000
  367.762  195.815   64.954    0.300    0.556    8.095
  368.012  196.985   66.530    0.281    0.559    7.337
  368.262  198.584   71.769    0.277    0.500    6.933
  368.512  199.433   80.861    0.272    0.470    6.613
  368.762  199.750   83.636    0.259    0.513    6.309
  369.012  199.851   83.317    0.261    0.547    6.310
  369.262  199.097   84.324    0.269    0.548    6.630
  369.512  198.557   85.016    0.273    0.512    7.033
  369.762  198.979   84.002    0.279    0.486    7.432
  370.012  201.004   81.662    0.285    0.501    7.591
  370.262  202.603   82.101    0.290    0.540    7.366
  370.512  203.989   82.982    0.279    0.561    6.986
  370.762  206.230   85.189    0.249    0.577    6.626
  371.012  208.043   83.986    0.223    0.578    6.309
  371.262  210.496   79.815    0.223    0.551    6.018
  371.512  212.736   78.927    0.222    0.589    6.054
  371.762  213.481   82.587    0.233    0.612    6.594
  372.012  212.085   84.731    0.217    0.530    8.157
  372.262  209.834   85.802    0.174    0.489    9.423
  372.512  207.583   86.367    0.158    0.452   10.034
  372.762  206.720   88.574    0.173    0.440   10.151
  373.012  206.608   91.034    0.180    0.423    9.519
  373.262  206.709   93.368    0.205    0.506    8.369
  373.512  206.919   94.880    0.222    0.485    7.745
  373.762  207.447   97.151    0.236    0.497    7.459
  374.012  207.763   98.474    0.225    0.507    7.293
  374.262  207.971   96.766    0.231    0.521    7.211
  374.512  207.967   95.878    0.228    0.544    7.091
  374.762  207.640   95.243    0.226    0.541    7.065
  375.012  208.170   95.998    0.203    0.531    7.067
  375.262  208.913   95.553    0.216    0.502    7.029
  375.512  208.800   94.981    0.197    0.499    7.017
  375.762  208.580   95.483    0.188    0.511    7.045
  376.012  208.255   97.564    0.202    0.492    7.060
  376.262  207.929   99.771    0.204    0.497    7.048
  376.512  208.564   97.431    0.189    0.536    7.036
  376.762  209.626   95.028    0.192    0.523    6.985
  377.012  210.372   94.267    0.190    0.546    7.013
  377.262  211.543   95.843    0.176    0.559    6.935
  377.512  210.361   99.124    0.183    0.524    6.858
  377.762  207.575  100.700    0.200    0.499    6.860
  378.012  206.179   96.717    0.215    0.478    6.913
  378.262  205.746   92.798    0.196    0.482    7.047
  378.512  204.670   91.532    0.219    0.487    7.266
  378.762  203.809   90.518    0.206    0.481    7.591
  379.012  203.269   86.978    0.184    0.470    8.007
  379.262  202.729   80.154    0.167    0.389    8.772
  379.512  201.546   76.109    0.141    0.350    9.323
  379.762  201.114   72.126    0.125    0.358   10.429
  380.012  201.537   66.313    0.130    0.353   12.372
  380.262  202.386   65.551    0.061    0.287   15.390
  380.512  202.381   67.758    0.017    0.267   17.151
  380.762  202.697   69.461    0.055    0.286   18.682
  381.012  203.012   72.237    0.103    0.317   19.189
  381.262  203.649   76.275    0.154    0.348   17.995
  381.512  203.855   81.514    0.177    0.390   15.942
  381.762  205.349   86.942    0.196    0.414   13.623
  382.012  210.584   92.181    0.198    0.434   11.466
  382.262  218.171   97.673    0.225    0.481    9.911
  382.512  220.946   99.628    0.233    0.562    8.534
  382.762  215.059   96.467    0.238    0.538    7.661
  383.012  209.600   94.948    0.227    0.500    7.157
  383.262  202.642   92.292    0.223    0.470    6.866
  383.512  201.781   87.299    0.246    0.478    6.613
  383.762  201.776   82.243    0.267    0.495    6.551
  384.012  202.305   80.472    0.280    0.504    6.578
  384.262  200.482   76.868    0.242    0.492    6.667
  384.512  199.728   75.034    0.258    0.478    6.900
  384.762  199.615   75.725    0.224    0.481    7.347
  385.012  201.748   74.395    0.199    0.492    7.928
  385.262  196.824   69.908    0.224    0.484    8.669
  385.512  191.150   67.316    0.251    0.472    9.336
  385.762  190.502   66.933    0.295    0.467    9.718
  386.012  193.813   71.035    0.280    0.454    9.757
  386.262  197.978   75.453    0.232    0.467    9.485
  386.512  202.037   85.555    0.198    0.509    8.878
  386.762  204.919   91.994    0.183    0.517    8.469
  387.012  206.089   91.296    0.200    0.484    8.109
  387.262  206.191   89.967    0.205    0.494    7.974
  387.512  205.544   88.700    0.192    0.505    7.945
  387.762  205.217   86.487    0.189    0.517    7.962
  388.012  205.747   87.999    0.187    0.510    8.009
  388.262  206.490   86.354    0.200    0.477    8.368
  388.512  205.843   85.214    0.210    0.450    8.611
  388.762  204.982   84.832    0.191    0.425    8.980
  389.012  203.799   86.344    0.186    0.401    9.365
  389.262  204.329   88.741    0.189    0.420    9.656
  389.512  205.928   92.843    0.189    0.444    9.843
  389.762  208.276   96.503    0.191    0.470    9.977
  390.012  210.409   97.573    0.201    0.495    9.998
  390.262  210.083   99.339    0.202    0.484    9.924
  390.512  209.328  101.546    0.192    0.479    9.740
  390.762  208.789   98.827    0.184    0.480    9.469
  391.012  208.569   98.571    0.182    0.460    9.223
  391.262  208.991   99.957    0.203    0.460    9.035
  391.512  209.628  102.796    0.203    0.450    8.917
  391.762  210.585  100.772    0.211    0.422    8.852
  392.012  215.071  100.958    0.205    0.432    8.820
  392.262  222.659  100.890    0.209    0.448    8.789
  392.512  228.215   99.815    0.216    0.488    8.757
  392.762  226.606   97.349    0.207    0.497    8.843
  393.012  207.991   95.892    0.208    0.491    9.048
  393.262  208.200   90.332    0.211    0.494    9.490
  393.512  201.883   84.454    0.248    0.466   10.085
  393.762  199.525   80.219    0.242    0.418   11.325
  394.012  197.702   82.806    0.220    0.425   13.208
  394.262  196.628   88.424    0.231    0.433   15.433
  394.512  196.622   88.737    0.234    0.421   16.875
  394.762  196.616   84.375    0.249    0.434   16.975
  395.012  197.359   82.667    0.259    0.454   16.883
  395.262  198.958   82.474    0.256    0.491   16.570
  395.512  200.022   83.608    0.259    0.490   16.573
  395.762  201.620   80.131    0.258    0.472   17.023
