~VERSION INFORMATION
 VERS.                 2.0:   CWLS LOG ASCII STANDARD -VERSION 2.0
 WRAP.                  NO:   ONE LINE PER DEPTH STEP
~WELL INFORMATION BLOCK
#MNEM.UNIT           DATA                    DESCRIPTION OF MNEMONIC
#---------    -------------------            -------------------------------
# Generated from Intellog Unique Number	CW_73_75/WELL/1048
WELL.         CDN SUP ET AL FRANCIS 11-35    : Well_name    - WELL
LOC .         00/11-35-074-20W4/0            : Location     - LOCATION
UWI .         00/11-35-074-20W4/0            : Uwi          - UNIQUE WELL ID
ENTR.         JAYE                           : Entered      - ENTERED BY
SRVC.         SCHLUMBERGER                   : Scn          - SERVICE COMPANY
DATE.         3 MAR 76                       : Date         - LOG DATE
STRT.M        323.088                        : top_depth    - START DEPTH
STOP.M        524.313                        : bot_depth    - STOP DEPTH
STEP.M        0.25                           : increment    - STEP LENGTH
 NULL. -999.2500:NULL Value
~CURVE INFORMATION BLOCK
#MNEM UNIT       ERCB CURVE CODE    CURVE DESCRIPTION
#-----------   ------------------   ----------------------------------
DEPT.M        00 001 00 00         : DEPTH        - DEPTH
GR  .API      00 310 00 00         : GR           - GAMMA RAY
CALI.IN       00 280 01 00         : CAL          - CALIPER
NPHI.V/V      00 330 00 00         : PHIN         - NEUTRON POROSITY (SANDSTONE)
DPHI.V/V      00 890 00 00         : PHID         - DENSITY POROSITY (SANDSTONE)
ILD .OHMM     00 120 00 00         : RESD         - DEEP RESISTIVITY (DLL)
~PARAMETER INFORMATION
#MNEM.UNIT           DATA             DESCRIPTION OF MNEMONIC
#---------         -----------     ------------------------------
GL  .M        640.69               : gl           - GROUND LEVEL ELEVATION
EREF.M        644.652              : kb           - ELEVATION OF DEPTH REFERENCE
DATM.M        640.69               : datum        - DATUM ELEVATION
TDD .M        585.216              : tdd          - TOTAL DEPTH DRILLER
RUN .         ONE                  : Run          - RUN NUMBER
BASE.         EDM                  : Branch       - HOME BASE OF LOGGING UNIT
MUD .         GEL CHEM             : Mud_type     - MUD TYPE
MATR.         SANDSTONE            : Logunit      - NEUTRON MATRIX
TMAX.C        23.8889              : BHT          - MAXIMUM RECORDED TEMPERATURE
BHTD.M        585.826              : BHTDEP       - MAXIMUM RECORDED TEMPERATURE
RMT .C        17.7778              : MDTP         - TEMPERATURE OF MUD
MUDD.KG/M     1164                 : MWT          - MUD DENSITY
NEUT.         1                    : NEUTRON      - NEUTRON TYPE
RESI.         1                    : RESIST       - RESISTIVITY TYPE
RM  .OHMM     1.96                 : RM           - RESISTIVITY OF MUD
RMC .OHMM     0                    : RMC          - RESISTIVITY OF MUD CAKE
RMF .OHMM     2.24                 : RMF          - RESISTIVITY OF MUD FILTRATE
SUFT.C        -17.7778             : SUFT         - SURFACE TEMPERATURE
~A  DEPTH       GR      CAL     PHIN     PHID     RESD
# ...
  396.088   41.706    7.734    0.444    0.314    8.437
  396.338   42.414    7.743    0.457    0.314    8.437
  396.588   42.616    7.752    0.472    0.307    8.452
  396.838   42.436    7.749    0.468    0.313    8.498
  397.088   42.447    7.754    0.463    0.322    8.513
  397.338   42.584    7.755    0.452    0.318    8.544
  397.588   42.533    7.755    0.438    0.309    8.575
  397.838   42.670    7.756    0.446    0.304    8.590
  398.088   42.555    7.748    0.448    0.302    8.606
  398.338   42.501    7.732    0.444    0.297    8.621
  398.588   42.638    7.716    0.430    0.291    8.605
  398.838   42.966    7.683    0.431    0.309    8.605
  399.088   43.103    7.646    0.457    0.303    8.589
  399.338   42.671    7.625    0.456    0.316    8.636
  399.588   42.492    7.609    0.453    0.301    8.683
  399.838   42.884    7.610    0.448    0.290    8.746
  400.088   43.211    7.623    0.452    0.305    8.777
  400.338   43.537    7.649    0.476    0.307    8.793
  400.588   43.992    7.675    0.476    0.298    8.793
  400.838   44.192    7.719    0.456    0.291    8.776
  401.088   44.519    7.740    0.444    0.303    8.792
  401.338   44.845    7.766    0.437    0.292    8.824
  401.588   44.857    7.796    0.428    0.280    8.808
  401.838   44.679    7.814    0.420    0.263    8.823
  402.088   44.942    7.811    0.444    0.240    8.823
  402.338   45.143    7.794    0.446    0.234    8.871
  402.588   45.154    7.791    0.447    0.287    8.871
  402.838   45.164    7.788    0.455    0.307    8.887
  403.088   45.175    7.784    0.422    0.289    8.886
  403.338   44.680    7.772    0.423    0.306    8.886
  403.588   44.501    7.756    0.436    0.314    8.886
  403.838   44.322    7.752    0.443    0.312    8.821
  404.088   44.459    7.757    0.441    0.311    8.820
  404.338   44.533    7.775    0.448    0.328    8.804
  404.588   44.607    7.793    0.461    0.322    8.788
  404.838   44.935    7.806    0.462    0.329    8.755
  405.088   45.073    7.811    0.448    0.310    8.707
  405.338   45.085    7.820    0.452    0.306    8.707
  405.588   45.094    7.821    0.460    0.303    8.707
  405.838   45.105    7.830    0.470    0.297    8.706
  406.088   45.116    7.839    0.475    0.289    8.706
  406.338   44.937    7.840    0.462    0.295    8.674
  406.588   45.264    7.840    0.454    0.312    8.674
  406.838   46.287    7.837    0.446    0.300    8.705
  407.088   48.386    7.833    0.443    0.292    8.705
  407.338   52.003    7.809    0.452    0.306    8.704
  407.588   54.987    7.839    0.447    0.292    8.768
  407.838   58.730    7.861    0.444    0.277    8.880
  408.088   62.664    7.879    0.445    0.285    9.059
  408.338   64.636    7.892    0.456    0.297    9.209
  408.588   65.216    7.901    0.446    0.283    9.293
  408.838   66.808    7.902    0.438    0.262    9.344
  409.088   69.413    7.903    0.462    0.282    9.309
  409.338   72.777    7.899    0.464    0.288    9.174
  409.588   77.976    7.912    0.457    0.263    8.975
  409.838   82.858    7.926    0.444    0.228    8.482
  410.088   87.993    7.935    0.443    0.201    7.929
  410.338   85.727    7.940    0.457    0.210    7.017
  410.588   82.890    7.945    0.469    0.222    6.054
  410.838   84.925    7.958    0.484    0.223    5.890
  411.088   86.834    7.972    0.500    0.232    6.020
  411.338   80.646    7.981    0.510    0.264    6.393
  411.588   73.887    7.986    0.502    0.254    6.965
  411.838   66.624    7.991    0.417    0.155    7.657
  412.088   71.125    8.008    0.378    0.124    8.087
  412.338   78.095    8.026    0.388    0.123    8.013
  412.588   82.408    8.039    0.426    0.206    7.422
  412.838   83.178    8.057    0.453    0.201    6.875
  413.088   82.684    8.133    0.454    0.184    6.415
  413.338   81.619    8.206    0.462    0.205    6.040
  413.588   80.806    8.270    0.482    0.200    5.625
  413.838   80.691    8.309    0.495    0.186    5.135
  414.088   81.840    8.356    0.487    0.184    4.862
  414.338   84.445    8.411    0.495    0.201    4.809
  414.588   85.595    8.479    0.509    0.206    4.844
  414.838   80.735    8.531    0.502    0.214    4.969
  415.088   75.116    8.612    0.509    0.261    5.181
  415.338   69.813    8.617    0.463    0.302    5.512
  415.588   65.078    8.267    0.455    0.281    6.060
  415.838   59.964    7.829    0.459    0.313    6.687
  416.088   57.065    7.661    0.469    0.344    7.284
  416.338   56.127    7.590    0.466    0.325    7.807
  416.588   56.708    7.583    0.452    0.298    7.993
  416.838   57.667    7.596    0.443    0.306    7.993
  417.088   57.615    7.614    0.448    0.317    7.892
  417.338   57.056    7.640    0.466    0.300    7.706
  417.588   60.104    7.687    0.463    0.298    7.485
  417.838   66.377    7.797    0.443    0.288    7.151
  418.088   73.601    7.933    0.435    0.263    6.895
  418.338   78.357    8.064    0.475    0.223    6.492
  418.588   81.531    8.183    0.501    0.200    6.035
  418.838   83.186    8.285    0.529    0.192    5.410
  419.088   83.324    8.332    0.520    0.208    5.048
  419.338   81.880    8.333    0.502    0.248    4.823
  419.588   77.842    8.300    0.505    0.234    4.616
  419.838   78.296    8.212    0.534    0.208    4.533
  420.088   79.255    8.095    0.518    0.225    4.616
  420.338   80.025    7.948    0.474    0.230    4.866
  420.588   81.427    7.788    0.451    0.230    5.301
  420.838   81.502    7.612    0.443    0.236    5.786
  421.088   75.376    7.461    0.447    0.248    6.189
  421.338   69.694    7.356    0.467    0.285    6.525
  421.588   70.907    7.298    0.486    0.293    6.657
  421.838   71.613    7.269    0.488    0.313    6.681
  422.088   68.397    7.270    0.485    0.339    6.644
  422.338   60.944    7.275    0.476    0.325    6.608
  422.588   57.032    7.288    0.465    0.330    6.559
  422.838   60.966    7.301    0.448    0.332    6.476
  423.088   63.191    7.302    0.436    0.321    6.429
  423.338   63.264    7.303    0.446    0.321    6.393
  423.588   58.214    7.304    0.458    0.310    6.393
  423.838   54.113    7.304    0.472    0.309    6.358
  424.088   52.226    7.305    0.481    0.327    6.358
  424.338   51.858    7.318    0.475    0.331    6.358
  424.588   51.995    7.332    0.460    0.317    6.357
  424.838   52.006    7.345    0.445    0.327    6.357
  425.088   52.333    7.367    0.455    0.342    6.357
  425.338   52.787    7.385    0.477    0.340    6.368
  425.588   53.494    7.415    0.490    0.322    6.391
  425.838   53.695    7.449    0.482    0.302    6.509
  426.088   52.819    7.471    0.462    0.296    6.713
  426.338   50.996    7.480    0.445    0.316    6.962
  426.588   51.829    7.473    0.447    0.316    7.129
  426.838   52.726    7.465    0.462    0.323    7.103
  427.088   52.673    7.461    0.473    0.323    7.000
  427.338   51.798    7.458    0.468    0.317    6.873
  427.588   50.988    7.459    0.461    0.327    6.786
  427.838   50.871    7.468    0.454    0.335    6.651
  428.088   51.262    7.460    0.448    0.328    6.566
  428.338   51.905    7.457    0.444    0.318    6.530
  428.588   53.308    7.449    0.442    0.303    6.518
  428.838   56.102    7.433    0.446    0.305    6.553
  429.088   52.570    7.421    0.462    0.324    6.674
  429.338   47.267    7.413    0.465    0.330    6.846
  429.588   52.212    7.410    0.458    0.338    7.023
  429.838   53.931    7.423    0.453    0.326    7.112
  430.088   51.032    7.428    0.448    0.322    7.151
  430.338   51.803    7.429    0.445    0.319    7.203
  430.588   53.142    7.434    0.461    0.309    7.138
  430.838   50.812    7.447    0.472    0.229    7.776
  431.088   45.319    7.452    0.319    0.183    9.364
  431.338   41.787    7.457    0.217    0.083   13.095
  431.588   40.406    7.474    0.167    0.012   18.991
  431.838   40.163    7.505    0.133   -0.008   26.413
  432.088   40.873    7.543    0.129   -0.012   35.162
  432.338   41.704    7.591    0.128   -0.009   42.888
