~VERSION INFORMATION
 VERS.                 2.0:   CWLS LOG ASCII STANDARD -VERSION 2.0
 WRAP.                  NO:   ONE LINE PER DEPTH STEP
~WELL INFORMATION BLOCK
#MNEM.UNIT           DATA                    DESCRIPTION OF MNEMONIC
#---------    -------------------            -------------------------------
# Generated from Intellog Unique Number	CC_88_90/WELL/2303
WELL.         JOLI FOU MINK                  : Well_name    - WELL
LOC .         00/11-11-090-12W4/0            : Location     - LOCATION
UWI .         00/11-11-090-12W400            : Uwi          - UNIQUE WELL ID
ENTR.         DW                             : Entered      - ENTERED BY
SRVC.         SCHLUMBERGER                   : Scn          - SERVICE COMPANY
STRT.M        100                            : top_depth    - START DEPTH
STOP.M        274.75                         : bot_depth    - STOP DEPTH
STEP.M        0.25                           : increment    - STEP LENGTH
 NULL. -999.2500:NULL Value
~CURVE INFORMATION BLOCK
#MNEM UNIT       ERCB CURVE CODE    CURVE DESCRIPTION
#-----------   ------------------   ----------------------------------
DEPT.M        00 001 00 00         : DEPTH        - DEPTH
GR  .API      00 310 00 00         : GR           - GAMMA RAY
DPHI.V/V      00 890 00 00         : PHID         - DENSITY POROSITY (SANDSTONE)
NPHI.V/V      00 330 00 00         : PHIN         - NEUTRON POROSITY (SANDSTONE)
ILD .OHMM     00 120 00 00         : RESD         - DEEP RESISTIVITY (DIL)
~PARAMETER INFORMATION
#MNEM.UNIT           DATA             DESCRIPTION OF MNEMONIC
#---------         -----------     ------------------------------
GL  .M        528.5                : gl           - GROUND LEVEL ELEVATION
EREF.M        530                  : kb           - ELEVATION OF DEPTH REFERENCE
DATM.M        530                  : datum        - DATUM ELEVATION
TDD .M        275                  : tdd          - TOTAL DEPTH DRILLER
RUN .         ONE                  : Run          - RUN NUMBER
ENG .         BILL                 : Engineer     - RECORDING ENGINEER
WIT .         JIM                  : Witness      - WITNESSED BY
MUD .         GEL                  : Mud_type     - MUD TYPE
MATR.         SANDSTONE            : Logunit      - NEUTRON MATRIX
TMAX.C        24                   : BHT          - MAXIMUM RECORDED TEMPERATURE
BHTD.M        275                  : BHTDEP       - MAXIMUM RECORDED TEMPERATURE
MATR.         1                    : LOGUNIT      - NEUTRON MATRIX
RMT .C        25                   : MDTP         - TEMPERATURE OF MUD
NEUT.         1                    : NEUTRON      - NEUTRON TYPE
RESI.         0                    : RESIST       - RESISTIVITY TYPE
RMC .OHMM     0.25                 : RMC          - RESISTIVITY OF MUD CAKE
RMF .OHMM     0.25                 : RMF          - RESISTIVITY OF MUD FILTRATE
SUFT.C        4                    : SUFT         - SURFACE TEMPERATURE
~A  DEPTH       GR     PHID     PHIN     RESD
# ...
  230.500   70.438    0.244    0.440   11.417
  230.750   66.109    0.242    0.441   12.105
  231.000   64.896    0.247    0.451   13.088
  231.250   61.006    0.256    0.462   14.099
  231.500   51.447    0.284    0.475   15.376
  231.750   40.726    0.309    0.479   16.330
  232.000   34.104    0.297    0.462   15.931
  232.250   35.792    0.287    0.445   15.181
  232.500   39.402    0.281    0.432   14.549
  232.750   48.506    0.282    0.413   14.568
  233.000   63.348    0.257    0.397   15.373
  233.250   68.667    0.215    0.403   16.253
  233.500   58.500    0.230    0.429   16.736
  233.750   60.467    0.278    0.437   17.768
  234.000   63.502    0.286    0.453   19.019
  234.250   64.787    0.263    0.471   19.807
  234.500   66.179    0.238    0.468   20.383
  234.750   63.202    0.235    0.444   20.945
  235.000   55.279    0.254    0.421   21.238
  235.250   54.259    0.237    0.423   21.899
  235.500   55.762    0.226    0.448   22.347
  235.750   54.880    0.238    0.481   22.451
  236.000   52.352    0.252    0.489   22.273
  236.250   50.611    0.263    0.461   21.845
  236.500   50.812    0.278    0.431   21.092
  236.750   54.478    0.270    0.427   19.340
  237.000   61.799    0.257    0.424   16.212
  237.250   71.010    0.241    0.411   13.592
  237.500   76.630    0.229    0.433   12.630
  237.750   78.998    0.225    0.471   12.566
  238.000   83.769    0.222    0.446   12.553
  238.250   84.717    0.215    0.408   12.918
  238.500   76.834    0.216    0.400   13.372
  238.750   73.119    0.223    0.419   13.611
  239.000   75.215    0.232    0.426   13.884
  239.250   75.672    0.237    0.416   14.327
  239.500   75.661    0.231    0.417   14.773
  239.750   75.660    0.216    0.412   15.493
  240.000   69.987    0.218    0.409   16.037
  240.250   66.441    0.228    0.414   17.771
  240.500   67.539    0.230    0.430   19.827
  240.750   68.152    0.225    0.446   20.193
  241.000   67.540    0.210    0.447   19.120
  241.250   68.322    0.183    0.436   17.691
  241.500   70.872    0.237    0.434   15.959
  241.750   72.579    0.261    0.425   14.054
  242.000   76.418    0.237    0.413   12.510
  242.250   82.376    0.232    0.408   11.751
  242.500   83.946    0.224    0.408   11.599
  242.750   82.803    0.198    0.423   11.818
  243.000   76.967    0.225    0.450   13.899
  243.250   65.119    0.257    0.458   19.230
  243.500   52.303    0.273    0.457   24.537
  243.750   49.799    0.290    0.467   26.816
  244.000   53.172    0.298    0.472   27.504
  244.250   34.579    0.302    0.461   27.121
  244.500   26.264    0.289    0.449   26.033
  244.750   27.373    0.276    0.422   24.349
  245.000   30.006    0.275    0.430   22.186
  245.250   34.962    0.283    0.468   19.075
  245.500   38.874    0.294    0.454   15.191
  245.750   40.660    0.302    0.435   13.231
  246.000   40.122    0.302    0.443   12.401
  246.250   40.932    0.307    0.458   11.402
  246.500   43.479    0.313    0.461   10.433
  246.750   46.043    0.307    0.452    9.817
  247.000   49.145    0.305    0.439    9.207
  247.250   52.724    0.311    0.428    9.039
  247.500   55.697    0.291    0.434    8.887
  247.750   57.054    0.288    0.437    8.844
  248.000   58.420    0.291    0.434    8.746
  248.250   63.252    0.272    0.430    8.425
  248.500   69.234    0.258    0.414    8.161
  248.750   67.177    0.257    0.407    7.884
  249.000   68.299    0.292    0.446    7.794
  249.250   73.956    0.314    0.474    7.953
  249.500   76.862    0.295    0.450    8.245
  249.750   75.672    0.260    0.424    8.958
  250.000   74.035    0.239    0.441   10.152
  250.250   68.822    0.242    0.432   10.522
  250.500   64.953    0.252    0.424   10.652
  250.750   55.955    0.276    0.425   10.835
  251.000   53.281    0.298    0.422   10.936
  251.250   63.416    0.285    0.415   10.870
  251.500   68.925    0.245    0.412   10.676
  251.750   68.204    0.221    0.415   10.484
  252.000   55.002    0.240    0.437   10.380
  252.250   45.020    0.240    0.438    9.878
  252.500   46.356    0.252    0.421    9.344
  252.750   49.278    0.299    0.421    9.031
  253.000   46.750    0.305    0.432    8.444
  253.250   45.275    0.303    0.430    8.154
  253.500   47.870    0.301    0.414    7.995
  253.750   52.569    0.298    0.401    7.933
  254.000   56.627    0.292    0.400    7.951
  254.250   60.284    0.278    0.408    7.912
  254.500   58.930    0.261    0.424    7.769
  254.750   42.194    0.273    0.440    7.643
  255.000   41.196    0.295    0.430    7.495
  255.250   53.517    0.297    0.401    7.476
  255.500   59.217    0.276    0.393    7.708
  255.750   53.614    0.262    0.411    7.857
  256.000   47.067    0.273    0.423    7.569
  256.250   44.483    0.281    0.431    7.320
  256.500   40.716    0.281    0.436    7.093
  256.750   37.465    0.287    0.423    6.848
  257.000   39.184    0.291    0.402    6.667
  257.250   45.016    0.283    0.390    6.570
  257.500   52.330    0.278    0.387    6.576
  257.750   62.278    0.271    0.408    6.882
  258.000   63.194    0.254    0.422    7.184
  258.250   64.568    0.256    0.423    7.701
  258.500   67.579    0.262    0.420    8.226
  258.750   66.868    0.255    0.418    8.366
  259.000   63.327    0.264    0.416    8.193
  259.250   51.895    0.282    0.414    7.789
  259.500   50.891    0.295    0.419    7.625
  259.750   54.875    0.297    0.414    7.418
  260.000   57.672    0.275    0.402    7.271
  260.250   60.573    0.254    0.407    7.457
  260.500   61.916    0.269    0.427    7.683
  260.750   62.723    0.271    0.439    7.798
  261.000   65.428    0.253    0.459    7.917
  261.250   65.853    0.268    0.472    7.974
  261.500   66.189    0.294    0.464    7.908
  261.750   69.975    0.286    0.443    7.748
  262.000   74.632    0.263    0.425    7.628
  262.250   81.496    0.246    0.431    7.838
  262.500   91.420    0.239    0.427    8.219
  262.750  107.809    0.228    0.419    8.513
  263.000  115.056    0.217    0.418    8.802
  263.250  108.467    0.210    0.423    9.265
  263.500  105.792    0.208    0.430    9.681
  263.750  100.569    0.217    0.426    9.670
  264.000   98.036    0.222    0.412    9.783
  264.250   99.773    0.219    0.409    9.836
  264.500  102.020    0.210    0.418    9.865
  264.750   99.743    0.201    0.420   10.014
  265.000   95.811    0.210    0.414    9.983
  265.250  102.144    0.220    0.422    9.700
  265.500  102.096    0.073    0.430    9.099
  265.750   96.983    0.006    0.402    8.752
  266.000   88.574    0.034    0.341    9.085
  266.250   80.076    0.023    0.293    9.915
  266.500   80.329    0.034    0.289   11.519
  266.750   81.208    0.028    0.291   14.749
  267.000   78.522    0.025    0.305   16.306
  267.250   78.887    0.033    0.314   16.669
  267.500   83.289    0.039    0.317   16.705
  267.750   86.884    0.034    0.324   16.345
  268.000   88.769    0.035    0.328   15.793
  268.250   90.048    0.055    0.335   14.604
  268.500   88.169    0.059    0.344   13.496
  268.750   85.204    0.053    0.347   13.239
  269.000   82.953    0.028    0.367   13.208
  269.250   81.855   -0.003    0.322   15.957
  269.500   82.487   -0.000    0.155   28.646
  269.750   83.461    0.000    0.145   50.859
  270.000   84.569   -0.000    0.151   62.959
  270.250   85.083    0.000    0.137   71.826
  270.500   85.880   -0.000    0.141   88.802
  270.750   79.725    0.000    0.104  105.707
  271.000   59.735    0.000    0.000  115.656
  271.250   42.941   -0.000   -0.004  137.776
  271.500   33.707    0.000    0.002  154.192
  271.750   64.856   -0.000   -0.001  154.054
  272.000   95.102    0.000    0.000  141.454
  272.250   89.983   -0.000   -0.000  122.269
  272.500   91.382   -0.000   -0.000  100.688
  272.750   91.505    0.000    0.000   86.198
  273.000   91.246   -0.000   -0.000   82.958
  273.250   91.391    0.000    0.000   82.116
  273.500   91.090   -0.000   -0.000   81.518
  273.750   90.610    0.000    0.000   82.930
