~VERSION INFORMATION
 VERS.                 2.0:   CWLS LOG ASCII STANDARD -VERSION 2.0
 WRAP.                  NO:   ONE LINE PER DEPTH STEP
~WELL INFORMATION BLOCK
#MNEM.UNIT           DATA                    DESCRIPTION OF MNEMONIC
#---------    -------------------            -------------------------------
# Generated from Intellog Unique Number	cxy/WELL/1154
WELL.         HB MISTEMAE                    : Well_name    - WELL
LOC .         00/10-27-079-01W5/0            : Location     - LOCATION
UWI .         00/10-27-079-01W5/0            : Uwi          - UNIQUE WELL ID
ENTR.         T                              : Entered      - ENTERED BY
SRVC.         SCHLUMBERGER                   : Scn          - SERVICE COMPANY
STRT.F        950                            : top_depth    - START DEPTH
STOP.F        1799.74                        : bot_depth    - STOP DEPTH
STEP.F        0.82                           : increment    - STEP LENGTH
 NULL. -999.2500:NULL Value
~CURVE INFORMATION BLOCK
#MNEM UNIT       ERCB CURVE CODE    CURVE DESCRIPTION
#-----------   ------------------   ----------------------------------
DEPT.F        00 001 00 00         : DEPTH        - DEPTH
CALI.IN       00 280 01 00         : CAL          - CALIPER
GR  .API      00 310 00 00         : GR           - GAMMA RAY
NPHI.V/V      00 330 00 00         : PHIN         - NEUTRON POROSITY (SANDSTONE)
ILD .OHMM     00 120 00 00         : RESD         - DEEP RESISTIVITY (DIL)
DPHI.V/V      00 890 00 00         : PHID         - DENSITY POROSITY (SANDSTONE)
~PARAMETER INFORMATION
#MNEM.UNIT           DATA             DESCRIPTION OF MNEMONIC
#---------         -----------     ------------------------------
GL  .F        1965                 : gl           - GROUND LEVEL ELEVATION
EREF.F        1978                 : kb           - ELEVATION OF DEPTH REFERENCE
DATM.F        1978                 : datum        - DATUM ELEVATION
TDD .F        1810                 : tdd          - TOTAL DEPTH DRILLER
RUN .         ONE                  : Run          - RUN NUMBER
ENG .         BILL                 : Engineer     - RECORDING ENGINEER
WIT .         JIM                  : Witness      - WITNESSED BY
MUD .         GEL                  : Mud_type     - MUD TYPE
MATR.         SANDSTONE            : Logunit      - NEUTRON MATRIX
TMAX.F        78                   : BHT          - MAXIMUM RECORDED TEMPERATURE
BHTD.F        1810                 : BHTDEP       - MAXIMUM RECORDED TEMPERATURE
MATR.         1                    : LOGUNIT      - NEUTRON MATRIX
RMT .F        77                   : MDTP         - TEMPERATURE OF MUD
NEUT.         1                    : NEUTRON      - NEUTRON TYPE
RESI.         5.67                 : RESIST       - RESISTIVITY TYPE
RMC .OHMM     5.67                 : RMC          - RESISTIVITY OF MUD CAKE
RMF .OHMM     5.67                 : RMF          - RESISTIVITY OF MUD FILTRATE
SUFT.F        4                    : SUFT         - SURFACE TEMPERATURE
~A  DEPTH      CAL       GR     PHIN     RESD     PHID
# ...
 1309.250    7.887   65.254    0.491   19.585    0.264
 1310.070    7.887   66.444    0.498   18.882    0.263
 1310.890    7.887   67.043    0.504   18.206    0.265
 1311.710    7.888   68.232    0.511   16.617    0.272
 1312.530    7.888   69.418    0.513   16.021    0.278
 1313.350    7.889   70.606    0.518   15.166    0.280
 1314.170    7.889   73.570    0.518   13.589    0.269
 1314.990    7.850   75.349    0.507   12.630    0.260
 1315.810    7.850   77.127    0.504   11.317    0.266
 1316.630    7.851   77.133    0.508   10.518    0.268
 1317.450    7.851   77.730    0.515    8.920    0.251
 1318.270    7.852   85.417    0.514    8.140    0.226
 1319.090    7.852   87.786    0.511    7.428    0.225
 1319.910    7.853   87.795    0.512    7.162    0.225
 1320.730    7.853   87.800    0.515    6.657    0.219
 1321.560    7.854   87.809    0.518    6.659    0.211
 1322.380    7.854   87.816    0.518    6.540    0.205
 1323.200    7.854   88.414    0.517    6.541    0.208
 1324.020    7.855   89.011    0.517    6.543    0.209
 1324.840    7.855   88.431    0.519    6.544    0.208
 1325.660    7.856   88.437    0.517    6.668    0.207
 1326.480    7.856   87.853    0.508    6.668    0.204
 1327.300    7.857   87.272    0.495    7.312    0.201
 1328.120    7.857   87.279    0.494    7.728    0.197
 1328.940    7.897   88.465    0.493    8.167    0.198
 1329.760    7.898   93.199    0.491    8.791    0.198
 1330.580    7.898   93.796    0.494   10.184    0.197
 1331.400    7.899   93.213    0.496   11.582    0.197
 1332.220    7.899   92.039    0.499   14.176    0.201
 1333.040    7.899   90.865    0.504   16.124    0.205
 1333.860    7.900   89.100    0.515   17.357    0.209
 1334.680    7.940   89.109    0.522   18.343    0.214
 1335.500    7.940   92.070    0.515   18.348    0.215
 1336.320    7.941   89.715    0.471   18.020    0.209
 1337.140    7.941   86.177    0.451   17.374    0.192
 1337.960    7.942   78.507    0.421   16.448    0.178
 1338.780    7.942   72.017    0.374   15.011    0.136
 1339.600    7.942   70.252    0.366   14.209    0.092
 1340.420    7.943   73.805    0.395   12.732    0.135
 1341.240    7.904   76.174    0.409   12.275    0.188
 1342.060    7.904   77.953    0.445   11.000    0.216
 1342.880    7.905   79.143    0.472   10.412    0.227
 1343.700    7.905   79.741    0.492    9.856    0.223
 1344.520    7.905   79.159    0.497    9.331    0.219
 1345.340    7.906   78.575    0.500    8.834    0.219
 1346.160    7.906   77.992    0.509    8.518    0.222
 1346.980    7.907   77.408    0.517    8.365    0.222
 1347.800    7.907   78.595    0.526    8.368    0.218
 1348.620    7.908   81.558    0.524    8.369    0.215
 1349.440    7.908   82.156    0.514    8.371    0.207
 1350.260    7.909   82.754    0.495    8.373    0.201
 1351.080    7.909   83.353    0.493    8.074    0.199
 1351.900    7.909   83.947    0.501    7.929    0.198
 1352.720    7.910   85.728    0.507    7.932    0.194
 1353.540    7.910   88.097    0.509    7.933    0.189
 1354.360    7.911   88.104    0.486    7.936    0.186
 1355.180    7.911   88.113    0.477    7.937    0.184
 1356.000    7.912   87.530    0.474    7.796    0.181
 1356.820    7.912   86.356    0.468    7.797    0.179
 1357.640    7.913   85.185    0.470    7.799    0.183
 1358.460    7.913   85.189    0.466    7.801    0.189
 1359.280    7.914   88.739    0.491    7.802    0.199
 1360.100    7.914   90.518    0.512    7.804    0.182
 1360.930    7.914   88.757    0.518    7.806    0.176
 1361.750    7.915   88.171    0.520    7.809    0.182
 1362.570    7.915   87.001    0.492    7.811    0.187
 1363.390    7.916   87.004    0.488    7.813    0.187
 1364.210    7.916   86.423    0.509    7.814    0.185
 1365.030    7.917   86.428    0.515    7.961    0.180
 1365.850    7.917   85.848    0.516    7.963    0.185
 1366.670    7.918   85.264    0.505    7.965    0.188
 1367.490    7.918   85.864    0.496    7.824    0.190
 1368.310    7.918   85.867    0.493    7.683    0.193
 1369.130    7.919   87.057    0.488    7.545    0.189
 1369.950    7.919   87.653    0.486    7.546    0.187
 1370.770    7.920   88.254    0.479    7.411    0.188
 1371.590    7.881   88.262    0.480    7.278    0.190
 1372.410    7.842   88.267    0.481    7.280    0.192
 1373.230    7.842   88.865    0.485    7.151    0.187
 1374.050    7.803   90.056    0.479    7.285    0.182
 1374.870    7.803   89.471    0.479    7.285    0.187
 1375.690    7.764   88.891    0.484    7.843    0.192
 1376.510    7.765   88.894    0.494    8.598    0.187
 1377.330    7.725   88.903    0.503    9.779    0.178
 1378.150    7.726   88.912    0.505   12.417    0.186
 1378.970    7.726   89.510    0.504   14.650    0.191
 1379.790    7.687   90.108    0.499   16.361    0.196
 1380.610    7.688   90.703    0.482   17.938    0.203
 1381.430    7.688   89.529    0.480   19.308    0.208
 1382.250    7.688   87.766    0.477   20.036    0.216
 1383.070    7.689   86.002    0.481   20.041    0.224
 1383.890    7.729   84.828    0.487   20.795    0.233
 1384.710    7.729   82.472    0.494   23.220    0.231
 1385.530    7.730   78.345    0.504   32.317    0.214
 1386.350    7.730   72.447    0.500   39.555    0.222
 1387.170    7.731   71.273    0.405   44.988    0.228
 1387.990    7.771   71.872    0.408   48.429    0.237
 1388.810    7.771   73.651    0.415   51.182    0.216
 1389.630    7.772   74.839    0.438   53.109    0.197
 1390.450    7.772   73.076    0.448   55.111    0.198
 1391.270    7.812   69.538    0.465   48.477    0.165
 1392.090    7.813   66.001    0.376   41.868    0.153
 1392.910    7.813   60.695    0.316   40.370    0.085
 1393.730    7.814   58.931    0.383   41.891    0.088
 1394.550    7.853   66.025    0.407   42.678    0.140
 1395.370    7.854   69.575    0.424   41.150    0.154
 1396.190    7.854   67.220    0.447   36.201    0.185
 1397.010    7.894   64.278    0.419   33.033    0.190
 1397.830    7.895   66.056    0.387   26.029    0.159
 1398.650    7.935   70.786    0.416   20.510    0.128
 1399.480    7.935   77.291    0.438   18.042    0.124
 1400.300    7.975   79.659    0.462   17.081    0.171
 1401.120    7.976   83.213    0.477   16.470    0.188
 1401.940    7.976   83.811    0.487   15.882    0.202
 1402.760    7.977   83.226    0.494   15.595    0.205
 1403.580    7.977   82.053    0.494   15.889    0.203
 1404.400    7.978   80.881    0.491   16.187    0.210
 1405.220    7.978   80.297    0.483   15.897    0.217
 1406.040    7.979   80.305    0.483   15.328    0.216
 1406.860    7.979   80.900    0.481   15.053    0.208
 1407.680    7.979   82.679    0.476   15.058    0.204
 1408.500    7.980   84.458    0.473   14.786    0.204
 1409.320    7.980   85.648    0.463   14.521    0.203
 1410.140    8.020   86.838    0.466   13.748    0.202
 1410.960    8.021   88.026    0.479   13.256    0.200
 1411.780    8.021   89.805    0.502   12.549    0.203
 1412.600    8.022   89.810    0.503   12.100    0.211
 1413.420    8.062   89.227    0.513   11.666    0.212
 1414.240    8.062   89.236    0.521   11.457    0.212
 1415.060    8.063   89.243    0.526   11.047    0.210
 1415.880    8.063   91.022    0.497   10.849    0.209
 1416.700    8.063   93.983    0.484   10.654    0.209
 1417.520    8.104   93.401    0.483   10.463    0.208
 1418.340    8.104   92.818    0.486   10.276    0.206
 1419.160    8.184   94.006    0.490   10.092    0.205
 1419.980    8.184   94.606    0.489   10.095    0.198
 1420.800    8.224   94.611    0.488    9.914    0.200
 1421.620    8.224   92.848    0.488    9.917    0.203
 1422.440    8.225   91.083    0.494    9.918    0.202
 1423.260    8.225   89.317    0.497    9.920    0.197
 1424.080    8.226   86.965    0.502   10.107    0.191
 1424.900    8.226   86.378    0.496   10.488    0.188
 1425.720    8.227   85.795    0.479   11.084    0.187
 1426.540    8.227   88.164    0.473   11.714    0.190
 1427.360    8.188   90.537    0.477   11.934    0.197
 1428.180    8.188   90.544    0.480   11.508    0.207
