~VERSION INFORMATION
 VERS.                 2.0:   CWLS LOG ASCII STANDARD -VERSION 2.0
 WRAP.                  NO:   ONE LINE PER DEPTH STEP
~WELL INFORMATION BLOCK
#MNEM.UNIT           DATA                    DESCRIPTION OF MNEMONIC
#---------    -------------------            -------------------------------
# Generated from Intellog Unique Number	CW_82_90/WELL/994
WELL.         11-14-084-24W4                 : Well_name    - WELL
LOC .         00/11-14-084-24W4/0            : Location     - LOCATION
UWI .         00/11-14-084-24W4/0            : Uwi          - UNIQUE WELL ID
ENTR.         JAYE                           : Entered      - ENTERED BY
SRVC.         SCHLUMBERGER                   : Scn          - SERVICE COMPANY
DATE.         3 FEB 76                       : Date         - LOG DATE
STRT.M        182.88                         : top_depth    - START DEPTH
STOP.M        390.13                         : bot_depth    - STOP DEPTH
STEP.M        0.25                           : increment    - STEP LENGTH
 NULL. -999.2500:NULL Value
~CURVE INFORMATION BLOCK
#MNEM UNIT       ERCB CURVE CODE    CURVE DESCRIPTION
#-----------   ------------------   ----------------------------------
DEPT.M        00 001 00 00         : DEPTH        - DEPTH
CALI.MM       00 280 01 00         : CAL          - CALIPER
GR  .API      00 310 00 00         : GR           - GAMMA RAY
NPHI.V/V      00 330 00 00         : PHIN         - NEUTRON POROSITY (SANDSTONE)
DPHI.V/V      00 890 00 00         : PHID         - DENSITY POROSITY (SANDSTONE)
ILD .OHMM     00 120 00 00         : RESD         - DEEP RESISTIVITY (DIL)
~PARAMETER INFORMATION
#MNEM.UNIT           DATA             DESCRIPTION OF MNEMONIC
#---------         -----------     ------------------------------
GL  .M        562.356              : gl           - GROUND LEVEL ELEVATION
EREF.M        565.099              : kb           - ELEVATION OF DEPTH REFERENCE
DATM.M        562.356              : datum        - DATUM ELEVATION
TDD .M        399.288              : tdd          - TOTAL DEPTH DRILLER
RUN .         ONE                  : Run          - RUN NUMBER
MATR.         SANDSTONE            : Logunit      - NEUTRON MATRIX
TMAX.C        17.2222              : BHT          - MAXIMUM RECORDED TEMPERATURE
BHTD.M        399.288              : BHTDEP       - MAXIMUM RECORDED TEMPERATURE
RMT .C        7.22222              : MDTP         - TEMPERATURE OF MUD
MUDD.KG/M     0                    : MWT          - MUD DENSITY
NEUT.         1                    : NEUTRON      - NEUTRON TYPE
RESI.         0                    : RESIST       - RESISTIVITY TYPE
RM  .OHMM     6.7                  : RM           - RESISTIVITY OF MUD
RMC .OHMM     0                    : RMC          - RESISTIVITY OF MUD CAKE
RMF .OHMM     0                    : RMF          - RESISTIVITY OF MUD FILTRATE
SUFT.C        -17.7778             : SUFT         - SURFACE TEMPERATURE
~A  DEPTH      CAL       GR     PHIN     PHID     RESD
# ...
  219.380  209.846   88.751    0.497    0.246    4.185
  219.630  211.104   92.868    0.498    0.224    4.463
  219.880  211.329   89.508    0.512    0.221    5.287
  220.130  212.384   85.104    0.509    0.261    6.861
  220.380  212.401   79.232    0.483    0.256    8.406
  220.630  209.929   79.610    0.471    0.243    8.382
  220.880  208.905   86.053    0.459    0.262    7.671
  221.130  207.784   93.171    0.475    0.289    6.358
  221.380  207.591  101.697    0.497    0.267    4.126
  221.630  208.337   98.522    0.516    0.260    2.990
  221.880  208.870   94.426    0.565    0.243    2.510
  222.130  210.754   87.634    0.576    0.237    2.390
  222.380  215.957   82.191    0.561    0.222    2.814
  222.630  215.560   76.441    0.564    0.216    3.695
  222.880  211.946   70.384    0.570    0.200    4.813
  223.130  209.367   68.433    0.403    0.178    8.811
  223.380  207.621   65.809    0.426    0.238   13.280
  223.630  206.495   61.406    0.425    0.295   20.281
  223.880  206.099   57.188    0.420    0.288   22.003
  224.130  206.321   54.809    0.441    0.291   22.358
  224.380  206.651   53.471    0.448    0.308   22.215
  224.630  207.392   53.235    0.449    0.326   22.034
  224.880  206.891   56.431    0.457    0.324   21.932
  225.130  206.908   59.016    0.470    0.307   21.718
  225.380  203.396   57.125    0.482    0.304   21.658
  225.630  203.827   54.746    0.470    0.305   21.476
  225.880  206.540   55.002    0.414    0.300   21.027
  226.130  207.078   56.481    0.400    0.328   20.656
  226.380  207.301   58.022    0.421    0.338   20.678
  226.630  207.317   58.586    0.435    0.332   21.008
  226.880  207.541   58.287    0.442    0.324   21.509
  227.130  207.767   54.681    0.438    0.311   22.183
  227.380  207.887   53.651    0.432    0.302   23.365
  227.630  208.008   54.578    0.438    0.297   23.688
  227.880  207.611   59.307    0.446    0.297   22.718
  228.130  207.730   60.971    0.445    0.301   21.907
  228.380  207.953   63.431    0.437    0.299   21.048
  228.630  208.280   68.221    0.419    0.290   20.952
  228.880  208.608   70.008    0.408    0.311   21.098
  229.130  208.625   64.380    0.394    0.316   21.313
  229.380  207.086   61.634    0.384    0.302   21.620
  229.630  203.993   63.664    0.392    0.305   21.923
  229.880  203.281   68.822    0.412    0.281   21.989
  230.130  202.985   68.770    0.454    0.283   21.248
  230.380  202.276   67.738    0.453    0.270   20.452
  230.630  202.604   70.199    0.431    0.247   19.721
  230.880  205.632   71.864    0.451    0.259   19.018
  231.130  207.513   71.383    0.457    0.287   18.859
  231.380  207.115   67.287    0.446    0.280   18.950
  231.630  206.406   65.520    0.439    0.290   19.075
  231.880  204.555   63.508    0.438    0.302   20.849
  232.130  206.023   56.349    0.444    0.307   24.974
  232.380  207.807   51.212    0.437    0.308   35.788
  232.630  209.066   47.607    0.426    0.293   43.676
  232.880  210.223   47.311    0.277    0.225   48.278
  233.130  210.967   48.545    0.179    0.088   45.098
  233.380  212.021   50.517    0.168    0.051   38.740
  233.630  211.933   51.260    0.179    0.035   32.957
  233.880  211.745   53.722    0.193    0.043   27.571
  234.130  209.895   56.674    0.232    0.077   23.068
  234.380  208.457   58.582    0.279    0.164   20.684
  234.630  206.918   59.511    0.409    0.220   20.059
  234.880  204.755   59.399    0.448    0.299   19.719
  235.130  203.629   58.182    0.464    0.314   19.657
  235.380  203.128   58.807    0.471    0.312   19.602
  235.630  203.559   60.408    0.460    0.304   19.809
  235.880  204.513   60.417    0.438    0.298   20.127
  236.130  205.254   60.551    0.434    0.307   20.604
  236.380  205.995   61.479    0.423    0.310   21.537
  236.630  207.049   59.344    0.408    0.293   22.586
  236.880  207.689   59.109    0.386    0.260   24.825
  237.130  208.122   59.671    0.361    0.197   31.506
  237.380  208.448   58.700    0.328    0.100   44.900
  237.630  209.606   57.179    0.231    0.074   55.416
  237.880  209.832   56.514    0.165    0.007   59.665
  238.130  209.950   55.849    0.160   -0.015   57.002
  238.380  209.967   55.920    0.144   -0.016   39.788
  238.630  210.713   58.994    0.152   -0.011   28.558
  238.880  211.142   63.723    0.214    0.002   22.804
  239.130  211.367   65.755    0.302    0.099   19.585
  239.380  210.763   65.518    0.366    0.151   18.746
  239.630  209.428   63.078    0.404    0.230   18.316
  239.880  207.580   62.721    0.427    0.274   18.408
  240.130  206.973   61.934    0.422    0.290   18.564
  240.380  206.163   60.964    0.426    0.295   18.866
  240.630  206.071   60.053    0.446    0.299   19.059
  240.880  206.923   58.715    0.445    0.296   19.184
  241.130  206.831   58.296    0.432    0.290   19.644
  241.380  206.228   58.612    0.424    0.295   19.887
  241.630  205.618   59.847    0.431    0.287   19.905
  241.880  204.808   61.818    0.431    0.275   19.892
  242.130  204.302   62.379    0.429    0.299   19.724
  242.380  203.803   63.492    0.430    0.304   19.599
  242.630  203.506   65.464    0.424    0.302   19.331
  242.880  202.901   67.375    0.416    0.290   18.884
  243.130  204.164   67.259    0.410    0.281   18.348
  243.380  205.946   65.799    0.409    0.315   17.530
  243.630  206.270   65.628    0.413    0.319   16.436
  243.880  206.079   65.757    0.429    0.302   15.471
  244.130  205.685   64.971    0.442    0.298   15.227
  244.380  205.387   64.123    0.448    0.295   15.103
  244.630  204.574   63.949    0.449    0.281   15.118
  244.880  204.695   64.388    0.449    0.277   15.221
  245.130  205.438   65.070    0.446    0.298   15.408
  245.380  205.764   65.572    0.439    0.304   15.598
  245.630  205.057   66.134    0.428    0.300   15.614
  245.880  204.968   66.695    0.428    0.297   15.458
  246.130  204.363   67.256    0.440    0.289   15.331
  246.380  204.488   67.387    0.447    0.295   15.148
  246.630  205.339   67.030    0.446    0.309   14.968
  246.880  205.554   65.201    0.458    0.309   14.870
  247.130  206.195   65.639    0.446    0.291   14.642
  247.380  206.315   66.385    0.448    0.275   14.462
  247.630  206.952   66.884    0.446    0.279   14.158
  247.880  206.553   67.446    0.440    0.281   13.706
  248.130  205.949   68.682    0.432    0.288   13.242
  248.380  205.966   66.792    0.424    0.281   12.718
  248.630  206.293   67.050    0.417    0.287   11.728
  248.880  206.205   67.915    0.419    0.283   10.956
  249.130  206.535   70.130    0.424    0.262   10.235
  249.380  206.446   71.733    0.423    0.262    9.743
  249.630  206.674   73.519    0.426    0.260    9.361
  249.880  206.481   75.306    0.433    0.247    9.011
  250.130  206.081   75.686    0.438    0.232    8.769
  250.380  205.374   77.715    0.424    0.232    8.394
  250.630  205.804   77.480    0.404    0.223    8.078
  250.880  205.512   76.142    0.406    0.224    7.589
  251.130  205.009   76.276    0.426    0.230    6.985
  251.380  204.712   79.961    0.439    0.249    6.501
  251.630  205.869   81.809    0.439    0.242    5.949
  251.880  210.042   83.902    0.453    0.217    5.294
  252.130  211.713   84.893    0.469    0.203    4.782
  252.380  211.005   87.599    0.464    0.217    4.344
  252.630  209.878   87.916    0.465    0.210    4.158
  252.880  208.961   87.986    0.465    0.214    4.186
  253.130  208.770   88.608    0.454    0.208    4.424
  253.380  208.478   87.025    0.448    0.201    4.745
  253.630  208.391   79.437    0.453    0.212    5.274
  253.880  208.094   75.770    0.466    0.224    5.918
  254.130  208.008   74.249    0.440    0.238    6.565
  254.380  208.128   73.339    0.452    0.246    7.379
  254.630  207.626   70.224    0.462    0.260    8.756
  254.880  205.879   65.761    0.435    0.257   10.315
  255.130  205.792   62.216    0.416    0.260   10.882
  255.380  206.949   61.246    0.419    0.266   10.973
  255.630  207.588   64.320    0.423    0.274   10.923
