~VERSION INFORMATION
 VERS.                 2.0:   CWLS LOG ASCII STANDARD -VERSION 2.0
 WRAP.                  NO:   ONE LINE PER DEPTH STEP
~WELL INFORMATION BLOCK
#MNEM.UNIT           DATA                    DESCRIPTION OF MNEMONIC
#---------    -------------------            -------------------------------
# Generated from Intellog Unique Number	CW_82_90/WELL/1036
WELL.         PARA ET AL GRANOR  14-35       : Well_name    - WELL
LOC .         00/14-35-082-19W4/0            : Location     - LOCATION
UWI .         00/14-35-082-19W400            : Uwi          - UNIQUE WELL ID
ENTR.         JAYE                           : Entered      - ENTERED BY
SRVC.         COMPUTALOG                     : Scn          - SERVICE COMPANY
DATE.         26 MAR 80                      : Date         - LOG DATE
STRT.M        190                            : top_depth    - START DEPTH
STOP.M        340                            : bot_depth    - STOP DEPTH
STEP.M        0.25                           : increment    - STEP LENGTH
 NULL. -999.2500:NULL Value
~CURVE INFORMATION BLOCK
#MNEM UNIT       ERCB CURVE CODE    CURVE DESCRIPTION
#-----------   ------------------   ----------------------------------
DEPT.M        00 001 00 00         : DEPTH        - DEPTH
CALI.MM       00 280 01 00         : CAL          - CALIPER
GR  .API      00 310 00 00         : GR           - GAMMA RAY
NPHI.V/V      00 330 00 00         : PHIN         - NEUTRON POROSITY (SANDSTONE)
DPHI.V/V      00 890 00 00         : PHID         - DENSITY POROSITY (SANDSTONE)
ILD .OHMM     00 120 00 00         : RESD         - DEEP RESISTIVITY (DIL)
~PARAMETER INFORMATION
#MNEM.UNIT           DATA             DESCRIPTION OF MNEMONIC
#---------         -----------     ------------------------------
GL  .M        581.58               : gl           - GROUND LEVEL ELEVATION
EREF.M        584.85               : kb           - ELEVATION OF DEPTH REFERENCE
DATM.M        581.58               : datum        - DATUM ELEVATION
TDD .M        341.5                : tdd          - TOTAL DEPTH DRILLER
RUN .         ONE                  : Run          - RUN NUMBER
ENG .         JBSIOIOWSKI          : Engineer     - RECORDING ENGINEER
WIT .         IRWIN                : Witness      - WITNESSED BY
BASE.         EDMONTON             : Branch       - HOME BASE OF LOGGING UNIT
MUD .         GEL CHEM             : Mud_type     - MUD TYPE
MATR.         SANDSTONE            : Logunit      - NEUTRON MATRIX
TMAX.C        16                   : BHT          - MAXIMUM RECORDED TEMPERATURE
BHTD.M        341.5                : BHTDEP       - MAXIMUM RECORDED TEMPERATURE
RMT .C        13                   : MDTP         - TEMPERATURE OF MUD
MUDD.KG/M     1070                 : MWT          - MUD DENSITY
NEUT.         1                    : NEUTRON      - NEUTRON TYPE
RESI.         0                    : RESIST       - RESISTIVITY TYPE
RM  .OHMM     1.5                  : RM           - RESISTIVITY OF MUD
RMC .OHMM     0.25                 : RMC          - RESISTIVITY OF MUD CAKE
RMF .OHMM     1.4                  : RMF          - RESISTIVITY OF MUD FILTRATE
SUFT.C        4                    : SUFT         - SURFACE TEMPERATURE
~A  DEPTH      CAL       GR     PHIN     PHID     RESD
  190.000  279.085   90.891    0.408    0.247    9.664
  190.250  284.125   89.678    0.417    0.279   10.336
  190.500  251.058   83.233    0.388    0.324   10.172
  190.750  216.540   84.636    0.396    0.270    9.715
  191.000  212.242   92.394    0.425    0.199    9.259
  191.250  209.490   89.748    0.416    0.209    8.451
  191.500  206.440   94.577    0.370    0.228    7.276
  191.750  218.843   95.855    0.481    0.256    6.505
  192.000  215.989   94.704    0.482    0.264    5.881
  192.250  203.693  104.642    0.357    0.209    5.649
  192.500  210.918  114.144    0.392    0.242    5.591
  192.750  208.481  111.685    0.392    0.240    5.565
  193.000  210.503  110.970    0.388    0.191    5.489
  193.250  207.236  111.503    0.411    0.149    5.372
  193.500  207.191  109.169    0.452    0.194    5.198
  193.750  210.887  106.149    0.467    0.211    4.843
  194.000  213.325  110.362    0.479    0.234    4.355
  194.250  214.414  112.944    0.470    0.242    3.893
  194.500  212.192  115.468    0.425    0.218    3.746
  194.750  204.875  111.138    0.560    0.236    3.902
  195.000  199.942  102.575    0.471    0.238    4.880
  195.250  197.414  102.046    0.394    0.239    6.102
  195.500  192.581   90.304    0.384    0.260    7.836
  195.750  192.124   88.718    0.374    0.257    9.226
  196.000  194.665   99.469    0.327    0.226    9.483
  196.250  197.209  103.983    0.357    0.302    9.177
  196.500  195.606  105.825    0.427    0.347    8.472
  196.750  189.018  104.113    0.402    0.334    7.616
  197.000  186.579  111.059    0.454    0.207    6.784
  197.250  187.050  113.649    0.427    0.207    6.540
  197.500  187.105  120.594    0.409    0.212    6.671
  197.750  185.293  100.817    0.428    0.305    7.621
  198.000  175.485   80.602    0.488    0.327    9.787
  198.250  167.238   68.364    0.452    0.333   14.046
  198.500  165.946   65.469    0.438    0.333   21.577
  198.750  164.553   58.525    0.471    0.338   28.451
  199.000  162.940   59.678    0.416    0.340   29.975
  199.250  162.793   67.874    0.388    0.326   29.720
  199.500  163.681   70.833    0.379    0.326   28.121
  199.750  164.251   71.809    0.424    0.330   26.954
  200.000  162.954   76.504    0.449    0.332   26.279
  200.250  161.870   77.783    0.447    0.330   25.814
  200.500  162.026   71.212    0.442    0.331   24.982
  200.750  163.551   69.565    0.427    0.327   24.266
  201.000  164.318   71.656    0.438    0.330   23.569
  201.250  164.897   72.246    0.376    0.315   21.839
  201.500  164.545   71.094    0.373    0.312   18.840
  201.750  163.865   69.820    0.417    0.324   16.557
  202.000  162.473   71.783    0.445    0.329   14.471
  202.250  160.769   68.125    0.439    0.324   13.282
  202.500  158.947   65.560    0.433    0.298   12.169
  202.750  157.131   70.076    0.376    0.298   11.403
  203.000  155.847   81.883    0.350    0.299   10.648
  203.250  160.878   73.754    0.333    0.307   10.821
  203.500  166.643   65.689    0.360    0.314   11.753
  203.750  169.609   61.672    0.394    0.319   11.695
  204.000  173.515   61.152    0.367    0.331   10.836
  204.250  175.646   62.298    0.457    0.329   10.605
  204.500  176.106   70.492    0.521    0.333   11.602
  204.750  176.475   64.418    0.411    0.338   11.815
  205.000  176.946   60.589    0.398    0.332   11.983
  205.250  177.316   66.229    0.392    0.334   12.294
  205.500  177.478   68.134    0.411    0.332   12.637
  205.750  177.216   68.102    0.421    0.314   11.622
  206.000  177.074   73.743    0.334    0.251    9.191
  206.250  181.715   81.934    0.381    0.218    6.215
  206.500  183.097   90.066    0.444    0.244    4.373
  206.750  178.174   80.879    0.427    0.268    3.722
  207.000  173.971   75.118    0.391    0.256    3.636
  207.250  173.815   68.922    0.462    0.283    3.866
  207.500  167.332   66.399    0.562    0.311    5.560
  207.750  163.234   64.813    0.526    0.345    8.208
  208.000  158.514   61.108    0.508    0.331   11.827
  208.250  153.893   64.007    0.441    0.317   12.459
  208.500  151.983   69.645    0.464    0.319   11.436
  208.750  159.098   71.549    0.391    0.320    9.426
  209.000  160.190   79.990    0.354    0.291    7.669
  209.250  160.043   84.321    0.400    0.284    6.418
  209.500  157.186   83.545    0.416    0.289    5.280
  209.750  153.193   81.334    0.382    0.280    4.650
  210.000  152.104   80.620    0.462    0.299    4.534
  210.250  150.724   77.105    0.526    0.300    4.988
  210.500  149.725   72.401    0.418    0.306    6.261
  210.750  149.373   71.374    0.380    0.316    7.801
  211.000  149.525   65.488    0.436    0.311    9.849
  211.250  149.176   61.099    0.474    0.318   11.336
  211.500  149.013   60.634    0.418    0.321   11.457
  211.750  148.865   66.583    0.392    0.314   11.820
  212.000  148.296   68.546    0.450    0.309   13.503
  212.250  148.359   68.269    0.485    0.294   15.779
  212.500  149.034   69.609    0.218    0.141   18.166
  212.750  149.918   65.236    0.118   -0.015   18.599
  213.000  149.976   60.519    0.109   -0.013   18.377
  213.250  147.952   66.843    0.168    0.115   17.749
  213.500  149.780   65.940    0.333    0.211   16.077
  213.750  152.116   56.444    0.342    0.314   14.078
  214.000  151.965   55.789    0.373    0.327   12.075
  214.250  153.999   53.269    0.390    0.310   11.251
  214.500  155.404   52.677    0.366    0.307   11.116
  214.750  155.867   61.868    0.367    0.310   11.297
  215.000  156.341   67.258    0.361    0.310   11.482
  215.250  152.871   63.118    0.388    0.311   11.757
  215.500  150.947   63.898    0.409    0.298   11.750
  215.750  154.848   64.493    0.404    0.303   11.586
  216.000  160.304   58.792    0.346    0.304   11.753
  216.250  167.214   60.135    0.372    0.306   11.809
  216.500  170.172   66.022    0.397    0.314   11.846
  216.750  170.229   65.681    0.418    0.325   11.813
  217.000  172.879   60.543    0.441    0.332   11.715
  217.250  177.610   59.144    0.438    0.326   11.619
  217.500  184.112   64.597    0.427    0.323   11.523
  217.750  186.025   61.142    0.399    0.321   11.427
  218.000  186.600   66.343    0.396    0.327   11.331
  218.250  186.146   64.260    0.413    0.318   11.218
  218.500  185.259   60.117    0.436    0.316   11.145
  218.750  171.819   63.580    0.445    0.346   11.073
  219.000  165.125   66.849    0.403    0.364   11.024
  219.250  165.803   69.810    0.414    0.325   10.974
  219.500  167.622   64.547    0.416    0.316   10.882
  219.750  166.853   62.835    0.381    0.322   10.852
  220.000  168.772   60.065    0.367    0.314   10.825
  220.250  166.962   65.331    0.421    0.319   10.774
  220.500  170.342   69.350    0.412    0.323   10.745
  220.750  172.995   68.947    0.401    0.332   10.696
  221.000  172.021   66.302    0.426    0.328   10.508
  221.250  170.300   73.000    0.389    0.325   10.323
  221.500  153.641   65.059    0.387    0.324   10.200
  221.750  152.139   67.334    0.419    0.319   10.153
  222.000  157.697   76.587    0.409    0.310   10.240
  222.250  151.727   75.872    0.402    0.298   10.407
  222.500  149.093   72.052    0.429    0.296   10.678
  222.750  148.415   68.835    0.450    0.296   11.040
  223.000  148.265   67.002    0.454    0.299   11.369
  223.250  148.939   63.364    0.414    0.304   11.358
  223.500  149.209   59.964    0.442    0.305   10.951
  223.750  148.844   62.863    0.396    0.302   11.004
  224.000  145.584   63.081    0.420    0.287   11.745
  224.250  149.790   59.751    0.297    0.150   12.799
  224.500  158.567   63.273    0.248    0.092   14.956
  224.750  161.216   61.186    0.247    0.092   17.913
  225.000  156.599   53.931    0.235    0.100   19.741
  225.250  152.092   52.033    0.226    0.110   20.447
  225.500  152.146   60.976    0.231    0.098   19.861
  225.750  152.199   54.403    0.126    0.057   22.817
  226.000  152.466   42.787    0.107   -0.022   23.456
  226.250  152.002   44.750    0.104   -0.016   22.867
