~VERSION INFORMATION
 VERS.                 2.0:   CWLS LOG ASCII STANDARD -VERSION 2.0
 WRAP.                  NO:   ONE LINE PER DEPTH STEP
~WELL INFORMATION BLOCK
#MNEM.UNIT           DATA                    DESCRIPTION OF MNEMONIC
#---------    -------------------            -------------------------------
# Generated from Intellog Unique Number	CW_76_78/WELL/2576
WELL.         10-19-078-24W4                 : Well_name    - WELL
LOC .         00/10-19-078-24W4/0            : Location     - LOCATION
UWI .         00/10-19-078-24W4/0            : Uwi          - UNIQUE WELL ID
ENTR.         MAX                            : Entered      - ENTERED BY
SRVC.         SCHLUMBERGER                   : Scn          - SERVICE COMPANY
STRT.M        274.32                         : top_depth    - START DEPTH
STOP.M        518.07                         : bot_depth    - STOP DEPTH
STEP.M        0.25                           : increment    - STEP LENGTH
 NULL. -999.2500:NULL Value
~CURVE INFORMATION BLOCK
#MNEM UNIT       ERCB CURVE CODE    CURVE DESCRIPTION
#-----------   ------------------   ----------------------------------
DEPT.M        00 001 00 00         : DEPTH        - DEPTH
ILD .OHMM     00 120 00 00         : RESD         - DEEP RESISTIVITY (DIL)
NPHI.V/V      00 330 00 00         : PHIN         - NEUTRON POROSITY (SANDSTONE)
DPHI.V/V      00 890 00 00         : PHID         - DENSITY POROSITY (SANDSTONE)
CALI.MM       00 280 01 00         : CAL          - CALIPER
GR  .API      00 310 00 00         : GR           - GAMMA RAY
~PARAMETER INFORMATION
#MNEM.UNIT           DATA             DESCRIPTION OF MNEMONIC
#---------         -----------     ------------------------------
GL  .M        592.531              : gl           - GROUND LEVEL ELEVATION
EREF.M        596.494              : kb           - ELEVATION OF DEPTH REFERENCE
DATM.M        592.531              : datum        - DATUM ELEVATION
TDD .M        537.667              : tdd          - TOTAL DEPTH DRILLER
RUN .         ONE                  : Run          - RUN NUMBER
ENG .         BILL                 : Engineer     - RECORDING ENGINEER
WIT .         JIM                  : Witness      - WITNESSED BY
MUD .         GEL                  : Mud_type     - MUD TYPE
MATR.         SANDSTONE            : Logunit      - NEUTRON MATRIX
TMAX.C        25.5556              : BHT          - MAXIMUM RECORDED TEMPERATURE
BHTD.M        537.667              : BHTDEP       - MAXIMUM RECORDED TEMPERATURE
RMT .C        14.4444              : MDTP         - TEMPERATURE OF MUD
MUDD.KG/M     9800                 : MWT          - MUD DENSITY
NEUT.         1                    : NEUTRON      - NEUTRON TYPE
RESI.         0                    : RESIST       - RESISTIVITY TYPE
RM  .OHMM     6.42                 : RM           - RESISTIVITY OF MUD
RMC .OHMM     6.05                 : RMC          - RESISTIVITY OF MUD CAKE
RMF .OHMM     7.72                 : RMF          - RESISTIVITY OF MUD FILTRATE
SUFT.C        -6.66667             : SUFT         - SURFACE TEMPERATURE
~A  DEPTH     RESD     PHIN     PHID      CAL       GR
# ...
  420.320   12.612    0.478    0.170  207.164   89.323
  420.570   12.284    0.470    0.189  207.167   89.910
  420.820   11.961    0.471    0.190  207.172   90.788
  421.070   11.754    0.468    0.183  207.172   91.082
  421.320   11.653    0.450    0.177  207.183   91.376
  421.570   11.555    0.449    0.186  206.694   91.380
  421.820   11.878    0.455    0.192  206.209   91.383
  422.070   12.546    0.445    0.172  205.717   89.637
  422.320   13.252    0.421    0.157  205.717   87.016
  422.570   13.745    0.406    0.165  205.235   87.019
  422.820   14.002    0.388    0.166  205.732   88.771
  423.070   14.009    0.386    0.162  205.732   89.940
  423.320   13.890    0.392    0.167  206.238   90.527
  423.570   13.166    0.395    0.175  207.229   93.153
  423.820   12.257    0.410    0.178  208.715   96.364
  424.070   11.205    0.473    0.174  210.695   95.201
  424.320   10.430    0.477    0.164  214.157   91.705
  424.570   10.249    0.448    0.162  215.643   89.668
  424.820   10.442    0.422    0.169  215.154   90.254
  425.070   10.929    0.405    0.157  211.211   92.297
  425.320   11.967    0.410    0.157  211.215   91.134
  425.570   13.342    0.408    0.176  212.702   85.306
  425.820   15.010    0.399    0.176  213.200   81.810
  426.070   17.664    0.396    0.175  212.712   79.481
  426.320   19.694    0.398    0.175  212.223   75.986
  426.570   22.154    0.395    0.177  211.735   70.449
  426.820   27.274    0.374    0.179  211.247   68.120
  427.070   32.392    0.368    0.199  210.264   67.831
  427.320   33.000    0.400    0.233  210.269   68.709
  427.570   31.849    0.429    0.237  210.275   68.421
  427.820   30.456    0.450    0.238  210.280   67.841
  428.070   29.396    0.448    0.212  210.286   66.969
  428.320   29.409    0.415    0.184  210.785   65.223
  428.570   30.233    0.375    0.153  211.282   63.768
  428.820   32.513    0.363    0.131  211.287   62.605
  429.070   35.599    0.359    0.123  210.799   60.567
  429.320   38.280    0.344    0.133  210.312   57.071
  429.570   42.679    0.328    0.104  209.822   53.867
  429.820   46.730    0.300    0.078  209.334   52.996
  430.070   53.049    0.272    0.052  208.846   53.291
  430.320   58.085    0.290    0.070  208.850   53.002
  430.570   60.794    0.315    0.079  208.856   53.296
  430.820   60.825    0.316    0.074  209.355   56.798
  431.070   57.662    0.329    0.085  209.359   60.592
  431.320   53.669    0.334    0.127  209.859   62.053
  431.570   48.628    0.343    0.148  212.333   63.805
  431.820   44.058    0.360    0.153  214.806   65.557
  432.070   35.502    0.392    0.174  213.824   68.184
  432.320   28.866    0.400    0.193  212.842   70.811
  432.570   22.846    0.408    0.190  212.353   72.563
  432.820   20.885    0.434    0.186  211.372   73.150
  433.070   17.766    0.459    0.164  211.377   74.028
  433.320   14.977    0.458    0.146  211.381   76.363
  433.570   13.328    0.452    0.153  211.880   80.740
  433.820   12.861    0.452    0.170  212.379   82.200
  434.070   12.756    0.447    0.169  212.385   82.786
  434.320   12.532    0.413    0.160  212.390   81.332
  434.570   12.652    0.398    0.152  212.395   81.043
  434.820   13.242    0.397    0.152  212.400   81.338
  435.070   13.736    0.402    0.151  212.405   82.216
  435.320   14.120    0.397    0.152  212.410   82.802
  435.570   14.385    0.387    0.158  211.924   83.971
  435.820   14.654    0.391    0.170  210.940   85.432
  436.070   14.529    0.394    0.170  208.477   87.767
  436.320   14.408    0.394    0.165  207.002   88.645
  436.570   14.158    0.397    0.151  206.512   88.648
  436.820   14.044    0.406    0.133  209.481   87.776
  437.070   13.919    0.421    0.159  210.473   87.488
  437.320   13.678    0.408    0.166  209.984   88.074
  437.570   13.562    0.407    0.152  209.496   88.952
  437.820   13.571    0.429    0.146  209.496   89.538
  438.070   13.576    0.440    0.154  209.508   89.832
  438.320   13.707    0.443    0.181  209.510   91.294
  438.570   13.964    0.437    0.187  210.011   91.297
  438.820   14.097    0.431    0.184  210.016   90.425
  439.070   14.097    0.438    0.178  210.019   88.096
  439.320   14.115    0.437    0.166  210.519   86.641
  439.570   14.247    0.431    0.162  211.017   84.895
  439.820   14.128    0.436    0.159  211.022   85.481
  440.070   14.008    0.424    0.161  211.029   88.108
  440.320   13.764    0.437    0.158  210.541   88.402
  440.570   13.524    0.441    0.155  210.051   85.490
  440.820   13.290    0.429    0.150  210.056   83.161
  441.070   13.298    0.422    0.144  210.062   82.872
  441.320   13.426    0.417    0.139  210.066   83.750
  441.570   13.926    0.411    0.145  209.579   85.502
  441.820   14.445    0.411    0.155  209.584   84.631
  442.070   14.715    0.412    0.156  209.589   84.051
  442.320   14.591    0.405    0.147  210.087   85.512
  442.570   14.082    0.422    0.147  210.587   87.556
  442.820   13.590    0.440    0.159  210.591   88.141
  443.070   12.999    0.468    0.155  210.103   86.688
  443.320   12.545    0.485    0.157  210.109   85.815
  443.570   12.215    0.494    0.174  210.113   85.236
  443.820   12.116    0.483    0.179  210.118   84.947
  444.070   12.010    0.469    0.178  211.606   84.076
  444.320   12.010    0.456    0.182  212.597   84.953
  444.570   11.917    0.442    0.185  214.577   86.997
  444.820   12.360    0.436    0.172  216.064   86.709
  445.070   13.053    0.426    0.167  215.083   85.254
  445.320   14.293    0.418    0.177  214.593   83.799
  445.570   15.508    0.405    0.187  213.612   82.344
  445.820   18.752    0.393    0.194  213.123   79.432
  446.070   21.870    0.388    0.203  212.634   76.811
  446.320   25.052    0.394    0.212  212.146   76.232
  446.570   27.680    0.403    0.202  211.657   74.485
  446.820   30.308    0.409    0.191  211.662   69.531
  447.070   33.185    0.406    0.180  211.174   66.328
  447.320   36.008    0.372    0.165  210.686   65.748
  447.570   38.729    0.357    0.144  210.690   65.750
  447.820   39.102    0.332    0.120  210.202   67.503
  448.070   37.729    0.343    0.125  209.714   72.462
  448.320   29.592    0.413    0.167  209.224   77.422
  448.570   22.999    0.448    0.164  209.229   78.591
  448.820   18.204    0.436    0.163  209.729   75.970
  449.070   16.794    0.416    0.150  210.721   78.014
  449.320   15.632    0.414    0.134  210.727   80.349
  449.570   14.421    0.414    0.147  209.251   80.936
  449.820   13.304    0.407    0.145  208.763   82.105
  450.070   12.498    0.398    0.146  208.768   85.023
  450.320   12.170    0.394    0.147  209.266   87.068
  450.570   12.067    0.395    0.141  210.259   87.362
  450.820   12.293    0.397    0.127  210.757   86.782
  451.070   13.100    0.395    0.105  212.245   82.412
  451.320   16.129    0.376    0.075  213.238   72.210
  451.570   17.501    0.330    0.051  212.749   66.383
  451.820   23.159    0.273    0.036  210.778   69.302
  452.070   26.767    0.278    0.083  210.784   82.716
  452.320   30.939    0.341    0.130  206.345   87.384
  452.570   28.287    0.353    0.139  204.869   89.136
  452.820   22.999    0.355    0.149  206.850   89.431
  453.070   20.466    0.341    0.162  212.779   89.434
  453.320   19.751    0.333    0.165  212.784   89.434
  453.570   19.410    0.326    0.155  212.790   89.440
  453.820   19.071    0.330    0.151  211.314   89.443
  454.070   18.240    0.339    0.145  209.839   89.446
  454.320   16.981    0.348    0.143  210.831   90.032
  454.570   15.665    0.356    0.152  213.305   91.493
  454.820   15.532    0.373    0.155  215.777   92.662
  455.070   16.406    0.398    0.148  217.265   92.082
  455.320   17.481    0.397    0.141  216.775   90.336
  455.570   19.317    0.374    0.143  214.806   82.467
  455.820   20.772    0.366    0.122  211.850   81.013
  456.070   21.545    0.380    0.135  210.867   80.141
  456.320   21.365    0.379    0.163  210.872   79.269
  456.570   21.365    0.372    0.166  211.370   76.940
