~VERSION INFORMATION
 VERS.                 2.0:   CWLS LOG ASCII STANDARD -VERSION 2.0
 WRAP.                  NO:   ONE LINE PER DEPTH STEP
~WELL INFORMATION BLOCK
#MNEM.UNIT           DATA                    DESCRIPTION OF MNEMONIC
#---------    -------------------            -------------------------------
# Generated from Intellog Unique Number	CS_77_79/WELL/999
WELL.         HUSKEY OIL OPERATIONS LTD      : Well_name    - WELL
LOC .         00/11-26-077-16W4/0            : Location     - LOCATION
UWI .         00/11-26-077-16W4/0            : Uwi          - UNIQUE WELL ID
ENTR.         SP                             : Entered      - ENTERED BY
SRVC.         SCHLUMBERGER                   : Scn          - SERVICE COMPANY
STRT.M        280                            : top_depth    - START DEPTH
STOP.M        480                            : bot_depth    - STOP DEPTH
STEP.M        0.25                           : increment    - STEP LENGTH
 NULL. -999.2500:NULL Value
~CURVE INFORMATION BLOCK
#MNEM UNIT       ERCB CURVE CODE    CURVE DESCRIPTION
#-----------   ------------------   ----------------------------------
DEPT.M        00 001 00 00         : DEPTH        - DEPTH
ILD .OHMM     00 120 00 00         : RESD         - DEEP RESISTIVITY (DIL)
DPHI.V/V      00 890 00 00         : PHID         - DENSITY POROSITY (LIMESTONE)
NPHI.V/V      00 330 00 00         : PHIN         - NEUTRON POROSITY (LIMESTONE)
GR  .API      00 310 00 00         : GR           - GAMMA RAY
~PARAMETER INFORMATION
#MNEM.UNIT           DATA             DESCRIPTION OF MNEMONIC
#---------         -----------     ------------------------------
GL  .M        672.11               : gl           - GROUND LEVEL ELEVATION
EREF.M        675.69               : kb           - ELEVATION OF DEPTH REFERENCE
DATM.M        672.11               : datum        - DATUM ELEVATION
TDD .M        487                  : tdd          - TOTAL DEPTH DRILLER
RUN .         ONE                  : Run          - RUN NUMBER
ENG .         BILL                 : Engineer     - RECORDING ENGINEER
WIT .         JIM                  : Witness      - WITNESSED BY
MUD .         GEL                  : Mud_type     - MUD TYPE
MATR.         LIMESTONE            : Logunit      - NEUTRON MATRIX
TMAX.C        22                   : BHT          - MAXIMUM RECORDED TEMPERATURE
BHTD.M        487                  : BHTDEP       - MAXIMUM RECORDED TEMPERATURE
MATR.         1                    : LOGUNIT      - NEUTRON MATRIX
RMT .C        25                   : MDTP         - TEMPERATURE OF MUD
NEUT.         1                    : NEUTRON      - NEUTRON TYPE
RESI.         0                    : RESIST       - RESISTIVITY TYPE
RMC .OHMM     0.25                 : RMC          - RESISTIVITY OF MUD CAKE
RMF .OHMM     0.25                 : RMF          - RESISTIVITY OF MUD FILTRATE
SUFT.C        15                   : SUFT         - SURFACE TEMPERATURE
~A  DEPTH     RESD     PHID     PHIN       GR
  280.000    3.018    0.253    0.553   95.733
  280.250    2.964    0.259    0.543   96.953
  280.500    3.021    0.259    0.549   94.514
  280.750    3.023    0.253    0.555   90.247
  281.000    3.140    0.247    0.555   92.077
  281.250    3.201    0.243    0.548   92.687
  281.500    3.263    0.229    0.550   93.298
  281.750    3.327    0.236    0.551   92.689
  282.000    3.391    0.242    0.533   93.909
  282.250    3.522    0.228    0.518   96.349
  282.500    3.659    0.212    0.509  100.009
  282.750    3.730    0.211    0.514  101.229
  283.000    3.731    0.197    0.523  101.839
  283.250    3.804    0.215    0.520  101.840
  283.500    3.951    0.229    0.501  101.231
  283.750    4.104    0.210    0.486   99.402
  284.000    4.106    0.203    0.499   96.354
  284.250    4.108    0.220    0.507   95.745
  284.500    4.034    0.231    0.524   97.575
  284.750    4.113    0.221    0.532   98.186
  285.000    4.115    0.221    0.520   97.577
  285.250    4.040    0.225    0.521   98.187
  285.500    3.894    0.210    0.537   99.408
  285.750    3.824    0.217    0.550  100.628
  286.000    3.685    0.234    0.563  101.239
  286.250    3.686    0.236    0.531   98.800
  286.500    3.553    0.237    0.539   95.752
  286.750    3.556    0.238    0.545   94.534
  287.000    3.491    0.225    0.538   94.534
  287.250    3.492    0.227    0.526   96.365
  287.500    3.430    0.225    0.526   97.585
  287.750    3.496    0.220    0.513   98.195
  288.000    3.498    0.217    0.504   96.367
  288.250    3.500    0.219    0.512   93.319
  288.500    3.568    0.225    0.521   93.319
  288.750    3.637    0.218    0.512   93.320
  289.000    3.849    0.210    0.516   87.833
  289.250    4.644    0.207    0.505   82.956
  289.500    5.499    0.206    0.387   76.859
  289.750    7.423    0.201    0.382   71.981
  290.000    9.297    0.214    0.391   65.885
  290.250   11.866    0.249    0.401   60.398
  290.500   13.789    0.276    0.405   60.398
  290.750   15.730    0.288    0.386   66.497
  291.000   16.647    0.298    0.371   65.888
  291.250   16.968    0.314    0.380   70.157
  291.500   15.460    0.325    0.378   75.036
  291.750   13.069    0.337    0.415   79.305
  292.000    9.876    0.300    0.436   86.623
  292.250    8.505    0.247    0.454   92.721
  292.500    6.548    0.223    0.477   99.429
  292.750    5.137    0.232    0.502  105.527
  293.000    4.768    0.234    0.513  108.577
  293.250    4.426    0.230    0.481  108.578
  293.500    4.429    0.224    0.478  104.310
  293.750    4.866    0.212    0.474   98.823
  294.000    5.762    0.221    0.462   87.848
  294.250    7.083    0.241    0.389   78.093
  294.500    9.561    0.263    0.268   70.166
  294.750   17.090    0.287    0.247   64.070
  295.000   36.842    0.310    0.270   58.583
  295.250   40.479    0.337    0.294   56.754
  295.500   30.584    0.324    0.328   62.852
  295.750   21.441    0.297    0.358   72.610
  296.000   15.605    0.291    0.389   78.708
  296.250   12.707    0.291    0.414   87.245
  296.500   10.945    0.254    0.438   93.954
  296.750    9.605    0.219    0.449   98.222
  297.000    7.822    0.196    0.465  100.662
  297.250    6.738    0.184    0.481  100.663
  297.500    6.372    0.198    0.470   98.835
  297.750    6.376    0.203    0.472   96.396
  298.000    7.006    0.229    0.456   93.958
  298.250    7.842    0.237    0.439   87.251
  298.500   10.197    0.254    0.411   79.935
  298.750   13.764    0.271    0.376   76.887
  299.000   18.237    0.286    0.365   75.058
  299.250   16.932    0.243    0.356   72.010
  299.500   16.013    0.174    0.342   68.962
  299.750   14.054    0.213    0.366   74.451
  300.000   12.106    0.246    0.399   82.988
  300.250   11.450    0.263    0.426   87.867
  300.500   10.631    0.271    0.417   87.868
  300.750   10.837    0.293    0.406   87.869
  301.000   11.255    0.291    0.401   90.309
  301.250   11.911    0.274    0.392   91.529
  301.500   12.372    0.274    0.388   89.700
  301.750   12.612    0.299    0.407   89.091
  302.000   12.621    0.303    0.429   89.092
  302.250   12.625    0.285    0.442   87.263
  302.500   12.636    0.293    0.450   89.703
  302.750   12.406    0.259    0.445   94.582
  303.000   12.183    0.253    0.461   97.632
  303.250   12.187    0.255    0.465   97.632
  303.500   12.197    0.263    0.455   97.633
  303.750   12.434    0.283    0.460   98.244
  304.000   12.439    0.295    0.467   98.854
  304.250   12.444    0.289    0.456   96.416
  304.500   12.218    0.284    0.454   92.148
  304.750   11.998    0.276    0.462   87.271
  305.000   11.784    0.258    0.459   80.564
  305.250   11.787    0.255    0.455   73.858
  305.500   11.796    0.274    0.468   69.590
  305.750   11.801    0.244    0.472   64.713
  306.000   11.806    0.255    0.477   64.714
  306.250   11.811    0.280    0.466   64.105
  306.500   11.601    0.306    0.446   62.886
  306.750   11.605    0.311    0.429   60.448
  307.000   11.396    0.304    0.415   64.107
  307.250   10.779    0.283    0.417   68.986
  307.500   10.007    0.295    0.424   73.865
  307.750    8.783    0.282    0.424   76.305
  308.000    8.306    0.266    0.428   80.574
  308.250    7.567    0.252    0.439   89.111
  308.500    6.894    0.220    0.448   98.258
  308.750    5.940    0.199    0.458  102.527
  309.000    5.723    0.183    0.478  105.577
  309.250    5.119    0.166    0.514  106.797
  309.500    4.841    0.182    0.539  109.847
  309.750    4.579    0.189    0.541  110.457
  310.000    4.251    0.154    0.523  111.677
  310.250    4.097    0.169    0.511  113.507
  310.500    3.948    0.165    0.522  115.338
  310.750    3.877    0.194    0.536  116.558
  311.000    3.808    0.211    0.552  116.559
  311.250    3.809    0.219    0.557  116.559
  311.500    3.741    0.205    0.539  115.950
  311.750    3.673    0.192    0.531  114.122
  312.000    3.540    0.171    0.528  113.513
  312.250    3.411    0.186    0.519  115.953
  312.500    3.543    0.214    0.522  117.783
  312.750    3.893    0.228    0.531  117.783
  313.000    4.786    0.241    0.531  115.345
  313.250    5.994    0.232    0.516  111.078
  313.500    7.097    0.241    0.485  108.029
  313.750    8.563    0.222    0.463  106.811
  314.000    9.063    0.233    0.438  108.641
  314.250    8.901    0.206    0.449  109.861
  314.500    8.738    0.199    0.454  108.642
  314.750    8.112    0.205    0.462  106.814
  315.000    7.255    0.221    0.471  106.205
  315.250    6.735    0.234    0.477  107.425
  315.500    6.490    0.249    0.484  109.865
  315.750    6.254    0.230    0.495  112.305
  316.000    8.134    0.210    0.503  113.525
  316.250    9.631    0.200    0.509  110.477
  316.500   10.985    0.223    0.475  104.990
  316.750   11.410    0.248    0.457  100.112
  317.000   11.205    0.266    0.440   97.674
  317.250   11.002    0.292    0.438   96.456
  317.500   10.409    0.290    0.439   97.676
  317.750   10.031    0.272    0.439  100.725
  318.000    9.666    0.260    0.436  102.555
  318.250    9.493    0.253    0.440  103.166
  318.500    9.321    0.250    0.441  105.606
  318.750    9.324    0.245    0.443  106.216
  319.000    9.507    0.238    0.446  107.436
  319.250    9.511    0.258    0.449  109.876
  319.500    9.166    0.253    0.447  112.316
  319.750    8.834    0.245    0.439  111.707
  320.000    8.513    0.249    0.438  105.610
  320.250    8.679    0.262    0.450  101.343
  320.500    9.717    0.248    0.461   98.295
  320.750   10.876    0.216    0.468   92.198
  321.000   11.728    0.242    0.475   86.711
  321.250   12.412    0.260    0.440   81.224
  321.500   12.189    0.264    0.423   76.346
  321.750   11.748    0.270    0.415   68.420
  322.000   11.110    0.285    0.428   72.080
  322.250   10.314    0.313    0.449   75.129
  322.500    9.941    0.317    0.461   73.301
  322.750   10.324    0.303    0.466   72.691
  323.000   10.723    0.288    0.472   74.522
  323.250   11.562    0.276    0.477   76.962
