~VERSION INFORMATION
 VERS.                 2.0:   CWLS LOG ASCII STANDARD -VERSION 2.0
 WRAP.                  NO:   ONE LINE PER DEPTH STEP
~WELL INFORMATION BLOCK
#MNEM.UNIT           DATA                    DESCRIPTION OF MNEMONIC
#---------    -------------------            -------------------------------
# Generated from Intellog Unique Number	CS_77_79/WELL/1005
WELL.         HUDSONS BAY OIL AND GAS        : Well_name    - WELL
LOC .         00/11-32-077-11W4/0            : Location     - LOCATION
UWI .         00/11-32-077-11W4/0            : Uwi          - UNIQUE WELL ID
ENTR.         SP                             : Entered      - ENTERED BY
SRVC.         SCHLUMBERGER                   : Scn          - SERVICE COMPANY
STRT.M        274.32                         : top_depth    - START DEPTH
STOP.M        505.82                         : bot_depth    - STOP DEPTH
STEP.M        0.25                           : increment    - STEP LENGTH
 NULL. -999.2500:NULL Value
~CURVE INFORMATION BLOCK
#MNEM UNIT       ERCB CURVE CODE    CURVE DESCRIPTION
#-----------   ------------------   ----------------------------------
DEPT.M        00 001 00 00         : DEPTH        - DEPTH
GR  .API      00 310 00 00         : GR           - GAMMA RAY
DPHI.V/V      00 890 00 00         : PHID         - DENSITY POROSITY (SANDSTONE)
NPHI.V/V      00 330 00 00         : PHIN         - NEUTRON POROSITY (SANDSTONE)
ILD .OHMM     00 120 00 00         : RESD         - DEEP RESISTIVITY (DIL)
~PARAMETER INFORMATION
#MNEM.UNIT           DATA             DESCRIPTION OF MNEMONIC
#---------         -----------     ------------------------------
GL  .M        689.549              : gl           - GROUND LEVEL ELEVATION
EREF.M        10                   : kb           - ELEVATION OF DEPTH REFERENCE
DATM.M        689.549              : datum        - DATUM ELEVATION
TDD .M        504.139              : tdd          - TOTAL DEPTH DRILLER
RUN .         ONE                  : Run          - RUN NUMBER
ENG .         BILL                 : Engineer     - RECORDING ENGINEER
WIT .         JIM                  : Witness      - WITNESSED BY
MUD .         GEL                  : Mud_type     - MUD TYPE
MATR.         SANDSTONE            : Logunit      - NEUTRON MATRIX
TMAX.C        21.1111              : BHT          - MAXIMUM RECORDED TEMPERATURE
BHTD.M        504.139              : BHTDEP       - MAXIMUM RECORDED TEMPERATURE
MATR.         1                    : LOGUNIT      - NEUTRON MATRIX
RMT .C        25                   : MDTP         - TEMPERATURE OF MUD
NEUT.         1                    : NEUTRON      - NEUTRON TYPE
RESI.         0                    : RESIST       - RESISTIVITY TYPE
RMC .OHMM     0.25                 : RMC          - RESISTIVITY OF MUD CAKE
RMF .OHMM     0.25                 : RMF          - RESISTIVITY OF MUD FILTRATE
SUFT.C        15                   : SUFT         - SURFACE TEMPERATURE
~A  DEPTH       GR     PHID     PHIN     RESD
# ...
  404.820   62.675    0.333    0.423   13.143
  405.070   61.769    0.332    0.413   12.981
  405.320   57.485    0.316    0.407   11.833
  405.570   54.655    0.269    0.390   10.069
  405.820   51.759    0.238    0.335    8.667
  406.070   48.282    0.183    0.125    7.882
  406.320   47.138   -0.003    0.131    7.201
  406.570   46.153    0.010    0.168    6.886
  406.820   46.856    0.012    0.248    6.734
  407.070   53.326    0.061    0.312    6.613
  407.320   58.498    0.200    0.365    6.634
  407.570   61.296    0.285    0.430    6.489
  407.820   61.582    0.314    0.435    6.506
  408.070   61.570    0.328    0.434    6.582
  408.320   61.534    0.342    0.448    6.628
  408.570   62.142    0.355    0.453    6.636
  408.820   61.239    0.356    0.453    6.692
  409.070   60.328    0.361    0.444    6.908
  409.320   60.321    0.358    0.434    7.683
  409.570   61.239    0.340    0.426    9.073
  409.820   62.213    0.338    0.435   10.990
  410.070   64.698    0.336    0.430   12.715
  410.320   65.692    0.340    0.424   13.112
  410.570   62.738    0.330    0.433   11.521
  410.820   58.457    0.298    0.435    9.275
  411.070   56.433    0.210    0.341    7.529
  411.320   53.860    0.028    0.186    6.577
  411.570   54.116    0.038    0.153    6.249
  411.820   54.754    0.075    0.154    6.084
  412.070   57.504    0.105    0.220    6.091
  412.320   60.367    0.171    0.259    5.996
  412.570   64.644    0.240    0.438    5.895
  412.820   63.492    0.343    0.449    5.986
  413.070   64.382    0.343    0.452    6.118
  413.320   66.354    0.345    0.454    6.108
  413.570   68.032    0.358    0.442    6.111
  413.820   67.246    0.359    0.435    6.112
  414.070   66.873    0.353    0.447    6.119
  414.320   67.617    0.350    0.455    6.000
  414.570   64.718    0.348    0.459    6.009
  414.820   62.499    0.363    0.462    6.021
  415.070   64.363    0.354    0.468    5.895
  415.320   63.021    0.346    0.458    5.896
  415.570   61.211    0.349    0.451    5.803
  415.820   58.152    0.358    0.471    5.808
  416.070   59.786    0.355    0.476    5.811
  416.320   63.338    0.347    0.457    5.897
  416.570   64.822    0.348    0.443    5.921
  416.820   66.246    0.342    0.426    5.928
  417.070   64.030    0.341    0.436    5.929
  417.320   62.644    0.344    0.447    5.926
  417.570   62.612    0.348    0.440    6.040
  417.820   63.549    0.350    0.439    6.045
  418.070   65.389    0.349    0.439    6.052
  418.320   67.889    0.344    0.438    6.045
  418.570   68.760    0.326    0.454    6.179
  418.820   67.282    0.312    0.461    6.171
  419.070   66.440    0.324    0.474    6.173
  419.320   63.589    0.339    0.453    6.177
  419.570   61.339    0.347    0.446    6.179
  419.820   59.707    0.337    0.468    6.182
  420.070   59.718    0.323    0.482    6.187
  420.320   61.361    0.342    0.469    6.186
  420.570   63.770    0.355    0.464    6.315
  420.820   65.237    0.346    0.468    6.309
  421.070   66.752    0.343    0.455    6.310
  421.320   66.559    0.335    0.441    6.313
  421.570   64.845    0.346    0.436    6.316
  421.820   65.994    0.364    0.439    6.316
  422.070   65.976    0.348    0.442    6.270
  422.320   64.300    0.349    0.438    6.212
  422.570   64.692    0.345    0.448    6.225
  422.820   65.921    0.340    0.453    6.101
  423.070   63.730    0.330    0.457    5.995
  423.320   61.246    0.339    0.454    5.939
  423.570   60.884    0.345    0.443    5.784
  423.820   62.461    0.339    0.435    5.692
  424.070   64.372    0.337    0.430    5.515
  424.320   67.118    0.331    0.426    5.468
  424.570   68.215    0.321    0.447    5.385
  424.820   73.507    0.324    0.470    5.390
  425.070   71.856    0.325    0.475    5.394
  425.320   69.800    0.329    0.461    5.386
  425.570   68.890    0.333    0.458    5.509
  425.820   67.216    0.342    0.453    5.501
  426.070   65.706    0.349    0.449    5.503
  426.320   65.311    0.347    0.448    5.505
  426.570   68.474    0.347    0.457    5.508
  426.820   71.260    0.348    0.461    5.524
  427.070   70.910    0.355    0.473    5.428
  427.320   72.064    0.343    0.472    5.513
  427.570   72.359    0.339    0.464    5.622
  427.820   74.387    0.331    0.454    5.748
  428.070   77.831    0.320    0.458    5.922
  428.320   80.970    0.310    0.453    6.062
  428.570   81.033    0.287    0.441    6.056
  428.820   79.665    0.268    0.431    6.072
  429.070   75.835    0.290    0.447    5.948
  429.320   73.236    0.300    0.460    5.845
  429.570   72.184    0.286    0.448    5.739
  429.820   73.168    0.261    0.425    5.739
  430.070   75.068    0.231    0.423    5.853
  430.320   73.174    0.254    0.463    5.925
  430.570   70.511    0.306    0.474    5.989
  430.820   68.539    0.310    0.466    6.077
  431.070   68.703    0.323    0.460    6.199
  431.320   69.668    0.331    0.439    6.331
  431.570   69.202    0.323    0.441    6.126
  431.820   67.268    0.300    0.449    6.053
  432.070   66.021    0.299    0.450    5.988
  432.320   67.069    0.294    0.448    5.976
  432.570   66.856    0.320    0.465    6.107
  432.820   68.981    0.346    0.478    6.216
  433.070   72.155    0.341    0.455    6.409
  433.320   69.061    0.333    0.436    6.612
  433.570   68.366    0.319    0.451    6.700
  433.820   69.534    0.313    0.460    6.712
  434.070   68.430    0.299    0.462    6.556
  434.320   70.553    0.261    0.474    6.377
  434.570   73.163    0.251    0.470    6.059
  434.820   75.783    0.268    0.452    5.891
  435.070   79.143    0.269    0.445    5.818
  435.320   82.935    0.275    0.442    5.556
  435.570   85.840    0.270    0.445    5.813
  435.820   87.899    0.262    0.444    5.861
  436.070   90.273    0.256    0.476    6.180
  436.320   91.131    0.264    0.486    6.483
  436.570   90.872    0.262    0.491    6.683
  436.820   89.112    0.254    0.476    6.895
  437.070   88.767    0.241    0.454    7.003
  437.320   88.127    0.229    0.450    6.854
  437.570   87.454    0.235    0.453    6.856
  437.820   88.428    0.224    0.440    6.746
  438.070   91.551    0.211    0.439    6.752
  438.320   94.783    0.230    0.428    6.758
  438.570   96.568    0.229    0.424    6.773
  438.820   98.323    0.219    0.422    6.630
  439.070   95.907    0.209    0.417    6.523
  439.320   96.058    0.201    0.412    6.091
  439.570   94.529    0.207    0.413    5.940
  439.820   92.418    0.216    0.430    5.561
  440.070   91.694    0.209    0.440    5.327
  440.320   91.780    0.210    0.434    5.079
  440.570   92.359    0.224    0.434    4.571
  440.820   90.126    0.223    0.433    3.995
  441.070   88.578    0.206    0.433    3.403
  441.320   86.484    0.200    0.440    2.882
  441.570   85.192    0.231    0.441    2.553
  441.820   83.829    0.229    0.462    2.266
  442.070   81.704    0.239    0.472    2.167
  442.320   81.267    0.288    0.488    2.057
  442.570   81.430    0.310    0.520    2.039
  442.820   80.565    0.303    0.564    2.064
  443.070   81.702    0.300    0.532    2.081
  443.320   82.543    0.300    0.534    2.190
  443.570   84.518    0.297    0.544    2.281
  443.820   85.651    0.292    0.551    2.373
  444.070   86.046    0.287    0.558    2.610
  444.320   87.803    0.280    0.557    2.818
  444.570   88.022    0.279    0.540    2.974
  444.820   87.732    0.269    0.531    3.494
  445.070   85.310    0.255    0.516    4.027
  445.320   87.433    0.242    0.493    4.583
  445.570   89.592    0.236    0.455    5.175
  445.820   88.311    0.216    0.457    5.672
  446.070   84.568    0.195    0.457    5.923
  446.320   82.801    0.170    0.450    5.786
  446.570   82.584    0.152    0.430    5.270
  446.820   85.817    0.174    0.408    4.581
  447.070   90.072    0.232    0.411    4.186
  447.320   93.525    0.241    0.428    3.667
  447.570   94.556    0.233    0.438    3.500
  447.820   94.875    0.244    0.445    3.607
  448.070   92.747    0.244    0.456    3.915
