~VERSION INFORMATION
 VERS.                 2.0:   CWLS LOG ASCII STANDARD -VERSION 2.0
 WRAP.                  NO:   ONE LINE PER DEPTH STEP
~WELL INFORMATION BLOCK
#MNEM.UNIT           DATA                    DESCRIPTION OF MNEMONIC
#---------    -------------------            -------------------------------
# Generated from Intellog Unique Number	CW_76_78/WELL/1031
WELL.         CHIEFCO PR ETAL PELICAN 11-34  : Well_name    - WELL
LOC .         00/11-34-077-22W4/0            : Location     - LOCATION
UWI .         00/11-34-077-22W4/0            : Uwi          - UNIQUE WELL ID
ENTR.         jj                             : Entered      - ENTERED BY
SRVC.         SCHLUMBERGER                   : Scn          - SERVICE COMPANY
DATE.         3 MAR 73                       : Date         - LOG DATE
STRT.M        277.368                        : top_depth    - START DEPTH
STOP.M        530.368                        : bot_depth    - STOP DEPTH
STEP.M        0.25                           : increment    - STEP LENGTH
 NULL. -999.2500:NULL Value
~CURVE INFORMATION BLOCK
#MNEM UNIT       ERCB CURVE CODE    CURVE DESCRIPTION
#-----------   ------------------   ----------------------------------
DEPT.M        00 001 00 00         : DEPTH        - DEPTH
DPHI.V/V      00 890 00 00         : PHID         - DENSITY POROSITY (SANDSTONE)
NPHI.V/V      00 330 00 00         : PHIN         - NEUTRON POROSITY (SANDSTONE)
GR  .API      00 310 00 00         : GR           - GAMMA RAY
CALI.MM       00 280 01 00         : CAL          - CALIPER
ILD .OHMM     00 120 00 00         : RESD         - DEEP RESISTIVITY (DIL)
~PARAMETER INFORMATION
#MNEM.UNIT           DATA             DESCRIPTION OF MNEMONIC
#---------         -----------     ------------------------------
GL  .M        606.095              : gl           - GROUND LEVEL ELEVATION
EREF.M        608.381              : kb           - ELEVATION OF DEPTH REFERENCE
DATM.M        606.095              : datum        - DATUM ELEVATION
TDD .M        534.01               : tdd          - TOTAL DEPTH DRILLER
RUN .         ONE                  : Run          - RUN NUMBER
MUD .         GEL CHEM             : Mud_type     - MUD TYPE
MATR.         SANDSTONE            : Logunit      - NEUTRON MATRIX
TMAX.C        24.4444              : BHT          - MAXIMUM RECORDED TEMPERATURE
BHTD.M        534.01               : BHTDEP       - MAXIMUM RECORDED TEMPERATURE
RMT .C        17.2222              : MDTP         - TEMPERATURE OF MUD
MUDD.KG/M     1080                 : MWT          - MUD DENSITY
NEUT.         1                    : NEUTRON      - NEUTRON TYPE
RESI.         0                    : RESIST       - RESISTIVITY TYPE
RM  .OHMM     3.07                 : RM           - RESISTIVITY OF MUD
RMC .OHMM     0                    : RMC          - RESISTIVITY OF MUD CAKE
RMF .OHMM     2.17                 : RMF          - RESISTIVITY OF MUD FILTRATE
SUFT.C        4.5                  : SUFT         - SURFACE TEMPERATURE
~A  DEPTH     PHID     PHIN       GR      CAL     RESD
# ...
  350.368    0.289    0.526   46.781  150.682    9.331
  350.618    0.293    0.520   46.859  150.489    9.429
  350.868    0.314    0.508   47.254  150.305    9.510
  351.118    0.319    0.517   49.045  150.332    9.611
  351.368    0.320    0.516   50.706  150.353    9.730
  351.618    0.319    0.498   50.213  150.278    9.814
  351.868    0.317    0.475   46.874  150.196    9.916
  352.118    0.319    0.477   45.180  149.792   10.002
  352.368    0.317    0.484   44.625  149.495   10.089
  352.618    0.315    0.494   45.400  148.771   10.157
  352.868    0.321    0.500   47.505  147.617   10.245
  353.118    0.317    0.516   48.596  147.216   10.277
  353.368    0.299    0.506   50.196  147.350   10.271
  353.618    0.291    0.490   52.238  148.557   10.132
  353.868    0.309    0.485   54.532  149.869    9.977
  354.118    0.306    0.503   57.081  150.861    9.735
  354.368    0.306    0.509   60.831  151.742    9.342
  354.618    0.299    0.510   65.215  152.842    8.980
  354.868    0.258    0.520   71.815  153.618    8.893
  355.118    0.237    0.570   75.883  153.643    8.920
  355.368    0.269    0.546   71.847  152.493    9.510
  355.618    0.277    0.511   59.009  151.981   10.996
  355.868    0.241    0.365   52.632  151.797   13.095
  356.118    0.199    0.382   52.646  151.821   12.777
  356.368    0.160    0.448   56.270  151.847   11.861
  356.618    0.221    0.516   62.617  151.764   10.768
  356.868    0.248    0.513   67.698  151.365    9.633
  357.118    0.249    0.509   72.272  151.176    8.810
  357.368    0.236    0.535   75.706  150.988    8.331
  357.618    0.228    0.559   77.179  150.906    8.098
  357.868    0.238    0.552   74.914  150.933    8.260
  358.118    0.227    0.526   73.348  151.386    9.086
  358.368    0.222    0.515   71.273  151.844   11.125
  358.618    0.234    0.501   68.250  152.086   13.471
  358.868    0.223    0.451   66.239  152.110   17.433
  359.118    0.202    0.383   62.585  152.463   21.985
  359.368    0.160    0.274   56.140  153.239   27.573
  359.618    0.066    0.217   52.485  154.012   33.205
  359.868    0.034    0.197   51.043  154.364   31.454
  360.118    0.020    0.209   51.186  154.493   27.369
  360.368    0.126    0.310   54.747  154.090   21.437
  360.618    0.231    0.492   60.842  153.154   16.853
  360.868    0.276    0.488   65.098  152.320   13.347
  361.118    0.262    0.484   67.521  151.918   11.657
  361.368    0.258    0.484   67.916  151.516   10.505
  361.618    0.256    0.509   67.235  151.117    9.878
  361.868    0.238    0.517   72.251  150.925    9.444
  362.118    0.235    0.504   73.345  150.844    9.113
  362.368    0.237    0.486   73.549  151.086    8.924
  362.618    0.248    0.468   76.350  151.006    9.034
  362.868    0.226    0.452   77.062  151.139    9.147
  363.118    0.198    0.436   74.358  151.058    9.158
  363.368    0.172    0.406   72.725  150.978    8.869
  363.618    0.158    0.418   72.551  150.897    8.495
  363.868    0.154    0.498   79.278  151.028    8.122
  364.118    0.209    0.477   80.939  151.164    7.823
  364.368    0.189    0.460   79.879  150.981    7.633
  364.618    0.220    0.484   79.451  150.787    7.543
  364.868    0.232    0.490   82.064  149.956    7.525
  365.118    0.212    0.492   81.952  148.695    7.534
  365.368    0.216    0.495   79.815  148.730    7.516
  365.618    0.219    0.480   80.590  149.073    7.498
  365.868    0.224    0.474   81.871  149.847    7.424
  366.118    0.191    0.538   82.457  150.944    7.243
  366.368    0.184    0.539   82.221  151.830    6.912
  366.618    0.189    0.522   81.793  153.254    6.694
  366.868    0.181    0.501   80.540  154.461    6.641
  367.118    0.171    0.515   78.214  155.553    6.662
  367.368    0.200    0.519   76.837  155.367    6.744
  367.618    0.233    0.511   76.981  154.212    6.678
  367.868    0.217    0.501   77.755  154.671    6.468
  368.118    0.207    0.502   80.049  156.410    6.206
  368.368    0.196    0.521   81.585  157.721    6.022
  368.618    0.203    0.515   82.675  157.539    5.843
  368.868    0.213    0.509   84.338  157.351    5.721
  369.118    0.224    0.505   85.430  156.407    5.603
  369.368    0.214    0.500   87.218  156.435    5.456
  369.618    0.204    0.490   86.727  157.108    5.363
  369.868    0.190    0.480   85.350  157.343    5.311
  370.118    0.190    0.505   83.339  156.512    5.308
  370.368    0.212    0.581   82.531  155.252    5.305
  370.618    0.222    0.559   80.204  153.890    5.302
  370.868    0.229    0.543   75.851  152.948    5.338
  371.118    0.226    0.526   77.070  151.905    5.424
  371.368    0.216    0.515   79.366  151.177    5.868
  371.618    0.200    0.534   79.887  153.028    6.420
  371.868    0.192    0.525   77.624  154.663    6.959
  372.118    0.249    0.515   73.523  153.399    7.405
  372.368    0.280    0.505   67.081  152.036    7.721
  372.618    0.281    0.485   63.740  150.774    7.977
  372.868    0.268    0.492   62.997  149.834    8.091
  373.118    0.263    0.533   63.584  149.003    8.161
  373.368    0.263    0.535   62.269  149.028    8.185
  373.618    0.267    0.522   61.587  149.055    8.272
  373.868    0.269    0.510   61.730  148.438    8.282
  374.118    0.268    0.508   62.124  147.502    8.292
  374.368    0.284    0.539   62.141  147.849    8.241
  374.618    0.277    0.544   58.738  148.839    8.175
  374.868    0.284    0.510   58.246  149.939    8.110
  375.118    0.274    0.493   58.325  150.394    8.045
  375.368    0.256    0.474   58.467  150.741    7.996
  375.618    0.249    0.471   58.419  150.555    7.903
  375.868    0.275    0.480   59.512  150.473    7.825
  376.118    0.268    0.486   60.794  150.176    7.778
  376.368    0.274    0.501   62.392  149.779    7.701
  376.618    0.271    0.515   63.800  149.802    7.584
  376.868    0.267    0.519   63.120  149.721    7.454
  377.118    0.272    0.506   61.615  150.179    7.300
  377.368    0.268    0.503   62.455  150.418    7.109
  377.618    0.255    0.519   64.622  150.229    6.898
  377.868    0.238    0.501   67.234  149.718    6.619
  378.118    0.231    0.475   67.187  148.888    6.410
  378.368    0.230    0.471   64.669  149.562    6.278
  378.618    0.235    0.493   63.356  150.011    6.171
  378.868    0.219    0.528   65.207  150.788    6.110
  379.118    0.269    0.503   68.959  151.567    6.084
  379.368    0.262    0.490   72.709  152.021    6.114
  379.618    0.232    0.495   76.017  152.369    6.615
  379.868    0.219    0.473   76.920  152.719    7.749
  380.118    0.214    0.444   74.275  153.173    9.628
  380.368    0.176    0.402   67.896  153.842    9.516
  380.618    0.096    0.331   57.085  154.407    9.234
  380.868    0.072    0.283   56.846  154.432    8.540
  381.118    0.053    0.468   58.951  154.030    7.500
  381.368    0.072    0.518   61.438  153.733    6.301
  381.618    0.238    0.518   64.872  153.331    5.226
  381.868    0.249    0.514   68.369  153.037    4.833
  382.118    0.252    0.509   71.740  153.171    4.681
  382.368    0.246    0.517   74.668  153.088    4.626
  382.618    0.235    0.510   73.103  153.114    4.658
  382.868    0.225    0.493   72.420  153.039    4.776
  383.118    0.228    0.490   73.196  152.848    4.917
  383.368    0.233    0.494   74.795  152.766    5.033
  383.618    0.224    0.500   76.202  151.829    5.199
  383.868    0.216    0.524   78.372  151.320    5.294
  384.118    0.228    0.518   79.020  151.665    5.428
  384.368    0.223    0.510   77.262  152.657    5.506
  384.618    0.209    0.501   77.531  152.363    5.605
  384.868    0.214    0.495   79.383  151.853    5.696
  385.118    0.216    0.497   81.741  151.881    5.798
  385.368    0.200    0.526   82.075  152.224    5.870
  385.618    0.195    0.521   81.455  152.790    5.921
  385.868    0.206    0.521   81.852  153.459    5.972
  386.118    0.206    0.525   82.437  153.913    6.001
  386.368    0.204    0.501   83.591  154.046    6.053
  386.618    0.203    0.476   84.305  153.648    6.094
