~VERSION INFORMATION
 VERS.                 2.0:   CWLS LOG ASCII STANDARD -VERSION 2.0
 WRAP.                  NO:   ONE LINE PER DEPTH STEP
~WELL INFORMATION BLOCK
#MNEM.UNIT           DATA                    DESCRIPTION OF MNEMONIC
#---------    -------------------            -------------------------------
# Generated from Intellog Unique Number	CS_73_76/WELL/2184
WELL.         BOW VALLEY EXPLORATION         : Well_name    - WELL
LOC .         00/10-06-074-15W4/0            : Location     - LOCATION
UWI .         00/10-06-074-15W4/0            : Uwi          - UNIQUE WELL ID
ENTR.         SP                             : Entered      - ENTERED BY
SRVC.         SCHLUMBERGER                   : Scn          - SERVICE COMPANY
STRT.M        286.512                        : top_depth    - START DEPTH
STOP.M        493.512                        : bot_depth    - STOP DEPTH
STEP.M        0.25                           : increment    - STEP LENGTH
 NULL. -999.2500:NULL Value
~CURVE INFORMATION BLOCK
#MNEM UNIT       ERCB CURVE CODE    CURVE DESCRIPTION
#-----------   ------------------   ----------------------------------
DEPT.M        00 001 00 00         : DEPTH        - DEPTH
GR  .API      00 310 00 00         : GR           - GAMMA RAY
DPHI.V/V      00 890 00 00         : PHID         - DENSITY POROSITY (SANDSTONE)
NPHI.V/V      00 330 00 00         : PHIN         - NEUTRON POROSITY (SANDSTONE)
ILD .OHMM     00 120 00 00         : RESD         - DEEP RESISTIVITY (DIL)
~PARAMETER INFORMATION
#MNEM.UNIT           DATA             DESCRIPTION OF MNEMONIC
#---------         -----------     ------------------------------
GL  .M        10                   : gl           - GROUND LEVEL ELEVATION
EREF.M        637.337              : kb           - ELEVATION OF DEPTH REFERENCE
DATM.M        10                   : datum        - DATUM ELEVATION
TDD .M        484.327              : tdd          - TOTAL DEPTH DRILLER
RUN .         ONE                  : Run          - RUN NUMBER
ENG .         BILL                 : Engineer     - RECORDING ENGINEER
WIT .         JIM                  : Witness      - WITNESSED BY
MUD .         GEL                  : Mud_type     - MUD TYPE
MATR.         SANDSTONE            : Logunit      - NEUTRON MATRIX
TMAX.C        22.2222              : BHT          - MAXIMUM RECORDED TEMPERATURE
BHTD.M        469.087              : BHTDEP       - MAXIMUM RECORDED TEMPERATURE
MATR.         1                    : LOGUNIT      - NEUTRON MATRIX
RMT .C        25                   : MDTP         - TEMPERATURE OF MUD
NEUT.         1                    : NEUTRON      - NEUTRON TYPE
RESI.         0                    : RESIST       - RESISTIVITY TYPE
RMC .OHMM     0.25                 : RMC          - RESISTIVITY OF MUD CAKE
RMF .OHMM     0.25                 : RMF          - RESISTIVITY OF MUD FILTRATE
SUFT.C        15                   : SUFT         - SURFACE TEMPERATURE
~A  DEPTH       GR     PHID     PHIN     RESD
  286.512   95.619    0.228    0.558    3.240
  286.762   96.657    0.240    0.541    3.240
  287.012   99.326    0.225    0.522    3.237
  287.262  103.128    0.221    0.533    3.293
  287.512  104.630    0.199    0.552    3.362
  287.762  103.120    0.193    0.568    3.349
  288.012  101.627    0.205    0.550    3.300
  288.262  100.431    0.233    0.559    3.207
  288.512   99.922    0.243    0.574    3.112
  288.762   99.421    0.244    0.579    3.061
  289.012   99.249    0.245    0.560    3.058
  289.262   96.882    0.245    0.547    3.122
  289.512   93.637    0.244    0.555    3.254
  289.762   90.877    0.241    0.557    3.461
  290.012   88.052    0.208    0.532    3.611
  290.262   85.503    0.119    0.492    3.465
  290.512   83.982    0.171    0.500    3.342
  290.762   88.399    0.259    0.547    3.238
  291.012   87.267    0.306    0.629    3.253
  291.262   82.326    0.304    0.574    3.521
  291.512   79.553    0.185    0.469    4.539
  291.762   75.020    0.215    0.440    5.516
  292.012   70.462    0.252    0.434    7.716
  292.262   70.430    0.261    0.428    7.543
  292.512   75.205    0.241    0.442    7.264
  292.762   80.375    0.235    0.455    6.611
  293.012   79.294    0.228    0.473    6.534
  293.262   76.357    0.239    0.484    6.482
  293.512   75.621    0.230    0.499    6.713
  293.762   76.025    0.182    0.500    7.219
  294.012   77.541    0.201    0.457    7.531
  294.262   82.698    0.224    0.446    7.904
  294.512   83.482    0.241    0.444    8.226
  294.762   82.600    0.231    0.443    8.545
  295.012   79.436    0.241    0.438    8.653
  295.262   78.375    0.253    0.442    8.872
  295.512   78.060    0.253    0.447    8.859
  295.762   77.150    0.270    0.453    8.875
  296.012   78.923    0.289    0.443    8.678
  296.262   81.064    0.301    0.432    8.694
  296.512   84.591    0.296    0.443    8.676
  296.762   88.118    0.282    0.454    8.871
  297.012   90.494    0.286    0.461    8.844
  297.262   94.498    0.279    0.459    9.121
  297.512   96.846    0.272    0.460    9.180
  297.762   97.804    0.261    0.447    9.166
  298.012   98.575    0.243    0.464    9.366
  298.262   98.515    0.243    0.469    9.347
  298.512   97.517    0.238    0.434    9.363
  298.762   96.551    0.244    0.440    9.156
  299.012   94.950    0.257    0.436    9.173
  299.262   91.155    0.265    0.429    9.154
  299.512   88.429    0.279    0.423    9.359
  299.762   82.765    0.271    0.397    9.339
  300.012   75.319    0.266    0.380    9.351
  300.262   67.813    0.275    0.394    9.116
  300.512   63.126    0.288    0.398    9.018
  300.762   61.653    0.271    0.394    8.640
  301.012   69.604    0.250    0.405    8.671
  301.262   75.216    0.239    0.423    8.672
  301.512   73.802    0.235    0.428    8.682
  301.762   71.125    0.247    0.393    8.502
  302.012   66.483    0.251    0.380    8.132
  302.262   69.810    0.239    0.396    7.792
  302.512   77.203    0.185    0.410    7.083
  302.762   81.425    0.229    0.425    6.817
  303.012   87.165    0.283    0.456    6.269
  303.262   86.515    0.375    0.483    5.905
  303.512   83.923    0.445    0.587    5.672
  303.762   86.302    0.476    0.637    5.473
  304.012   91.056    0.486    0.587    5.307
  304.262   97.524    0.443    0.565    5.141
  304.512  100.060    0.443    0.579    4.876
  304.762   97.403    0.489    0.600    4.661
  305.012   96.130    0.462    0.627    4.426
  305.262   94.100    0.439    0.626    4.304
  305.512   97.337    0.411    0.624    4.305
  305.762   96.882    0.474    0.626    4.304
  306.012   95.932    0.496    0.606    4.303
  306.262   95.561    0.458    0.570    4.315
  306.512   95.244    0.369    0.539    4.106
  306.762   97.495    0.320    0.546    3.934
  307.012   99.269    0.363    0.583    3.643
  307.262  104.833    0.300    0.594    3.376
  307.512  112.311    0.321    0.588    3.280
  307.762  116.178    0.344    0.595    3.244
  308.012  115.030    0.330    0.588    3.465
  308.262  113.431    0.328    0.561    4.071
  308.512  113.098    0.293    0.507    5.116
  308.762  110.400    0.220    0.472    6.431
  309.012  108.513    0.224    0.454    7.808
  309.262  105.779    0.238    0.478    8.375
  309.512  105.038    0.262    0.511    8.483
  309.762  105.391    0.303    0.499    8.223
  310.012  104.671    0.310    0.528    7.926
  310.262  101.178    0.356    0.541    7.222
  310.512   98.670    0.398    0.552    6.617
  310.762   98.483    0.389    0.522    6.051
  311.012   97.553    0.366    0.534    5.782
  311.262   94.588    0.334    0.550    5.626
  311.512   91.303    0.324    0.560    5.990
  311.762   88.498    0.351    0.546    6.644
  312.012   94.346    0.309    0.514    7.545
  312.262  101.452    0.292    0.480    8.430
  312.512  101.284    0.257    0.445    9.197
  312.762   96.616    0.225    0.436    9.869
  313.012   90.220    0.239    0.449   10.312
  313.262   83.201    0.257    0.456   10.576
  313.512   79.393    0.261    0.447   10.344
  313.762   84.757    0.250    0.446   10.206
  314.012   89.227    0.265    0.446    9.854
  314.262   95.305    0.274    0.444    9.078
  314.512  100.438    0.290    0.460    8.587
  314.762  101.532    0.315    0.472    7.990
  315.012  101.112    0.323    0.472    7.569
  315.262  105.539    0.330    0.487    7.752
  315.512  114.354    0.346    0.508    8.085
  315.762  119.478    0.302    0.498    8.163
  316.012  120.383    0.250    0.481    8.000
  316.262  117.454    0.263    0.468    7.827
  316.512  113.168    0.283    0.473    7.977
  316.762  102.988    0.290    0.506    8.050
  317.012   93.355    0.306    0.495    8.319
  317.262   85.534    0.313    0.457    8.841
  317.512   77.363    0.277    0.426    9.333
  317.762   75.058    0.280    0.424    9.602
  318.012   81.290    0.270    0.420    9.576
  318.262   87.176    0.242    0.418    9.803
  318.512   92.238    0.231    0.416    9.597
  318.762   95.645    0.218    0.409    9.616
  319.012   94.883    0.225    0.415    9.407
  319.262   93.006    0.218    0.411    9.263
  319.512   92.933    0.217    0.405    8.849
  319.762   98.213    0.195    0.415    7.857
  320.012  100.389    0.197    0.436    6.871
  320.262  104.913    0.205    0.466    5.826
  320.512  108.758    0.212    0.498    5.303
  320.762  109.836    0.278    0.526    4.963
  321.012  101.969    0.304    0.513    5.384
  321.262   96.001    0.268    0.489    5.947
  321.512   93.370    0.262    0.475    6.851
  321.762   92.290    0.261    0.457    7.506
  322.012   91.331    0.272    0.447    7.691
  322.262   91.354    0.271    0.435    7.185
  322.512   96.576    0.279    0.460    6.594
  322.762   99.953    0.268    0.494    6.219
  323.012  101.584    0.283    0.482    5.778
  323.262  100.788    0.314    0.490    6.205
  323.512  100.715    0.313    0.507    6.784
  323.762  101.505    0.325    0.491    7.337
  324.012  102.142    0.316    0.461    7.537
  324.262  102.514    0.299    0.464    7.526
  324.512  103.555    0.294    0.472    7.487
  324.762  103.972    0.292    0.467    7.394
  325.012  100.204    0.278    0.499    7.158
  325.262   97.609    0.309    0.513    7.098
  325.512   95.108    0.354    0.519    6.991
  325.762   94.073    0.231    0.504    6.992
  326.012   94.822    0.167    0.498    6.992
  326.262   97.490    0.174    0.496    6.993
  326.512   96.808    0.202    0.485    7.027
  326.762  100.664    0.194    0.475    7.406
  327.012  102.778    0.199    0.471    7.596
  327.262   99.144    0.218    0.468    8.225
  327.512   92.628    0.251    0.458    8.715
  327.762   84.383    0.258    0.447    9.389
  328.012   80.335    0.265    0.451    9.762
  328.262   79.051    0.272    0.453   10.085
  328.512   78.303    0.264    0.443    9.880
  328.762   80.041    0.265    0.437    9.896
  329.012   82.450    0.272    0.439    9.900
  329.262   85.123    0.246    0.448    9.978
  329.512   81.511    0.231    0.458   10.313
  329.762   73.675    0.238    0.453   10.811
