~VERSION INFORMATION
 VERS.                 2.0:   CWLS LOG ASCII STANDARD -VERSION 2.0
 WRAP.                  NO:   ONE LINE PER DEPTH STEP
~WELL INFORMATION BLOCK
#MNEM.UNIT           DATA                    DESCRIPTION OF MNEMONIC
#---------    -------------------            -------------------------------
# Generated from Intellog Unique Number	CW_70_72/WELL/1048
NULL.         -999.25                        : NULL_VALUE
WELL.         SUNDANCE ET AL SMITH 10-33     : Well_name    - WELL              
LOC .         10-33-072-25W4                 : Location     - LOCATION          
UWI .         00/10-33-072-25W4/0            : Uwi          - UNIQUE WELL ID    
ENTR.         JAYE                           : Entered      - ENTERED BY        
SRVC.         SCHLUMBERGER                   : Scn          - SERVICE COMPANY   
DATE.         14 JAN 77                      : Date         - LOG DATE          
STRT.M        441.96                         : top_depth    - START DEPTH       
STOP.M        656.71                         : bot_depth    - STOP DEPTH        
STEP.M        0.25                           : increment    - STEP LENGTH       
~CURVE INFORMATION BLOCK
#MNEM UNIT       ERCB CURVE CODE    CURVE DESCRIPTION
#-----------   ------------------   ----------------------------------
DEPT.M        00 001 00 00         : DEPTH        - DEPTH                       
DPHI.V/V      00 890 00 00         : PHID         - DENSITY POROSITY (SANDSTONE)
NPHI.V/V      00 330 00 00         : PHIN         - NEUTRON POROSITY (SANDSTONE)
GR  .API      00 310 00 00         : GR           - GAMMA RAY                   
CALI.MM       00 280 01 00         : CAL          - CALIPER                     
ILD .OHMM     00 120 00 00         : RESD         - DEEP RESISTIVITY (DIL)      
~PARAMETER INFORMATION       
#MNEM.UNIT           DATA             DESCRIPTION OF MNEMONIC
#---------         -----------     ------------------------------
GL  .M        664.159              : gl           - GROUND LEVEL ELEVATION      
EREF.M        667.817              : kb           - ELEVATION OF DEPTH REFERENCE
DATM.M        664.159              : datum        - DATUM ELEVATION             
TDD .M        670.56               : tdd          - TOTAL DEPTH DRILLER         
RUN .         ONE                  : Run          - RUN NUMBER                  
MATR.         SANDSTONE            : Logunit      - NEUTRON MATRIX              
TMAX.C        -17.7778             : BHT          - MAXIMUM RECORDED TEMPERATURE
BHTD.M        671.17               : BHTDEP       - MAXIMUM RECORDED TEMPERATURE
RMT .C        17.7778              : MDTP         - TEMPERATURE OF MUD          
MUDD.KG/M     0                    : MWT          - MUD DENSITY                 
NEUT.         1                    : NEUTRON      - NEUTRON TYPE                
RESI.         0                    : RESIST       - RESISTIVITY TYPE            
RM  .OHMM     4.02                 : RM           - RESISTIVITY OF MUD          
RMC .OHMM     0                    : RMC          - RESISTIVITY OF MUD CAKE     
RMF .OHMM     3.71                 : RMF          - RESISTIVITY OF MUD FILTRATE 
SUFT.C        -17.7778             : SUFT         - SURFACE TEMPERATURE         
~A  DEPTH     PHID     PHIN       GR      CAL     RESD
# ...
  514.960    0.325    0.461   48.230  152.583    4.218
  515.210    0.336    0.450   48.909  152.494    4.202
  515.460    0.331    0.442   47.642  152.100    4.202
  515.710    0.319    0.435   48.991  151.809    4.201
  515.960    0.309    0.429   50.397  151.416    4.209
  516.210    0.310    0.451   51.988  151.429    4.216
  516.460    0.311    0.451   53.578  151.451    4.239
  516.710    0.318    0.443   55.959  151.464    4.278
  516.960    0.328    0.434   58.520  151.481    4.325
  517.210    0.327    0.421   56.950  151.498    4.356
  517.460    0.320    0.414   56.354  152.028    4.388
  517.710    0.310    0.448   56.666  152.559    4.387
  517.960    0.318    0.441   56.555  152.784    4.411
  518.210    0.314    0.433   56.443  153.003    4.435
  518.460    0.299    0.429   56.028  153.228    4.467
  518.710    0.293    0.430   56.097  153.451    4.492
  518.960    0.301    0.437   57.505  153.363    4.592
  519.210    0.295    0.440   61.465  153.280    4.720
  519.460    0.296    0.436   59.591  153.191    4.825
  519.710    0.303    0.427   58.811  153.208    4.969
  519.960    0.293    0.431   60.828  152.813    5.137
  520.210    0.285    0.430   62.236  151.389    5.290
  520.460    0.301    0.416   62.609  148.628    5.348
  520.710    0.301    0.425   62.863  145.145    5.338
  520.960    0.300    0.435   63.115  143.721    5.327
  521.210    0.305    0.443   63.064  145.283    5.376
  521.460    0.298    0.440   62.892  147.770    5.465
  521.710    0.295    0.444   60.410  150.256    5.587
  521.960    0.293    0.441   59.629  151.505    5.743
  522.210    0.295    0.434   58.364  151.832    5.893
  522.460    0.293    0.430   57.159  151.848    6.047
  522.710    0.287    0.430   59.234  151.865    6.215
  522.960    0.287    0.460   62.527  151.675    6.272
  523.210    0.278    0.458   65.818  151.903    6.214
  523.460    0.283    0.451   69.656  151.917    6.088
  523.710    0.301    0.440   73.375  152.242    5.910
  523.960    0.302    0.433   75.815  152.570    5.812
  524.210    0.295    0.427   72.543  152.790    5.855
  524.460    0.301    0.473   73.587  153.117    6.119
  524.710    0.291    0.471   76.027  153.130    6.407
  524.960    0.274    0.462   77.982  153.250    6.822
  525.210    0.234    0.451   69.300  153.679    7.357
  525.460    0.194    0.431   62.381  154.623    8.068
  525.710    0.162    0.327   54.794  155.669    8.962
  525.960    0.136    0.272   55.535  158.465    9.212
  526.210    0.114    0.246   57.549  160.847    8.796
  526.460    0.123    0.259   60.233  158.498    8.108
  526.710    0.146    0.298   63.284  155.839    7.231
  526.960    0.261    0.379   65.723  152.769    6.520
  527.210    0.259    0.426   68.409  151.448    5.922
  527.460    0.304    0.429   70.180  151.258    5.520
  527.710    0.308    0.416   72.620  151.274    5.389
  527.960    0.292    0.415   77.128  151.496    5.418
  528.210    0.304    0.440   83.945  151.823    5.559
  528.460    0.298    0.434   89.364  151.941    5.620
  528.710    0.279    0.426   85.302  151.856    5.558
  528.960    0.265    0.419   79.295  151.360    5.446
  529.210    0.285    0.425   74.139  151.068    5.267
  529.460    0.293    0.450   69.955  151.289    5.075
  529.710    0.294    0.443   67.777  151.719    4.945
  529.960    0.285    0.429   71.737  152.351    4.810
  530.210    0.268    0.430   75.333  152.883    4.660
  530.460    0.276    0.447   76.923  151.870    4.524
  530.710    0.293    0.468   75.596  148.594    4.384
  530.960    0.293    0.483   76.700  147.273    4.303
  531.210    0.285    0.508   81.147  147.701    4.271
  531.460    0.265    0.506   79.395  149.055    4.481
  531.710    0.271    0.479   74.055  151.337    4.922
  531.960    0.294    0.453   71.210  152.175    5.468
  532.210    0.294    0.442   72.677  152.503    5.832
  532.460    0.287    0.435   75.362  152.623    6.722
  532.710    0.291    0.428   75.007  152.847    7.522
  532.960    0.293    0.427   71.552  152.861    8.767
  533.210    0.282    0.415   66.335  152.980    9.993
  533.460    0.270    0.401   66.529  153.100   11.392
  533.710    0.258    0.367   66.537  153.117   13.082
  533.960    0.244    0.299   66.365  153.750   14.213
  534.210    0.159    0.269   64.430  156.547   15.132
  534.460    0.129    0.256   62.009  159.445   15.728
  534.710    0.096    0.251   64.389  159.773   15.353
  534.960    0.138    0.285   68.047  158.860   13.691
  535.210    0.191    0.343   71.276  156.408   10.709
  535.460    0.230    0.382   72.077  153.132    8.564
  535.710    0.278    0.428   69.716  151.296    6.540
  535.960    0.289    0.435   66.688  150.696    5.974
  536.210    0.309    0.427   66.456  150.713    6.232
  536.460    0.302    0.431   66.707  151.349    6.598
  536.710    0.277    0.434   67.750  151.568    7.077
  536.960    0.293    0.416   67.820  152.099    7.562
  537.210    0.278    0.413   66.737  152.529    7.759
  537.460    0.299    0.429   66.321  152.136    7.354
  537.710    0.307    0.442   66.757  151.947    6.767
  537.960    0.308    0.454   67.617  151.860    6.261
  538.210    0.306    0.446   67.931  152.596    6.666
  538.460    0.296    0.430   67.941  152.614    7.216
  538.710    0.296    0.413   68.195  151.393    7.783
  538.960    0.304    0.403   67.657  151.718    7.555
  539.210    0.311    0.422   67.241  144.840    6.978
  539.460    0.327    0.442   67.008  146.197    6.613
  539.710    0.341    0.438   67.504  147.756    6.491
  539.960    0.328    0.422   69.217  147.979    6.539
  540.210    0.295    0.431   71.536  148.716    6.771
  540.460    0.273    0.421   74.827  149.349    7.012
  540.710    0.240    0.437   77.876  149.678    7.275
  540.960    0.226    0.470   77.278  150.207    7.646
  541.210    0.252    0.450   73.337  150.531    8.110
  541.460    0.256    0.409   69.032  144.476    9.026
  541.710    0.260    0.370   64.727  147.581   10.695
  541.960    0.248    0.290   62.063  151.405   13.150
  542.210    0.218    0.259   62.134  155.024   12.303
  542.460    0.150    0.272   64.392  155.761   10.971
  542.710    0.200    0.335   67.866  146.723    9.874
  542.960    0.239    0.362   72.799  146.534    8.088
  543.210    0.281    0.440   75.848  148.095    6.699
  543.460    0.289    0.446   77.621  149.654    6.408
  543.710    0.292    0.436   80.244  152.040    6.096
  543.960    0.288    0.417   83.474  153.393    5.951
  544.210    0.265    0.423   86.645  154.542    5.983
  544.460    0.239    0.454   92.855  154.557    6.184
  544.710    0.208    0.454   90.493  150.560    6.428
  544.960    0.229    0.426   90.930  151.194    6.511
  545.210    0.243    0.426   92.701  153.273    6.510
  545.460    0.214    0.443   95.690  154.011    6.485
  545.710    0.237    0.445   98.678  154.229    6.473
  545.960    0.229    0.446  101.484  154.349    6.472
  546.210    0.200    0.462  102.040  154.984    6.459
  546.460    0.209    0.447   97.066  155.206    6.434
  546.710    0.234    0.433  100.845  155.327    6.433
  546.960    0.226    0.444  100.733  155.242    6.409
  547.210    0.228    0.454  100.986  155.364    6.338
  547.460    0.251    0.454  102.697  155.481    6.290
  547.710    0.240    0.464  105.017  156.937    6.255
  547.960    0.213    0.472  106.304  159.630    6.254
  548.210    0.200    0.481  106.618  161.088    6.346
  548.460    0.188    0.456  105.898  161.927    6.440
  548.710    0.197    0.435  102.261  162.152    6.571
  548.960    0.186    0.438  105.188  162.475    6.668
  549.210    0.178    0.430  106.657  162.597    6.717
  549.460    0.172    0.426  103.567  162.716    6.766
  549.710    0.184    0.420  101.267  162.732    6.765
  549.960    0.204    0.415  101.884  162.850    6.653
  550.210    0.190    0.413  104.873  162.973    6.470
  550.460    0.193    0.424  107.800  162.681    6.200
  550.710    0.207    0.446  109.755  162.594    5.997
  550.960    0.219    0.458  111.102  162.304    5.768
  551.210    0.230    0.470  108.560  162.112    5.590
