~VERSION INFORMATION
 VERS.                 2.0:   CWLS LOG ASCII STANDARD -VERSION 2.0
 WRAP.                  NO:   ONE LINE PER DEPTH STEP
~WELL INFORMATION BLOCK
#MNEM.UNIT           DATA                    DESCRIPTION OF MNEMONIC
#---------    -------------------            -------------------------------
# Generated from Intellog Unique Number	CW_82_90/WELL/993
WELL.         11-09-082-19W4                 : Well_name    - WELL
LOC .         00/11-09-082-19W4/0            : Location     - LOCATION
UWI .         00/11-09-082-19W400            : Uwi          - UNIQUE WELL ID
ENTR.         JAYE                           : Entered      - ENTERED BY
SRVC.         SCHLUMBERGER                   : Scn          - SERVICE COMPANY
DATE.         8 MAR 74                       : Date         - LOG DATE
STRT.M        173.736                        : top_depth    - START DEPTH
STOP.M        365.736                        : bot_depth    - STOP DEPTH
STEP.M        0.25                           : increment    - STEP LENGTH
 NULL. -999.2500:NULL Value
~CURVE INFORMATION BLOCK
#MNEM UNIT       ERCB CURVE CODE    CURVE DESCRIPTION
#-----------   ------------------   ----------------------------------
DEPT.M        00 001 00 00         : DEPTH        - DEPTH
CALI.MM       00 280 01 00         : CAL          - CALIPER
GR  .API      00 310 00 00         : GR           - GAMMA RAY
NPHI.V/V      00 330 00 00         : PHIN         - NEUTRON POROSITY (SANDSTONE)
DPHI.V/V      00 890 00 00         : PHID         - DENSITY POROSITY (SANDSTONE)
ILD .OHMM     00 120 00 00         : RESD         - DEEP RESISTIVITY (DIL)
~PARAMETER INFORMATION
#MNEM.UNIT           DATA             DESCRIPTION OF MNEMONIC
#---------         -----------     ------------------------------
GL  .M        584.911              : gl           - GROUND LEVEL ELEVATION
EREF.M        588.264              : kb           - ELEVATION OF DEPTH REFERENCE
DATM.M        584.911              : datum        - DATUM ELEVATION
TDD .M        387.096              : tdd          - TOTAL DEPTH DRILLER
RUN .         ONE                  : Run          - RUN NUMBER
ENG .         BOYKO                : Engineer     - RECORDING ENGINEER
BASE.         EDMONTON             : Branch       - HOME BASE OF LOGGING UNIT
MATR.         SANDSTONE            : Logunit      - NEUTRON MATRIX
TMAX.C        30                   : BHT          - MAXIMUM RECORDED TEMPERATURE
BHTD.M        387.096              : BHTDEP       - MAXIMUM RECORDED TEMPERATURE
RMT .C        21.1111              : MDTP         - TEMPERATURE OF MUD
MUDD.KG/M     9000                 : MWT          - MUD DENSITY
NEUT.         0                    : NEUTRON      - NEUTRON TYPE
RESI.         0                    : RESIST       - RESISTIVITY TYPE
RM  .OHMM     2.07                 : RM           - RESISTIVITY OF MUD
RMC .OHMM     0                    : RMC          - RESISTIVITY OF MUD CAKE
RMF .OHMM     1.65                 : RMF          - RESISTIVITY OF MUD FILTRATE
SUFT.C        4                    : SUFT         - SURFACE TEMPERATURE
~A  DEPTH      CAL       GR     PHIN     PHID     RESD
  173.736  188.996  101.226    0.753    0.268    2.870
  173.986  188.566  100.912    0.751    0.271    2.873
  174.236  185.856   99.127    0.707    0.272    2.876
  174.486  184.701   99.610    0.710    0.269    3.024
  174.736  183.753  100.459    0.702    0.262    2.989
  174.986  183.843  102.964    0.666    0.259    2.949
  175.236  184.655  103.506    0.645    0.253    3.011
  175.486  185.365  100.252    0.642    0.247    3.042
  175.736  184.625   97.241    0.655    0.244    3.074
  175.986  183.364   95.457    0.649    0.239    3.094
  176.236  182.523   94.285    0.590    0.235    3.166
  176.486  180.953   93.419    0.577    0.234    3.439
  176.736  179.070   88.202    0.568    0.239    3.898
  176.986  181.234   81.761    0.551    0.236    4.794
  177.236  178.729   73.849    0.533    0.213    7.472
  177.486  175.296   63.240    0.463    0.206   12.663
  177.736  170.511   52.694    0.475    0.222   14.506
  177.986  167.801   51.951    0.451    0.318   15.421
  178.236  169.238   54.332    0.468    0.310   15.186
  178.486  170.050   54.631    0.503    0.309   14.420
  178.736  171.273   55.970    0.498    0.301   13.494
  178.986  171.576   55.657    0.510    0.301   12.789
  179.236  171.871   55.466    0.532    0.306   12.527
  179.486  172.376   52.884    0.507    0.321   12.609
  179.736  173.812   48.281    0.453    0.326   12.599
  179.986  175.249   47.844    0.457    0.339   12.987
  180.236  176.165   48.020    0.531    0.354   13.457
  180.486  176.982   46.907    0.563    0.372   13.423
  180.736  171.576   45.797    0.506    0.310   13.196
  180.986  168.031   45.790    0.507    0.310   11.232
  181.236  167.191   46.086    0.524    0.314    8.825
  181.486  166.241   46.326    0.535    0.328    8.564
  181.736  166.120   49.072    0.533    0.337   10.065
  181.986  166.315   48.639    0.494    0.342   11.762
  182.236  165.987   46.854    0.503    0.342   12.993
  182.486  165.559   47.398    0.503    0.333   13.965
  182.736  165.130   47.398    0.527    0.326   15.508
  182.986  165.529   48.974    0.547    0.321   16.789
  183.236  166.136   49.948    0.546    0.309   17.274
  183.486  166.746   50.553    0.529    0.324   16.703
  183.736  167.143   51.587    0.511    0.341   14.142
  183.986  167.026   54.703    0.518    0.346   11.377
  184.236  167.323   57.453    0.513    0.346    9.019
  184.486  168.032   60.197    0.488    0.361    8.288
  184.736  168.847   59.460    0.483    0.336    6.360
  184.986  170.075   64.046    0.583    0.314    5.060
  185.236  170.994   68.145    0.593    0.299    4.331
  185.486  171.498   77.328    0.661    0.285    3.305
  185.736  171.171   83.754    0.667    0.289    3.456
  185.986  169.911   82.277    0.626    0.298    5.213
  186.236  168.030   76.568    0.573    0.288    6.748
  186.486  165.631   73.254    0.485    0.280   10.233
  186.736  163.850   67.118    0.476    0.262   14.428
  186.986  163.525   58.098    0.435    0.270   18.337
  187.236  163.616   56.441    0.449    0.288   17.764
  187.486  163.600   52.021    0.443    0.290   17.304
  187.736  163.587   49.930    0.452    0.283   20.823
  187.986  163.258   51.577    0.470    0.272   21.974
  188.236  163.140   48.260    0.453    0.251   21.406
  188.486  163.438   45.250    0.412    0.268   20.776
  188.736  164.771   45.303    0.407    0.283   20.091
  188.986  167.346   46.276    0.425    0.299   19.602
  189.236  169.509   47.493    0.434    0.303   19.878
  189.486  171.258   49.261    0.445    0.296   19.862
  189.736  171.140   50.480    0.453    0.301   19.630
  189.986  168.947   50.480    0.445    0.326   18.845
  190.236  171.420   54.447    0.426    0.316   17.635
  190.486  168.501   57.500    0.421    0.310   16.178
  190.736  167.865   59.334    0.438    0.316   12.825
  190.986  170.132   62.512    0.443    0.301   10.022
  191.236  170.738   68.325    0.445    0.274    8.977
  191.486  171.656   74.444    0.449    0.249    9.320
  191.736  172.986   72.598    0.468    0.258   12.533
  191.986  173.698   63.031    0.475    0.283   13.920
  192.236  173.788   58.120    0.456    0.290   14.987
  192.486  173.671   56.153    0.475    0.303   15.032
  192.736  173.861   55.717    0.465    0.304   14.535
  192.986  174.364   56.996    0.438    0.306   13.674
  193.236  174.970   56.996    0.436    0.305   12.986
  193.486  176.513   61.758    0.436    0.294   12.265
  193.736  177.533   63.588    0.454    0.284   11.602
  193.986  176.587   66.463    0.466    0.265   10.662
  194.236  175.638   69.886    0.454    0.245    9.327
  194.486  174.689   72.635    0.460    0.253    8.571
  194.736  174.362   72.013    0.540    0.265   10.145
  194.986  174.037   72.129    0.541    0.275   11.434
  195.236  173.815   73.837    0.483    0.272   11.869
  195.486  173.593   75.606    0.468    0.253   11.479
  195.736  173.785   77.620    0.495    0.245    7.867
  195.986  175.016   81.045    0.483    0.258    6.433
  196.236  178.940   88.266    0.457    0.264    5.587
  196.486  183.798   90.282    0.505    0.250    4.535
  196.736  185.960   92.418    0.552    0.224    4.228
  196.986  184.595   97.864    0.570    0.226    5.813
  197.236  184.063  101.962    0.499    0.234    6.610
  197.486  184.982  100.238    0.469    0.226    7.131
  197.736  187.039   98.453    0.453    0.216    7.510
  197.986  188.890   96.791    0.451    0.213    7.534
  198.236  191.468   98.682    0.451    0.221    7.834
  198.486  192.905  102.719    0.467    0.214    7.930
  198.736  193.304  101.302    0.464    0.216    7.924
  198.986  195.571   98.231    0.461    0.221    8.152
  199.236  195.761   94.914    0.465    0.211    8.341
  199.486  194.399   93.742    0.438    0.217    8.442
  199.736  193.658   93.118    0.424    0.225    8.451
  199.986  192.816   91.642    0.420    0.220    8.293
  200.236  191.761   92.308    0.411    0.220    7.415
  200.486  191.538   94.017    0.425    0.189    6.964
  200.736  191.319   97.866    0.450    0.190    7.178
  200.986  190.993   95.531    0.445    0.179    6.753
  201.236  191.183   92.767    0.425    0.189    6.835
  201.486  191.688   92.883    0.422    0.194    6.830
  201.736  192.502   91.037    0.430    0.195    6.825
  201.986  193.420   90.845    0.445    0.197    6.697
  202.236  194.130   93.471    0.456    0.192    6.499
  202.486  194.325   97.385    0.481    0.177    6.071
  202.736  192.234  100.502    0.470    0.171    5.712
  202.986  190.458  105.458    0.527    0.161    5.240
  203.236  189.510  109.188    0.553    0.149    4.850
  203.486  189.700  110.406    0.576    0.140    4.424
  203.736  189.688  111.010    0.601    0.138    4.247
  203.986  190.188  112.227    0.629    0.133    3.996
  204.236  188.723  114.855    0.656    0.171    3.699
  204.486  186.636  115.644    0.690    0.180    3.248
  204.736  185.480  113.737    0.709    0.197    3.140
  204.986  182.871  114.587    0.713    0.222    3.110
  205.236  182.754  113.903    0.665    0.247    3.153
  205.486  186.679  110.710    0.603    0.247    3.495
  205.736  190.292  105.801    0.484    0.237    4.299
  205.986  192.558  104.567    0.454    0.231    5.802
  206.236  193.786   99.596    0.462    0.224    6.271
  206.486  193.462   96.157    0.471    0.222    6.243
  206.736  191.684  100.805    0.476    0.213    6.058
  206.986  190.217  100.615    0.498    0.213    5.880
  207.236  189.373  103.303    0.523    0.210    5.656
  207.486  188.423  106.358    0.550    0.214    5.340
  207.736  187.995  104.942    0.567    0.229    5.308
  207.986  187.774  101.380    0.497    0.242    5.431
  208.236  187.653   92.488    0.467    0.272    5.869
  208.486  188.158   80.102    0.450    0.303    6.566
  208.736  188.867   72.190    0.464    0.329    8.255
  208.986  189.061   67.157    0.489    0.320   13.663
  209.236  189.564   64.760    0.508    0.316   16.500
  209.486  190.064   62.974    0.482    0.313   17.605
  209.736  190.362   61.803    0.479    0.315   18.047
  209.986  189.935   62.898    0.472    0.309   18.065
