~VERSION INFORMATION
 VERS.                 2.0:   CWLS LOG ASCII STANDARD -VERSION 2.0
 WRAP.                  NO:   ONE LINE PER DEPTH STEP
~WELL INFORMATION BLOCK
#MNEM.UNIT           DATA                    DESCRIPTION OF MNEMONIC
#---------    -------------------            -------------------------------
# Generated from Intellog Unique Number	CS_67_68/WELL/2217
WELL.         15-01-067-06W4                 : Well_name    - WELL
LOC .         00/15-01-067-06W4/0            : Location     - LOCATION
UWI .         00/15-01-067-06W4/0            : Uwi          - UNIQUE WELL ID
ENTR.         SP                             : Entered      - ENTERED BY
SRVC.         SCHLUMBERGER                   : Scn          - SERVICE COMPANY
STRT.M        315                            : top_depth    - START DEPTH
STOP.M        535                            : bot_depth    - STOP DEPTH
STEP.M        0.25                           : increment    - STEP LENGTH
 NULL. -999.2500:NULL Value
~CURVE INFORMATION BLOCK
#MNEM UNIT       ERCB CURVE CODE    CURVE DESCRIPTION
#-----------   ------------------   ----------------------------------
DEPT.M        00 001 00 00         : DEPTH        - DEPTH
ILD .OHMM     00 120 00 00         : RESD         - DEEP RESISTIVITY (DIL)
DPHI.V/V      00 890 00 00         : PHID         - DENSITY POROSITY (LIMESTONE)
NPHI.V/V      00 330 00 00         : PHIN         - NEUTRON POROSITY (LIMESTONE)
GR  .API      00 310 00 00         : GR           - GAMMA RAY
CALI.MM       00 280 01 00         : CAL          - CALIPER
~PARAMETER INFORMATION
#MNEM.UNIT           DATA             DESCRIPTION OF MNEMONIC
#---------         -----------     ------------------------------
GL  .M        647.05               : gl           - GROUND LEVEL ELEVATION
EREF.M        650.03               : kb           - ELEVATION OF DEPTH REFERENCE
DATM.M        650.03               : datum        - DATUM ELEVATION
TDD .M        542                  : tdd          - TOTAL DEPTH DRILLER
RUN .         ONE                  : Run          - RUN NUMBER
ENG .         BILL                 : Engineer     - RECORDING ENGINEER
WIT .         JIM                  : Witness      - WITNESSED BY
MUD .         GEL                  : Mud_type     - MUD TYPE
MATR.         LIMESTONE            : Logunit      - NEUTRON MATRIX
TMAX.C        18.8                 : BHT          - MAXIMUM RECORDED TEMPERATURE
BHTD.M        544                  : BHTDEP       - MAXIMUM RECORDED TEMPERATURE
MATR.         1                    : LOGUNIT      - NEUTRON MATRIX
RMT .C        25                   : MDTP         - TEMPERATURE OF MUD
NEUT.         1                    : NEUTRON      - NEUTRON TYPE
RESI.         0                    : RESIST       - RESISTIVITY TYPE
RMC .OHMM     0.25                 : RMC          - RESISTIVITY OF MUD CAKE
RMF .OHMM     0.25                 : RMF          - RESISTIVITY OF MUD FILTRATE
SUFT.C        15                   : SUFT         - SURFACE TEMPERATURE
~A  DEPTH     RESD     PHID     PHIN       GR      CAL
# ...
  461.000    9.954    0.346    0.472   63.514  154.833
  461.250   10.276    0.348    0.477   61.865  153.506
  461.500   10.430    0.349    0.483   60.400  153.193
  461.750   10.390    0.347    0.491   59.360  152.780
  462.000   10.100    0.342    0.465   59.721  152.874
  462.250    9.600    0.339    0.447   61.239  153.171
  462.500    9.124    0.338    0.454   61.965  152.960
  462.750    8.656    0.338    0.469   62.205  152.751
  463.000    8.227    0.343    0.477   62.078  152.540
  463.250    7.864    0.346    0.468   61.526  153.345
  463.500    7.503    0.347    0.463   60.303  154.047
  463.750    7.091    0.352    0.462   59.324  155.055
  464.000    6.702    0.356    0.470   58.528  156.265
  464.250    6.394    0.356    0.465   57.610  157.273
  464.500    6.345    0.355    0.463   57.423  157.164
  464.750    6.514    0.350    0.478   58.271  154.721
  465.000    6.800    0.347    0.488   57.962  152.480
  465.250    7.153    0.346    0.483   57.775  151.458
  465.500    7.581    0.349    0.477   58.013  152.059
  465.750    7.870    0.352    0.473   58.496  152.864
  466.000    8.079    0.355    0.470   59.100  154.176
  466.250    8.109    0.360    0.477   58.609  155.183
  466.500    8.047    0.362    0.479   57.752  155.886
  466.750    7.912    0.355    0.480   57.382  155.980
  467.000    7.562    0.345    0.467   57.438  155.364
  467.250    7.748    0.337    0.458   59.503  154.341
  467.500    8.074    0.330    0.450   60.778  153.522
  467.750    8.335    0.334    0.463   62.357  152.499
  468.000    8.669    0.335    0.461   63.511  151.578
  468.250    9.034    0.334    0.456   64.602  151.672
  468.500    9.361    0.335    0.461   63.745  152.984
  468.750    9.573    0.340    0.476   61.913  154.398
  469.000    9.699    0.351    0.485   61.239  154.999
  469.250    9.919    0.346    0.484   60.931  154.484
  469.500   10.297    0.342    0.484   60.561  153.969
  469.750   10.872    0.340    0.492   60.190  153.860
  470.000   11.437    0.337    0.494   59.698  154.055
  470.250   11.828    0.337    0.480   59.390  154.455
  470.500   12.120    0.342    0.469   58.959  154.853
  470.750   12.164    0.351    0.464   58.711  155.251
  471.000   12.049    0.349    0.472   59.011  155.548
  471.250   11.625    0.348    0.480   59.555  155.946
  471.500   11.112    0.350    0.479   60.038  155.634
  471.750   10.562    0.351    0.475   59.789  155.222
  472.000   10.057    0.351    0.473   58.567  154.097
  472.250    9.470    0.350    0.468   57.100  153.784
  472.500    9.594    0.345    0.462   56.122  153.879
  472.750    9.848    0.336    0.474   56.422  154.378
  473.000   10.418    0.321    0.483   55.808  154.676
  473.250   11.166    0.170    0.341   51.419  154.669
  473.500   11.857    0.152    0.311   48.552  154.559
  473.750   11.811    0.262    0.292   51.714  154.349
  474.000   11.460    0.304    0.357   53.537  154.139
  474.250   10.913    0.326    0.407   54.081  153.725
  474.500   10.046    0.343    0.440   53.833  153.617
  474.750    9.822    0.347    0.456   53.340  153.305
  475.000    9.747    0.350    0.458   53.153  152.790
  475.250    8.923    0.337    0.449   53.088  152.681
  475.500    8.513    0.327    0.413   51.683  152.673
  475.750    8.183    0.324    0.371   51.252  153.274
  476.000    7.910    0.328    0.404   51.552  153.876
  476.250    7.618    0.332    0.426   52.400  154.477
  476.500    7.378    0.337    0.441   54.588  154.572
  476.750    7.132    0.342    0.444   57.019  154.665
  477.000    6.868    0.347    0.451   59.268  154.861
  477.250    6.577    0.341    0.456   61.578  155.056
  477.500    6.442    0.338    0.455   62.670  155.047
  477.750    6.298    0.338    0.447   61.752  155.040
  478.000    6.122    0.347    0.456   61.748  154.932
  478.250    6.030    0.356    0.470   63.022  154.723
  478.500    6.030    0.344    0.481   64.358  154.815
  478.750    6.109    0.336    0.485   65.693  155.315
  479.000    6.342    0.332    0.498   65.810  155.714
  479.250    6.634    0.339    0.499   65.501  156.215
  479.500    7.110    0.344    0.502   64.218  156.512
  479.750    7.606    0.265    0.508   61.716  156.402
  480.000    7.971    0.194    0.343   59.275  155.989
  480.250    8.464    0.294    0.314   59.088  155.475
  480.500    9.072    0.345    0.443   60.606  155.366
  480.750    9.525    0.355    0.457   60.236  154.748
  481.000    9.944    0.359    0.464   58.162  154.537
  481.250   10.150    0.357    0.472   56.878  154.531
  481.500    9.886    0.354    0.481   56.691  154.218
  481.750    9.610    0.353    0.464   57.113  154.109
  482.000    9.083    0.360    0.452   58.144  154.101
  482.250    8.362    0.366    0.456   59.601  154.196
  482.500    7.829    0.370    0.467   62.763  154.188
  482.750    7.372    0.356    0.462   65.316  153.877
  483.000    7.020    0.351    0.460   66.529  153.665
  483.250    6.722    0.350    0.465   67.012  153.455
  483.500    6.486    0.337    0.475   66.399  153.449
  483.750    6.165    0.329    0.481   65.237  153.745
  484.000    5.915    0.347    0.482   64.380  154.246
  484.250    5.664    0.343    0.474   65.533  155.151
  484.500    5.569    0.322    0.488   68.269  156.362
  484.750    5.716    0.307    0.501   69.970  157.573
  485.000    5.868    0.318    0.496   69.965  160.306
  485.250    6.103    0.327    0.487   68.864  161.719
  485.500    6.336    0.323    0.483   68.068  160.392
  485.750    6.407    0.326    0.475   66.297  157.543
  486.000    6.371    0.338    0.473   65.136  155.099
  486.250    6.394    0.346    0.479   63.792  153.061
  486.500    6.454    0.348    0.489   63.300  152.748
  486.750    6.514    0.340    0.505   63.905  152.945
  487.000    6.599    0.336    0.478   65.666  153.648
  487.250    6.724    0.328    0.471   66.819  154.046
  487.500    6.774    0.323    0.485   66.327  154.444
  487.750    6.760    0.321    0.491   66.140  154.742
  488.000    6.759    0.322    0.484   66.622  155.141
  488.250    6.683    0.323    0.465   66.253  155.336
  488.500    6.632    0.330    0.454   65.274  155.328
  488.750    6.545    0.335    0.469   66.121  155.118
  489.000    6.508    0.321    0.461   67.275  154.705
  489.250    6.794    0.306    0.474   67.027  154.291
  489.500    7.214    0.309    0.492   65.134  154.893
  489.750    7.732    0.326    0.515   63.729  156.306
  490.000    8.149    0.339    0.495   61.714  157.922
  490.250    8.491    0.346    0.480   60.614  159.337
  490.500    8.490    0.338    0.469   60.670  160.952
  490.750    8.379    0.330    0.469   63.467  161.961
  491.000    8.253    0.327    0.481   64.559  160.126
  491.250    8.314    0.331    0.491   63.763  158.595
  491.500    8.746    0.336    0.500   62.845  157.979
  491.750    9.079    0.341    0.494   61.440  158.173
  492.000    9.568    0.345    0.479   60.156  158.472
  492.250   10.046    0.327    0.461   58.629  158.871
  492.500   10.332    0.325    0.457   57.955  159.675
  492.750   10.586    0.336    0.446   57.097  160.276
  493.000   10.585    0.341    0.435   56.484  160.574
  493.250   10.465    0.342    0.426   57.941  160.769
  493.500    9.910    0.328    0.420   59.703  160.660
  493.750    9.106    0.317    0.428   61.464  160.246
  494.000    8.367    0.317    0.451   62.739  159.324
  494.250    7.864    0.323    0.460   63.831  158.911
  494.500    7.432    0.321    0.451   64.862  158.600
  494.750    7.211    0.316    0.458   64.674  158.896
  495.000    7.628    0.315    0.469   63.513  159.700
  495.250    8.284    0.323    0.480   62.107  160.303
  495.500    8.764    0.334    0.490   61.250  160.700
  495.750    9.680    0.346    0.478   60.515  160.897
  496.000   10.651    0.353    0.471   59.719  160.991
  496.250   11.459    0.347    0.487   58.375  161.187
  496.500   12.328    0.342    0.487   56.421  160.672
  496.750   13.515    0.341    0.477   54.589  159.548
  497.000   14.350    0.346    0.470   53.185  158.829
  497.250   13.820    0.332    0.462   51.292  158.416
