~VERSION INFORMATION
 VERS.                 2.0:   CWLS LOG ASCII STANDARD -VERSION 2.0
 WRAP.                  NO:   ONE LINE PER DEPTH STEP
~WELL INFORMATION BLOCK
#MNEM.UNIT           DATA                    DESCRIPTION OF MNEMONIC
#---------    -------------------            -------------------------------
# Generated from Intellog Unique Number	CW_82_90/WELL/3440
WELL.         TEXACO CORN LAKE               : Well_name    - WELL
LOC .         00/10-21-088-25W4/0            : Location     - LOCATION
UWI .         00/10-21-088-25W4/0            : Uwi          - UNIQUE WELL ID
ENTR.         MAX                            : Entered      - ENTERED BY
SRVC.         SCHLUMBERGER                   : Scn          - SERVICE COMPANY
STRT.M        260                            : top_depth    - START DEPTH
STOP.M        462                            : bot_depth    - STOP DEPTH
STEP.M        0.25                           : increment    - STEP LENGTH
 NULL. -999.2500:NULL Value
~CURVE INFORMATION BLOCK
#MNEM UNIT       ERCB CURVE CODE    CURVE DESCRIPTION
#-----------   ------------------   ----------------------------------
DEPT.M        00 001 00 00         : DEPTH        - DEPTH
ILD .OHMM     00 120 00 00         : RESD         - DEEP RESISTIVITY (DIL)
NPHI.V/V      00 330 00 00         : PHIN         - NEUTRON POROSITY (SANDSTONE)
DPHI.V/V      00 890 00 00         : PHID         - DENSITY POROSITY (SANDSTONE)
CALI.MM       00 280 01 00         : CAL          - CALIPER
GR  .API      00 310 00 00         : GR           - GAMMA RAY
~PARAMETER INFORMATION
#MNEM.UNIT           DATA             DESCRIPTION OF MNEMONIC
#---------         -----------     ------------------------------
GL  .M        659.7                : gl           - GROUND LEVEL ELEVATION
EREF.M        663                  : kb           - ELEVATION OF DEPTH REFERENCE
DATM.M        659.7                : datum        - DATUM ELEVATION
TDD .M        465.5                : tdd          - TOTAL DEPTH DRILLER
RUN .         ONE                  : Run          - RUN NUMBER
ENG .         BILL                 : Engineer     - RECORDING ENGINEER
WIT .         JIM                  : Witness      - WITNESSED BY
MUD .         GEL                  : Mud_type     - MUD TYPE
MATR.         SANDSTONE            : Logunit      - NEUTRON MATRIX
TMAX.C        33.4                 : BHT          - MAXIMUM RECORDED TEMPERATURE
BHTD.M        465.5                : BHTDEP       - MAXIMUM RECORDED TEMPERATURE
MATR.         1                    : LOGUNIT      - NEUTRON MATRIX
RMT .C        15.6                 : MDTP         - TEMPERATURE OF MUD
NEUT.         1                    : NEUTRON      - NEUTRON TYPE
RESI.         0                    : RESIST       - RESISTIVITY TYPE
RMC .OHMM     2.17                 : RMC          - RESISTIVITY OF MUD CAKE
RMF .OHMM     2.17                 : RMF          - RESISTIVITY OF MUD FILTRATE
SUFT.C        -5                   : SUFT         - SURFACE TEMPERATURE
~A  DEPTH     RESD     PHIN     PHID      CAL       GR
# ...
  296.500    8.227    0.435    0.261  221.581  109.418
  296.750    7.642    0.452    0.254  222.096  107.943
  297.000    6.652    0.467    0.255  222.113  104.086
  297.250    5.476    0.487    0.271  222.137  107.075
  297.500    4.508    0.490    0.262  222.157  110.360
  297.750    3.711    0.519    0.267  221.678  113.348
  298.000    3.231    0.562    0.278  221.699  114.249
  298.250    3.202    0.593    0.287  221.223  113.071
  298.500    3.581    0.598    0.285  218.763  113.084
  298.750    4.156    0.573    0.265  218.284  112.499
  299.000    5.100    0.562    0.272  216.323  110.727
  299.250    6.030    0.539    0.297  214.852  109.846
  299.500    7.064    0.490    0.325  214.874  111.942
  299.750    7.542    0.455    0.328  214.893  115.224
  300.000    7.545    0.451    0.306  215.902  122.376
  300.250    6.944    0.467    0.271  215.924  125.958
  300.500    6.819    0.458    0.279  216.439  122.699
  300.750    6.950    0.460    0.278  215.965  114.676
  301.000    7.351    0.495    0.271  215.488  109.332
  301.250    7.562    0.495    0.307  215.508  106.071
  301.500    7.636    0.482    0.314  215.527   99.539
  301.750    7.569    0.473    0.290  216.040  101.040
  302.000    7.502    0.468    0.273  218.043  104.321
  302.250    7.368    0.470    0.246  217.566  109.093
  302.500    7.371    0.486    0.194  216.098  111.784
  302.750    7.375    0.501    0.250  214.134  109.415
  303.000    7.378    0.502    0.296  211.677  106.450
  303.250    7.381    0.496    0.299  209.217  101.999
  303.500    7.453    0.486    0.292  211.219   97.251
  303.750    7.667    0.489    0.291  215.206   93.692
  304.000    7.742    0.490    0.298  215.726   90.135
  304.250    7.818    0.483    0.301  215.743   86.577
  304.500    7.894    0.484    0.295  215.762   83.911
  304.750    7.898    0.449    0.274  215.779   81.840
  305.000    7.756    0.412    0.259  215.305   80.959
  305.250    7.688    0.401    0.254  213.834   82.160
  305.500    7.620    0.426    0.309  209.391   84.851
  305.750    7.624    0.470    0.323  209.906   86.053
  306.000    7.557    0.481    0.324  212.407   86.658
  306.250    7.560    0.451    0.323  214.906   86.673
  306.500    7.923    0.455    0.321  216.909   87.278
  306.750    8.458    0.494    0.318  218.416   87.883
  307.000    8.946    0.510    0.312  218.440   88.194
  307.250    9.821    0.482    0.311  218.953   89.397
  307.500   10.983    0.475    0.317  218.970   88.217
  307.750   12.283    0.474    0.303  218.989   83.766
  308.000   14.125    0.402    0.255  219.011   78.721
  308.250   15.080    0.367    0.255  220.024   73.674
  308.500   15.086    0.331    0.256  222.521   68.631
  308.750   13.883    0.269    0.225  223.036   68.044
  309.000   11.752    0.220    0.226  222.564   71.329
  309.250    9.150    0.288    0.267  222.083   77.885
  309.500    7.534    0.346    0.320  220.615   82.062
  309.750    6.997    0.409    0.301  219.645   86.835
  310.000    7.826    0.452    0.290  219.166   91.607
  310.250    8.751    0.465    0.305  219.185   93.106
  310.500   10.541    0.474    0.288  219.205   86.573
  310.750   10.644    0.457    0.285  219.226   80.337
  311.000    9.265    0.420    0.258  219.742   72.613
  311.250    7.990    0.261    0.300  220.753   67.269
  311.500    7.218    0.287    0.258  221.270   70.851
  311.750    6.829    0.350    0.365  220.791   82.168
  312.000    6.896    0.432    0.354  219.822   85.750
  312.250    7.363    0.459    0.305  218.852   90.522
  312.500    7.574    0.475    0.280  218.873   94.108
  312.750    7.507    0.491    0.293  218.886   96.497
  313.000    7.511    0.498    0.295  218.409   97.401
  313.250    7.655    0.499    0.313  217.437   96.817
  313.500    7.311    0.510    0.312  215.969   95.938
  313.750    7.314    0.513    0.310  215.990   94.163
  314.000    7.881    0.485    0.303  215.516   88.523
  314.250    8.652    0.459    0.294  215.037   81.988
  314.500    8.341    0.457    0.281  215.057   84.083
  314.750    7.396    0.460    0.280  215.081   89.747
  315.000    5.705    0.473    0.304  216.090   95.709
  315.250    5.250    0.488    0.299  218.092  100.482
  315.500    3.491    0.491    0.264  221.580  104.956
  315.750    2.874    0.511    0.251  227.056  110.918
  316.000    2.621    0.548    0.237  230.544  112.419
  316.250    2.434    0.601    0.288  232.550  112.430
  316.500    2.325    0.621    0.295  236.538  112.440
  316.750    2.327    0.657    0.298  241.018  113.642
  317.000    2.305    0.693    0.301  246.492  111.869
  317.250    2.285    0.677    0.299  246.017  109.204
  317.500    2.351    0.668    0.296  246.533  108.325
  317.750    2.487    0.672    0.292  244.566  108.040
  318.000    2.679    0.648    0.308  247.563  107.458
  318.250    2.941    0.634    0.314  251.549  106.575
  318.500    3.414    0.622    0.300  246.608  104.206
  318.750    4.074    0.600    0.286  237.704  101.539
  319.000    4.953    0.572    0.265  236.730  101.848
  319.250    5.967    0.547    0.280  235.760  103.645
  319.500    6.370    0.528    0.300  231.812  103.061
  319.750    6.198    0.524    0.293  223.402   99.802
  320.000    5.598    0.534    0.294  220.449   98.326
  320.250    4.400    0.533    0.311  219.479   98.934
  320.500    3.589    0.550    0.320  219.994   99.240
  320.750    3.303    0.615    0.345  221.997   96.873
  321.000    3.243    0.642    0.403  225.978   94.803
  321.250    3.245    0.669    0.419  254.261   92.734
  321.500    3.099    0.676    0.419  262.712   91.553
  321.750    2.748    0.670    0.419  248.350   91.267
  322.000    2.724    0.659    0.401  230.025   92.172
  322.250    2.855    0.648    0.353  235.995   92.779
  322.500    3.163    0.644    0.340  250.892   93.683
  322.750    3.164    0.639    0.382  233.058   95.181
  323.000    3.107    0.596    0.346  244.980   98.465
  323.250    3.023    0.546    0.319  236.570  105.917
  323.500    3.053    0.539    0.310  229.645  109.795
  323.750    3.290    0.563    0.298  229.665  113.675
  324.000    3.611    0.579    0.290  237.124  111.010
  324.250    3.965    0.595    0.290  237.144  107.748
  324.500    4.312    0.579    0.287  241.130  108.357
  324.750    4.646    0.549    0.298  242.138  108.962
  325.000    5.148    0.524    0.282  224.803  109.270
  325.250    5.395    0.500    0.275  226.813  108.392
  325.500    5.397    0.487    0.273  224.844  102.451
  325.750    5.060    0.474    0.282  223.379  100.082
  326.000    4.404    0.489    0.267  224.387  101.880
  326.250    3.979    0.508    0.258  229.861  104.273
  326.500    3.835    0.512    0.271  240.789  107.259
  326.750    3.664    0.526    0.268  238.827  112.923
  327.000    3.664    0.553    0.246  237.857  118.886
  327.250    3.566    0.584    0.249  239.858  118.301
  327.500    3.534    0.601    0.232  237.398  116.827
  327.750    3.503    0.620    0.238  236.423  118.325
  328.000    3.505    0.626    0.246  239.916  120.716
  328.250    3.506    0.602    0.243  236.960  123.109
  328.500    3.508    0.586    0.258  237.971  123.716
  328.750    3.510    0.583    0.248  242.456  125.217
  329.000    3.511    0.621    0.251  238.506  124.037
  329.250    3.512    0.607    0.267  234.065  121.668
  329.500    3.614    0.617    0.261  239.536  119.895
  329.750    3.752    0.601    0.283  243.527  119.609
  330.000    3.932    0.564    0.279  237.096  120.217
  330.250    4.007    0.555    0.251  229.186  120.229
  330.500    3.972    0.579    0.238  229.697  120.239
  330.750    3.937    0.587    0.267  231.700  119.361
  331.000    3.939    0.587    0.267  236.187  117.884
  331.250    4.089    0.573    0.283  235.710  116.705
  331.500    4.207    0.549    0.310  233.746  115.530
  331.750    4.287    0.524    0.296  229.300  114.052
  332.000    4.577    0.529    0.295  225.851  111.682
  332.250    4.709    0.541    0.294  232.314  106.636
  332.500    4.711    0.515    0.280  226.383  103.375
  332.750    4.458    0.490    0.271  232.353  103.090
