~VERSION INFORMATION
 VERS.                 2.0:   CWLS LOG ASCII STANDARD -VERSION 2.0
 WRAP.                  NO:   ONE LINE PER DEPTH STEP
~WELL INFORMATION BLOCK
#MNEM.UNIT           DATA                    DESCRIPTION OF MNEMONIC
#---------    -------------------            -------------------------------
# Generated from Intellog Unique Number	CW_70_72/WELL/3034
NULL.         -999.25                        : NULL_VALUE
WELL.         MIAMI AMOCO HONDO 11-32        : Well_name    - WELL              
LOC .         11-32-070-02W5                 : Location     - LOCATION          
UWI .         00/11-32-070-02W5/0            : Uwi          - UNIQUE WELL ID    
ENTR.         J                              : Entered      - ENTERED BY        
SRVC.         SCHLUMBERGER                   : Scn          - SERVICE COMPANY   
DATE.         30 JAN 75                      : Date         - LOG DATE          
STRT.M        417.576                        : top_depth    - START DEPTH       
STOP.M        634.076                        : bot_depth    - STOP DEPTH        
STEP.M        0.25                           : increment    - STEP LENGTH       
~CURVE INFORMATION BLOCK
#MNEM UNIT       ERCB CURVE CODE    CURVE DESCRIPTION
#-----------   ------------------   ----------------------------------
DEPT.M        00 001 00 00         : DEPTH        - DEPTH                       
ILD .OHMM     00 120 00 00         : RESD         - DEEP RESISTIVITY (DIL)      
CALI.MM       00 280 01 00         : CAL          - CALIPER                     
GR  .API      00 310 00 00         : GR           - GAMMA RAY                   
NPHI.V/V      00 330 00 00         : PHIN         - NEUTRON POROSITY (SANDSTONE)
DPHI.V/V      00 890 00 00         : PHID         - DENSITY POROSITY (SANDSTONE)
~PARAMETER INFORMATION       
#MNEM.UNIT           DATA             DESCRIPTION OF MNEMONIC
#---------         -----------     ------------------------------
GL  .M        591.617              : gl           - GROUND LEVEL ELEVATION      
EREF.M        596.189              : kb           - ELEVATION OF DEPTH REFERENCE
DATM.M        591.617              : datum        - DATUM ELEVATION             
TDD .M        653.796              : tdd          - TOTAL DEPTH DRILLER         
RUN .         ONE                  : Run          - RUN NUMBER                  
ENG .         LAVERDIERE           : Engineer     - RECORDING ENGINEER          
WIT .         MCTAGGART            : Witness      - WITNESSED BY                
BASE.         EDM                  : Branch       - HOME BASE OF LOGGING UNIT   
MUD .         GEL                  : Mud_type     - MUD TYPE                    
MATR.         SANDSTONE            : Logunit      - NEUTRON MATRIX              
TMAX.C        28.3333              : BHT          - MAXIMUM RECORDED TEMPERATURE
BHTD.M        653.796              : BHTDEP       - MAXIMUM RECORDED TEMPERATURE
RMT .C        19.4444              : MDTP         - TEMPERATURE OF MUD          
MUDD.KG/M     1152                 : MWT          - MUD DENSITY                 
NEUT.         1                    : NEUTRON      - NEUTRON TYPE                
RESI.         0                    : RESIST       - RESISTIVITY TYPE            
RM  .OHMM     0.61                 : RM           - RESISTIVITY OF MUD          
RMC .OHMM     0.92                 : RMC          - RESISTIVITY OF MUD CAKE     
RMF .OHMM     0.25                 : RMF          - RESISTIVITY OF MUD FILTRATE 
SUFT.C        -17.7778             : SUFT         - SURFACE TEMPERATURE         
~A  DEPTH     RESD      CAL       GR     PHIN     PHID
  417.576    2.382  170.123   99.190    0.533    0.138
  417.826    2.352  169.308   97.675    0.549    0.132
  418.076    2.272  169.109   96.402    0.528    0.157
  418.326    2.183  169.114   96.162    0.513    0.154
  418.576    2.101  169.635   98.111    0.504    0.157
  418.826    2.026  170.157   99.938    0.501    0.164
  419.076    1.968  171.089  100.489    0.521    0.160
  419.326    1.969  171.610  100.371    0.534    0.150
  419.576    2.013  171.307   99.100    0.536    0.139
  419.826    2.043  171.519   98.069    0.517    0.161
  420.076    2.035  171.630   95.946    0.499    0.148
  420.326    2.047  171.533   96.497    0.518    0.167
  420.576    2.055  171.334   99.843    0.535    0.179
  420.826    2.102  171.442  101.732    0.532    0.164
  421.076    2.175  171.861   99.851    0.510    0.148
  421.326    2.346  172.176   96.816    0.500    0.165
  421.576    2.557  172.697   92.323    0.482    0.163
  421.826    2.934  173.013   86.127    0.492    0.156
  422.076    3.423  172.710   79.081    0.501    0.165
  422.326    3.778  165.101   72.946    0.437    0.167
  422.576    4.211  160.477   67.784    0.424    0.176
  422.826    4.632  159.968   63.229    0.382    0.186
  423.076    4.762  160.489   63.172    0.373    0.179
  423.326    4.558  161.628   68.585    0.390    0.187
  423.576    4.138  163.693   70.534    0.402    0.182
  423.826    3.783  163.494   67.560    0.413    0.179
  424.076    3.490  160.618   67.564    0.426    0.195
  424.326    3.021  156.920   71.701    0.423    0.179
  424.576    2.507  159.499   70.185    0.444    0.162
  424.826    2.431  163.829   67.271    0.459    0.190
  425.076    2.753  163.114   64.054    0.437    0.214
  425.326    3.119  159.520   63.207    0.420    0.222
  425.576    3.408  159.115   63.089    0.429    0.207
  425.826    3.509  159.532   61.878    0.408    0.188
  426.076    3.574  160.877   66.987    0.419    0.191
  426.326    3.581  163.867   75.074    0.439    0.165
  426.576    3.465  167.785   84.681    0.464    0.139
  426.826    3.263  169.438   88.757    0.475    0.160
  427.076    2.962  165.534   89.794    0.479    0.153
  427.326    2.674  161.218   84.996    0.479    0.190
  427.576    2.665  163.180   85.851    0.483    0.164
  427.826    2.705  165.554   83.121    0.467    0.140
  428.076    2.745  165.458   75.466    0.445    0.161
  428.326    2.720  163.199   63.557    0.423    0.195
  428.576    2.643  154.459   54.384    0.399    0.250
  428.826    2.543  151.994   52.443    0.412    0.280
  429.076    2.474  151.385   57.066    0.424    0.266
  429.326    2.404  152.317   61.507    0.419    0.261
  429.576    2.357  154.176   64.428    0.418    0.232
  429.826    2.378  156.652   68.747    0.421    0.223
  430.076    2.495  158.512   72.580    0.422    0.210
  430.326    2.579  160.371   77.932    0.411    0.210
  430.576    2.622  161.510   83.649    0.409    0.209
  430.826    2.547  161.825   76.177    0.429    0.181
  431.076    2.460  162.346   71.136    0.438    0.218
  431.326    2.434  162.764   71.991    0.425    0.238
  431.576    2.493  162.976   77.344    0.400    0.237
  431.826    2.654  162.983   81.663    0.392    0.211
  432.076    2.820  162.783   82.335    0.403    0.175
  432.326    3.051  163.099   84.648    0.414    0.138
  432.576    3.424  162.591   87.935    0.421    0.100
  432.826    3.726  161.671   88.485    0.431    0.133
  433.076    3.944  160.957   88.976    0.432    0.159
  433.326    4.055  161.684   89.161    0.435    0.186
  433.576    3.974  164.469   89.044    0.441    0.170
  433.826    3.812  167.151   87.832    0.443    0.156
  434.076    3.596  167.056   85.040    0.439    0.140
  434.326    3.270  165.724   75.198    0.427    0.145
  434.576    2.989  164.392   61.405    0.412    0.156
  434.826    2.749  163.060   56.182    0.386    0.198
  435.076    2.495  161.627   48.650    0.390    0.226
  435.326    2.286  160.810   43.548    0.403    0.262
  435.576    2.204  160.713   43.795    0.380    0.278
  435.826    2.220  160.823   48.236    0.398    0.283
  436.076    2.283  160.932   57.174    0.395    0.263
  436.326    2.355  160.940   66.538    0.382    0.253
  436.576    2.461  161.460   82.040    0.361    0.226
  436.826    2.587  162.289   92.740    0.353    0.180
  437.076    2.698  164.869   99.187    0.401    0.124
  437.326    2.789  167.551  104.175    0.436    0.102
  437.576    2.800  169.822  107.035    0.446    0.091
  437.826    2.637  171.373  106.674    0.451    0.114
  438.076    2.455  171.276   99.385    0.488    0.136
  438.326    2.338  170.047   87.172    0.474    0.155
  438.576    2.377  166.658   76.965    0.421    0.180
  438.826    2.506  163.783   69.312    0.391    0.197
  439.076    2.615  161.834   66.095    0.377    0.208
  439.326    2.698  161.017   62.755    0.383    0.206
  439.576    2.719  160.509   60.450    0.388    0.220
  439.826    2.636  160.310   67.078    0.379    0.227
  440.076    2.491  162.170   86.410    0.404    0.236
  440.326    2.380  164.233   93.645    0.556    0.251
  440.576    2.411  167.739  101.733    0.532    0.234
  440.826    2.492  170.628   94.443    0.489    0.154
  441.076    2.628  171.458   88.065    0.445    0.126
  441.326    2.818  167.038   80.169    0.395    0.139
  441.576    3.164  161.796   84.244    0.353    0.160
  441.826    3.443  163.552   98.531    0.363    0.115
  442.076    3.632  168.807  105.828    0.405    0.098
  442.326    3.699  171.696  107.838    0.456    0.108
  442.576    3.672  173.041  107.051    0.459    0.110
  442.826    3.420  173.562  105.840    0.448    0.132
  443.076    3.185  172.847  103.959    0.457    0.121
  443.326    3.031  170.591   99.101    0.447    0.092
  443.576    2.897  168.435   92.967    0.426    0.098
  443.826    2.902  165.869   88.776    0.402    0.107
  444.076    3.084  161.861   92.731    0.382    0.131
  444.326    3.387  162.795  101.122    0.370    0.116
  444.576    3.671  166.095  107.750    0.373    0.093
  444.826    3.873  169.806  110.429    0.431    0.120
  445.076    3.851  172.179  109.642    0.464    0.092
  445.326    3.769  173.318  108.735    0.472    0.115
  445.576    3.608  173.222  107.402    0.458    0.132
  445.826    3.505  172.200  106.129    0.438    0.149
  446.076    3.492  171.589  105.404    0.423    0.117
  446.326    3.596  172.109  104.982    0.437    0.118
  446.576    3.636  172.425  104.621    0.476    0.099
  446.826    3.617  172.637  102.680    0.474    0.123
  447.076    3.540  171.924   98.065    0.447    0.120
  447.326    3.470  169.871   92.052    0.420    0.143
  447.576    3.439  166.996   87.498    0.404    0.161
  447.826    3.433  166.282   92.667    0.444    0.163
  448.076    3.472  171.332   99.175    0.472    0.116
  448.326    3.473  172.985   99.482    0.435    0.172
  448.576    3.479  167.022   97.177    0.420    0.180
  448.826    3.532  164.970   96.208    0.416    0.147
  449.076    3.571  166.110   96.759    0.409    0.131
  449.326    3.585  167.557   97.613    0.397    0.113
  449.576    3.567  171.474   98.834    0.420    0.125
  449.826    3.514  174.774   99.687    0.467    0.156
  450.076    3.358  171.179   98.719    0.477    0.163
  450.326    3.179  165.730   93.313    0.440    0.181
  450.576    2.982  161.311   82.560    0.397    0.202
  450.826    2.777  158.746   73.629    0.378    0.182
  451.076    2.521  158.545   64.335    0.393    0.185
  451.326    2.296  158.759   57.409    0.406    0.229
  451.576    2.032  159.485   48.175    0.399    0.260
  451.826    1.771  160.110   39.792    0.376    0.271
  452.076    1.494  160.218   35.237    0.371    0.280
  452.326    1.263  158.063   37.368    0.381    0.289
  452.576    1.138  153.027   42.052    0.370    0.288
  452.826    1.128  151.696   49.167    0.364    0.280
  453.076    1.216  156.746   59.017    0.366    0.265
  453.326    1.507  159.840   67.225    0.382    0.229
  453.576    1.912  160.257   74.948    0.409    0.198
  453.826    2.174  160.470   73.919    0.411    0.183
