~VERSION INFORMATION
 VERS.                 2.0:   CWLS LOG ASCII STANDARD -VERSION 2.0
 WRAP.                  NO:   ONE LINE PER DEPTH STEP
~WELL INFORMATION BLOCK
#MNEM.UNIT           DATA                    DESCRIPTION OF MNEMONIC
#---------    -------------------            -------------------------------
# Generated from Intellog Unique Number	CS_71_72/WELL/845
WELL.         BVX ET AL PHILOMENA            : Well_name    - WELL
LOC .         00/10-01-071-11W4/0            : Location     - LOCATION
UWI .         00/10-01-071-11W4/0            : Uwi          - UNIQUE WELL ID
ENTR.         SP                             : Entered      - ENTERED BY
SRVC.         SCHLUMBERGER                   : Scn          - SERVICE COMPANY
STRT.M        305                            : top_depth    - START DEPTH
STOP.M        525                            : bot_depth    - STOP DEPTH
STEP.M        0.25                           : increment    - STEP LENGTH
 NULL. -999.2500:NULL Value
~CURVE INFORMATION BLOCK
#MNEM UNIT       ERCB CURVE CODE    CURVE DESCRIPTION
#-----------   ------------------   ----------------------------------
DEPT.M        00 001 00 00         : DEPTH        - DEPTH
ILD .OHMM     00 120 00 00         : RESD         - DEEP RESISTIVITY (DIL)
DPHI.V/V      00 890 00 00         : PHID         - DENSITY POROSITY (LIMESTONE)
NPHI.V/V      00 330 00 00         : PHIN         - NEUTRON POROSITY (LIMESTONE)
GR  .API      00 310 00 00         : GR           - GAMMA RAY
~PARAMETER INFORMATION
#MNEM.UNIT           DATA             DESCRIPTION OF MNEMONIC
#---------         -----------     ------------------------------
GL  .M        643.55               : gl           - GROUND LEVEL ELEVATION
EREF.M        646.55               : kb           - ELEVATION OF DEPTH REFERENCE
DATM.M        643.55               : datum        - DATUM ELEVATION
TDD .M        529                  : tdd          - TOTAL DEPTH DRILLER
RUN .         ONE                  : Run          - RUN NUMBER
ENG .         BILL                 : Engineer     - RECORDING ENGINEER
WIT .         JIM                  : Witness      - WITNESSED BY
MUD .         GEL                  : Mud_type     - MUD TYPE
MATR.         LIMESTONE            : Logunit      - NEUTRON MATRIX
TMAX.C        28                   : BHT          - MAXIMUM RECORDED TEMPERATURE
BHTD.M        529                  : BHTDEP       - MAXIMUM RECORDED TEMPERATURE
MATR.         1                    : LOGUNIT      - NEUTRON MATRIX
RMT .C        25                   : MDTP         - TEMPERATURE OF MUD
NEUT.         1                    : NEUTRON      - NEUTRON TYPE
RESI.         0                    : RESIST       - RESISTIVITY TYPE
RMC .OHMM     0.25                 : RMC          - RESISTIVITY OF MUD CAKE
RMF .OHMM     0.25                 : RMF          - RESISTIVITY OF MUD FILTRATE
SUFT.C        15                   : SUFT         - SURFACE TEMPERATURE
~A  DEPTH     RESD     PHID     PHIN       GR
# ...
  435.500    4.022    0.206    0.478   90.201
  435.750    3.997    0.224    0.490   89.417
  436.000    3.930    0.240    0.489   88.877
  436.250    3.813    0.259    0.484   89.426
  436.500    3.638    0.252    0.481   91.129
  436.750    3.211    0.232    0.480   92.647
  437.000    2.824    0.261    0.479   94.288
  437.250    2.562    0.257    0.480   90.960
  437.500    2.414    0.255    0.489   88.116
  437.750    2.248    0.264    0.505   87.697
  438.000    2.165    0.284    0.524   90.610
  438.250    2.144    0.302    0.556   95.221
  438.500    2.220    0.328    0.586   98.378
  438.750    2.417    0.326    0.610   99.473
  439.000    2.632    0.296    0.567   98.326
  439.250    2.957    0.276    0.541   96.028
  439.500    3.119    0.259    0.522   94.941
  439.750    3.254    0.269    0.510   94.098
  440.000    3.356    0.260    0.502   89.617
  440.250    3.386    0.249    0.496   88.652
  440.500    3.397    0.263    0.501   87.081
  440.750    3.396    0.287    0.495   83.146
  441.000    3.420    0.298    0.487   80.484
  441.250    3.508    0.294    0.478   78.670
  441.500    3.599    0.276    0.472   80.129
  441.750    3.692    0.278    0.474   79.407
  442.000    3.837    0.293    0.482   77.776
  442.250    4.108    0.295    0.472   80.143
  442.500    4.531    0.272    0.467   82.088
  442.750    5.129    0.262    0.470   83.547
  443.000    5.721    0.259    0.476   85.127
  443.250    6.287    0.238    0.472   87.860
  443.500    6.743    0.217    0.480   89.379
  443.750    7.073    0.213    0.492   83.566
  444.000    7.150    0.188    0.451   77.389
  444.250    6.513    0.104    0.337   73.151
  444.500    5.726    0.043    0.286   68.549
  444.750    5.265    0.132    0.289   72.130
  445.000    4.886    0.167    0.406   78.014
  445.250    4.551    0.193    0.447   82.139
  445.500    4.391    0.213    0.466   85.538
  445.750    4.229    0.236    0.479   88.089
  446.000    4.110    0.251    0.474   89.608
  446.250    4.094    0.233    0.463   90.582
  446.500    4.047    0.226    0.456   90.284
  446.750    4.022    0.235    0.462   89.683
  447.000    3.998    0.241    0.477   91.870
  447.250    4.094    0.232    0.485   94.419
  447.500    4.100    0.225    0.477   96.182
  447.750    4.129    0.230    0.473   94.732
  448.000    4.165    0.253    0.488   94.070
  448.250    4.202    0.247    0.491   95.105
  448.500    4.224    0.239    0.477   94.806
  448.750    4.246    0.242    0.469   94.084
  449.000    4.236    0.238    0.478   93.361
  449.250    4.203    0.231    0.479   93.184
  449.500    4.146    0.238    0.478   92.401
  449.750    4.091    0.238    0.475   88.951
  450.000    3.999    0.243    0.467   86.713
  450.250    3.997    0.256    0.455   85.869
  450.500    4.360    0.263    0.450   87.632
  450.750    4.954    0.238    0.459   89.334
  451.000    5.343    0.223    0.471   91.946
  451.250    5.523    0.232    0.472   93.404
  451.500    5.489    0.239    0.464   94.741
  451.750    5.336    0.235    0.452   95.898
  452.000    5.101    0.209    0.436   96.933
  452.250    4.858    0.194    0.425   98.151
  452.500    4.534    0.194    0.427   98.882
  452.750    3.979    0.226    0.441   99.492
  453.000    3.402    0.214    0.449   99.315
  453.250    3.054    0.205    0.457   98.532
  453.500    2.568    0.222    0.454   98.658
  453.750    2.379    0.246    0.447   98.662
  454.000    2.199    0.261    0.477   94.425
  454.250    2.103    0.276    0.529   90.975
  454.500    2.051    0.287    0.558   87.645
  454.750    2.192    0.300    0.590   85.044
  455.000    2.283    0.291    0.609   84.988
  455.250    2.565    0.281    0.592   87.417
  455.500    2.803    0.282    0.574   90.514
  455.750    3.057    0.268    0.583   90.336
  456.000    3.231    0.282    0.587   86.462
  456.250    3.339    0.281    0.529   84.103
  456.500    3.413    0.275    0.494   82.713
  456.750    3.475    0.269    0.471   84.961
  457.000    3.532    0.259    0.456   87.450
  457.250    3.590    0.254    0.446   90.000
  457.500    3.616    0.242    0.458   91.278
  457.750    3.661    0.226    0.474   91.343
  458.000    3.735    0.235    0.483   89.045
  458.250    3.810    0.239    0.460   87.413
  458.500    3.909    0.225    0.443   85.781
  458.750    4.070    0.233    0.459   85.120
  459.000    4.230    0.250    0.479   85.002
  459.250    4.315    0.258    0.495   85.796
  459.500    4.272    0.242    0.487   86.466
  459.750    4.232    0.127    0.438   81.380
  460.000    4.031    0.088    0.405   80.415
  460.250    3.598    0.124    0.398   82.663
  460.500    3.223    0.214    0.426   84.303
  460.750    2.969    0.251    0.480   85.642
  461.000    2.754    0.253    0.498   86.616
  461.250    2.723    0.265    0.485   88.439
  461.500    2.686    0.244    0.487   91.292
  461.750    2.665    0.225    0.511   94.753
  462.000    2.664    0.233    0.534   96.454
  462.250    2.663    0.250    0.528   98.399
  462.500    2.681    0.235    0.509   99.250
  462.750    2.861    0.222    0.529   99.921
  463.000    2.897    0.223    0.550  101.563
  463.250    2.917    0.230    0.568  103.749
  463.500    2.867    0.233    0.546  105.936
  463.750    2.798    0.242    0.536  105.698
  464.000    2.765    0.231    0.529  103.703
  464.250    2.784    0.225    0.544  104.071
  464.500    2.841    0.221    0.542  105.955
  464.750    2.850    0.222    0.534  107.111
  465.000    2.786    0.240    0.541  107.418
  465.250    2.683    0.250    0.546  106.211
  465.500    2.613    0.242    0.540  103.670
  465.750    2.526    0.238    0.519  100.826
  466.000    2.493    0.262    0.503   99.255
  466.250    2.552    0.264    0.511  102.290
  466.500    2.879    0.249    0.524  105.204
  466.750    3.471    0.240    0.542  107.875
  467.000    4.401    0.257    0.554  107.335
  467.250    5.306    0.260    0.567  100.188
  467.500    6.386    0.247    0.560   94.738
  467.750    7.297    0.263    0.455   88.560
  468.000    8.033    0.251    0.438   83.049
  468.250    8.552    0.238    0.424   78.326
  468.500    8.741    0.229    0.430   73.422
  468.750    8.403    0.182    0.437   68.881
  469.000    7.348    0.088    0.402   65.855
  469.250    6.509    0.083    0.350   62.951
  469.500    6.142    0.150    0.331   65.562
  469.750    6.092    0.232    0.384   69.142
  470.000    6.148    0.260    0.410   72.419
  470.250    6.390    0.247    0.425   73.454
  470.500    6.641    0.234    0.416   73.459
  470.750    6.851    0.271    0.410   72.979
  471.000    7.028    0.266    0.404   70.863
  471.250    7.104    0.274    0.406   68.322
  471.500    7.087    0.261    0.413   65.963
  471.750    7.043    0.256    0.418   66.816
  472.000    7.016    0.247    0.421   68.942
  472.250    6.845    0.239    0.413   70.462
  472.500    6.704    0.239    0.406   69.921
  472.750    6.638    0.244    0.402   68.047
  473.000    6.673    0.250    0.395   67.324
  473.250    6.833    0.239    0.386   70.421
  473.500    7.195    0.247    0.384   71.758
  473.750    7.674    0.235    0.393   73.035
  474.000    8.965    0.190    0.417   73.707
  474.250   10.130    0.119    0.436   73.954
  474.500   11.153    0.023    0.424   72.625
  474.750   11.918    0.043    0.327   67.478
  475.000   11.935    0.092    0.354   70.695
  475.250   10.751    0.243    0.379   73.245
  475.500    8.661    0.285    0.399   73.007
  475.750    8.159    0.283    0.407   69.618
  476.000    7.671    0.278    0.395   69.925
  476.250    7.253    0.273    0.407   75.021
  476.500    6.792    0.255    0.420   80.056
  476.750    6.493    0.237    0.431   84.182
  477.000    6.208    0.246    0.438   87.702
  477.250    5.967    0.263    0.422   89.768
  477.500    5.823    0.253    0.396   90.318
  477.750    5.692    0.259    0.394   91.292
  478.000    5.585    0.267    0.405   93.600
  478.250    5.469    0.254    0.416   96.030
  478.500    5.366    0.248    0.423   95.064
  478.750    5.294    0.257    0.430   92.826
