~VERSION INFORMATION
 VERS.                 2.0:   CWLS LOG ASCII STANDARD -VERSION 2.0
 WRAP.                  NO:   ONE LINE PER DEPTH STEP
~WELL INFORMATION BLOCK
#MNEM.UNIT           DATA                    DESCRIPTION OF MNEMONIC
#---------    -------------------            -------------------------------
# Generated from Intellog Unique Number	CS_77_79/WELL/1023
WELL.         AMOCO CANADA PETROLEUM         : Well_name    - WELL
LOC .         00/15-26-077-09W4/0            : Location     - LOCATION
UWI .         00/15-26-077-09W4/0            : Uwi          - UNIQUE WELL ID
ENTR.         SP                             : Entered      - ENTERED BY
SRVC.         SCHLUMBERGER                   : Scn          - SERVICE COMPANY
STRT.M        150                            : top_depth    - START DEPTH
STOP.M        360                            : bot_depth    - STOP DEPTH
STEP.M        0.25                           : increment    - STEP LENGTH
 NULL. -999.2500:NULL Value
~CURVE INFORMATION BLOCK
#MNEM UNIT       ERCB CURVE CODE    CURVE DESCRIPTION
#-----------   ------------------   ----------------------------------
DEPT.M        00 001 00 00         : DEPTH        - DEPTH
GR  .API      00 310 00 00         : GR           - GAMMA RAY
NPHI.V/V      00 330 00 00         : PHIN         - NEUTRON POROSITY (SANDSTONE)
DPHI.V/V      00 890 00 00         : PHID         - DENSITY POROSITY (SANDSTONE)
ILD .OHMM     00 120 00 00         : RESD         - DEEP RESISTIVITY (DIL)
~PARAMETER INFORMATION
#MNEM.UNIT           DATA             DESCRIPTION OF MNEMONIC
#---------         -----------     ------------------------------
GL  .M        578.5                : gl           - GROUND LEVEL ELEVATION
EREF.M        582.7                : kb           - ELEVATION OF DEPTH REFERENCE
DATM.M        582.7                : datum        - DATUM ELEVATION
TDD .M        358                  : tdd          - TOTAL DEPTH DRILLER
RUN .         ONE                  : Run          - RUN NUMBER
ENG .         BILL                 : Engineer     - RECORDING ENGINEER
WIT .         JIM                  : Witness      - WITNESSED BY
MUD .         GEL                  : Mud_type     - MUD TYPE
MATR.         SANDSTONE            : Logunit      - NEUTRON MATRIX
TMAX.C        19                   : BHT          - MAXIMUM RECORDED TEMPERATURE
BHTD.M        359                  : BHTDEP       - MAXIMUM RECORDED TEMPERATURE
MATR.         1                    : LOGUNIT      - NEUTRON MATRIX
RMT .C        19                   : MDTP         - TEMPERATURE OF MUD
NEUT.         1                    : NEUTRON      - NEUTRON TYPE
RESI.         3.81                 : RESIST       - RESISTIVITY TYPE
RMC .OHMM     3.14                 : RMC          - RESISTIVITY OF MUD CAKE
RMF .OHMM     3.14                 : RMF          - RESISTIVITY OF MUD FILTRATE
SUFT.C        15                   : SUFT         - SURFACE TEMPERATURE
~A  DEPTH       GR     PHIN     PHID     RESD
# ...
  237.000   81.279    0.500    0.293    6.742
  237.250   86.787    0.506    0.283    5.803
  237.500   91.677    0.513    0.259    5.183
  237.750   95.951    0.522    0.251    4.989
  238.000   98.372    0.526    0.244    4.622
  238.250   98.324    0.525    0.242    4.451
  238.500   97.017    0.526    0.242    4.282
  238.750   96.363    0.530    0.246    4.119
  239.000   96.291    0.536    0.253    4.039
  239.250   96.255    0.541    0.259    3.957
  239.500   96.231    0.547    0.263    3.878
  239.750   96.182    0.552    0.263    3.875
  240.000   95.517    0.555    0.261    3.795
  240.250   95.457    0.556    0.256    3.791
  240.500   94.779    0.558    0.252    3.857
  240.750   94.743    0.559    0.255    4.070
  241.000   94.695    0.560    0.259    4.377
  241.250   94.646    0.562    0.262    4.620
  241.500   94.598    0.563    0.265    4.970
  241.750   93.315    0.561    0.270    5.344
  242.000   92.638    0.551    0.271    6.188
  242.250   91.355    0.539    0.271    6.532
  242.500   89.454    0.523    0.273    6.520
  242.750   88.184    0.512    0.273    6.513
  243.000   85.654    0.505    0.274    6.503
  243.250   88.075    0.535    0.275    6.374
  243.500   91.743    0.539    0.275    5.802
  243.750   96.634    0.533    0.277    4.995
  244.000   98.414    0.532    0.277    4.301
  244.250   97.772    0.541    0.275    3.769
  244.500   96.477    0.562    0.272    3.562
  244.750   96.441    0.567    0.265    3.490
  245.000   96.998    0.575    0.263    3.485
  245.250   97.567    0.580    0.266    3.480
  245.500   98.136    0.584    0.270    3.539
  245.750   98.706    0.588    0.276    3.667
  246.000   99.287    0.594    0.280    3.870
  246.250   99.239    0.588    0.284    3.938
  246.500   97.302    0.560    0.285    4.234
  246.750   96.055    0.550    0.284    4.638
  247.000   94.773    0.530    0.277    4.898
  247.250   92.243    0.499    0.266    5.361
  247.500   90.331    0.487    0.256    5.559
  247.750   89.060    0.477    0.245    5.760
  248.000   87.135    0.473    0.238    5.969
  248.250   86.494    0.467    0.232    6.072
  248.500   85.816    0.462    0.231    6.289
  248.750   85.768    0.459    0.234    6.280
  249.000   86.349    0.467    0.235    6.157
  249.250   87.512    0.495    0.235    5.709
  249.500   88.105    0.506    0.236    5.292
  249.750   89.291    0.516    0.244    5.094
  250.000   91.083    0.533    0.249    4.633
  250.250   92.887    0.552    0.252    4.377
  250.500   93.468    0.547    0.260    4.136
  250.750   94.643    0.551    0.270    3.835
  251.000   95.212    0.552    0.278    4.121
  251.250   95.176    0.547    0.278    4.273
  251.500   95.128    0.540    0.279    4.767
  251.750   94.450    0.526    0.279    5.033
  252.000   93.167    0.507    0.282    5.617
  252.250   91.872    0.486    0.284    6.152
  252.500   91.231    0.472    0.287    6.616
  252.750   89.948    0.469    0.288    7.114
  253.000   86.195    0.481    0.285    7.371
  253.250   81.814    0.492    0.283    7.630
  253.500   81.753    0.498    0.278    7.624
  253.750   82.940    0.509    0.276    7.615
  254.000   83.497    0.515    0.272    7.746
  254.250   84.078    0.525    0.270    7.876
  254.500   84.647    0.526    0.267    7.862
  254.750   83.982    0.502    0.266    7.853
  255.000   83.934    0.497    0.263    7.991
  255.250   83.280    0.486    0.260    8.125
  255.500   83.208    0.482    0.259    8.116
  255.750   83.184    0.488    0.261    8.116
  256.000   83.135    0.491    0.264    8.708
  256.250   84.310    0.493    0.268    8.701
  256.500   84.879    0.489    0.272    8.529
  256.750   85.460    0.487    0.284    8.513
  257.000   86.635    0.489    0.288    8.344
  257.250   86.587    0.494    0.283    8.332
  257.500   84.057    0.495    0.278    8.317
  257.750   83.415    0.491    0.274    8.310
  258.000   82.133    0.490    0.271    8.143
  258.250   83.319    0.492    0.271    8.128
  258.500   86.358    0.494    0.271    8.122
  258.750   88.150    0.493    0.268    8.109
  259.000   87.472    0.490    0.264    7.949
  259.250   87.448    0.487    0.262    7.937
  259.500   86.782    0.488    0.257    7.771
  259.750   86.722    0.493    0.255    7.765
  260.000   86.686    0.494    0.254    7.751
  260.250   87.231    0.496    0.248    7.594
  260.500   87.824    0.494    0.245    7.589
  260.750   89.011    0.499    0.247    7.578
  261.000   90.197    0.502    0.257    7.563
  261.250   85.816    0.502    0.263    7.555
  261.500   82.063    0.487    0.276    7.403
  261.750   84.484    0.469    0.269    7.394
  262.000   87.511    0.452    0.236    7.242
  262.250   89.327    0.462    0.229    7.237
  262.500   91.143    0.483    0.227    7.094
  262.750   94.157    0.493    0.224    6.953
  263.000   95.368    0.489    0.224    6.690
  263.250   96.554    0.489    0.227    6.435
  263.500   97.124    0.494    0.231    6.308
  263.750   97.669    0.499    0.238    5.851
  264.000   97.632    0.507    0.245    4.763
  264.250   96.955    0.546    0.255    3.284
  264.500   95.660    0.558    0.271    2.724
  264.750   94.389    0.567    0.285    2.434
  265.000   93.736    0.585    0.295    2.299
  265.250   92.453    0.588    0.301    2.339
  265.500   91.775    0.579    0.300    2.514
  265.750   90.504    0.572    0.295    2.859
  266.000   89.839    0.558    0.288    3.310
  266.250   86.680    0.526    0.287    4.053
  266.500   86.026    0.504    0.289    4.961
  266.750   85.373    0.486    0.294    6.302
  267.000   83.472    0.463    0.298    7.574
  267.250   81.572    0.437    0.300    8.612
  267.500   78.413    0.404    0.304   10.941
  267.750   77.759    0.357    0.305   13.639
  268.000   75.847    0.329    0.314   13.873
  268.250   75.169    0.323    0.317   14.106
  268.500   75.133    0.313    0.314   14.096
  268.750   76.925    0.299    0.319   14.606
  269.000   77.518    0.294    0.333   15.134
  269.250   78.088    0.293    0.341   18.187
  269.500   76.793    0.260    0.354   22.264
  269.750   75.498    0.229    0.350   27.775
  270.000   74.856    0.225    0.337   40.920
  270.250   74.178    0.222    0.343   46.515
  270.500   72.895    0.220    0.349   49.100
  270.750   71.601    0.216    0.336   49.027
  271.000   71.564    0.203    0.298   48.954
  271.250   70.899    0.182    0.319   47.967
  271.500   70.233    0.182    0.384   47.016
  271.750   68.962    0.182    0.443   45.239
  272.000   65.791    0.179    0.444   44.343
  272.250   64.520    0.170    0.444   42.667
  272.500   62.620    0.164    0.440   41.821
  272.750   61.955    0.166    0.437   40.993
  273.000   61.894    0.174    0.431   38.009
  273.250   62.488    0.179    0.426   35.242
  273.500   63.662    0.184    0.424   32.677
  273.750   63.626    0.188    0.425   30.853
  274.000   65.430    0.191    0.426   30.819
  274.250   66.616    0.191    0.428   30.750
  274.500   65.333    0.188    0.427   30.727
  274.750   63.409    0.187    0.425   31.255
  275.000   62.768    0.187    0.423   31.792
  275.250   62.102    0.187    0.419   32.943
  275.500   62.042    0.184    0.418   33.509
  275.750   62.006    0.184    0.417   34.072
  276.000   61.316    0.188    0.417   34.021
  276.250   61.280    0.193    0.416   33.970
  276.500   61.244    0.198    0.415   33.297
  276.750   61.195    0.198    0.414   32.039
  277.000   61.135    0.199    0.413   29.706
  277.250   61.099    0.207    0.410   27.554
  277.500   61.027    0.223    0.406   24.619
  277.750   61.003    0.248    0.401   21.197
  278.000   62.189    0.269    0.394   16.941
  278.250   63.981    0.308    0.386   14.050
  278.500   67.637    0.344    0.374   12.328
  278.750   70.688    0.378    0.363   11.015
  279.000   74.949    0.398    0.355    9.658
  279.250   77.370    0.423    0.340    9.122
  279.500   73.606    0.448    0.334    8.616
  279.750   71.112    0.477    0.337    8.287
  280.000   67.348    0.476    0.339    8.123
  280.250   63.595    0.467    0.341    7.962
