~VERSION INFORMATION
 VERS.                 2.0:   CWLS LOG ASCII STANDARD -VERSION 2.0
 WRAP.                  NO:   ONE LINE PER DEPTH STEP
~WELL INFORMATION BLOCK
#MNEM.UNIT           DATA                    DESCRIPTION OF MNEMONIC
#---------    -------------------            -------------------------------
# Generated from Intellog Unique Number	CW_73_75/WELL/2749
WELL.         COSEKA ETAL MITSUE 12-31       : Well_name    - WELL
LOC .         00/12-31-073-04W5/0            : Location     - LOCATION
UWI .         00/12-31-073-04W5/0            : Uwi          - UNIQUE WELL ID
ENTR.         JAYE                           : Entered      - ENTERED BY
SRVC.         WESTERN ATLAS                  : Scn          - SERVICE COMPANY
DATE.         19 JUNE 84                     : Date         - LOG DATE
STRT.M        365                            : top_depth    - START DEPTH
STOP.M        585                            : bot_depth    - STOP DEPTH
STEP.M        0.25                           : increment    - STEP LENGTH
 NULL. -999.2500:NULL Value
~CURVE INFORMATION BLOCK
#MNEM UNIT       ERCB CURVE CODE    CURVE DESCRIPTION
#-----------   ------------------   ----------------------------------
DEPT.M        00 001 00 00         : DEPTH        - DEPTH
DPHI.V/V      00 890 00 00         : PHID         - DENSITY POROSITY (SANDSTONE)
NPHI.V/V      00 330 00 00         : PHIN         - NEUTRON POROSITY (SANDSTONE)
GR  .API      00 310 00 00         : GR           - GAMMA RAY
CALI.MM       00 280 01 00         : CAL          - CALIPER
ILD .OHMM     00 120 00 00         : RESD         - DEEP RESISTIVITY (DIL)
~PARAMETER INFORMATION
#MNEM.UNIT           DATA             DESCRIPTION OF MNEMONIC
#---------         -----------     ------------------------------
GL  .M        585.2                : gl           - GROUND LEVEL ELEVATION
EREF.M        598.8                : kb           - ELEVATION OF DEPTH REFERENCE
DATM.M        585.2                : datum        - DATUM ELEVATION
TDD .M        1645                 : tdd          - TOTAL DEPTH DRILLER
RUN .         ONE                  : Run          - RUN NUMBER
ENG .         TAKEYASU             : Engineer     - RECORDING ENGINEER
WIT .         JONES                : Witness      - WITNESSED BY
BASE.         EDM                  : Branch       - HOME BASE OF LOGGING UNIT
MUD .         GEL CHEM             : Mud_type     - MUD TYPE
MATR.         SANDSTONE            : Logunit      - NEUTRON MATRIX
TMAX.C        49                   : BHT          - MAXIMUM RECORDED TEMPERATURE
BHTD.M        1645.6               : BHTDEP       - MAXIMUM RECORDED TEMPERATURE
RMT .C        16                   : MDTP         - TEMPERATURE OF MUD
MUDD.KG/M     1090                 : MWT          - MUD DENSITY
NEUT.         1                    : NEUTRON      - NEUTRON TYPE
RESI.         0                    : RESIST       - RESISTIVITY TYPE
RM  .OHMM     1.2                  : RM           - RESISTIVITY OF MUD
RMC .OHMM     1.2                  : RMC          - RESISTIVITY OF MUD CAKE
RMF .OHMM     0.6                  : RMF          - RESISTIVITY OF MUD FILTRATE
SUFT.C        0                    : SUFT         - SURFACE TEMPERATURE
~A  DEPTH     PHID     PHIN       GR      CAL     RESD
# ...
  474.500    0.206    0.422   78.447  270.531    4.797
  474.750    0.218    0.413   74.028  269.017    4.739
  475.000    0.231    0.404   79.097  266.275    4.655
  475.250    0.238    0.441   79.608  263.839    4.598
  475.500    0.236    0.418   76.608  263.456    4.533
  475.750    0.232    0.421   80.072  263.998    4.453
  476.000    0.233    0.436   81.137  265.157    4.357
  476.250    0.238    0.413   79.183  266.110    4.240
  476.500    0.234    0.419   76.736  266.855    4.126
  476.750    0.226    0.439   77.984  266.885    3.986
  477.000    0.206    0.435   80.466  265.781    3.989
  477.250    0.209    0.517   82.454  262.421    4.120
  477.500    0.231    0.399   83.888  255.674    4.361
  477.750    0.241    0.371   79.039  247.899    4.810
  478.000    0.263    0.382   69.322  246.078    5.465
  478.250    0.280    0.383   63.857  244.877    6.338
  478.500    0.291    0.362   67.877  244.290    7.016
  478.750    0.297    0.353   60.133  244.216    7.371
  479.000    0.299    0.391   57.379  244.142    7.295
  479.250    0.304    0.422   60.724  243.450    7.020
  479.500    0.306    0.449   63.880  242.143    6.934
  479.750    0.303    0.426   65.931  241.042    6.875
  480.000    0.291    0.410   60.587  240.046    6.804
  480.250    0.290    0.409   56.355  239.560    6.683
  480.500    0.293    0.407   62.162  239.692    6.467
  480.750    0.299    0.419   64.951  240.233    6.269
  481.000    0.306    0.430   64.845  240.570    6.101
  481.250    0.316    0.413   65.725  240.802    5.948
  481.500    0.309    0.410   62.723  240.627    5.865
  481.750    0.296    0.432   68.348  240.653    5.804
  482.000    0.292    0.448   71.628  241.198    5.754
  482.250    0.287    0.405   67.026  241.534    5.694
  482.500    0.285    0.493   63.037  241.356    5.646
  482.750    0.287    0.457   68.044  241.281    5.619
  483.000    0.285    0.379   69.972  241.207    5.592
  483.250    0.283    0.397   68.081  241.136    5.554
  483.500    0.285    0.425   68.344  241.365    5.486
  483.750    0.291    0.425   72.241  241.291    5.349
  484.000    0.301    0.453   69.672  240.601    5.244
  484.250    0.308    0.445   64.021  239.705    5.093
  484.500    0.311    0.410   56.460  238.913    4.883
  484.750    0.314    0.380   61.590  238.222    4.690
  485.000    0.323    0.453   69.431  237.841    4.764
  485.250    0.329    0.455   65.013  240.024    5.119
  485.500    0.306    0.387   61.949  244.882    5.948
  485.750    0.253    0.311   59.194  250.454    7.393
  486.000    0.151    0.279   58.720  255.307    9.308
  486.250    0.117    0.265   57.443  254.825   12.654
  486.500    0.091    0.257   54.751  249.921   16.084
  486.750    0.119    0.266   52.117  240.504   19.042
  487.000    0.146    0.276   48.807  232.318   20.006
  487.250    0.147    0.263   46.914  231.014   19.760
  487.500    0.105    0.230   49.025  233.197   16.407
  487.750    0.134    0.248   54.648  235.280   13.546
  488.000    0.213    0.310   57.006  235.105   10.111
  488.250    0.295    0.442   55.238  233.591    7.968
  488.500    0.306    0.428   60.367  233.004    6.715
  488.750    0.300    0.440   56.565  233.137    6.133
  489.000    0.281    0.441   57.569  233.471    5.879
  489.250    0.259    0.406   61.712  233.809    5.775
  489.500    0.269    0.423   62.222  233.631    5.715
  489.750    0.282    0.418   63.225  234.073    5.593
  490.000    0.289    0.421   66.260  234.612    5.433
  490.250    0.288    0.405   68.680  234.641    5.306
  490.500    0.267    0.410   71.348  234.876    5.163
  490.750    0.276    0.430   75.923  236.955    5.006
  491.000    0.286    0.462   68.855  238.320    4.826
  491.250    0.292    0.493   66.284  239.477    4.732
  491.500    0.295    0.458   70.490  240.222    4.736
  491.750    0.298    0.418   70.692  240.049    4.847
  492.000    0.298    0.392   70.772  239.562    4.960
  492.250    0.293    0.378   72.020  239.080    5.057
  492.500    0.282    0.380   68.649  239.008    5.254
  492.750    0.281    0.397   66.571  239.134    5.448
  493.000    0.282    0.378   62.646  239.167    5.576
  493.250    0.282    0.397   59.830  238.985    5.622
  493.500    0.286    0.430   61.818  238.708    5.658
  493.750    0.290    0.439   66.517  238.331    5.694
  494.000    0.289    0.408   69.306  238.049    5.763
  494.250    0.287    0.392   71.540  237.559    5.864
  494.500    0.285    0.361   71.066  237.073    5.991
  494.750    0.283    0.389   66.831  236.696    6.108
  495.000    0.276    0.400   67.403  236.721    6.205
  495.250    0.280    0.432   68.406  236.953    6.280
  495.500    0.285    0.415   67.745  237.191    6.356
  495.750    0.288    0.401   67.763  237.524    6.420
  496.000    0.286    0.420   72.646  238.270    6.461
  496.250    0.280    0.428   65.270  235.530    6.491
  496.500    0.279    0.411   59.497  233.091    6.520
  496.750    0.280    0.385   62.965  231.170    6.599
  497.000    0.280    0.398   67.108  229.556    6.616
  497.250    0.272    0.456   68.419  228.252    6.548
  497.500    0.267    0.488   62.770  227.766    6.419
  497.750    0.268    0.451   63.895  226.978    6.224
  498.000    0.270    0.440   64.159  226.905    5.944
  498.250    0.270    0.425   63.313  226.418    5.730
  498.500    0.270    0.396   62.343  226.036    5.473
  498.750    0.272    0.391   60.637  225.755    5.297
  499.000    0.285    0.403   58.866  225.783    5.183
  499.250    0.298    0.433   55.620  225.705    5.110
  499.500    0.310    0.455   53.910  225.630    5.038
  499.750    0.315    0.376   57.440  225.863    4.958
  500.000    0.314    0.383   62.570  226.617    4.807
  500.250    0.314    0.455   59.260  227.563    4.626
  500.500    0.316    0.422   57.861  228.722    4.485
  500.750    0.322    0.419   59.910  229.366    4.389
  501.000    0.336    0.403   61.593  230.318    4.319
  501.250    0.344    0.370   62.040  231.580    4.274
  501.500    0.339    0.428   59.900  232.531    4.269
  501.750    0.328    0.444   59.239  233.076    4.281
  502.000    0.329    0.436   64.554  233.204    4.300
  502.250    0.335    0.453   65.988  233.336    4.327
  502.500    0.333    0.435   65.204  233.569    4.339
  502.750    0.326    0.417   65.469  233.599    4.318
  503.000    0.320    0.428   66.101  233.837    4.321
  503.250    0.315    0.450   67.536  233.657    4.332
  503.500    0.310    0.477   69.893  233.683    4.344
  503.750    0.308    0.426   68.062  233.610    4.356
  504.000    0.305    0.417   63.212  233.742    4.408
  504.250    0.296    0.436   65.078  233.666    4.478
  504.500    0.287    0.424   69.715  233.797    4.489
  504.750    0.278    0.420   75.893  233.830    4.518
  505.000    0.272    0.406   78.498  233.963    4.547
  505.250    0.276    0.394   76.358  234.194    4.593
  505.500    0.273    0.437   72.494  234.221    4.614
  505.750    0.268    0.439   70.293  234.247    4.618
  506.000    0.271    0.402   76.348  234.687    4.638
  506.250    0.268    0.382   80.677  235.024    4.712
  506.500    0.265    0.411   77.984  235.059    4.822
  506.750    0.275    0.432   75.228  234.877    4.945
  507.000    0.272    0.411   70.625  234.599    5.070
  507.250    0.262    0.474   68.856  234.626    5.287
  507.500    0.255    0.427   76.635  234.347    5.381
  507.750    0.253    0.397   73.140  233.964    5.275
  508.000    0.249    0.408   83.138  234.710    5.133
  508.250    0.240    0.448   86.421  235.662    4.949
  508.500    0.219    0.443   81.570  237.126    4.852
  508.750    0.203    0.407   80.418  238.900    4.775
  509.000    0.204    0.392   75.567  240.059    4.743
  509.250    0.197    0.397   76.940  241.014    4.729
  509.500    0.192    0.428   84.841  241.041    4.706
  509.750    0.217    0.491   84.551  240.864    4.701
  510.000    0.236    0.421   78.838  239.865    4.784
  510.250    0.231    0.394   77.254  237.019    4.869
  510.500    0.212    0.345   80.783  238.280    4.919
  510.750    0.209    0.366   79.937  240.366    4.978
