~VERSION INFORMATION
 VERS.                 2.0:   CWLS LOG ASCII STANDARD -VERSION 2.0
 WRAP.                  NO:   ONE LINE PER DEPTH STEP
~WELL INFORMATION BLOCK
#MNEM.UNIT           DATA                    DESCRIPTION OF MNEMONIC
#---------    -------------------            -------------------------------
# Generated from Intellog Unique Number	CW_73_75/WELL/927
WELL.         MANNVILLE ALGAS MARTENH 10-18  : Well_name    - WELL
LOC .         00/10-18-074-24W4/0            : Location     - LOCATION
UWI .         00/10-18-074-24W4/0            : Uwi          - UNIQUE WELL ID
ENTR.         JAYE                           : Entered      - ENTERED BY
SRVC.         SCHLUMBERGER                   : Scn          - SERVICE COMPANY
DATE.         7 DEC 80                       : Date         - LOG DATE
STRT.M        415                            : top_depth    - START DEPTH
STOP.M        645                            : bot_depth    - STOP DEPTH
STEP.M        0.25                           : increment    - STEP LENGTH
 NULL. -999.2500:NULL Value
~CURVE INFORMATION BLOCK
#MNEM UNIT       ERCB CURVE CODE    CURVE DESCRIPTION
#-----------   ------------------   ----------------------------------
DEPT.M        00 001 00 00         : DEPTH        - DEPTH
ILD .OHMM     00 120 00 00         : RESD         - DEEP RESISTIVITY (DIL)
NPHI.V/V      00 330 00 00         : PHIN         - NEUTRON POROSITY (SANDSTONE)
DPHI.V/V      00 890 00 00         : PHID         - DENSITY POROSITY (SANDSTONE)
CALI.MM       00 280 01 00         : CAL          - CALIPER
GR  .API      00 310 00 00         : GR           - GAMMA RAY
~PARAMETER INFORMATION
#MNEM.UNIT           DATA             DESCRIPTION OF MNEMONIC
#---------         -----------     ------------------------------
GL  .M        686.4                : gl           - GROUND LEVEL ELEVATION
EREF.M        689.5                : kb           - ELEVATION OF DEPTH REFERENCE
DATM.M        686.4                : datum        - DATUM ELEVATION
TDD .M        644                  : tdd          - TOTAL DEPTH DRILLER
RUN .         ONE                  : Run          - RUN NUMBER
BASE.         EDM                  : Branch       - HOME BASE OF LOGGING UNIT
MUD .         GEL CHEM             : Mud_type     - MUD TYPE
MATR.         SANDSTONE            : Logunit      - NEUTRON MATRIX
TMAX.C        33.3                 : BHT          - MAXIMUM RECORDED TEMPERATURE
BHTD.M        645.2                : BHTDEP       - MAXIMUM RECORDED TEMPERATURE
RMT .C        12.8                 : MDTP         - TEMPERATURE OF MUD
MUDD.KG/M     1190                 : MWT          - MUD DENSITY
NEUT.         1                    : NEUTRON      - NEUTRON TYPE
RESI.         0                    : RESIST       - RESISTIVITY TYPE
RM  .OHMM     3.2                  : RM           - RESISTIVITY OF MUD
RMC .OHMM     0                    : RMC          - RESISTIVITY OF MUD CAKE
RMF .OHMM     2.13                 : RMF          - RESISTIVITY OF MUD FILTRATE
SUFT.C        0                    : SUFT         - SURFACE TEMPERATURE
~A  DEPTH     RESD     PHIN     PHID      CAL       GR
# ...
  561.000   17.189    0.418    0.272  147.511   72.360
  561.250   16.472    0.432    0.281  147.882   76.065
  561.500   15.549    0.443    0.276  148.459   78.709
  561.750   14.374    0.444    0.270  148.915   79.866
  562.000   13.389    0.433    0.268  148.881   79.029
  562.250   12.616    0.420    0.264  148.735   76.387
  562.500   11.841    0.412    0.262  148.265   77.043
  562.750   11.260    0.436    0.271  147.808   78.070
  563.000   10.812    0.485    0.285  147.453   79.039
  563.250   10.321    0.471    0.282  147.307   80.196
  563.500   10.426    0.430    0.277  146.531   81.474
  563.750   10.775    0.409    0.283  145.655   83.002
  564.000   11.388    0.403    0.274  144.886   78.304
  564.250   12.154    0.400    0.256  144.212   75.106
  564.500   12.871    0.384    0.240  144.796   73.711
  564.750   12.261    0.397    0.244  147.132   74.990
  565.000   11.684    0.453    0.259  148.430   80.498
  565.250   11.134    0.476    0.276  147.760   84.638
  565.500   10.689    0.472    0.279  146.889   84.484
  565.750   10.538    0.450    0.265  146.735   83.150
  566.000   10.727    0.431    0.258  147.210   81.940
  566.250   11.167    0.413    0.245  148.306   81.415
  566.500   11.389    0.402    0.234  149.296   80.326
  566.750   11.680    0.419    0.242  149.866   79.492
  567.000   11.891    0.418    0.252  149.926   78.468
  567.250   12.101    0.398    0.239  149.877   76.701
  567.500   12.249    0.380    0.221  149.722   73.995
  567.750   12.611    0.369    0.199  149.783   73.220
  568.000   13.354    0.365    0.184  149.840   74.565
  568.250   14.090    0.376    0.199  149.898   76.894
  568.500   15.265    0.382    0.204  149.534   78.115
  568.750   15.864    0.407    0.194  148.664   78.583
  569.000   15.668    0.446    0.252  147.687   77.562
  569.250   15.155    0.510    0.323  146.601   76.041
  569.500   13.933    0.496    0.277  146.249   78.005
  569.750   11.524    0.462    0.236  145.775   80.275
  570.000   10.455    0.394    0.207  145.327   83.672
  570.250   10.189    0.403    0.211  145.167   87.501
  570.500   10.471    0.398    0.205  145.126   85.913
  570.750   11.087    0.370    0.199  145.596   85.205
  571.000   11.503    0.357    0.197  146.379   85.052
  571.250   12.090    0.362    0.181  147.162   84.462
  571.500   12.827    0.340    0.157  147.640   80.454
  571.750   13.306    0.319    0.144  148.111   76.570
  572.000   13.417    0.344    0.157  148.990   78.161
  572.250   13.301    0.356    0.164  150.079   77.696
  572.500   13.261    0.353    0.164  150.562   76.547
  572.750   13.245    0.347    0.162  151.135   77.828
  573.000   13.230    0.343    0.150  151.185   79.416
  573.250   13.191    0.337    0.140  151.356   81.069
  573.500   13.028    0.329    0.122  151.407   82.223
  573.750   12.483    0.311    0.100  151.050   77.841
  574.000   11.305    0.296    0.085  150.897   74.765
  574.250    9.655    0.317    0.106  150.225   84.938
  574.500    8.216    0.332    0.158  150.080   91.256
  574.750    7.440    0.342    0.170  150.037   95.396
  575.000    6.826    0.375    0.134  149.994   97.172
  575.250    6.419    0.359    0.121  149.836  100.749
  575.500    6.292    0.354    0.158  149.689  103.647
  575.750    6.190    0.356    0.174  150.786  106.606
  576.000    6.137    0.363    0.147  151.459  111.242
  576.250    6.119    0.368    0.118  151.001  116.254
  576.500    6.087    0.377    0.099  150.951  115.168
  576.750    6.082    0.382    0.118  151.324  110.537
  577.000    6.098    0.377    0.140  152.212  109.639
  577.250    6.195    0.387    0.132  152.374  111.163
  577.500    6.271    0.392    0.122  152.948  116.362
  577.750    6.418    0.384    0.144  153.213  122.492
  578.000    6.596    0.375    0.156  153.166  124.517
  578.250    6.933    0.363    0.160  153.014  124.801
  578.500    7.510    0.364    0.148  152.651  120.293
  578.750    8.029    0.367    0.152  152.199  112.863
  579.000    8.422    0.350    0.162  151.212  104.749
  579.250    8.654    0.309    0.104  150.032   95.947
  579.500    8.645    0.300    0.104  148.835  104.755
  579.750    8.586    0.326    0.143  148.170  109.765
  580.000    8.513    0.368    0.171  147.504  109.055
  580.250    8.376    0.362    0.183  147.867  102.121
  580.500    8.240    0.365    0.167  148.234   99.294
  580.750    8.077    0.366    0.158  148.293   98.331
  581.000    7.872    0.344    0.136  148.245   95.941
  581.250    7.630    0.324    0.125  148.202   96.970
  581.500    7.381    0.328    0.144  148.251  103.038
  581.750    7.019    0.330    0.161  148.206  110.476
  582.000    6.920    0.327    0.164  148.257  114.553
  582.250    7.205    0.348    0.148  148.635  117.947
  582.500    7.746    0.384    0.130  148.904  116.487
  582.750    8.897    0.368    0.108  149.475  104.641
  583.000   10.296    0.316    0.066  149.949   87.693
  583.250   11.153    0.262    0.034  150.630   75.658
  583.500   10.271    0.242    0.027  151.206   78.429
  583.750    9.444    0.232    0.031  151.986   88.541
  584.000    8.731    0.248    0.064  152.669   93.678
  584.250    8.102    0.291    0.088  153.340   98.315
  584.500    7.647    0.348    0.099  153.712  102.577
  584.750    7.595    0.370    0.115  153.667  105.536
  585.000    7.502    0.363    0.127  153.416  106.443
  585.250    7.465    0.350    0.114  153.058   99.323
  585.500    7.657    0.353    0.103  152.493   97.553
  585.750    8.062    0.374    0.110  152.239   98.893
  586.000    7.814    0.376    0.058  151.566   92.832
  586.250    7.446    0.346    0.031  151.101   91.932
  586.500    7.135    0.340    0.056  150.753  100.924
  586.750    6.980    0.381    0.113  150.187  105.376
  587.000    6.920    0.372    0.132  149.725  105.408
  587.250    6.912    0.352    0.111  149.574  106.253
  587.500    6.996    0.361    0.103  149.842  109.646
  587.750    7.122    0.368    0.122  150.315  109.617
  588.000    7.387    0.357    0.135  150.472  103.805
  588.250    8.532    0.346    0.148  150.529  105.267
  588.500   13.005    0.358    0.146  150.795  106.113
  588.750   18.874    0.351    0.087  151.461   97.066
  589.000   74.030    0.306    0.047  151.844   95.854
  589.250  814.985    0.310    0.064  151.788  103.355
  589.500  372.769    0.342    0.116  151.749  108.490
  589.750    4.740    0.343    0.099  151.801  102.425
  590.000   84.259    0.336    0.115  151.647  104.389
  590.250  931.070    0.349    0.132  151.705  117.673
  590.500  634.131    0.350    0.127  151.462  120.569
  590.750    6.064    0.342    0.136  151.511  113.576
  591.000    5.735    0.331    0.150  151.571  110.499
  591.250    5.738    0.335    0.140  151.735  110.533
  591.500    6.170    0.333    0.121  152.001  108.016
  591.750    6.510    0.341    0.134  151.640  104.318
  592.000    5.951    0.327    0.158  151.388   96.827
  592.250    5.024    0.307    0.205  150.825   92.880
  592.500    4.267    0.318    0.198  149.949  103.800
  592.750    3.517    0.318    0.119  149.689  104.768
  593.000    3.166    0.323    0.060  151.821  113.136
  593.250    3.057    0.497    0.121  153.331  121.819
  593.500    3.002    0.532    0.160  154.013  127.077
  593.750    2.971    0.517    0.184  153.447  125.432
  594.000    2.967    0.466    0.157  152.880  119.993
  594.250    3.026    0.430    0.132  152.315  118.970
  594.500    3.133    0.408    0.144  152.680  122.113
  594.750    3.250    0.454    0.157  153.458  127.062
  595.000    3.429    0.468    0.155  154.460  120.690
  595.250    3.757    0.413    0.117  155.860  107.784
  595.500    4.187    0.361    0.069  156.021   99.981
  595.750    4.535    0.351    0.032  156.180  101.384
  596.000    4.712    0.358    0.083  156.032  111.122
  596.250    4.807    0.361    0.126  155.262  111.779
  596.500    4.920    0.375    0.120  154.378  111.998
  596.750    4.859    0.388    0.129  153.821  113.838
  597.000    4.692    0.387    0.139  153.982  113.562
  597.250    4.429    0.374    0.128  154.555  111.481
