~VERSION INFORMATION
 VERS.                 2.0:   CWLS LOG ASCII STANDARD -VERSION 2.0
 WRAP.                  NO:   ONE LINE PER DEPTH STEP
~WELL INFORMATION BLOCK
#MNEM.UNIT           DATA                    DESCRIPTION OF MNEMONIC
#---------    -------------------            -------------------------------
# Generated from Intellog Unique Number	CS_73_76/WELL/3262
WELL.         W.W. BECKER OIL & GAS LTD.     : Well_name    - WELL
LOC .         00/11-11-075-14W4/0            : Location     - LOCATION
UWI .         00/11-11-075-14W4/0            : Uwi          - UNIQUE WELL ID
ENTR.         SP                             : Entered      - ENTERED BY
SRVC.         SCHLUMBERGER                   : Scn          - SERVICE COMPANY
STRT.M        396.24                         : top_depth    - START DEPTH
STOP.M        630.74                         : bot_depth    - STOP DEPTH
STEP.M        0.25                           : increment    - STEP LENGTH
 NULL. -999.2500:NULL Value
~CURVE INFORMATION BLOCK
#MNEM UNIT       ERCB CURVE CODE    CURVE DESCRIPTION
#-----------   ------------------   ----------------------------------
DEPT.M        00 001 00 00         : DEPTH        - DEPTH
GR  .API      00 310 00 00         : GR           - GAMMA RAY
DPHI.V/V      00 890 00 00         : PHID         - DENSITY POROSITY (SANDSTONE)
NPHI.V/V      00 330 00 00         : PHIN         - NEUTRON POROSITY (SANDSTONE)
ILD .OHMM     00 120 00 00         : RESD         - DEEP RESISTIVITY (DIL)
~PARAMETER INFORMATION
#MNEM.UNIT           DATA             DESCRIPTION OF MNEMONIC
#---------         -----------     ------------------------------
GL  .M        859.231              : gl           - GROUND LEVEL ELEVATION
EREF.M        859.231              : kb           - ELEVATION OF DEPTH REFERENCE
DATM.M        859.231              : datum        - DATUM ELEVATION
TDD .M        634.289              : tdd          - TOTAL DEPTH DRILLER
RUN .         ONE                  : Run          - RUN NUMBER
ENG .         BILL                 : Engineer     - RECORDING ENGINEER
WIT .         JIM                  : Witness      - WITNESSED BY
MUD .         GEL                  : Mud_type     - MUD TYPE
MATR.         SANDSTONE            : Logunit      - NEUTRON MATRIX
TMAX.C        23.8889              : BHT          - MAXIMUM RECORDED TEMPERATURE
BHTD.M        634.289              : BHTDEP       - MAXIMUM RECORDED TEMPERATURE
MATR.         1                    : LOGUNIT      - NEUTRON MATRIX
RMT .C        25                   : MDTP         - TEMPERATURE OF MUD
NEUT.         1                    : NEUTRON      - NEUTRON TYPE
RESI.         0                    : RESIST       - RESISTIVITY TYPE
RMC .OHMM     0.25                 : RMC          - RESISTIVITY OF MUD CAKE
RMF .OHMM     0.25                 : RMF          - RESISTIVITY OF MUD FILTRATE
SUFT.C        15                   : SUFT         - SURFACE TEMPERATURE
~A  DEPTH       GR     PHID     PHIN     RESD
  396.240  105.847    0.245    0.530    2.886
  396.490  103.555    0.237    0.533    2.883
  396.740  103.579    0.230    0.535    2.972
  396.990  104.024    0.215    0.523    3.096
  397.240  101.641    0.198    0.533    3.321
  397.490   95.767    0.197    0.523    3.495
  397.740   96.541    0.199    0.506    3.652
  397.990   98.779    0.203    0.495    3.766
  398.240  101.811    0.200    0.495    3.789
  398.490  104.373    0.211    0.480    3.738
  398.740  105.294    0.203    0.532    3.568
  398.990  104.576    0.194    0.535    3.333
  399.240  104.580    0.218    0.520    3.044
  399.490  104.401    0.199    0.517    2.860
  399.740  103.970    0.207    0.520    2.887
  399.990  104.056    0.194    0.532    2.951
  400.240  103.489    0.206    0.533    3.074
  400.490  102.879    0.201    0.511    3.222
  400.740  101.288    0.191    0.507    3.261
  400.990   99.089    0.188    0.508    3.221
  401.240   98.490    0.189    0.497    3.130
  401.490  101.227    0.206    0.520    3.023
  401.740  103.429    0.202    0.551    2.992
  401.990  103.086    0.217    0.558    3.012
  402.240  102.007    0.203    0.540    3.186
  402.490  103.328    0.201    0.511    3.345
  402.740  103.700    0.208    0.489    3.444
  402.990  101.081    0.209    0.493    3.540
  403.240   99.160    0.202    0.495    3.476
  403.490   97.141    0.200    0.476    3.268
  403.740  100.794    0.208    0.469    3.148
  403.990  103.687    0.197    0.490    3.247
  404.240  102.985    0.206    0.521    3.625
  404.490   97.502    0.206    0.536    4.253
  404.740   91.829    0.227    0.520    5.418
  404.990   84.241    0.250    0.478    6.846
  405.240   77.724    0.262    0.436    8.084
  405.490   76.280    0.247    0.422    9.071
  405.740   74.185    0.219    0.403    9.278
  405.990   73.554    0.171    0.377    8.983
  406.240   78.469    0.086    0.370    8.041
  406.490   82.108    0.201    0.399    7.104
  406.740   86.111    0.250    0.414    6.494
  406.990   88.190    0.247    0.414    6.104
  407.240   89.421    0.236    0.429    5.890
  407.490   90.456    0.240    0.449    5.979
  407.740   90.342    0.236    0.471    6.388
  407.990   88.602    0.233    0.485    6.843
  408.240   85.831    0.236    0.483    7.043
  408.490   81.128    0.268    0.447    7.221
  408.740   84.554    0.277    0.425    7.211
  408.990   91.158    0.250    0.417    6.932
  409.240   96.254    0.222    0.430    6.379
  409.490  100.682    0.207    0.445    6.025
  409.740  103.035    0.208    0.453    5.556
  409.990  105.307    0.210    0.462    5.391
  410.240  106.235    0.225    0.463    5.654
  410.490  105.995    0.208    0.459    6.191
  410.740  104.143    0.205    0.460    6.632
  410.990  101.301    0.218    0.463    7.165
  411.240   95.963    0.228    0.469    7.613
  411.490   88.335    0.259    0.457    7.919
  411.740   82.851    0.303    0.441    8.447
  411.990   78.823    0.311    0.442    8.549
  412.240   73.571    0.321    0.449    8.664
  412.490   71.089    0.325    0.454    8.682
  412.740   77.321    0.318    0.445    8.493
  412.990   81.167    0.298    0.439    8.506
  413.240   85.017    0.285    0.434    8.423
  413.490   90.120    0.287    0.442    8.358
  413.740   92.564    0.281    0.450    8.354
  413.990   93.462    0.279    0.453    8.355
  414.240   93.432    0.272    0.438    8.356
  414.490   91.442    0.254    0.431    8.349
  414.740   85.795    0.243    0.425    8.253
  414.990   78.817    0.239    0.414    7.906
  415.240   69.944    0.244    0.405    7.455
  415.490   69.563    0.248    0.409    6.872
  415.740   71.577    0.254    0.424    6.479
  415.990   70.990    0.255    0.432    6.538
  416.240   67.748    0.253    0.427    6.745
  416.490   65.157    0.256    0.428    6.839
  416.740   63.799    0.259    0.432    6.834
  416.990   63.469    0.271    0.408    6.824
  417.240   65.916    0.252    0.403    6.638
  417.490   71.443    0.254    0.405    6.174
  417.740   77.307    0.247    0.421    5.891
  417.990   81.397    0.238    0.433    5.534
  418.240   84.089    0.212    0.442    5.491
  418.490   83.108    0.213    0.447    5.593
  418.740   77.711    0.215    0.458    5.749
  418.990   74.295    0.241    0.447    6.047
  419.240   66.974    0.269    0.435    6.446
  419.490   60.359    0.261    0.431    6.857
  419.740   53.605    0.276    0.421    7.321
  419.990   49.699    0.287    0.419    8.033
  420.240   43.096    0.296    0.408    8.269
  420.490   37.924    0.304    0.404    8.708
  420.740   33.822    0.285    0.415    8.830
  420.990   30.594    0.299    0.394    9.084
  421.240   28.581    0.303    0.378    9.170
  421.490   26.520    0.305    0.373    9.330
  421.740   25.535    0.313    0.363    9.528
  421.990   25.571    0.311    0.357    9.508
  422.240   25.570    0.310    0.364    9.490
  422.490   25.591    0.305    0.374    9.700
  422.740   25.008    0.297    0.385    9.688
  422.990   24.986    0.289    0.383    9.797
  423.240   25.051    0.296    0.378    9.668
  423.490   27.577    0.305    0.379    9.608
  423.740   30.235    0.314    0.373    8.065
  423.990   34.285    0.316    0.369    6.414
  424.240   40.282    0.305    0.395    4.990
  424.490   50.912    0.283    0.431    4.119
  424.740   77.540    0.262    0.473    3.611
  424.990  106.665    0.223    0.503    3.583
  425.240  117.307    0.185    0.519    4.182
  425.490  121.620    0.164    0.507    4.902
  425.740  121.461    0.189    0.498    5.805
  425.990  118.883    0.229    0.472    6.806
  426.240  115.402    0.239    0.439    7.554
  426.490  111.247    0.244    0.444    8.162
  426.740  110.241    0.229    0.429    8.386
  426.990  111.251    0.229    0.419    8.251
  427.240  112.531    0.237    0.433    8.223
  427.490  112.528    0.227    0.454    8.218
  427.740  109.745    0.213    0.449    8.059
  427.990  106.885    0.230    0.445    8.026
  428.240  105.336    0.244    0.450    7.932
  428.490  104.321    0.247    0.455    7.457
  428.740  103.178    0.237    0.449    7.191
  428.990   99.826    0.230    0.450    6.642
  429.240  106.608    0.200    0.469    6.272
  429.490  115.678    0.153    0.486    6.528
  429.740  115.568    0.189    0.488    7.037
  429.990  110.232    0.215    0.460    7.478
  430.240  106.376    0.218    0.441    8.115
  430.490  104.144    0.232    0.429    8.475
  430.740  106.610    0.240    0.426    8.867
  430.990  109.514    0.253    0.425    9.015
  431.240  112.492    0.265    0.429    8.765
  431.490  115.546    0.257    0.438    8.380
  431.740  113.341    0.248    0.442    7.954
  431.990  110.253    0.238    0.438    7.877
  432.240  109.409    0.231    0.450    7.648
  432.490  109.528    0.221    0.465    7.526
  432.740  111.081    0.226    0.476    7.459
  432.990  115.007    0.234    0.473    7.226
  433.240  118.442    0.238    0.464    7.002
  433.490  122.666    0.228    0.456    6.983
  433.740  123.206    0.212    0.454    7.128
  433.990  117.589    0.189    0.449    7.721
  434.240  105.081    0.181    0.444    8.228
  434.490   90.969    0.191    0.450    8.852
  434.740   70.732    0.201    0.445    9.231
  434.990   69.572    0.242    0.446    9.580
  435.240   71.835    0.273    0.438    9.699
  435.490   71.576    0.286    0.430    9.900
  435.740   71.406    0.285    0.427    9.870
  435.990   71.889    0.273    0.437    9.432
  436.240   72.895    0.250    0.444    8.552
  436.490   77.049    0.214    0.438    7.906
  436.740   82.005    0.239    0.452    7.296
  436.990   87.246    0.271    0.463    7.061
  437.240   91.907    0.255    0.477    6.988
  437.490   93.317    0.253    0.492    6.902
  437.740   81.751    0.280    0.477    6.879
  437.990   75.624    0.294    0.465    6.630
  438.240   79.750    0.291    0.460    6.124
  438.490   83.493    0.288    0.458    5.559
  438.740   88.547    0.277    0.471    5.325
  438.990   91.224    0.258    0.496    5.171
  439.240   92.817    0.256    0.486    5.025
  439.490  102.608    0.270    0.484    5.031
