~VERSION INFORMATION
 VERS.                 2.0:   CWLS LOG ASCII STANDARD -VERSION 2.0
 WRAP.                  NO:   ONE LINE PER DEPTH STEP
~WELL INFORMATION BLOCK
#MNEM.UNIT           DATA                    DESCRIPTION OF MNEMONIC
#---------    -------------------            -------------------------------
# Generated from Intellog Unique Number	CS_67_68/WELL/2207
WELL.         BVX ATMORE                     : Well_name    - WELL
LOC .         00/11-12-067-16W4/0            : Location     - LOCATION
UWI .         00/11-12-067-16W4/0            : Uwi          - UNIQUE WELL ID
ENTR.         SP                             : Entered      - ENTERED BY
SRVC.         SCHLUMBERGER                   : Scn          - SERVICE COMPANY
STRT.M        374.904                        : top_depth    - START DEPTH
STOP.M        563.654                        : bot_depth    - STOP DEPTH
STEP.M        0.25                           : increment    - STEP LENGTH
 NULL. -999.2500:NULL Value
~CURVE INFORMATION BLOCK
#MNEM UNIT       ERCB CURVE CODE    CURVE DESCRIPTION
#-----------   ------------------   ----------------------------------
DEPT.M        00 001 00 00         : DEPTH        - DEPTH
CALI.MM       00 280 01 00         : CAL          - CALIPER
GR  .API      00 310 00 00         : GR           - GAMMA RAY
DPHI.V/V      00 890 00 00         : PHID         - DENSITY POROSITY (SANDSTONE)
NPHI.V/V      00 330 00 00         : PHIN         - NEUTRON POROSITY (SANDSTONE)
ILD .OHMM     00 120 00 00         : RESD         - DEEP RESISTIVITY (DIL)
~PARAMETER INFORMATION
#MNEM.UNIT           DATA             DESCRIPTION OF MNEMONIC
#---------         -----------     ------------------------------
GL  .M        612.953              : gl           - GROUND LEVEL ELEVATION
EREF.M        616.001              : kb           - ELEVATION OF DEPTH REFERENCE
DATM.M        616.001              : datum        - DATUM ELEVATION
TDD .M        567.233              : tdd          - TOTAL DEPTH DRILLER
RUN .         ONE                  : Run          - RUN NUMBER
ENG .         BILL                 : Engineer     - RECORDING ENGINEER
WIT .         JIM                  : Witness      - WITNESSED BY
MUD .         GEL                  : Mud_type     - MUD TYPE
MATR.         SANDSTONE            : Logunit      - NEUTRON MATRIX
TMAX.C        20                   : BHT          - MAXIMUM RECORDED TEMPERATURE
BHTD.M        567.538              : BHTDEP       - MAXIMUM RECORDED TEMPERATURE
MATR.         1                    : LOGUNIT      - NEUTRON MATRIX
RMT .C        25                   : MDTP         - TEMPERATURE OF MUD
NEUT.         1                    : NEUTRON      - NEUTRON TYPE
RESI.         0                    : RESIST       - RESISTIVITY TYPE
RMC .OHMM     0.25                 : RMC          - RESISTIVITY OF MUD CAKE
RMF .OHMM     0.25                 : RMF          - RESISTIVITY OF MUD FILTRATE
SUFT.C        15                   : SUFT         - SURFACE TEMPERATURE
~A  DEPTH      CAL       GR     PHID     PHIN     RESD
  374.904  191.735  110.580    0.225    0.539    2.393
  375.154  189.202  113.469    0.233    0.540    2.415
  375.404  187.072  113.661    0.237    0.553    2.413
  375.654  185.800  112.638    0.214    0.517    2.398
  375.904  185.193  110.354    0.215    0.518    2.365
  376.154  184.226  108.659    0.220    0.506    2.360
  376.404  183.218  109.482    0.234    0.521    2.404
  376.654  182.156  108.014    0.237    0.534    2.394
  376.904  180.032  103.573    0.241    0.516    2.326
  377.154  178.344  101.298    0.232    0.453    2.290
  377.404  179.706  106.902    0.223    0.496    2.361
  377.654  181.296  109.442    0.216    0.553    2.449
  377.904  184.043  107.992    0.261    0.590    2.481
  378.154  186.935  105.406    0.288    0.576    2.534
  378.404  182.998  102.871    0.302    0.514    2.570
  378.654  171.336   99.395    0.299    0.443    2.589
  378.904  162.232   97.853    0.272    0.397    2.604
  379.154  160.915   97.586    0.267    0.381    2.545
  379.404  159.776  101.123    0.272    0.377    2.541
  379.654  159.047  105.097    0.268    0.386    2.652
  379.904  158.526  106.581    0.258    0.378    2.716
  380.154  158.487  107.784    0.242    0.398    2.792
  380.404  158.599  107.480    0.232    0.406    2.849
  380.654  158.857  107.394    0.228    0.413    2.893
  380.904  159.223  107.722    0.223    0.402    2.852
  381.154  159.682  103.652    0.244    0.442    2.662
  381.404  159.941   95.576    0.262    0.481    2.297
  381.654  159.745   80.220    0.284    0.503    2.063
  381.904  159.780   62.579    0.308    0.543    1.885
  382.154  159.517   55.382    0.315    0.299    1.723
  382.404  159.113   51.716    0.308    0.319    1.580
  382.654  159.063   48.557    0.335    0.348    1.485
  382.904  158.996   47.779    0.345    0.369    1.445
  383.154  159.068   53.672    0.323    0.382    1.391
  383.404  159.589   56.710    0.302    0.373    1.389
  383.654  159.916   57.081    0.291    0.384    1.454
  383.904  160.355   60.468    0.299    0.380    1.514
  384.154  160.329   64.622    0.309    0.378    1.549
  384.404  160.466   67.982    0.312    0.378    1.654
  384.654  160.239   69.760    0.295    0.395    1.725
  384.904  160.162   69.876    0.280    0.407    1.852
  385.154  160.248   73.536    0.270    0.395    2.024
  385.404  160.129   82.194    0.282    0.368    2.235
  385.654  160.057   89.430    0.229    0.362    2.404
  385.904  160.126   94.456    0.210    0.381    2.583
  386.154  160.177   86.787    0.221    0.387    2.746
  386.404  160.372   83.780    0.237    0.379    2.887
  386.654  161.046   84.023    0.236    0.387    3.051
  386.904  163.503   88.482    0.218    0.393    3.178
  387.154  166.762   92.294    0.203    0.391    3.082
  387.404  169.513   89.180    0.193    0.414    2.989
  387.654  171.313   84.527    0.226    0.435    2.776
  387.904  165.102   82.836    0.242    0.421    2.535
  388.154  161.265   81.852    0.260    0.416    2.314
  388.404  160.015   83.359    0.280    0.410    2.191
  388.654  159.505   82.127    0.292    0.399    2.129
  388.904  159.074   81.747    0.303    0.395    2.040
  389.154  158.911   82.923    0.302    0.403    2.005
  389.404  158.749   84.296    0.302    0.431    1.991
  389.654  158.707   86.375    0.309    0.457    1.985
  389.904  158.926   88.441    0.309    0.475    1.936
  390.154  158.846   90.212    0.306    0.451    1.885
  390.404  158.901   91.540    0.305    0.428    1.857
  390.654  159.006   91.551    0.310    0.427    1.830
  390.904  159.133   92.436    0.298    0.443    1.822
  391.154  159.267   97.041    0.292    0.429    1.835
  391.404  159.511  100.570    0.283    0.421    1.852
  391.654  159.452  104.943    0.278    0.431    1.870
  391.904  159.318   98.973    0.289    0.446    1.890
  392.154  159.305   93.276    0.288    0.435    1.892
  392.404  159.219   89.043    0.289    0.440    1.913
  392.654  159.058   84.912    0.294    0.450    1.939
  392.904  158.887   80.929    0.299    0.449    1.970
  393.154  158.621   76.343    0.303    0.442    1.996
  393.404  158.464   78.164    0.296    0.423    2.038
  393.654  158.186   77.946    0.289    0.426    2.096
  393.904  157.961   74.875    0.286    0.425    2.186
  394.154  157.642   69.651    0.287    0.432    2.330
  394.404  157.474   65.859    0.290    0.436    2.551
  394.654  157.654   63.143    0.266    0.414    2.519
  394.904  157.559   61.106    0.249    0.394    2.396
  395.154  157.482   59.034    0.256    0.355    2.206
  395.404  157.409   65.527    0.289    0.369    2.106
  395.654  157.481   69.831    0.295    0.409    2.093
  395.904  158.006   71.784    0.275    0.445    2.217
  396.154  158.400   67.540    0.216    0.401    2.348
  396.404  159.189   64.462    0.147    0.338    2.870
  396.654  160.036   62.998    0.074    0.286    3.684
  396.904  161.348   62.499    0.057    0.228    4.318
  397.154  162.673   60.562    0.049    0.208    4.206
  397.404  161.932   60.180    0.051    0.203    3.170
  397.654  159.919   62.581    0.075    0.235    2.546
  397.904  158.295   64.470    0.123    0.275    2.118
  398.154  157.129   66.401    0.162    0.388    1.954
  398.404  157.174   67.887    0.262    0.404    2.082
  398.654  157.497   69.565    0.311    0.419    2.195
  398.904  157.819   70.699    0.299    0.438    2.453
  399.154  158.166   71.327    0.289    0.370    2.723
  399.404  158.621   68.417    0.205    0.289    2.603
  399.654  158.905   66.835    0.165    0.271    2.336
  399.904  159.112   72.006    0.135    0.292    2.155
  400.154  159.212   76.316    0.171    0.335    2.026
  400.404  159.210   77.250    0.259    0.403    1.964
  400.654  159.188   84.954    0.287    0.437    2.045
  400.904  159.966   94.735    0.315    0.416    2.267
  401.154  161.447  103.303    0.264    0.406    2.453
  401.404  164.220  109.059    0.233    0.413    2.664
  401.654  166.399  113.848    0.202    0.467    2.868
  401.904  168.210  118.685    0.158    0.500    3.036
  402.154  168.024  122.945    0.145    0.495    3.183
  402.404  168.748  126.993    0.183    0.472    3.345
  402.654  168.877  128.863    0.231    0.449    3.515
  402.904  166.563  126.249    0.243    0.429    3.656
  403.154  165.615  121.208    0.233    0.414    3.713
  403.404  165.512  115.816    0.228    0.424    3.745
  403.654  166.094  112.025    0.223    0.393    3.789
  403.904  166.312  109.115    0.219    0.381    3.750
  404.154  166.030  108.232    0.219    0.395    3.595
  404.404  165.157  107.429    0.220    0.413    3.458
  404.654  163.807  106.249    0.216    0.424    3.289
  404.904  162.055  106.929    0.211    0.424    3.188
  405.154  160.448  108.852    0.209    0.419    3.083
  405.404  159.078  108.081    0.213    0.417    3.067
  405.654  158.699  104.724    0.226    0.412    3.084
  405.904  159.262  113.129    0.244    0.406    3.165
  406.154  162.347  120.259    0.228    0.425    3.254
  406.404  164.395  118.726    0.223    0.441    3.306
  406.654  165.466  115.342    0.236    0.432    3.215
  406.904  164.807  108.031    0.243    0.447    2.964
  407.154  162.130  102.618    0.247    0.464    2.779
  407.404  160.409   99.427    0.254    0.482    2.651
  407.654  159.443  100.648    0.261    0.477    2.598
  407.904  159.746   99.328    0.269    0.432    2.699
  408.154  160.739  103.933    0.278    0.401    2.824
  408.404  162.740  109.998    0.264    0.399    2.942
  408.654  165.039  113.466    0.233    0.417    3.044
  408.904  166.303  113.620    0.245    0.435    3.073
  409.154  167.355  114.131    0.265    0.464    2.858
  409.404  166.429  117.244    0.272    0.486    2.695
  409.654  167.148  120.606    0.253    0.500    2.628
  409.904  168.283  123.405    0.237    0.522    2.736
  410.154  169.065  121.812    0.231    0.530    2.867
  410.404  165.420  122.765    0.252    0.508    2.844
  410.654  165.717  126.656    0.233    0.501    2.488
  410.904  168.621  130.994    0.221    0.484    2.152
  411.154  169.105  134.003    0.225    0.460    1.847
