~VERSION INFORMATION
 VERS.                 2.0:   CWLS LOG ASCII STANDARD -VERSION 2.0
 WRAP.                  NO:   ONE LINE PER DEPTH STEP
~WELL INFORMATION BLOCK
#MNEM.UNIT           DATA                    DESCRIPTION OF MNEMONIC
#---------    -------------------            -------------------------------
# Generated from Intellog Unique Number	CC_80_83/WELL/2402
NULL.         -999.25                        : NULL_VALUE
WELL.         PARA ET AL GRANOR              : Well_name    - WELL
LOC .         11-19-083-17W4                 : Location     - LOCATION          
UWI .         00/11-19-083-17W400            : Uwi          - UNIQUE WELL ID    
ENTR.         DW                             : Entered      - ENTERED BY        
SRVC.         COMPUTALOG                     : Scn          - SERVICE COMPANY   
DATE.         31 JAN 82                      : Date         - LOG DATE
STRT.M        100                            : top_depth    - START DEPTH       
STOP.M        300.1                          : bot_depth    - STOP DEPTH        
STEP.M        0.3                            : increment    - STEP LENGTH       
~CURVE INFORMATION BLOCK
#MNEM UNIT       ERCB CURVE CODE    CURVE DESCRIPTION
#-----------   ------------------   ----------------------------------
DEPT.M        00 001 00 00         : DEPTH        - DEPTH                       
ILD .OHMM     00 120 00 00         : RESD         - DEEP RESISTIVITY (DIL)      
GR  .API      00 310 00 00         : GR           - GAMMA RAY                   
NPHI.V/V      00 330 00 00         : PHIN         - NEUTRON POROSITY (LIMESTONE)
DPHI.V/V      00 890 00 00         : PHID         - DENSITY POROSITY (LIMESTONE)
~PARAMETER INFORMATION       
#MNEM.UNIT           DATA             DESCRIPTION OF MNEMONIC
#---------         -----------     ------------------------------
GL  .M        542.3                : gl           - GROUND LEVEL ELEVATION      
EREF.M        545.33               : kb           - ELEVATION OF DEPTH REFERENCE
DATM.M        545.33               : datum        - DATUM ELEVATION             
TDD .M        304                  : tdd          - TOTAL DEPTH DRILLER         
RUN .         ONE                  : Run          - RUN NUMBER                  
ENG .         BILL                 : Engineer     - RECORDING ENGINEER          
WIT .         JIM                  : Witness      - WITNESSED BY                
MUD .         GEL                  : Mud_type     - MUD TYPE                    
MATR.         LIMESTONE            : Logunit      - NEUTRON MATRIX              
TMAX.C        22                   : BHT          - MAXIMUM RECORDED TEMPERATURE
BHTD.M        304                  : BHTDEP       - MAXIMUM RECORDED TEMPERATURE
MATR.         1                    : LOGUNIT      - NEUTRON MATRIX              
RMT .C        25                   : MDTP         - TEMPERATURE OF MUD          
NEUT.         1                    : NEUTRON      - NEUTRON TYPE                
RESI.         0                    : RESIST       - RESISTIVITY TYPE            
RMC .OHMM     0.25                 : RMC          - RESISTIVITY OF MUD CAKE     
RMF .OHMM     0.25                 : RMF          - RESISTIVITY OF MUD FILTRATE 
SUFT.C        15                   : SUFT         - SURFACE TEMPERATURE         
~A  DEPTH     RESD       GR     PHIN     PHID
  100.000    6.297   95.255    0.000    0.271
  100.300    6.060   49.795    0.257    0.217
  100.600    5.105   35.464    0.255    0.237
  100.900    4.385  102.068    0.316    0.257
  101.200    3.837  115.131    0.522    0.270
  101.500    3.358  118.856    0.545    0.286
  101.800    3.112  116.352    0.574    0.283
  102.100    2.828  116.963    0.531    0.244
  102.400    2.670  118.821    0.522    0.255
  102.700    2.619  110.717    0.543    0.269
  103.000    2.617  105.724    0.573    0.151
  103.300    2.666  100.732    0.529    0.185
  103.600    2.716   96.362    0.441    0.255
  103.900    2.820  111.295    0.423    0.298
  104.200    2.927  118.129    0.425    0.236
  104.500    2.982  118.118    0.477    0.225
  104.800    3.095  116.862    0.500    0.229
  105.100    3.154  118.720    0.502    0.226
  105.400    3.273  121.822    0.482    0.208
  105.700    3.335  119.944    0.440    0.203
  106.000    3.397  116.819    0.456    0.212
  106.300    3.527  118.675    0.597    0.217
  106.600    3.458  120.530    0.599    0.205
  106.900    3.456  121.144    0.541    0.199
  107.200    3.521  118.018    0.523    0.194
  107.500    3.656  108.670    0.427    0.187
  107.800    3.724   99.319    0.433    0.205
  108.100    3.721  115.495    0.466    0.239
  108.400    3.720  121.709    0.479    0.224
  108.700    3.717  122.318    0.470    0.212
  109.000    3.716  119.195    0.470    0.215
  109.300    3.857  118.564    0.491    0.253
  109.600    3.929  116.059    0.582    0.264
  109.900    4.157  111.690    0.582    0.228
  110.200    4.656  111.052    0.406    0.202
  110.500    4.834  111.665    0.409    0.207
  110.800    5.212  111.659    0.422    0.223
  111.100    5.209  111.025    0.435    0.232
  111.400    5.108  108.522    0.447    0.259
  111.700    5.107  104.776    0.445    0.290
  112.000    5.506   95.427    0.421    0.283
  112.300    5.717   85.454    0.418    0.281
  112.600    6.908   83.574    0.413    0.295
  112.900    8.835   91.034    0.402    0.294
  113.200   10.880   92.267    0.401    0.303
  113.500   12.656   86.655    0.428    0.313
  113.800   14.445   75.437    0.416    0.295
  114.100   15.284   71.068    0.405    0.289
  114.400   14.708   71.053    0.405    0.285
  114.700   13.626   76.026    0.352    0.275
  115.000   12.386   85.975    0.400    0.244
  115.300   11.047   91.568    0.339    0.206
  115.600   10.041   91.556    0.335    0.217
  115.900    9.665   92.166    0.381    0.273
  116.200    9.126   94.646    0.452    0.324
  116.500    8.616   97.748    0.489    0.357
  116.800   10.023   99.605    0.494    0.328
  117.100   12.579   92.123    0.421    0.317
  117.400   12.814   65.339    0.328    0.326
  117.700   11.871   75.913    0.345    0.274
  118.000   11.641   95.202    0.407    0.252
  118.300   12.318   92.078    0.463    0.283
  118.600   14.060   75.880    0.473    0.308
  118.900   20.537   64.662    0.478    0.323
  119.200   25.774   62.780    0.474    0.332
  119.500   26.758   68.372    0.410    0.329
  119.800   26.242   71.474    0.399    0.324
  120.100   24.310   74.575    0.482    0.320
  120.400   22.524   74.566    0.457    0.291
  120.700   19.709   72.687    0.248    0.144
  121.000   17.918   71.432    0.302    0.217
  121.300   15.982   72.035    0.409    0.279
  121.600   13.725   73.896    0.396    0.340
  121.900   10.519   77.000    0.359    0.359
  122.200    7.332   83.837    0.369    0.376
  122.500    5.308  101.259    0.421    0.347
  122.800    4.389  109.341    0.478    0.318
  123.100    4.143  108.706    0.535    0.268
  123.400    4.384   98.735    0.482    0.232
  123.700    5.197  104.324    0.454    0.237
  124.000    6.162  105.560    0.400    0.285
  124.300    7.446   82.513    0.362    0.327
  124.600   11.734   65.693    0.391    0.326
  124.900   13.142   62.568    0.461    0.306
  125.200   11.072   66.914    0.404    0.282
  125.500    9.330   94.297    0.405    0.251
  125.800    7.714   99.266    0.435    0.216
  126.100    6.258   99.879    0.456    0.214
  126.400    5.909   99.242    0.438    0.240
  126.700    6.618   97.366    0.488    0.272
  127.000    8.961   86.771    0.444    0.288
  127.300   17.730   76.172    0.389    0.285
  127.600   22.677   71.806    0.389    0.207
  127.900   24.448   69.303    0.429    0.235
  128.200   24.437   68.669    0.470    0.290
  128.500   24.428   66.788    0.492    0.306
  128.800   23.503   63.666    0.428    0.306
  129.100   22.190   63.656    0.374    0.296
  129.400   21.766   70.493    0.347    0.295
  129.700   21.346   79.197    0.381    0.289
  130.000   21.334   81.678    0.407    0.228
  130.300   21.732   76.684    0.353    0.224
  130.600   22.136   72.316    0.399    0.259
  130.900   22.121   73.550    0.348    0.271
  131.200   22.115   82.256    0.336    0.268
  131.500   22.102   84.110    0.372    0.281
  131.800   22.090   84.099    0.404    0.304
  132.100   21.260   83.465    0.420    0.301
  132.400   19.323   82.832    0.440    0.291
  132.700   16.284   84.067    0.480    0.253
  133.000   12.015   98.376    0.417    0.223
  133.300    9.208  109.570    0.352    0.235
  133.600    8.860  110.800    0.365    0.253
  133.900    9.199  110.170    0.439    0.258
  134.200    9.919  109.536    0.442    0.244
  134.500   11.537  107.034    0.447    0.229
  134.800   12.441  100.797    0.413    0.232
  135.100   13.670   93.939    0.322    0.232
  135.400   13.928   92.059    0.331    0.227
  135.700   14.459   97.650    0.355    0.242
  136.000   14.178  115.071    0.414    0.243
  136.300   14.171  115.058    0.441    0.223
  136.600   14.164  110.688    0.448    0.231
  136.900   13.891  107.565    0.460    0.237
  137.200   13.624  108.179    0.457    0.221
  137.500   11.265  113.769    0.422    0.244
  137.800    9.671  116.872    0.441    0.263
  138.100    9.667  116.860    0.395    0.201
  138.400   10.423  106.266    0.340    0.184
  138.700   10.822  101.273    0.369    0.201
  139.000   11.667  101.884    0.384    0.198
  139.300   11.664  106.233    0.349    0.192
  139.600   11.014  109.954    0.339    0.186
  139.900    9.458  111.812    0.376    0.186
  140.200    7.970  114.914    0.411    0.220
  140.500    6.589  121.753    0.448    0.269
  140.800    5.988  133.568    0.438    0.267
  141.100    6.101  133.558    0.482    0.277
  141.400    6.455  131.678    0.458    0.332
  141.700    6.700  122.951    0.382    0.386
  142.000    6.698  122.938    0.376    0.302
  142.300    6.089  124.796    0.373    0.257
  142.600    5.034  131.010    0.399    0.233
  142.900    4.323  136.603    0.433    0.231
  143.200    4.321  137.836    0.491    0.293
  143.500    4.748  135.335    0.527    0.319
  143.800    5.630  130.344    0.472    0.328
  144.100    9.754  122.861    0.364    0.256
  144.400   12.958  117.870    0.339    0.231
  144.700   12.708  115.368    0.380    0.229
  145.000   11.551  114.112    0.441    0.226
  145.300   10.702  114.100    0.378    0.222
  145.600    9.914  119.069    0.323    0.226
  145.900    9.542  123.415    0.388    0.249
  146.200    9.536  124.027    0.436    0.280
  146.500   11.307  119.036    0.445    0.282
  146.800   16.206  102.839    0.348    0.297
  147.100   20.338   73.566    0.321    0.317
  147.400   23.213   71.064    0.362    0.305
  147.700   22.337   79.145    0.355    0.265
  148.000   19.181   86.606    0.346    0.256
  148.300   17.110   91.575    0.358    0.293
  148.600   15.555   92.187    0.406    0.424
  148.900   14.140   73.499    0.515    0.506
  149.201   13.099   56.055    0.562    0.583
  149.501   12.368   55.421    0.608    0.582
  149.801   10.825   65.992    0.634    0.467
  150.101    6.733   74.698    0.665    0.405
  150.401    6.006   84.647    0.684    0.347
  150.701    5.564   92.729    0.707    0.289
  151.001    5.561   96.454    0.723    0.291
  151.301    6.348   95.818    0.744    0.317
  151.601    8.595   92.696    0.506    0.313
  151.901   11.419   83.968    0.399    0.200
