~VERSION INFORMATION
 VERS.                 2.0:   CWLS LOG ASCII STANDARD -VERSION 2.0
 WRAP.                  NO:   ONE LINE PER DEPTH STEP
~WELL INFORMATION BLOCK
#MNEM.UNIT           DATA                    DESCRIPTION OF MNEMONIC
#---------    -------------------            -------------------------------
# Generated from Intellog Unique Number	CS_67_68/WELL/2216
WELL.         CAVALIER FLAT LAKE             : Well_name    - WELL
LOC .         00/14-03-067-18W4/0            : Location     - LOCATION
UWI .         00/14-03-067-18W4/0            : Uwi          - UNIQUE WELL ID
ENTR.         SP                             : Entered      - ENTERED BY
SRVC.         SCHLUMBERGER                   : Scn          - SERVICE COMPANY
STRT.M        395                            : top_depth    - START DEPTH
STOP.M        551                            : bot_depth    - STOP DEPTH
STEP.M        0.25                           : increment    - STEP LENGTH
 NULL. -999.2500:NULL Value
~CURVE INFORMATION BLOCK
#MNEM UNIT       ERCB CURVE CODE    CURVE DESCRIPTION
#-----------   ------------------   ----------------------------------
DEPT.M        00 001 00 00         : DEPTH        - DEPTH
ILD .OHMM     00 120 00 00         : RESD         - DEEP RESISTIVITY (DIL)
DPHI.V/V      00 890 00 00         : PHID         - DENSITY POROSITY (LIMESTONE)
NPHI.V/V      00 330 00 00         : PHIN         - NEUTRON POROSITY (LIMESTONE)
GR  .API      00 310 00 00         : GR           - GAMMA RAY
CALI.MM       00 280 01 00         : CAL          - CALIPER
~PARAMETER INFORMATION
#MNEM.UNIT           DATA             DESCRIPTION OF MNEMONIC
#---------         -----------     ------------------------------
GL  .M        616.5                : gl           - GROUND LEVEL ELEVATION
EREF.M        620.5                : kb           - ELEVATION OF DEPTH REFERENCE
DATM.M        620.5                : datum        - DATUM ELEVATION
TDD .M        570                  : tdd          - TOTAL DEPTH DRILLER
RUN .         ONE                  : Run          - RUN NUMBER
ENG .         BILL                 : Engineer     - RECORDING ENGINEER
WIT .         JIM                  : Witness      - WITNESSED BY
MUD .         GEL                  : Mud_type     - MUD TYPE
MATR.         LIMESTONE            : Logunit      - NEUTRON MATRIX
TMAX.C        23                   : BHT          - MAXIMUM RECORDED TEMPERATURE
BHTD.M        570                  : BHTDEP       - MAXIMUM RECORDED TEMPERATURE
MATR.         1                    : LOGUNIT      - NEUTRON MATRIX
RMT .C        25                   : MDTP         - TEMPERATURE OF MUD
NEUT.         1                    : NEUTRON      - NEUTRON TYPE
RESI.         0                    : RESIST       - RESISTIVITY TYPE
RMC .OHMM     0.25                 : RMC          - RESISTIVITY OF MUD CAKE
RMF .OHMM     0.25                 : RMF          - RESISTIVITY OF MUD FILTRATE
SUFT.C        15                   : SUFT         - SURFACE TEMPERATURE
~A  DEPTH     RESD     PHID     PHIN       GR      CAL
  395.000    2.485    0.224    0.481   94.512  188.413
  395.250    2.441    0.223    0.481   96.093  183.711
  395.500    2.401    0.248    0.488   96.636  180.433
  395.750    2.381    0.271    0.496   94.914  179.501
  396.000    2.379    0.283    0.493   92.213  179.384
  396.250    2.390    0.199    0.470   90.798  179.980
  396.500    2.415    0.144    0.450   93.481  184.758
  396.750    2.482    0.163    0.467   95.673  188.006
  397.000    2.565    0.193    0.468   97.684  190.236
  397.250    2.661    0.212    0.465   99.692  192.052
  397.500    2.782    0.217    0.474  101.458  192.448
  397.750    2.853    0.227    0.477  101.511  191.211
  398.000    2.905    0.235    0.477   99.973  187.829
  398.250    2.896    0.227    0.484  103.267  185.573
  398.500    2.829    0.216    0.491  104.544  184.641
  398.750    2.747    0.209    0.488  103.494  188.500
  399.000    2.729    0.211    0.478  101.895  190.320
  399.250    2.836    0.207    0.484   99.745  189.695
  399.500    2.893    0.209    0.504   97.596  184.072
  399.750    2.841    0.231    0.501   94.956  175.799
  400.000    2.764    0.233    0.487   93.112  169.567
  400.250    2.665    0.202    0.487   96.528  170.776
  400.500    2.617    0.225    0.503   98.783  164.440
  400.750    2.575    0.284    0.502  100.182  150.558
  401.000    2.505    0.293    0.476   99.867  146.976
  401.250    2.451    0.276    0.492   99.736  167.656
  401.500    2.376    0.267    0.519   99.544  175.289
  401.750    2.299    0.258    0.515   93.968  177.516
  402.000    2.207    0.267    0.454   87.903  169.448
  402.250    2.091    0.300    0.397   83.062  153.527
  402.500    2.125    0.302    0.384   79.505  147.296
  402.750    2.251    0.299    0.380   78.212  152.073
  403.000    2.457    0.300    0.390   79.487  154.809
  403.250    2.662    0.287    0.380   83.945  158.057
  403.500    2.912    0.272    0.360   94.090  160.897
  403.750    3.197    0.245    0.380  101.117  160.986
  404.000    3.399    0.216    0.405   98.049  159.646
  404.250    3.403    0.264    0.434   83.175  159.325
  404.500    3.380    0.321    0.429   69.096  158.800
  404.750    3.415    0.297    0.347   58.444  157.967
  405.000    3.476    0.278    0.322   53.908  157.849
  405.250    3.689    0.261    0.307   60.751  157.737
  405.500    3.915    0.247    0.321   64.841  157.110
  405.750    4.187    0.246    0.333   69.664  157.503
  406.000    4.597    0.243    0.343   70.879  157.590
  406.250    4.943    0.259    0.361   67.873  158.494
  406.500    5.712    0.267    0.364   62.908  159.295
  406.750    5.598    0.254    0.390   54.947  160.401
  407.000    5.041    0.269    0.390   55.550  161.100
  407.250    4.591    0.282    0.340   66.736  161.493
  407.500    4.205    0.263    0.338   70.826  164.335
  407.750    3.910    0.255    0.351   71.979  166.562
  408.000    3.601    0.251    0.351   74.051  167.262
  408.250    3.843    0.246    0.348   76.489  167.756
  408.500    4.048    0.231    0.342   79.355  168.455
  408.750    4.184    0.217    0.377   79.591  169.051
  409.000    4.156    0.201    0.404   75.423  169.751
  409.250    4.028    0.201    0.391   72.539  170.653
  409.500    3.803    0.163    0.373   76.934  170.028
  409.750    3.651    0.294    0.389   80.045  164.914
  410.000    3.486    0.333    0.497   77.895  159.498
  410.250    3.322    0.342    0.541   73.666  157.338
  410.500    3.214    0.311    0.462   71.148  157.124
  410.750    3.115    0.296    0.375   69.794  156.799
  411.000    3.112    0.287    0.345   68.195  156.888
  411.250    3.162    0.283    0.337   62.679  157.588
  411.500    3.225    0.291    0.372   61.938  157.675
  411.750    3.246    0.285    0.392   64.559  157.253
  412.000    2.934    0.278    0.406   64.122  157.033
  412.250    2.754    0.269    0.403   65.949  157.020
  412.500    2.680    0.261    0.396   72.362  157.108
  412.750    2.597    0.249    0.398   75.658  157.399
  413.000    2.439    0.237    0.411   77.361  157.996
  413.250    2.367    0.232    0.413   76.864  158.592
  413.500    2.286    0.242    0.409   77.344  158.782
  413.750    2.216    0.267    0.409   73.848  158.870
  414.000    2.156    0.275    0.420   70.781  158.548
  414.250    2.141    0.274    0.430   67.958  158.534
  414.500    2.151    0.266    0.428   69.050  158.213
  414.750    2.236    0.260    0.415   71.305  158.096
  415.000    2.382    0.265    0.409   70.684  157.878
  415.250    2.538    0.276    0.419   67.678  157.761
  415.500    2.569    0.283    0.429   65.528  157.339
  415.750    2.439    0.289    0.429   65.886  157.119
  416.000    2.355    0.288    0.417   69.732  157.104
  416.250    2.265    0.278    0.407   71.312  157.295
  416.500    2.216    0.279    0.412   70.693  157.281
  416.750    2.348    0.283    0.404   70.133  158.080
  417.000    2.627    0.282    0.394   74.651  159.797
  417.250    3.122    0.277    0.390   73.970  160.703
  417.500    3.846    0.274    0.393   70.168  161.811
  417.750    4.444    0.274    0.399   65.938  163.020
  418.000    4.907    0.241    0.388   63.237  164.328
  418.250    4.623    0.201    0.352   61.332  164.621
  418.500    3.338    0.169    0.314   60.344  164.198
  418.750    2.829    0.150    0.284   59.970  163.674
  419.000    2.528    0.139    0.274   62.529  162.027
  419.250    2.329    0.192    0.325   66.252  159.768
  419.500    2.232    0.278    0.394   70.587  158.532
  419.750    2.159    0.300    0.413   73.209  157.396
  420.000    2.089    0.285    0.409   74.301  156.668
  420.250    1.968    0.263    0.425   69.704  156.140
  420.500    1.915    0.268    0.444   62.722  156.126
  420.750    1.916    0.284    0.427   60.510  156.315
  421.000    2.026    0.294    0.429   65.151  156.914
  421.250    2.255    0.305    0.438   68.813  159.040
  421.500    2.438    0.294    0.418   73.637  161.064
  421.750    2.748    0.292    0.407   79.622  162.987
  422.000    3.046    0.274    0.400   85.608  165.420
  422.250    3.357    0.232    0.420   90.677  168.157
  422.500    3.522    0.206    0.439   95.746  170.081
  422.750    3.559    0.178    0.434   96.900  171.800
  423.000    3.644    0.163    0.419  100.622  173.620
  423.250    3.853    0.166    0.427  106.425  175.135
  423.500    4.043    0.196    0.458  109.230  172.672
  423.750    4.265    0.208    0.464  105.612  169.292
  424.000    4.458    0.200    0.402  103.585  168.259
  424.250    4.556    0.195    0.386  101.924  167.838
  424.500    4.640    0.198    0.389   99.345  167.617
  424.750    4.617    0.179    0.379   97.380  167.195
  425.000    4.577    0.168    0.370   95.230  166.568
  425.250    4.529    0.180    0.379   97.178  166.350
  425.500    4.415    0.190    0.376  100.044  165.925
  425.750    4.296    0.193    0.364   99.302  165.810
  426.000    4.259    0.201    0.369   95.256  165.797
  426.250    4.336    0.193    0.380   90.476  165.578
  426.500    4.439    0.166    0.398   84.532  165.462
  426.750    4.198    0.139    0.419   78.896  165.447
  427.000    4.016    0.109    0.415   73.381  165.635
  427.250    3.907    0.053    0.384   81.936  165.724
  427.500    3.759    0.157    0.381   88.289  165.911
  427.750    3.678    0.190    0.392   94.582  165.694
  428.000    3.681    0.209    0.399  100.446  165.374
  428.250    3.691    0.206    0.415  104.474  165.562
  428.500    3.716    0.209    0.439  108.320  166.365
  428.750    3.899    0.223    0.434  110.635  167.164
  429.000    4.106    0.219    0.403  109.709  168.371
  429.250    4.157    0.221    0.407  106.520  168.971
  429.500    3.976    0.210    0.423  106.510  169.976
  429.750    3.732    0.193    0.410  111.273  170.980
  430.000    3.516    0.189    0.402  114.873  172.088
  430.250    3.301    0.194    0.399  115.660  173.602
  430.500    3.187    0.176    0.409  118.893  174.709
  430.750    3.119    0.160    0.439  120.659  175.102
  431.000    3.080    0.165    0.460  119.916  172.947
  431.250    3.142    0.200    0.455  111.220  169.871
