~VERSION INFORMATION
 VERS.                 2.0:   CWLS LOG ASCII STANDARD -VERSION 2.0
 WRAP.                  NO:   ONE LINE PER DEPTH STEP
~WELL INFORMATION BLOCK
#MNEM.UNIT           DATA                    DESCRIPTION OF MNEMONIC
#---------    -------------------            -------------------------------
# Generated from Intellog Unique Number	CW_82_90/WELL/3076
WELL.         PARA ET AL LIVOCK 11-16        : Well_name    - WELL
LOC .         00/11-16-085-20W4/0            : Location     - LOCATION
UWI .         00/11-16-085-20W4/0            : Uwi          - UNIQUE WELL ID
ENTR.         JAYE                           : Entered      - ENTERED BY
SRVC.         COMPUTALOG                     : Scn          - SERVICE COMPANY
DATE.         24 JAN 78                      : Date         - LOG DATE
STRT.M        198.12                         : top_depth    - START DEPTH
STOP.M        374.87                         : bot_depth    - STOP DEPTH
STEP.M        0.25                           : increment    - STEP LENGTH
 NULL. -999.2500:NULL Value
~CURVE INFORMATION BLOCK
#MNEM UNIT       ERCB CURVE CODE    CURVE DESCRIPTION
#-----------   ------------------   ----------------------------------
DEPT.M        00 001 00 00         : DEPTH        - DEPTH
ILD .OHMM     00 120 00 00         : RESD         - DEEP RESISTIVITY (DIL)
CALI.MM       00 280 01 00         : CAL          - CALIPER
GR  .API      00 310 00 00         : GR           - GAMMA RAY
NPHI.V/V      00 330 00 00         : PHIN         - NEUTRON POROSITY (SANDSTONE)
DPHI.V/V      00 890 00 00         : PHID         - DENSITY POROSITY (SANDSTONE)
COND.MMHO                          : COND         - DEEP CONDUCTIVITY (DIL)
~PARAMETER INFORMATION
#MNEM.UNIT           DATA             DESCRIPTION OF MNEMONIC
#---------         -----------     ------------------------------
GL  .M        623.621              : gl           - GROUND LEVEL ELEVATION
EREF.M        626.669              : kb           - ELEVATION OF DEPTH REFERENCE
DATM.M        623.621              : datum        - DATUM ELEVATION
TDD .M        377.952              : tdd          - TOTAL DEPTH DRILLER
RUN .         ONE                  : Run          - RUN NUMBER
ENG .         KING                 : Engineer     - RECORDING ENGINEER
MUD .         GEL CHEM SAWDUST     : Mud_type     - MUD TYPE
MATR.         SANDSTONE            : Logunit      - NEUTRON MATRIX
TMAX.C        16.1111              : BHT          - MAXIMUM RECORDED TEMPERATURE
BHTD.M        377.952              : BHTDEP       - MAXIMUM RECORDED TEMPERATURE
RMT .C        14.4444              : MDTP         - TEMPERATURE OF MUD
MUDD.KG/M     9400                 : MWT          - MUD DENSITY
NEUT.         1                    : NEUTRON      - NEUTRON TYPE
RESI.         0                    : RESIST       - RESISTIVITY TYPE
RM  .OHMM     4.35                 : RM           - RESISTIVITY OF MUD
RMC .OHMM     0                    : RMC          - RESISTIVITY OF MUD CAKE
RMF .OHMM     4.1                  : RMF          - RESISTIVITY OF MUD FILTRATE
SUFT.C        -17.7778             : SUFT         - SURFACE TEMPERATURE
~A  DEPTH     RESD      CAL       GR     PHIN     PHID     COND
# ...
  354.370   37.759  154.625   98.159    0.182    0.149   26.483
  354.620   38.016  156.783   97.390    0.191    0.136   26.305
  354.870   38.265  157.765   98.531    0.162    0.124   26.134
  355.120   37.902  158.446  101.459    0.159    0.128   26.384
  355.370   36.700  159.014  106.244    0.186    0.138   27.248
  355.620   35.303  159.590  108.860    0.225    0.152   28.326
  355.870   32.675  160.389  115.056    0.250    0.159   30.604
  356.120   29.161  160.424  120.207    0.265    0.149   34.292
  356.370   27.643  160.915  116.847    0.259    0.133   36.175
  356.620   26.728  160.861  115.642    0.239    0.109   37.414
  356.870   26.264  160.912  119.558    0.271    0.150   38.075
  357.120   25.674  161.163  115.399    0.265    0.154   38.950
  357.370   24.497  160.586  111.362    0.286    0.163   40.822
  357.620   23.314  160.009  111.765    0.336    0.174   42.893
  357.870   21.840  159.670  117.529    0.352    0.183   45.788
  358.120   20.379  158.972  118.055    0.353    0.193   49.069
  358.370   18.736  157.775  116.537    0.350    0.184   53.374
  358.620   17.587  155.229  115.397    0.349    0.167   56.859
  358.870   17.384  155.276  114.152    0.341    0.138   57.523
  359.120   17.684  155.742  113.672    0.321    0.072   56.548
  359.370   17.738  157.979  106.129    0.222    0.026   56.377
  359.620   17.469  160.547  114.721    0.207    0.173   57.244
  359.870   16.407  164.599  123.445    0.233    0.191   60.948
  360.120   15.134  165.131  134.945    0.395    0.195   66.077
  360.370   13.107  167.496  138.553    0.370    0.204   76.295
  360.620   11.120  167.650  144.376    0.354    0.197   89.927
  360.870   10.027  168.009  145.455    0.405    0.194   99.727
  361.120    9.253  166.077  140.803    0.426    0.198  108.071
  361.370    8.960  164.249  138.183    0.423    0.199  111.606
  361.620    8.612  166.392  139.325    0.430    0.199  116.114
  361.870    8.289  166.865  142.866    0.444    0.199  120.637
  362.120    8.095  166.303  145.551    0.439    0.195  123.536
  362.370    8.068  165.711  142.008    0.419    0.190  123.951
  362.620    8.130  162.533  139.017    0.442    0.185  123.006
  362.870    8.209  161.745  137.813    0.425    0.184  121.824
  363.120    8.445  163.679  143.269    0.428    0.188  118.415
  363.370    8.772  164.361  140.903    0.417    0.181  114.002
  363.620    9.608  163.473  140.500    0.337    0.173  104.078
  363.870   10.737  162.587  136.953    0.302    0.135   93.135
  364.120   11.671  162.334  126.073    0.279    0.100   85.679
  364.370   12.494  161.238  116.979    0.283    0.164   80.036
  364.620   13.630  160.239  124.471    0.313    0.182   73.369
  364.870   14.635  159.161  116.055    0.330    0.201   68.328
  365.120   15.453  158.882  108.073    0.338    0.231   64.712
  365.370   15.344  159.665   98.795    0.346    0.219   65.173
  365.620   12.397  162.127  112.082    0.385    0.203   80.664
  365.870    9.128  163.755  125.304    0.488    0.197  109.552
  366.120    6.958  164.629  139.453    0.485    0.209  143.724
  366.370    5.673  164.678  150.211    0.474    0.198  176.288
  366.620    5.476  164.004  147.409    0.453    0.196  182.623
  366.870    6.018  161.459  145.033    0.433    0.191  166.181
  367.120    6.721  161.498  141.365    0.417    0.183  148.789
  367.370    8.538  161.032  135.296    0.401    0.168  117.129
  367.620    9.397  160.985  131.817    0.382    0.185  106.413
  367.870    9.183  161.462  128.888    0.400    0.195  108.897
  368.120    8.269  161.300  135.821    0.446    0.232  120.928
  368.370    7.845  161.032  139.487    0.429    0.221  127.471
  368.620    8.208  160.981  140.751    0.397    0.210  121.828
  368.870    9.889  159.895  134.247    0.370    0.213  101.124
  369.120   11.718  159.315  118.620    0.346    0.240   85.337
  369.370   16.448  158.111  105.952    0.356    0.252   60.798
  369.620   22.951  157.538  101.668    0.368    0.256   43.570
  369.870   25.308  157.592   98.988    0.352    0.250   39.513
  370.120   25.655  157.328   93.223    0.319    0.248   38.978
  370.370   25.097  157.174   91.035    0.299    0.234   39.846
  370.620   25.202  157.129   91.070    0.293    0.259   39.679
  370.870   26.981  154.361   86.350    0.283    0.267   37.063
  371.120   31.006  152.425   82.563    0.287    0.264   32.251
  371.370   37.033  151.662   78.893    0.279    0.257   27.003
  371.620   39.337  152.336   82.625    0.264    0.269   25.422
  371.870   38.664  153.527   89.252    0.286    0.245   25.864
  372.120   29.715  155.564  102.596    0.372    0.226   33.653
  372.370   25.266  158.229  129.694    0.370    0.230   39.578
  372.620   23.542  159.538  168.129    0.339    0.227   42.477
  372.870   23.518  160.000  166.374    0.318    0.234   42.521
  373.120   24.690  159.326  138.538    0.304    0.236   40.502
  373.370   26.365  158.330   93.876    0.337    0.228   37.929
  373.620   28.141  156.922   88.851    0.323    0.215   35.535
  373.870   29.451  156.664   94.434    0.308    0.197   33.954
  374.120   26.415  155.984   99.519    0.330    0.181   37.857
  374.370   22.832  155.519  104.174    0.318    0.164   43.798
  374.620   20.192  153.794  104.450    0.305    0.138   49.525
  374.870   19.083  153.531  104.111    0.294    0.113   52.404
