~VERSION INFORMATION
 VERS.                 2.0:   CWLS LOG ASCII STANDARD -VERSION 2.0
 WRAP.                  NO:   ONE LINE PER DEPTH STEP
~WELL INFORMATION BLOCK
#MNEM.UNIT           DATA                    DESCRIPTION OF MNEMONIC
#---------    -------------------            -------------------------------
# Generated from Intellog Unique Number	CW_76_78/WELL/879
WELL.         NORTHSTAR ET AL MARTEN HILLS 1 : Well_name    - WELL
LOC .         00/10-18-076-03W5/0            : Location     - LOCATION
UWI .         00/10-18-076-03W5/0            : Uwi          - UNIQUE WELL ID
ENTR.         JAYE                           : Entered      - ENTERED BY
SRVC.         COMPUTALOG                     : Scn          - SERVICE COMPANY
DATE.         13 MAR 81                      : Date         - LOG DATE
STRT.M        575                            : top_depth    - START DEPTH
STOP.M        790                            : bot_depth    - STOP DEPTH
STEP.M        0.25                           : increment    - STEP LENGTH
 NULL. -999.2500:NULL Value
~CURVE INFORMATION BLOCK
#MNEM UNIT       ERCB CURVE CODE    CURVE DESCRIPTION
#-----------   ------------------   ----------------------------------
DEPT.M        00 001 00 00         : DEPTH        - DEPTH
ILD .OHMM     00 120 00 00         : RESD         - DEEP RESISTIVITY (DIL)
NPHI.V/V      00 330 00 00         : PHIN         - NEUTRON POROSITY (SANDSTONE)
DPHI.V/V      00 890 00 00         : PHID         - DENSITY POROSITY (SANDSTONE)
GR  .API      00 310 00 00         : GR           - GAMMA RAY
CALI.MM       00 280 01 00         : CAL          - CALIPER
~PARAMETER INFORMATION
#MNEM.UNIT           DATA             DESCRIPTION OF MNEMONIC
#---------         -----------     ------------------------------
GL  .M        861                  : gl           - GROUND LEVEL ELEVATION
EREF.M        865.1                : kb           - ELEVATION OF DEPTH REFERENCE
DATM.M        861                  : datum        - DATUM ELEVATION
TDD .M        798                  : tdd          - TOTAL DEPTH DRILLER
RUN .         ONE                  : Run          - RUN NUMBER
ENG .         GUNDERSON            : Engineer     - RECORDING ENGINEER
WIT .         FITZSIMMONS          : Witness      - WITNESSED BY
BASE.         EDM                  : Branch       - HOME BASE OF LOGGING UNIT
MUD .         GEL CHEM             : Mud_type     - MUD TYPE
MATR.         SANDSTONE            : Logunit      - NEUTRON MATRIX
TMAX.C        27                   : BHT          - MAXIMUM RECORDED TEMPERATURE
BHTD.M        799.6                : BHTDEP       - MAXIMUM RECORDED TEMPERATURE
RMT .C        16                   : MDTP         - TEMPERATURE OF MUD
MUDD.KG/M     1140                 : MWT          - MUD DENSITY
NEUT.         1                    : NEUTRON      - NEUTRON TYPE
RESI.         0                    : RESIST       - RESISTIVITY TYPE
RM  .OHMM     3.8                  : RM           - RESISTIVITY OF MUD
RMC .OHMM     3                    : RMC          - RESISTIVITY OF MUD CAKE
RMF .OHMM     0                    : RMF          - RESISTIVITY OF MUD FILTRATE
SUFT.C        0                    : SUFT         - SURFACE TEMPERATURE
~A  DEPTH     RESD     PHIN     PHID       GR      CAL
# ...
  611.500   14.347    0.454    0.328   58.810  200.384
  611.750   13.357    0.446    0.325   57.904  200.212
  612.000   12.770    0.442    0.322   58.548  199.428
  612.250   12.454    0.457    0.319   61.052  198.435
  612.500   12.161    0.451    0.317   64.859  197.442
  612.750   11.681    0.437    0.320   66.618  197.066
  613.000   11.200    0.433    0.327   67.075  197.314
  613.250   10.867    0.422    0.331   65.363  197.352
  613.500   10.558    0.427    0.330   64.583  197.396
  613.750   10.217    0.444    0.328   64.791  197.638
  614.000    9.786    0.461    0.323   66.183  197.680
  614.250    9.494    0.476    0.316   67.568  197.623
  614.500    9.316    0.467    0.310   69.575  197.556
  614.750    9.221    0.444    0.305   72.949  197.184
  615.000    9.176    0.433    0.307   75.887  197.225
  615.250    9.179    0.427    0.312   74.484  197.054
  615.500    9.207    0.428    0.317   70.104  196.996
  615.750    9.276    0.443    0.318   64.238  196.722
  616.000    9.337    0.459    0.317   60.727  196.653
  616.250    9.406    0.468    0.314   59.635  196.698
  616.500    9.475    0.458    0.318   62.325  196.327
  616.750    9.634    0.443    0.321   63.961  196.372
  617.000    9.835    0.441    0.322   66.282  196.403
  617.250    9.994    0.439    0.319   69.095  196.238
  617.500   10.236    0.437    0.315   71.849  196.585
  617.750   10.510    0.447    0.316   74.537  197.452
  618.000   10.998    0.452    0.317   73.197  198.112
  618.250   11.346    0.439    0.318   68.447  198.463
  618.500   11.800    0.446    0.317   64.812  198.193
  618.750   12.140    0.457    0.313   56.588  198.024
  619.000   12.161    0.451    0.306   63.991  197.547
  619.250   12.008    0.461    0.300   67.674  196.767
  619.500   11.872    0.463    0.303   65.031  196.910
  619.750   11.794    0.442    0.308   61.893  197.260
  620.000   11.739    0.423    0.312   61.669  198.018
  620.250   11.701    0.418    0.315   65.971  199.296
  620.500   11.631    0.413    0.317   70.025  200.475
  620.750   11.602    0.409    0.316   66.454  201.554
  621.000   11.589    0.423    0.304   60.586  202.523
  621.250   11.600    0.445    0.300   59.619  202.659
  621.500   11.596    0.464    0.303   61.813  202.394
  621.750   11.583    0.451    0.309   64.813  202.016
  622.000   11.602    0.441    0.311   66.883  201.854
  622.250   11.630    0.424    0.309   65.420  201.792
  622.500   11.634    0.413    0.308   61.600  201.730
  622.750   11.687    0.428    0.310   60.075  201.869
  623.000   11.748    0.458    0.313   58.672  201.806
  623.250   11.809    0.481    0.315   57.639  201.947
  623.500   11.795    0.465    0.311   55.926  202.301
  623.750   11.643    0.442    0.304   53.842  202.747
  624.000   11.458    0.430    0.305   52.440  202.996
  624.250   11.166    0.419    0.312   53.517  202.934
  624.500   10.808    0.408    0.322   55.712  202.868
  624.750   10.434    0.407    0.326   61.444  202.811
  625.000   10.109    0.417    0.320   65.497  202.851
  625.250    9.751    0.430    0.315   64.713  202.573
  625.500    9.435    0.441    0.317   62.629  202.311
  625.750    9.102    0.432    0.323   60.794  202.346
  626.000    8.809    0.431    0.326   61.808  202.081
  626.250    8.575    0.429    0.326   64.811  202.116
  626.500    8.390    0.421    0.325   67.129  202.060
  626.750    8.311    0.441    0.324   69.260  202.093
  627.000    8.208    0.473    0.320   72.261  202.446
  627.250    8.096    0.468    0.318   76.191  202.482
  627.500    7.886    0.479    0.320   80.493  202.317
  627.750    7.644    0.467    0.323   81.137  202.354
  628.000    7.335    0.455    0.324   76.511  202.501
  628.250    7.076    0.458    0.326   71.883  202.640
  628.500    6.997    0.443    0.319   67.816  202.794
  628.750    6.992    0.477    0.301   64.616  202.829
  629.000    7.037    0.506    0.279   63.770  202.769
  629.250    7.188    0.530    0.266   66.523  202.701
  629.500    7.118    0.570    0.287   68.222  202.839
  629.750    6.440    0.577    0.323   67.810  202.887
  630.000    5.926    0.569    0.341   68.520  203.023
  630.250    5.486    0.564    0.333   71.394  202.756
  630.500    5.416    0.531    0.327   76.936  202.071
  630.750    5.371    0.506    0.325   83.099  201.082
  631.000    5.324    0.477    0.319   83.558  199.257
  631.250    5.574    0.434    0.308   79.551  197.126
  631.500    5.692    0.419    0.272   86.210  198.819
  631.750    5.646    0.418    0.222   91.566  201.445
  632.000    4.903    0.422    0.207   96.986  204.684
  632.250    4.463    0.450    0.194   97.381  208.549
  632.500    4.180    0.463    0.195   99.393  210.139
  632.750    4.076    0.451    0.204   99.599  211.532
  633.000    4.030    0.449    0.206  101.793  211.872
  633.250    4.092    0.454    0.217   95.802  212.531
  633.500    4.292    0.434    0.219   96.758  212.267
  633.750    4.542    0.486    0.220   94.986  210.544
  634.000    4.857    0.509    0.221   93.703  208.001
  634.250    5.016    0.513    0.222   90.317  205.771
  634.500    5.020    0.490    0.220   86.248  204.261
  634.750    5.081    0.451    0.218   86.957  202.953
  635.000    5.133    0.431    0.218   88.716  201.968
  635.250    5.145    0.404    0.225   90.042  201.899
  635.500    5.115    0.381    0.221   89.755  201.835
  635.750    5.102    0.387    0.216   89.406  202.186
  636.000    5.122    0.400    0.206   89.617  202.847
  636.250    5.159    0.413    0.217   90.013  203.605
  636.500    5.129    0.433    0.236   94.687  204.485
  636.750    5.001    0.438    0.240   98.617  205.143
  637.000    4.775    0.442    0.237  103.727  205.595
  637.250    4.499    0.455    0.234   93.581  205.940
  637.500    4.355    0.444    0.224   90.381  206.396
  637.750    4.244    0.439    0.223   94.683  206.954
  638.000    4.132    0.460    0.212   95.889  207.196
  638.250    4.021    0.455    0.218   95.351  207.447
  638.500    3.958    0.461    0.223   94.568  207.695
  638.750    3.921    0.475    0.231   96.579  208.043
  639.000    3.941    0.466    0.228   98.027  208.181
  639.250    3.928    0.459    0.218   99.606  208.121
  639.500    3.948    0.457    0.213  100.060  207.950
  639.750    4.017    0.444    0.199   97.108  207.994
  640.000    4.250    0.442    0.201   97.132  208.137
  640.250    4.311    0.438    0.201   97.157  208.483
  640.500    4.306    0.434    0.197   95.133  208.729
  640.750    4.178    0.416    0.193   94.288  209.396
  641.000    3.919    0.425    0.188   92.266  212.120
  641.250    4.111    0.431    0.182   87.266  214.325
  641.500    4.459    0.427    0.203   87.725  211.577
  641.750    4.906    0.428    0.236   87.998  208.935
  642.000    5.410    0.426    0.259   84.177  207.318
  642.250    5.963    0.422    0.283   77.441  207.045
  642.500    6.738    0.433    0.288   71.450  203.466
  642.750    7.316    0.448    0.286   73.025  202.785
  643.000    7.566    0.454    0.276   73.731  200.966
  643.250    7.660    0.463    0.266   71.959  199.972
  643.500    7.655    0.475    0.263   70.927  200.016
  643.750    7.633    0.455    0.268   70.455  200.358
  644.000    7.571    0.431    0.275   70.043  200.817
  644.250    7.558    0.433    0.278   70.381  201.061
  644.500    7.562    0.433    0.273   70.587  201.208
  644.750    7.565    0.439    0.268   74.457  200.936
  645.000    7.569    0.459    0.270   78.696  201.284
  645.250    7.605    0.446    0.266   76.364  201.740
  645.500    7.674    0.403    0.252   77.260  203.123
  645.750    7.817    0.384    0.230   78.892  204.194
  646.000    8.009    0.362    0.209   79.350  205.989
  646.250    8.546    0.337    0.180   77.638  207.893
  646.500    9.042    0.286    0.146   73.817  209.272
  646.750    9.948    0.195    0.114   66.339  209.312
  647.000   10.871    0.143    0.086   60.285  208.628
  647.250   12.081    0.122    0.062   56.651  207.126
  647.500   13.463    0.110   -0.002   54.877  206.434
  647.750   15.608    0.103   -0.016   54.651  205.752
