~VERSION INFORMATION
 VERS.                 2.0:   CWLS LOG ASCII STANDARD -VERSION 2.0
 WRAP.                  NO:   ONE LINE PER DEPTH STEP
~WELL INFORMATION BLOCK
#MNEM.UNIT           DATA                    DESCRIPTION OF MNEMONIC
#---------    -------------------            -------------------------------
# Generated from Intellog Unique Number	CX_WELLS/WELL/4035
WELL.         PACIFIC AMADOU                 : Well_name    - WELL
LOC .         00/10-06-076-20W4/0            : Location     - LOCATION
UWI .         00/10-06-076-20W4/0            : Uwi          - UNIQUE WELL ID
ENTR.         T                              : Entered      - ENTERED BY
SRVC.         SCHLUMBERGER                   : Scn          - SERVICE COMPANY
STRT.F        1000                           : top_depth    - START DEPTH
STOP.F        1749.67                        : bot_depth    - STOP DEPTH
STEP.F        0.82                           : increment    - STEP LENGTH
 NULL. -999.2500:NULL Value
~CURVE INFORMATION BLOCK
#MNEM UNIT       ERCB CURVE CODE    CURVE DESCRIPTION
#-----------   ------------------   ----------------------------------
DEPT.F        00 001 00 00         : DEPTH        - DEPTH
GR  .API      00 310 00 00         : GR           - GAMMA RAY
NPHI.V/V      00 330 00 00         : PHIN         - NEUTRON POROSITY (SANDSTONE)
DPHI.V/V      00 890 00 00         : PHID         - DENSITY POROSITY (SANDSTONE)
ILD .OHMM     00 120 00 00         : RESD         - DEEP RESISTIVITY (DIL)
~PARAMETER INFORMATION
#MNEM.UNIT           DATA             DESCRIPTION OF MNEMONIC
#---------         -----------     ------------------------------
GL  .F        2101.6               : gl           - GROUND LEVEL ELEVATION
EREF.F        2109.8               : kb           - ELEVATION OF DEPTH REFERENCE
DATM.F        2109.8               : datum        - DATUM ELEVATION
TDD .F        1942                 : tdd          - TOTAL DEPTH DRILLER
RUN .         ONE                  : Run          - RUN NUMBER
ENG .         BILL                 : Engineer     - RECORDING ENGINEER
WIT .         JIM                  : Witness      - WITNESSED BY
MUD .         GEL                  : Mud_type     - MUD TYPE
MATR.         SANDSTONE            : Logunit      - NEUTRON MATRIX
TMAX.F        76                   : BHT          - MAXIMUM RECORDED TEMPERATURE
BHTD.F        1947                 : BHTDEP       - MAXIMUM RECORDED TEMPERATURE
MATR.         1                    : LOGUNIT      - NEUTRON MATRIX
RMT .F        77                   : MDTP         - TEMPERATURE OF MUD
NEUT.         1                    : NEUTRON      - NEUTRON TYPE
RESI.         4.42                 : RESIST       - RESISTIVITY TYPE
RMC .OHMM     4.3                  : RMC          - RESISTIVITY OF MUD CAKE
RMF .OHMM     3                    : RMF          - RESISTIVITY OF MUD FILTRATE
SUFT.F        39.2                 : SUFT         - SURFACE TEMPERATURE
~A  DEPTH       GR     PHIN     PHID     RESD
# ...
 1142.720   41.814    0.505    0.294    9.528
 1143.540   41.834    0.498    0.291    9.524
 1144.360   41.841    0.487    0.281    9.520
 1145.180   44.754    0.472    0.263    9.344
 1146.000   62.152    0.457    0.236    9.343
 1146.820   75.490    0.443    0.225    9.007
 1147.640   81.294    0.430    0.218    8.842
 1148.460   89.421    0.424    0.209    8.839
 1149.280   87.117    0.421    0.207    8.676
 1150.100   87.131    0.426    0.209    8.518
 1150.920   90.624    0.432    0.221    8.362
 1151.740   92.375    0.427    0.218    8.360
 1152.560   92.971    0.423    0.210    8.208
 1153.380   91.247    0.425    0.214    7.771
 1154.200   87.201    0.456    0.263    7.228
 1155.020   88.373    0.472    0.264    6.602
 1155.840   97.077    0.482    0.247    5.713
 1156.660  104.622    0.459    0.225    5.218
 1157.480  110.432    0.442    0.214    4.942
 1158.300  111.604    0.430    0.197    4.353
 1159.120  113.363    0.410    0.179    3.976
 1159.940  114.531    0.385    0.169    3.698
 1160.760  115.703    0.412    0.214    3.439
 1161.580  117.458    0.435    0.241    3.377
 1162.400  118.044    0.442    0.266    3.315
 1163.220  118.061    0.454    0.275    3.254
 1164.040  116.916    0.467    0.267    3.312
 1164.860  114.615    0.459    0.241    3.623
 1165.680  112.887    0.445    0.236    3.893
 1166.500  110.587    0.439    0.229    4.258
 1167.320  108.286    0.433    0.223    4.658
 1168.140  107.134    0.430    0.215    4.915
 1168.960  105.413    0.423    0.217    5.280
 1169.780  103.112    0.428    0.258    5.570
 1170.600  101.384    0.455    0.264    5.671
 1171.420   97.925    0.472    0.283    5.668
 1172.240   95.617    0.479    0.278    5.666
 1173.060   89.258    0.504    0.286    5.664
 1173.880   82.319    0.531    0.301    5.662
 1174.700   73.063    0.535    0.317    6.083
 1175.520   67.283    0.539    0.322    6.190
 1176.350   69.614    0.528    0.308    6.414
 1177.170   74.265    0.519    0.297    6.529
 1177.990   78.334    0.508    0.293    6.645
 1178.810   80.665    0.504    0.291    6.645
 1179.630   84.158    0.500    0.289    6.638
 1180.450   87.647    0.496    0.283    6.519
 1181.270   89.395    0.492    0.278    6.516
 1182.090   92.309    0.486    0.284    6.397
 1182.910   90.008    0.490    0.306    6.279
 1183.730   87.701    0.515    0.312    6.277
 1184.550   83.659    0.522    0.323    6.163
 1185.370   79.037    0.533    0.309    6.160
 1186.190   79.634    0.506    0.299    6.046
 1187.010   83.123    0.500    0.290    5.936
 1187.830   84.292    0.487    0.282    5.934
 1188.650   82.567    0.477    0.280    5.825
 1189.470   86.643    0.476    0.273    5.824
 1190.290   90.708    0.477    0.269    5.821
 1191.110   94.777    0.481    0.272    5.818
 1191.930  102.902    0.479    0.274    5.816
 1192.750  110.450    0.465    0.268    5.814
 1193.570  108.729    0.456    0.248    5.812
 1194.390  103.524    0.457    0.246    5.809
 1195.210   92.534    0.480    0.269    5.806
 1196.030   89.647    0.487    0.275    5.804
 1196.850   83.867    0.489    0.281    5.908
 1197.670   79.252    0.484    0.274    5.905
 1198.490   78.679    0.477    0.268    5.902
 1199.310   77.534    0.474    0.262    5.690
 1200.130   78.130    0.470    0.257    5.389
 1200.950   79.882    0.466    0.249    5.012
 1201.770   81.636    0.459    0.238    4.921
 1202.590   83.391    0.454    0.244    5.007
 1203.410   83.398    0.459    0.250    5.190
 1204.230   82.256    0.465    0.258    5.378
 1205.050   79.369    0.473    0.263    5.778
 1205.870   74.169    0.473    0.262    6.096
 1206.690   77.082    0.463    0.257    6.317
 1207.510   80.572    0.454    0.247    6.316
 1208.330   84.644    0.448    0.240    6.545
 1209.150   85.816    0.425    0.232    6.541
 1209.970   75.398    0.403    0.212    6.538
 1210.790   71.356    0.357    0.192    6.655
 1211.610   64.996    0.339    0.167    6.653
 1212.430   62.113    0.320    0.129    6.650
 1213.250   65.026    0.307    0.111    6.891
 1214.070   62.147    0.318    0.182    6.889
 1214.900   59.260    0.352    0.240    6.642
 1215.720   56.377    0.388    0.307    6.177
 1216.540   58.711    0.431    0.325    5.849
 1217.360   62.200    0.495    0.315    5.640
 1218.180   65.107    0.531    0.308    5.536
 1219.000   68.600    0.522    0.307    5.635
 1219.820   69.772    0.519    0.304    5.735
 1220.640   69.785    0.513    0.299    5.837
 1221.460   70.382    0.507    0.299    5.940
 1222.280   69.816    0.509    0.305    5.939
 1223.100   69.246    0.534    0.314    6.044
 1223.920   67.525    0.536    0.321    6.041
 1224.740   68.118    0.533    0.316    6.040
 1225.560   68.711    0.526    0.311    6.036
 1226.380   68.727    0.523    0.310    5.926
 1227.200   68.737    0.521    0.306    5.818
 1228.020   68.171    0.520    0.304    6.029
 1228.840   68.768    0.516    0.300    6.136
 1229.660   71.098    0.513    0.297    6.245
 1230.480   74.585    0.513    0.297    6.242
 1231.300   79.819    0.513    0.292    6.240
 1232.120   83.312    0.507    0.281    6.126
 1232.940   86.219    0.493    0.269    6.014
 1233.760   89.125    0.477    0.252    5.905
 1234.580   91.460    0.481    0.267    5.902
 1235.400   92.052    0.492    0.282    5.794
 1236.220   89.169    0.493    0.281    5.586
 1237.040   87.448    0.482    0.276    5.484
 1237.860   90.355    0.465    0.270    5.383
 1238.680   95.003    0.447    0.228    5.382
 1239.500   97.334    0.432    0.219    5.380
 1240.320   99.671    0.427    0.219    5.377
 1241.140  100.840    0.428    0.209    5.473
 1241.960  103.174    0.423    0.194    5.570
 1242.780  103.767    0.411    0.191    5.669
 1243.600  102.042    0.402    0.191    5.770
 1244.420  102.056    0.408    0.196    5.872
 1245.240  102.066    0.420    0.207    5.871
 1246.060  102.662    0.426    0.214    5.974
 1246.880  103.254    0.429    0.219    5.972
 1247.700  103.268    0.428    0.217    5.970
 1248.520  103.864    0.422    0.212    5.967
 1249.340  103.877    0.412    0.193    5.965
 1250.160  102.149    0.412    0.196    6.070
 1250.980   96.369    0.404    0.206    6.067
 1251.800   89.430    0.440    0.234    6.066
 1252.620   84.230    0.467    0.284    6.174
 1253.440   79.029    0.497    0.295    6.170
 1254.270   88.315    0.506    0.285    6.168
 1255.090   94.126    0.501    0.287    5.947
 1255.910   94.715    0.501    0.297    5.531
 1256.730   95.308    0.527    0.314    5.238
 1257.550   94.742    0.533    0.320    4.699
 1258.370   92.445    0.543    0.306    4.140
 1259.190   93.037    0.516    0.289    3.850
 1260.010   93.047    0.502    0.274    3.919
 1260.830   93.064    0.479    0.261    4.287
 1261.650   91.919    0.472    0.255    4.950
 1262.470   90.194    0.458    0.242    5.613
 1263.290   86.156    0.451    0.231    5.818
 1264.110   85.007    0.448    0.236    6.137
 1264.930   82.124    0.450    0.255    6.247
 1265.750   79.816    0.450    0.258    6.244
 1266.570   79.840    0.451    0.266    6.242
 1267.390   79.850    0.460    0.278    6.240
 1268.210   79.863    0.479    0.281    6.237
 1269.030   79.877    0.492    0.278    6.234
 1269.850   81.049    0.487    0.272    6.232
 1270.670   83.383    0.473    0.267    6.229
 1271.490   83.972    0.458    0.261    6.115
 1272.310   81.089    0.462    0.266    6.003
 1273.130   79.368    0.466    0.262    6.001
 1273.950   79.381    0.462    0.252    5.892
 1274.770   79.974    0.457    0.249    5.784
 1275.590   84.040    0.455    0.246    5.781
 1276.410   89.267    0.454    0.245    5.675
 1277.230   89.867    0.451    0.245    5.571
 1278.050   89.880    0.449    0.246    5.569
 1278.870   89.897    0.451    0.249    5.568
 1279.690   89.903    0.464    0.255    5.566
 1280.510   88.758    0.487    0.279    5.463
 1281.330   87.613    0.489    0.285    5.461
 1282.150   86.468    0.483    0.280    5.459
 1282.970   85.905    0.480    0.279    5.556
 1283.790   83.022    0.478    0.279    5.654
 1284.610   79.566    0.481    0.279    5.653
