~VERSION INFORMATION
 VERS.                 2.0:   CWLS LOG ASCII STANDARD -VERSION 2.0
 WRAP.                  NO:   ONE LINE PER DEPTH STEP
~WELL INFORMATION BLOCK
#MNEM.UNIT           DATA                    DESCRIPTION OF MNEMONIC
#---------    -------------------            -------------------------------
# Generated from Intellog Unique Number	CS_73_76/WELL/2190
WELL.         BOW VALLEY EXPLORATION         : Well_name    - WELL
LOC .         00/10-15-074-17W4/0            : Location     - LOCATION
UWI .         00/10-15-074-17W4/0            : Uwi          - UNIQUE WELL ID
ENTR.         SP                             : Entered      - ENTERED BY
SRVC.         SCHLUMBERGER                   : Scn          - SERVICE COMPANY
STRT.M        235                            : top_depth    - START DEPTH
STOP.M        420                            : bot_depth    - STOP DEPTH
STEP.M        0.25                           : increment    - STEP LENGTH
 NULL. -999.2500:NULL Value
~CURVE INFORMATION BLOCK
#MNEM UNIT       ERCB CURVE CODE    CURVE DESCRIPTION
#-----------   ------------------   ----------------------------------
DEPT.M        00 001 00 00         : DEPTH        - DEPTH
ILD .OHMM     00 120 00 00         : RESD         - DEEP RESISTIVITY (DIL)
DPHI.V/V      00 890 00 00         : PHID         - DENSITY POROSITY (LIMESTONE)
NPHI.V/V      00 330 00 00         : PHIN         - NEUTRON POROSITY (LIMESTONE)
GR  .API      00 310 00 00         : GR           - GAMMA RAY
~PARAMETER INFORMATION
#MNEM.UNIT           DATA             DESCRIPTION OF MNEMONIC
#---------         -----------     ------------------------------
GL  .M        580.9                : gl           - GROUND LEVEL ELEVATION
EREF.M        583.2                : kb           - ELEVATION OF DEPTH REFERENCE
DATM.M        580.9                : datum        - DATUM ELEVATION
TDD .M        421                  : tdd          - TOTAL DEPTH DRILLER
RUN .         ONE                  : Run          - RUN NUMBER
ENG .         BILL                 : Engineer     - RECORDING ENGINEER
WIT .         JIM                  : Witness      - WITNESSED BY
MUD .         GEL                  : Mud_type     - MUD TYPE
MATR.         LIMESTONE            : Logunit      - NEUTRON MATRIX
TMAX.C        20                   : BHT          - MAXIMUM RECORDED TEMPERATURE
BHTD.M        421                  : BHTDEP       - MAXIMUM RECORDED TEMPERATURE
MATR.         1                    : LOGUNIT      - NEUTRON MATRIX
RMT .C        25                   : MDTP         - TEMPERATURE OF MUD
NEUT.         1                    : NEUTRON      - NEUTRON TYPE
RESI.         0                    : RESIST       - RESISTIVITY TYPE
RMC .OHMM     0.25                 : RMC          - RESISTIVITY OF MUD CAKE
RMF .OHMM     0.25                 : RMF          - RESISTIVITY OF MUD FILTRATE
SUFT.C        15                   : SUFT         - SURFACE TEMPERATURE
~A  DEPTH     RESD     PHID     PHIN       GR
# ...
  278.500    7.262    0.197    0.435   89.271
  278.750    6.869    0.215    0.442   89.271
  279.000    6.497    0.231    0.449   82.591
  279.250    6.618    0.260    0.429   74.089
  279.500    7.126    0.274    0.424   63.158
  279.750    7.532    0.291    0.437   51.619
  280.000    7.816    0.302    0.443   46.761
  280.250    8.262    0.302    0.413   45.547
  280.500    9.579    0.300    0.418   44.939
  280.750    9.231    0.291    0.420   44.332
  281.000   10.125    0.300    0.400   44.939
  281.250   10.506    0.296    0.385   45.547
  281.500   10.505    0.286    0.382   46.154
  281.750   10.504    0.289    0.390   47.976
  282.000   10.503    0.305    0.399   49.190
  282.250   10.309    0.302    0.405   46.761
  282.500   10.119    0.290    0.395   44.332
  282.750    9.932    0.308    0.402   44.939
  283.000    9.749    0.324    0.400   46.761
  283.250    9.748    0.306    0.389   47.976
  283.500    9.747    0.323    0.382   49.798
  283.750    9.746    0.320    0.377   51.619
  284.000    9.745    0.317    0.369   51.619
  284.250    9.744    0.311    0.372   49.798
  284.500    9.743    0.314    0.384   47.368
  284.750    9.742    0.323    0.391   46.154
  285.000    9.742    0.320    0.401   46.154
  285.250    9.740    0.312    0.393   47.368
  285.500    9.921    0.330    0.390   47.976
  285.750    9.920    0.314    0.384   47.976
  286.000    9.919    0.323    0.388   47.976
  286.250    9.918    0.314    0.394   47.976
  286.500    9.917    0.313    0.381   48.583
  286.750    9.916    0.318    0.378   47.368
  287.000    9.733    0.313    0.394   46.154
  287.250    9.914    0.319    0.402   47.976
  287.500    9.914    0.314    0.393   49.798
  287.750    9.913    0.321    0.382   52.834
  288.000    9.730    0.289    0.377   52.834
  288.250    9.729    0.286    0.381   52.227
  288.500    9.728    0.297    0.391   52.227
  288.750    9.548    0.301    0.385   52.227
  289.000    9.547    0.317    0.382   52.227
  289.250    9.547    0.306    0.381   49.798
  289.500    9.545    0.309    0.376   47.368
  289.750    9.544    0.309    0.381   46.154
  290.000    9.544    0.328    0.387   45.547
  290.250    9.721    0.343    0.384   43.117
  290.500    9.720    0.307    0.367   43.117
  290.750    9.719    0.308    0.364   43.725
  291.000    9.900    0.309    0.383   44.939
  291.250    9.899    0.343    0.394   45.547
  291.500   10.083    0.329    0.398   47.976
  291.750   10.082    0.323    0.382   49.190
  292.000   10.080    0.312    0.376   50.405
  292.250   10.079    0.323    0.370   51.012
  292.500    9.894    0.330    0.393   52.834
  292.750    9.893    0.335    0.399   52.227
  293.000    9.892    0.337    0.398   51.619
  293.250    9.709    0.343    0.407   52.227
  293.500    9.709    0.355    0.423   51.012
  293.750    9.529    0.352    0.419   47.976
  294.000    9.528    0.336    0.404   46.761
  294.250    9.527    0.330    0.404   46.761
  294.500    9.526    0.341    0.408   46.761
  294.750    9.525    0.346    0.411   46.154
  295.000    9.524    0.349    0.404   46.761
  295.250    9.523    0.334    0.395   45.547
  295.500    9.523    0.328    0.407   43.725
  295.750    9.700    0.329    0.416   44.939
  296.000   10.065    0.336    0.401   46.154
  296.250   10.252    0.309    0.401   45.547
  296.500   10.442    0.301    0.408   44.332
  296.750   10.636    0.325    0.413   43.117
  297.000   10.834    0.325    0.417   43.117
  297.250   10.833    0.317    0.410   43.725
  297.500   10.831    0.330    0.406   44.332
  297.750   10.831    0.330    0.400   44.332
  298.000   11.032    0.322    0.395   44.939
  298.250   11.030    0.325    0.400   44.332
  298.500   11.029    0.332    0.407   43.117
  298.750   11.029    0.323    0.416   42.510
  299.000   11.028    0.330    0.407   42.510
  299.250   11.027    0.313    0.407   41.903
  299.500   11.232    0.293    0.412   41.903
  299.750   11.230    0.303    0.401   41.295
  300.000   11.229    0.295    0.410   41.295
  300.250   11.229    0.302    0.413   41.295
  300.500   11.227    0.307    0.405   40.688
  300.750   11.020    0.283    0.398   40.081
  301.000   11.019    0.299    0.398   40.688
  301.250   11.018    0.312    0.399   41.295
  301.500   11.017    0.314    0.390   41.295
  301.750   11.016    0.316    0.384   41.295
  302.000   11.015    0.305    0.381   41.295
  302.250   11.014    0.302    0.387   41.295
  302.500   11.012    0.312    0.394   41.295
  302.750   11.011    0.325    0.400   42.510
  303.000   11.010    0.306    0.388   42.510
  303.250   11.009    0.318    0.381   41.295
  303.500   10.806    0.312    0.384   40.081
  303.750   10.412    0.306    0.395   39.474
  304.000   10.220    0.306    0.401   39.474
  304.250   10.031    0.313    0.412   40.081
  304.500    9.666    0.326    0.400   41.295
  304.750    9.487    0.331    0.407   43.117
  305.000    9.487    0.326    0.418   43.725
  305.250    9.140    0.326    0.412   43.117
  305.500    9.140    0.331    0.406   42.510
  305.750    8.971    0.335    0.404   42.510
  306.000    8.970    0.345    0.405   43.117
  306.250    8.970    0.341    0.415   43.725
  306.500    8.804    0.351    0.430   44.332
  306.750    8.803    0.357    0.430   46.761
  307.000    8.802    0.343    0.427   47.976
  307.250    8.801    0.331    0.422   49.190
  307.500    8.801    0.323    0.422   50.405
  307.750    8.800    0.329    0.425   53.441
  308.000    8.799    0.341    0.429   55.263
  308.250    8.798    0.324    0.435   57.692
  308.500    8.962    0.339    0.440   61.943
  308.750    8.961    0.343    0.444   63.765
  309.000    8.959    0.324    0.439   64.980
  309.250    9.126    0.313    0.433   64.980
  309.500    9.125    0.319    0.431   66.194
  309.750    9.295    0.335    0.442   65.587
  310.000    9.468    0.334    0.448   64.980
  310.250    9.644    0.320    0.453   64.373
  310.500    9.823    0.312    0.454   64.373
  310.750   10.006    0.291    0.427   64.980
  311.000   10.975    0.269    0.371   64.980
  311.250   13.207    0.162    0.277   63.158
  311.500   17.114    0.063    0.262   60.121
  311.750   21.771    0.038    0.247   57.085
  312.000   24.781    0.028    0.205   55.263
  312.250   25.714    0.025    0.188   53.441
  312.500   20.587    0.037    0.206   57.085
  312.750   16.483    0.055    0.285   63.765
  313.000   13.695    0.188    0.370   70.445
  313.250   11.592    0.270    0.406   74.089
  313.500   10.566    0.289    0.421   76.518
  313.750    9.454    0.304    0.435   78.340
  314.000    8.778    0.311    0.453   77.733
  314.250    8.777    0.304    0.452   77.126
  314.500    8.940    0.299    0.419   74.696
  314.750    9.276    0.311    0.427   70.445
  315.000    9.449    0.307    0.434   68.624
  315.250    9.804    0.277    0.440   63.765
  315.500    9.624    0.217    0.428   61.336
  315.750    8.935    0.160    0.413   58.907
  316.000    8.610    0.283    0.406   69.231
  316.250    7.994    0.299    0.421   72.267
  316.500    7.561    0.305    0.427   72.874
  316.750    7.422    0.306    0.432   72.874
  317.000    7.285    0.306    0.433   73.482
  317.250    7.421    0.287    0.425   74.089
  317.500    7.700    0.273    0.430   74.696
  317.750    7.843    0.260    0.427   73.482
  318.000    7.989    0.276    0.419   72.267
  318.250    7.988    0.300    0.428   71.660
  318.500    7.987    0.290    0.430   72.267
  318.750    7.555    0.272    0.423   72.874
  319.000    7.146    0.258    0.410   74.089
  319.250    6.759    0.241    0.400   76.518
  319.500    6.393    0.215    0.400   79.555
  319.750    5.827    0.195    0.407   83.806
  320.000    5.720    0.176    0.419   85.627
  320.250    5.614    0.159    0.432   86.842
  320.500    5.510    0.208    0.440   89.271
  320.750    5.613    0.212    0.430   92.915
  321.000    5.717    0.219    0.419   94.737
  321.250    5.824    0.226    0.427   90.486
  321.500    6.156    0.214    0.440   88.057
  321.750    6.270    0.215    0.457   86.235
