~VERSION INFORMATION
 VERS.                 2.0:   CWLS LOG ASCII STANDARD -VERSION 2.0
 WRAP.                  NO:   ONE LINE PER DEPTH STEP
~WELL INFORMATION BLOCK
#MNEM.UNIT           DATA                    DESCRIPTION OF MNEMONIC
#---------    -------------------            -------------------------------
# Generated from Intellog Unique Number	CS_73_76/WELL/810
WELL.         PEX PHILLIPS AEC GRIST         : Well_name    - WELL
LOC .         00/10-04-073-08W4/0            : Location     - LOCATION
UWI .         00/10-04-073-08W4/0            : Uwi          - UNIQUE WELL ID
ENTR.         SP                             : Entered      - ENTERED BY
SRVC.         SCHLUMBERGER                   : Scn          - SERVICE COMPANY
STRT.M        315                            : top_depth    - START DEPTH
STOP.M        540                            : bot_depth    - STOP DEPTH
STEP.M        0.25                           : increment    - STEP LENGTH
 NULL. -999.2500:NULL Value
~CURVE INFORMATION BLOCK
#MNEM UNIT       ERCB CURVE CODE    CURVE DESCRIPTION
#-----------   ------------------   ----------------------------------
DEPT.M        00 001 00 00         : DEPTH        - DEPTH
ILD .OHMM     00 120 00 00         : RESD         - DEEP RESISTIVITY (DIL)
DPHI.V/V      00 890 00 00         : PHID         - DENSITY POROSITY (LIMESTONE)
NPHI.V/V      00 330 00 00         : PHIN         - NEUTRON POROSITY (LIMESTONE)
GR  .API      00 310 00 00         : GR           - GAMMA RAY
~PARAMETER INFORMATION
#MNEM.UNIT           DATA             DESCRIPTION OF MNEMONIC
#---------         -----------     ------------------------------
GL  .M        692.94               : gl           - GROUND LEVEL ELEVATION
EREF.M        696.02               : kb           - ELEVATION OF DEPTH REFERENCE
DATM.M        692.94               : datum        - DATUM ELEVATION
TDD .M        550.8                : tdd          - TOTAL DEPTH DRILLER
RUN .         ONE                  : Run          - RUN NUMBER
ENG .         BILL                 : Engineer     - RECORDING ENGINEER
WIT .         JIM                  : Witness      - WITNESSED BY
MUD .         GEL                  : Mud_type     - MUD TYPE
MATR.         LIMESTONE            : Logunit      - NEUTRON MATRIX
TMAX.C        29                   : BHT          - MAXIMUM RECORDED TEMPERATURE
BHTD.M        550.8                : BHTDEP       - MAXIMUM RECORDED TEMPERATURE
MATR.         1                    : LOGUNIT      - NEUTRON MATRIX
RMT .C        25                   : MDTP         - TEMPERATURE OF MUD
NEUT.         1                    : NEUTRON      - NEUTRON TYPE
RESI.         0                    : RESIST       - RESISTIVITY TYPE
RMC .OHMM     0.25                 : RMC          - RESISTIVITY OF MUD CAKE
RMF .OHMM     0.25                 : RMF          - RESISTIVITY OF MUD FILTRATE
SUFT.C        15                   : SUFT         - SURFACE TEMPERATURE
~A  DEPTH     RESD     PHID     PHIN       GR
# ...
  358.500   18.068    0.240    0.340   91.975
  358.750   18.413    0.232    0.308   79.166
  359.000   21.409    0.250    0.290   71.236
  359.250   24.892    0.106    0.250   62.695
  359.500   30.052    0.004    0.231   59.033
  359.750   36.284    0.015    0.267   64.516
  360.000   39.125    0.194    0.295   71.219
  360.250   39.127    0.248    0.315   75.482
  360.500   33.657    0.248    0.317   77.308
  360.750   31.809    0.241    0.315   79.132
  361.000   28.412    0.241    0.324   80.349
  361.250   24.440    0.259    0.317   84.004
  361.500   23.098    0.252    0.310   91.316
  361.750   21.024    0.246    0.321   94.972
  362.000   19.499    0.225    0.321   98.626
  362.250   18.429    0.207    0.332  101.061
  362.500   17.093    0.197    0.337  102.276
  362.750   16.155    0.193    0.333  102.271
  363.000   15.268    0.191    0.344  101.048
  363.250   14.705    0.171    0.345  102.874
  363.500   14.162    0.155    0.342  106.528
  363.750   13.385    0.142    0.341  108.353
  364.000   12.650    0.160    0.342  108.959
  364.250   12.183    0.176    0.343  105.906
  364.500   12.184    0.199    0.353  103.463
  364.750   12.185    0.172    0.343  104.069
  365.000   12.186    0.159    0.331  101.015
  365.250   11.736    0.168    0.316   99.183
  365.500   11.092    0.174    0.338  109.544
  365.750   10.483    0.182    0.370  116.858
  366.000    9.189    0.164    0.381  120.512
  366.250    8.684    0.173    0.385  121.727
  366.500    8.055    0.171    0.376  116.845
  366.750    7.757    0.180    0.377  115.012
  367.000    7.758    0.182    0.375  115.007
  367.250    8.056    0.191    0.364  113.783
  367.500    8.525    0.200    0.363  111.341
  367.750    9.368    0.189    0.358  107.067
  368.000    9.913    0.204    0.358  105.235
  368.250   11.311    0.171    0.349  103.400
  368.500   11.746    0.175    0.346  102.788
  368.750   12.197    0.192    0.341  106.442
  369.000   12.430    0.211    0.333  108.267
  369.250   12.908    0.213    0.325  105.216
  369.500   13.404    0.214    0.320  103.382
  369.750   13.660    0.196    0.320  103.376
  370.000   13.661    0.181    0.326  103.374
  370.250   13.921    0.168    0.333   99.710
  370.500   13.663    0.164    0.347   98.488
  370.750   13.408    0.175    0.338  101.532
  371.000   12.914    0.197    0.333   99.698
  371.250   12.673    0.202    0.348   96.036
  371.500   12.206    0.206    0.364  102.740
  371.750   12.206    0.233    0.370  104.564
  372.000   11.979    0.225    0.359  103.341
  372.250   11.980    0.210    0.353  102.118
  372.500   11.981    0.196    0.349  104.552
  372.750   11.758    0.190    0.352  106.988
  373.000   10.905    0.184    0.363   99.665
  373.250   10.503    0.170    0.376  100.272
  373.500    9.206    0.156    0.385  103.317
  373.750    8.223    0.159    0.384  102.094
  374.000    7.771    0.183    0.370  106.966
  374.250    7.073    0.192    0.359  111.231
  374.500    6.561    0.195    0.363  115.496
  374.750    6.439    0.188    0.352  119.150
  375.000    7.774    0.177    0.330  111.219
  375.250    9.038    0.197    0.316   98.410
  375.500   11.766    0.212    0.293   88.041
  375.750   16.516    0.222    0.246   78.281
  376.000   22.325    0.000    0.271   70.960
  376.250   23.625    0.000    0.302   72.174
  376.500   19.942    0.022    0.321   78.876
  376.750   17.812    0.053    0.340   82.532
  377.000   16.212    0.123    0.343   85.578
  377.250   13.946    0.163    0.330   90.451
  377.500   13.431    0.173    0.346   95.935
  377.750   12.935    0.180    0.351   97.760
  378.000   12.458    0.173    0.347   95.927
  378.250   12.226    0.163    0.345   93.484
  378.500   11.999    0.157    0.357   91.651
  378.750   12.000    0.152    0.350   91.646
  379.000   11.776    0.162    0.345   89.813
  379.250   13.186    0.189    0.333   89.810
  379.500   13.953    0.221    0.324   88.585
  379.750   15.332    0.236    0.313   84.312
  380.000   16.534    0.233    0.313   82.480
  380.250   16.849    0.180    0.323   82.476
  380.500   17.170    0.191    0.333   87.350
  380.750   16.851    0.188    0.336   91.004
  381.000   15.629    0.163    0.345   91.609
  381.250   15.339    0.158    0.334   92.824
  381.500   15.053    0.177    0.326   92.821
  381.750   15.054    0.204    0.322   91.597
  382.000   15.341    0.214    0.333   90.983
  382.250   15.056    0.215    0.334   94.638
  382.500   13.704    0.203    0.344   98.902
  382.750   12.012    0.225    0.356  102.557
  383.000   11.353    0.237    0.371  100.113
  383.250   10.530    0.211    0.372   95.841
  383.500    9.952    0.204    0.365   90.959
  383.750    9.405    0.190    0.361   86.687
  384.000    8.889    0.190    0.371   88.512
  384.250    7.940    0.201    0.360   90.948
  384.500    7.364    0.206    0.355   94.601
  384.750    6.703    0.198    0.351   98.256
  385.000    6.335    0.183    0.352   97.031
  385.250    5.987    0.192    0.378   95.809
  385.500    5.766    0.197    0.384   94.583
  385.750    5.876    0.192    0.386   95.190
  386.000    6.457    0.197    0.392   95.188
  386.250    7.507    0.255    0.383   92.135
  386.500    8.249    0.284    0.383   78.716
  386.750   10.538    0.345    0.408   61.639
  387.000   13.212    0.394    0.386   55.537
  387.250   17.859    0.274    0.345   51.874
  387.500   20.378    0.265    0.330   52.481
  387.750   21.564    0.275    0.328   54.915
  388.000   21.975    0.276    0.323   56.130
  388.250   21.976    0.265    0.325   55.517
  388.500   21.978    0.275    0.333   54.294
  388.750   21.569    0.286    0.339   53.070
  389.000   21.570    0.278    0.332   50.016
  389.250   21.573    0.272    0.326   49.404
  389.500   22.401    0.280    0.327   48.790
  389.750   21.985    0.289    0.319   50.614
  390.000   22.404    0.300    0.317   52.440
  390.250   22.405    0.294    0.319   53.044
  390.500   22.407    0.283    0.329   53.651
  390.750   22.409    0.288    0.317   54.866
  391.000   22.410    0.290    0.315   55.472
  391.250   22.411    0.268    0.311   55.468
  391.500   22.413    0.281    0.308   54.853
  391.750   22.840    0.284    0.312   55.459
  392.000   22.842    0.278    0.318   56.675
  392.250   22.844    0.278    0.337   57.891
  392.500   22.845    0.279    0.334   58.497
  392.750   23.281    0.290    0.337   56.663
  393.000   23.283    0.295    0.334   56.660
  393.250   23.726    0.286    0.328   57.873
  393.500   23.727    0.295    0.338   57.871
  393.750   23.729    0.300    0.329   58.476
  394.000   23.288    0.309    0.339   60.302
  394.250   23.733    0.309    0.353   62.736
  394.500   23.734    0.304    0.355   62.121
  394.750   23.735    0.306    0.349   62.118
  395.000   23.737    0.313    0.353   61.505
  395.250   23.738    0.309    0.349   58.452
  395.500   23.297    0.295    0.338   59.667
  395.750   23.298    0.284    0.341   60.883
  396.000   23.300    0.282    0.348   61.487
  396.250   23.302    0.295    0.349   62.703
  396.500   23.303    0.299    0.343   63.310
  396.750   23.304    0.298    0.348   63.916
  397.000   23.305    0.295    0.355   63.910
  397.250   23.306    0.300    0.358   63.908
  397.500   23.308    0.305    0.350   62.683
  397.750   23.310    0.315    0.332   61.460
  398.000   23.311    0.311    0.336   62.065
  398.250   23.312    0.303    0.353   62.669
  398.500   23.314    0.293    0.352   63.276
  398.750   22.454    0.288    0.338   63.273
  399.000   22.036    0.288    0.328   63.269
  399.250   21.626    0.289    0.322   66.924
  399.500   21.224    0.289    0.322   69.969
  399.750   20.440    0.289    0.325   70.574
  400.000   19.686    0.292    0.337   73.009
  400.250   19.320    0.295    0.341   74.225
  400.500   19.321    0.294    0.330   69.952
  400.750   19.690    0.287    0.321   65.679
  401.000   20.065    0.276    0.303   63.846
  401.250   20.837    0.212    0.292   62.013
  401.500   21.638    0.202    0.278   61.400
  401.750   25.637    0.309    0.263   60.175
