~VERSION INFORMATION
 VERS.                 2.0:   CWLS LOG ASCII STANDARD -VERSION 2.0
 WRAP.                  NO:   ONE LINE PER DEPTH STEP
~WELL INFORMATION BLOCK
#MNEM.UNIT           DATA                    DESCRIPTION OF MNEMONIC
#---------    -------------------            -------------------------------
# Generated from Intellog Unique Number	CW_70_72/WELL/1049
NULL.         -999.25                        : NULL_VALUE
WELL.         HOME CDN SUP MITSUE 10-34      : Well_name    - WELL              
LOC .         10-34-071-03W5                 : Location     - LOCATION          
UWI .         00/10-34-071-03W5/0            : Uwi          - UNIQUE WELL ID    
ENTR.         JAYE                           : Entered      - ENTERED BY        
SRVC.         COMPUTALOG                     : Scn          - SERVICE COMPANY   
DATE.         7 SEPT 84                      : Date         - LOG DATE          
STRT.M        420                            : top_depth    - START DEPTH       
STOP.M        625                            : bot_depth    - STOP DEPTH        
STEP.M        0.25                           : increment    - STEP LENGTH       
~CURVE INFORMATION BLOCK
#MNEM UNIT       ERCB CURVE CODE    CURVE DESCRIPTION
#-----------   ------------------   ----------------------------------
DEPT.M        00 001 00 00         : DEPTH        - DEPTH                       
DPHI.V/V      00 890 00 00         : PHID         - DENSITY POROSITY (SANDSTONE)
NPHI.V/V      00 330 00 00         : PHIN         - NEUTRON POROSITY (SANDSTONE)
GR  .API      00 310 00 00         : GR           - GAMMA RAY                   
CALI.MM       00 280 01 00         : CAL          - CALIPER                     
ILD .OHMM     00 120 00 00         : RESD         - DEEP RESISTIVITY (DIL)      
~PARAMETER INFORMATION       
#MNEM.UNIT           DATA             DESCRIPTION OF MNEMONIC
#---------         -----------     ------------------------------
GL  .M        625.4                : gl           - GROUND LEVEL ELEVATION      
EREF.M        628.3                : kb           - ELEVATION OF DEPTH REFERENCE
DATM.M        625.4                : datum        - DATUM ELEVATION             
TDD .M        643                  : tdd          - TOTAL DEPTH DRILLER         
RUN .         ONE                  : Run          - RUN NUMBER                  
ENG .         MACLEAN              : Engineer     - RECORDING ENGINEER          
WIT .         COOK/YARDLEY         : Witness      - WITNESSED BY                
BASE.         EDM                  : Branch       - HOME BASE OF LOGGING UNIT   
MUD .         GEL CHEM             : Mud_type     - MUD TYPE                    
MATR.         SANDSTONE            : Logunit      - NEUTRON MATRIX              
TMAX.C        22                   : BHT          - MAXIMUM RECORDED TEMPERATURE
BHTD.M        632.5                : BHTDEP       - MAXIMUM RECORDED TEMPERATURE
RMT .C        17                   : MDTP         - TEMPERATURE OF MUD          
MUDD.KG/M     1120                 : MWT          - MUD DENSITY                 
NEUT.         1                    : NEUTRON      - NEUTRON TYPE                
RESI.         0                    : RESIST       - RESISTIVITY TYPE            
RM  .OHMM     4                    : RM           - RESISTIVITY OF MUD          
RMC .OHMM     3.2                  : RMC          - RESISTIVITY OF MUD CAKE     
RMF .OHMM     3.8                  : RMF          - RESISTIVITY OF MUD FILTRATE 
SUFT.C        0                    : SUFT         - SURFACE TEMPERATURE         
~A  DEPTH     PHID     PHIN       GR      CAL     RESD
# ...
  493.000    0.330    0.384   28.416  189.312    2.375
  493.250    0.320    0.384   26.493  188.707    2.515
  493.500    0.308    0.388   25.381  188.206    2.556
  493.750    0.343    0.396   25.080  189.367    2.412
  494.000    0.354    0.395   28.150  190.015    2.264
  494.250    0.352    0.389   29.408  190.345    2.172
  494.500    0.348    0.375   29.919  190.465    2.096
  494.750    0.345    0.388   33.112  190.592    2.076
  495.000    0.343    0.412   34.996  190.713    2.087
  495.250    0.344    0.416   32.574  190.730    2.133
  495.500    0.344    0.406   31.526  190.958    2.217
  495.750    0.342    0.395   30.475  191.080    2.305
  496.000    0.340    0.378   29.488  190.996    2.418
  496.250    0.336    0.363   27.066  191.016    2.513
  496.500    0.335    0.360   24.270  190.825    2.546
  496.750    0.332    0.376   27.090  190.534    2.516
  497.000    0.324    0.383   28.972  190.342    2.460
  497.250    0.327    0.380   30.294  189.947    2.427
  497.500    0.333    0.376   30.618  189.238    2.404
  497.750    0.324    0.374   30.442  188.215    2.390
  498.000    0.324    0.380   30.016  187.403    2.384
  498.250    0.333    0.390   29.405  187.528    2.393
  498.500    0.334    0.377   28.542  187.860    2.387
  498.750    0.326    0.384   27.118  188.503    2.373
  499.000    0.324    0.379   26.009  189.352    2.359
  499.250    0.330    0.369   25.894  190.100    2.332
  499.500    0.329    0.352   26.341  190.846    2.284
  499.750    0.327    0.368   27.351  191.592    2.233
  500.000    0.328    0.390   29.048  192.238    2.191
  500.250    0.337    0.409   30.431  192.671    2.186
  500.500    0.337    0.379   30.754  193.001    2.277
  500.750    0.297    0.341   30.954  192.812    2.493
  501.000    0.257    0.305   29.654  192.936    2.791
  501.250    0.190    0.258   26.795  194.723    3.488
  501.500    0.155    0.244   25.683  196.406    4.358
  501.750    0.149    0.271   26.007  196.009    5.102
  502.000    0.180    0.340   25.270  193.637    5.608
  502.250    0.211    0.374   24.470  191.055    4.742
  502.500    0.250    0.393   26.291  189.618    3.785
  502.750    0.306    0.397   29.235  188.807    3.249
  503.000    0.321    0.390   29.061  188.719    2.894
  503.250    0.307    0.378   28.759  188.532    2.617
  503.500    0.316    0.375   28.083  188.549    2.384
  503.750    0.331    0.389   27.473  188.880    2.254
  504.000    0.346    0.411   28.169  189.318    2.103
  504.250    0.348    0.418   29.928  189.751    1.970
  504.500    0.347    0.419   32.122  189.457    1.859
  504.750    0.345    0.416   30.513  189.268    1.835
  505.000    0.344    0.411   28.651  189.183    1.831
  505.250    0.353    0.402   27.290  187.954    1.830
  505.500    0.358    0.395   27.051  186.726    1.833
  505.750    0.356    0.389   28.436  186.849    1.832
  506.000    0.351    0.386   30.506  188.012    1.845
  506.250    0.345    0.389   32.516  189.282    1.844
  506.500    0.338    0.387   34.275  189.922    1.861
  506.750    0.332    0.388   34.284  190.773    1.874
  507.000    0.330    0.405   29.303  191.416    1.887
  507.250    0.330    0.421   29.130  192.059    1.908
  507.500    0.339    0.407   30.137  192.703    1.932
  507.750    0.346    0.388   31.147  193.137    1.960
  508.000    0.346    0.378   31.346  193.470    1.974
  508.250    0.343    0.383   30.922  193.695    1.996
  508.500    0.336    0.392   31.245  193.718    2.003
  508.750    0.332    0.389   32.068  193.835    2.013
  509.000    0.329    0.376   31.017  193.753    2.020
  509.250    0.325    0.391   29.843  193.668    2.027
  509.500    0.322    0.405   29.480  193.686    2.026
  509.750    0.316    0.408   30.054  193.498    2.044
  510.000    0.308    0.398   30.627  193.516    2.070
  510.250    0.295    0.389   30.637  193.120    2.108
  510.500    0.281    0.378   30.524  192.617    2.151
  510.750    0.268    0.392   30.848  191.599    2.228
  511.000    0.264    0.408   32.233  192.032    2.342
  511.250    0.288    0.412   32.929  192.882    2.412
  511.500    0.311    0.406   32.504  193.942    2.442
  511.750    0.309    0.406   31.143  192.713    2.414
  512.000    0.306    0.405   30.283  189.092    2.347
  512.250    0.317    0.399   30.231  187.342    2.282
  512.500    0.293    0.369   30.553  187.362    2.281
  512.750    0.253    0.387   31.188  192.583    2.353
  513.000    0.234    0.411   32.759  196.656    2.469
  513.250    0.222    0.434   35.080  200.003    2.600
  513.500    0.209    0.420   36.590  202.205    2.795
  513.750    0.198    0.409   37.287  204.201    3.043
  514.000    0.193    0.429   36.300  205.364    3.116
  514.250    0.195    0.465   36.187  205.695    2.802
  514.500    0.204    0.482   37.322  205.611    2.401
  514.750    0.223    0.496   38.580  205.318    2.004
  515.000    0.247    0.517   40.215  205.335    1.782
  515.250    0.311    0.539   40.788  206.914    1.650
  515.500    0.311    0.534   40.675  208.702    1.687
  515.750    0.296    0.517   40.623  209.346    1.790
  516.000    0.280    0.506   40.509  209.571    1.971
  516.250    0.273    0.512   37.712  209.174    2.095
  516.500    0.286    0.537   38.099  208.260    2.094
  516.750    0.312    0.544   40.294  207.549    2.017
  517.000    0.314    0.546   41.867  206.013    1.858
  517.250    0.289    0.516   41.440  204.987    1.658
  517.500    0.263    0.501   40.703  203.967    1.463
  517.750    0.249    0.505   39.966  203.672    1.361
  518.000    0.259    0.534   39.978  205.043    1.396
  518.250    0.284    0.543   40.675  207.143    1.578
  518.500    0.258    0.405   42.308  206.225    1.813
  518.750    0.232    0.400   44.691  203.020    2.232
  519.000    0.206    0.403   40.147  200.856    2.652
  519.250    0.191    0.397   36.353  199.733    3.193
  519.500    0.192    0.379   35.053  198.711    3.752
  519.750    0.208    0.340   36.563  198.208    4.352
  520.000    0.270    0.309   39.133  196.878    4.964
  520.250    0.340    0.267   39.705  196.272    5.790
  520.500    0.377    0.221   35.538  195.771    6.630
  520.750    0.399    0.202   33.800  195.061    7.733
  521.000    0.400    0.189   28.694  194.770    7.365
  521.250    0.374    0.200   29.394  194.891    6.263
  521.500    0.349    0.230   31.338  194.705    5.066
  521.750    0.333    0.291   35.156  194.617    4.104
  522.000    0.324    0.386   37.851  194.427    3.484
  522.250    0.315    0.431   37.675  193.823    2.876
  522.500    0.310    0.412   36.252  193.322    2.552
  522.750    0.315    0.392   34.516  192.926    2.532
  523.000    0.315    0.400   33.903  192.632    2.550
  523.250    0.307    0.422   31.668  191.507    2.550
  523.500    0.293    0.421   31.057  192.048    2.497
  523.750    0.308    0.403   32.192  192.483    2.446
  524.000    0.328    0.406   34.136  192.714    2.378
  524.250    0.342    0.427   36.955  192.731    2.282
  524.500    0.354    0.413   35.843  192.641    2.177
  524.750    0.366    0.407   31.737  192.246    2.089
  525.000    0.367    0.410   30.875  191.535    2.016
  525.250    0.363    0.415   31.634  191.246    1.967
  525.500    0.360    0.392   31.208  191.367    1.952
  525.750    0.356    0.407   28.725  191.700    1.955
  526.000    0.348    0.423   29.235  191.822    1.965
  526.250    0.345    0.412   31.555  191.009    1.965
  526.500    0.352    0.397   33.189  189.674    1.971
  526.750    0.352    0.408   32.638  188.655    1.989
  527.000    0.343    0.421   31.589  189.089    2.003
  527.250    0.337    0.415   30.291  190.877    2.017
  527.500    0.343    0.413   28.680  192.768    2.024
  527.750    0.345    0.409   28.192  193.722    2.031
  528.000    0.343    0.413   29.388  194.263    2.034
  528.250    0.339    0.424   31.272  194.387    2.048
  528.500    0.337    0.424   33.094  194.194    2.059
  528.750    0.339    0.419   34.416  194.213    2.058
  529.000    0.341    0.411   35.050  194.337    2.054
  529.250    0.339    0.409   34.999  194.460    2.038
