~VERSION INFORMATION
 VERS.                 2.0:   CWLS LOG ASCII STANDARD -VERSION 2.0
 WRAP.                  NO:   ONE LINE PER DEPTH STEP
~WELL INFORMATION BLOCK
#MNEM.UNIT           DATA                    DESCRIPTION OF MNEMONIC
#---------    -------------------            -------------------------------
# Generated from Intellog Unique Number	CC_80_83/WELL/2420
NULL.         -999.25                        : NULL_VALUE
WELL.         AMOCO SURMONT E5               : Well_name    - WELL
LOC .         11-31-083-09W4                 : Location     - LOCATION          
UWI .         00/11-31-083-09W400            : Uwi          - UNIQUE WELL ID    
ENTR.         DW                             : Entered      - ENTERED BY        
SRVC.         SCHLUMBERGER                   : Scn          - SERVICE COMPANY   
DATE.         07 MAR 77                      : Date         - LOG DATE
STRT.M        240.792                        : top_depth    - START DEPTH       
STOP.M        484.639                        : bot_depth    - STOP DEPTH        
STEP.M        0.305                          : increment    - STEP LENGTH       
~CURVE INFORMATION BLOCK
#MNEM UNIT       ERCB CURVE CODE    CURVE DESCRIPTION
#-----------   ------------------   ----------------------------------
DEPT.M        00 001 00 00         : DEPTH        - DEPTH                       
DPHI.V/V      00 890 00 00         : PHID         - DENSITY POROSITY (LIMESTONE)
NPHI.V/V      00 330 00 00         : PHIN         - NEUTRON POROSITY (LIMESTONE)
GR  .API      00 310 00 00         : GR           - GAMMA RAY                   
ILD .OHMM     00 120 00 00         : RESD         - DEEP RESISTIVITY (DIL)      
~PARAMETER INFORMATION       
#MNEM.UNIT           DATA             DESCRIPTION OF MNEMONIC
#---------         -----------     ------------------------------
GL  .M        712.318              : gl           - GROUND LEVEL ELEVATION      
EREF.M        716.28               : kb           - ELEVATION OF DEPTH REFERENCE
DATM.M        716.28               : datum        - DATUM ELEVATION             
TDD .M        486.461              : tdd          - TOTAL DEPTH DRILLER         
RUN .         ONE                  : Run          - RUN NUMBER                  
ENG .         BILL                 : Engineer     - RECORDING ENGINEER          
WIT .         JIM                  : Witness      - WITNESSED BY                
MUD .         GEL                  : Mud_type     - MUD TYPE                    
MATR.         LIMESTONE            : Logunit      - NEUTRON MATRIX              
TMAX.C        21.6667              : BHT          - MAXIMUM RECORDED TEMPERATURE
BHTD.M        486.461              : BHTDEP       - MAXIMUM RECORDED TEMPERATURE
MATR.         1                    : LOGUNIT      - NEUTRON MATRIX              
RMT .C        25                   : MDTP         - TEMPERATURE OF MUD          
NEUT.         1                    : NEUTRON      - NEUTRON TYPE                
RESI.         0                    : RESIST       - RESISTIVITY TYPE            
RMC .OHMM     0.25                 : RMC          - RESISTIVITY OF MUD CAKE     
RMF .OHMM     0.25                 : RMF          - RESISTIVITY OF MUD FILTRATE 
SUFT.C        15                   : SUFT         - SURFACE TEMPERATURE         
~A  DEPTH     PHID     PHIN       GR     RESD
# ...
  452.939    0.303    0.397   58.674   33.577
  453.243    0.280    0.401   58.663   30.044
  453.548    0.276    0.402   58.047   22.311
  453.853    0.288    0.403   58.648   17.520
  454.158    0.256    0.411   77.461   16.277
  454.463    0.229    0.409   82.311   16.588
  454.768    0.226    0.413   83.515   18.219
  455.072    0.230    0.408   75.613   20.011
  455.377    0.234    0.390   74.389   20.020
  455.682    0.228    0.395   72.558   19.297
  455.987    0.232    0.400   67.084   18.261
  456.292    0.249    0.391   65.252   18.268
  456.596    0.235    0.385   67.673   18.277
  456.901    0.233    0.395   70.091   18.634
  457.206    0.274    0.407   67.653   20.087
  457.511    0.294    0.416   70.678   20.097
  457.816    0.300    0.425   73.100   20.487
  458.120    0.279    0.450   73.091   22.926
  458.425    0.249    0.444   69.439   24.709
  458.730    0.252    0.411   65.784   27.648
  459.035    0.263    0.399   64.560   28.713
  459.340    0.284    0.418   65.159   26.177
  459.645    0.303    0.430   65.150   23.422
  459.949    0.289    0.410   62.106   20.955
  460.254    0.221    0.417   74.849   17.402
  460.559    0.191    0.436   86.374   15.861
  460.864    0.214    0.401   83.938   14.193
  461.169    0.192    0.389   90.001   13.183
  461.473    0.166    0.412   90.597   13.188
  461.778    0.170    0.412   85.125   14.215
  462.083    0.212    0.399   74.792   17.460
  462.388    0.230    0.395   67.496   21.442
  462.693    0.254    0.406   60.809   30.004
  462.997    0.282    0.432   51.084   40.449
  463.302    0.348    0.410   46.823   52.529
  463.607    0.335    0.433   49.244   66.969
  463.912    0.301    0.448   52.876   74.925
  464.217    0.285    0.438   49.224   87.030
  464.521    0.289    0.413   41.928   90.372
  464.826    0.311    0.402   41.919   43.724
  465.131    0.325    0.397   47.374   21.551
  465.436    0.307    0.408   62.547   19.285
  465.741    0.244    0.402   75.895   20.026
  466.046    0.217    0.405   72.242   25.060
  466.350    0.244    0.417   62.519   33.777
  466.655    0.272    0.422   58.259   75.305
  466.960    0.294    0.437   49.748   85.847
  467.265    0.320    0.422   43.666   74.003
  467.570    0.295    0.395   46.693   48.233
  467.874    0.282    0.379   51.541   33.875
  468.179    0.278    0.366   56.389   29.748
  468.484    0.255    0.361   60.023   29.214
  468.789    0.226    0.372   64.873   37.245
  469.094    0.252    0.403   69.115   65.169
  469.398    0.248    0.416   63.641  105.860
  469.703    0.257    0.418   44.200  107.904
  470.008    0.287    0.366   43.581   96.555
  470.313    0.277    0.331   44.787   78.700
  470.618    0.279    0.371   44.172   60.660
  470.922    0.290    0.394   45.378   50.376
  471.227    0.265    0.368   50.831   46.783
  471.532    0.281    0.361   57.501   52.350
  471.837    0.264    0.385   60.529   61.937
  472.142    0.282    0.409   49.591   78.959
  472.447    0.300    0.379   38.649   88.348
  472.751    0.284    0.368   42.282   98.859
  473.056    0.270    0.380   45.916  116.966
  473.361    0.310    0.388   46.517  138.403
  473.666    0.325    0.389   44.078  149.183
  473.971    0.325    0.395   34.355  157.865
  474.275    0.319    0.414   24.629  157.963
  474.580    0.332    0.431   24.012  149.458
  474.885    0.347    0.429   23.396  136.237
  475.190    0.350    0.413   24.602  111.041
  475.495    0.321    0.399   30.664   61.201
  475.799    0.333    0.382   36.727   41.414
  476.104    0.297    0.382   40.969   35.692
  476.409    0.313    0.428   45.209   27.515
  476.714    0.297    0.419   44.593   22.015
  477.019    0.271    0.406   45.799   18.281
  477.323    0.233    0.399   51.254   12.839
  477.628    0.216    0.378   60.960   10.863
  477.933    0.127    0.382   69.452   10.088
  478.238    0.058    0.378   79.157   10.094
  478.543    0.043    0.354   80.970   10.680
  478.848    0.058    0.340   78.531   11.514
  479.152    0.058    0.343   80.346   12.182
  479.457    0.029    0.344   77.299   12.889
  479.762    0.040    0.326   63.932   14.970
  480.067    0.052    0.305   31.741   19.081
  480.372    0.025    0.161   22.623   51.255
  480.676    0.000    0.104   25.041   70.396
  480.981    0.000    0.088   35.356   70.438
  481.286    0.000    0.152   63.886   58.497
  481.591    0.000    0.192   92.416   39.577
  481.896    0.012    0.127   93.012   32.261
  482.200    0.000    0.002   92.393   28.330
  482.505    0.000    0.000   92.387   24.422
  482.810    0.000    0.000   92.983   21.851
  483.115    0.002    0.010   92.367   21.458
  483.420    0.020    0.025   91.145   21.078
  483.724    0.034    0.034   90.528   21.089
  484.029    0.007    0.037   91.127   20.709
  484.334    0.000    0.036   91.723   20.719
  484.639    0.000    0.036   92.322   19.975
