~VERSION INFORMATION
 VERS.                 2.0:   CWLS LOG ASCII STANDARD -VERSION 2.0
 WRAP.                  NO:   ONE LINE PER DEPTH STEP
~WELL INFORMATION BLOCK
#MNEM.UNIT           DATA                    DESCRIPTION OF MNEMONIC
#---------    -------------------            -------------------------------
# Generated from Intellog Unique Number	CS_67_68/WELL/2195
WELL.         10-14-067-03W4                 : Well_name    - WELL
LOC .         00/10-14-067-03W4/0            : Location     - LOCATION
UWI .         00/10-14-067-03W4/0            : Uwi          - UNIQUE WELL ID
ENTR.         SP                             : Entered      - ENTERED BY
SRVC.         SCHLUMBERGER                   : Scn          - SERVICE COMPANY
STRT.M        380                            : top_depth    - START DEPTH
STOP.M        610                            : bot_depth    - STOP DEPTH
STEP.M        0.25                           : increment    - STEP LENGTH
 NULL. -999.2500:NULL Value
~CURVE INFORMATION BLOCK
#MNEM UNIT       ERCB CURVE CODE    CURVE DESCRIPTION
#-----------   ------------------   ----------------------------------
DEPT.M        00 001 00 00         : DEPTH        - DEPTH
ILD .OHMM     00 120 00 00         : RESD         - DEEP RESISTIVITY (DIL)
DPHI.V/V      00 890 00 00         : PHID         - DENSITY POROSITY (LIMESTONE)
NPHI.V/V      00 330 00 00         : PHIN         - NEUTRON POROSITY (LIMESTONE)
GR  .API      00 310 00 00         : GR           - GAMMA RAY
CALI.MM       00 280 01 00         : CAL          - CALIPER
~PARAMETER INFORMATION
#MNEM.UNIT           DATA             DESCRIPTION OF MNEMONIC
#---------         -----------     ------------------------------
GL  .M        697.3                : gl           - GROUND LEVEL ELEVATION
EREF.M        700.96               : kb           - ELEVATION OF DEPTH REFERENCE
DATM.M        700.96               : datum        - DATUM ELEVATION
TDD .M        618.5                : tdd          - TOTAL DEPTH DRILLER
RUN .         ONE                  : Run          - RUN NUMBER
ENG .         BILL                 : Engineer     - RECORDING ENGINEER
WIT .         JIM                  : Witness      - WITNESSED BY
MUD .         GEL                  : Mud_type     - MUD TYPE
MATR.         LIMESTONE            : Logunit      - NEUTRON MATRIX
TMAX.C        21                   : BHT          - MAXIMUM RECORDED TEMPERATURE
BHTD.M        619                  : BHTDEP       - MAXIMUM RECORDED TEMPERATURE
MATR.         1                    : LOGUNIT      - NEUTRON MATRIX
RMT .C        25                   : MDTP         - TEMPERATURE OF MUD
NEUT.         1                    : NEUTRON      - NEUTRON TYPE
RESI.         0                    : RESIST       - RESISTIVITY TYPE
RMC .OHMM     0.25                 : RMC          - RESISTIVITY OF MUD CAKE
RMF .OHMM     0.25                 : RMF          - RESISTIVITY OF MUD FILTRATE
SUFT.C        15                   : SUFT         - SURFACE TEMPERATURE
~A  DEPTH     RESD     PHID     PHIN       GR      CAL
  380.000    3.156    0.235    0.502  115.226  217.859
  380.250    3.271    0.221    0.499  109.722  216.133
  380.500    3.358    0.209    0.479  104.645  215.023
  380.750    3.441    0.227    0.466  107.468  214.218
  381.000    3.500    0.251    0.469  114.148  214.124
  381.250    3.519    0.253    0.469  119.235  214.744
  381.500    3.493    0.249    0.464  119.242  215.164
  381.750    3.473    0.247    0.461  114.778  215.172
  382.000    3.434    0.253    0.464  114.233  215.284
  382.250    3.433    0.263    0.492  117.728  214.274
  382.500    3.446    0.261    0.517  116.571  212.956
  382.750    3.524    0.247    0.535  107.209  210.927
  383.000    3.625    0.217    0.540  101.521  211.038
  383.250    3.708    0.148    0.507  102.997  211.966
  383.500    3.673    0.233    0.457  112.186  213.302
  383.750    3.604    0.247    0.488  129.518  214.332
  384.000    3.477    0.240    0.473  121.443  215.364
  384.250    3.373    0.237    0.459  112.265  215.577
  384.500    3.285    0.235    0.458  105.230  214.975
  384.750    3.200    0.241    0.496  108.909  215.290
  385.000    3.140    0.254    0.494  111.609  216.321
  385.250    3.104    0.256    0.477  110.819  217.149
  385.500    3.309    0.258    0.477  107.764  216.748
  385.750    3.811    0.266    0.492   98.831  211.452
  386.000    4.348    0.278    0.508   85.122  207.381
  386.250    4.724    0.288    0.441   69.883  205.655
  386.500    5.151    0.303    0.403   62.114  204.648
  386.750    5.756    0.317    0.420   71.732  204.453
  387.000    6.408    0.315    0.430   81.717  204.159
  387.250    6.604    0.320    0.404   86.805  204.266
  387.500    6.641    0.319    0.390   91.219  204.076
  387.750    6.716    0.309    0.401   88.409  204.085
  388.000    6.830    0.310    0.412   85.475  203.992
  388.250    6.986    0.313    0.389   80.522  203.694
  388.500    7.105    0.301    0.375   77.895  203.296
  388.750    7.158    0.293    0.374   80.473  202.795
  389.000    7.266    0.282    0.386   87.520  202.702
  389.250    7.460    0.281    0.395   86.607  202.613
  389.500    7.616    0.287    0.398   79.878  202.519
  389.750    7.760    0.286    0.355   77.741  202.733
  390.000    7.572    0.288    0.352   78.972  202.743
  390.250    7.430    0.288    0.365   80.080  202.751
  390.500    7.290    0.278    0.364   80.331  202.761
  390.750    7.140    0.292    0.364   80.459  202.774
  391.000    6.786    0.323    0.386   80.955  202.884
  391.250    6.621    0.330    0.399   80.471  203.199
  391.500    6.460    0.334    0.399   79.681  203.823
  391.750    6.339    0.336    0.413   79.687  204.547
  392.000    6.197    0.338    0.425   83.183  204.862
  392.250    6.092    0.328    0.433   91.270  206.402
  392.500    6.001    0.295    0.428  104.072  210.494
  392.750    5.978    0.268    0.412  106.159  213.666
  393.000    6.172    0.241    0.412  105.063  217.146
  393.250    6.469    0.243    0.418   96.069  218.687
  393.500    6.717    0.251    0.414   85.422  216.859
  393.750    7.014    0.277    0.445   76.183  211.563
  394.000    7.283    0.315    0.461   68.107  207.083
  394.250    6.817    0.329    0.432   71.725  207.603
  394.500    6.430    0.318    0.419   84.160  207.716
  394.750    6.122    0.288    0.428   97.880  207.725
  395.000    5.929    0.255    0.451  106.458  207.428
  395.250    5.895    0.234    0.461   96.974  206.826
  395.500    5.984    0.219    0.450   90.918  206.022
  395.750    6.086    0.167    0.434   91.353  205.316
  396.000    5.972    0.222    0.414  100.851  204.715
  396.250    6.039    0.279    0.411  104.773  204.416
  396.500    6.130    0.292    0.422  104.901  204.123
  396.750    6.246    0.296    0.437  105.214  204.437
  397.000    6.377    0.288    0.441  108.220  204.141
  397.250    6.547    0.283    0.430  111.960  204.049
  397.500    6.772    0.276    0.421  115.578  204.159
  397.750    6.887    0.272    0.410  103.461  204.275
  398.000    6.965    0.273    0.385   88.589  204.385
  398.250    6.991    0.281    0.365   84.126  204.599
  398.500    6.951    0.255    0.363   98.153  205.118
  398.750    6.911    0.238    0.390  107.158  205.433
  399.000    6.833    0.246    0.394   93.328  205.750
  399.250    6.820    0.264    0.395   86.599  205.861
  399.500    6.858    0.288    0.395   89.298  205.770
  399.750    6.857    0.239    0.377   97.080  205.779
  400.000    6.896    0.203    0.382  103.575  205.483
  400.250    6.947    0.229    0.405   99.664  205.288
  400.500    6.999    0.259    0.404   92.384  204.995
  400.750    7.038    0.277    0.397   89.818  204.697
  401.000    7.104    0.284    0.392   99.497  204.603
  401.250    7.131    0.287    0.417  109.178  204.614
  401.500    7.130    0.288    0.445  113.713  204.623
  401.750    7.103    0.307    0.458  118.434  204.738
  402.000    6.970    0.309    0.465  121.501  205.055
  402.250    6.623    0.289    0.465  120.957  205.268
  402.500    6.027    0.258    0.476  119.615  205.685
  402.750    5.495    0.228    0.464  118.947  206.102
  403.000    4.889    0.209    0.445  118.708  206.725
  403.250    4.717    0.197    0.463  105.122  207.244
  403.500    4.806    0.200    0.472   87.495  207.458
  403.750    5.202    0.291    0.444   73.113  206.856
  404.000    5.672    0.328    0.414   56.710  205.437
  404.250    6.244    0.344    0.394   47.655  204.324
  404.500    6.594    0.348    0.381   46.743  203.723
  404.750    6.860    0.354    0.376   51.096  204.138
  405.000    6.989    0.363    0.390   55.020  204.557
  405.250    7.015    0.364    0.413   56.373  204.567
  405.500    6.975    0.349    0.420   58.399  204.474
  405.750    6.883    0.332    0.429   65.201  204.280
  406.000    6.831    0.312    0.443   72.983  204.086
  406.250    6.792    0.291    0.427   81.928  204.402
  406.500    6.843    0.293    0.403   89.341  204.515
  406.750    6.894    0.294    0.407   96.449  204.627
  407.000    6.933    0.293    0.429   94.496  204.839
  407.250    6.945    0.288    0.441   90.033  205.157
  407.500    6.945    0.272    0.417   92.121  205.778
  407.750    6.931    0.261    0.413   95.922  206.196
  408.000    7.089    0.281    0.432   97.458  206.002
  408.250    7.458    0.310    0.442   91.526  204.992
  408.500    7.788    0.326    0.426   89.021  203.471
  408.750    8.087    0.317    0.434   87.742  202.665
  409.000    8.302    0.311    0.425   87.809  202.470
  409.250    8.364    0.299    0.413   89.897  202.582
  409.500    8.380    0.280    0.445   91.617  202.795
  409.750    8.363    0.249    0.474   93.399  202.805
  410.000    8.315    0.226    0.483   87.771  202.815
  410.250    8.190    0.209    0.471   85.328  202.928
  410.500    8.037    0.196    0.452   89.315  203.243
  410.750    7.797    0.279    0.440   91.952  203.562
  411.000    7.738    0.287    0.448   94.713  203.672
  411.250    7.608    0.285    0.459   96.862  203.885
  411.500    7.522    0.286    0.467   97.235  204.201
  411.750    7.298    0.298    0.464   94.364  204.211
  412.000    7.242    0.302    0.451   93.941  204.220
  412.250    7.310    0.293    0.445   97.191  204.027
  412.500    7.337    0.283    0.464  101.240  203.937
  412.750    7.309    0.275    0.479  103.938  203.842
  413.000    7.145    0.269    0.497  101.434  203.648
  413.250    7.011    0.271    0.475   96.787  203.659
  413.500    7.037    0.278    0.437   91.343  203.667
  413.750    7.143    0.282    0.378   87.859  203.679
  414.000    7.389    0.276    0.353   83.580  203.687
  414.250    7.586    0.267    0.358   77.586  203.696
  414.500    7.686    0.284    0.371   74.224  203.708
  414.750    7.444    0.293    0.357   82.374  203.515
  415.000    7.222    0.274    0.357   85.930  203.421
  415.250    7.060    0.257    0.376   87.467  203.329
  415.500    6.902    0.247    0.386   87.472  203.135
  415.750    6.772    0.258    0.378   88.764  203.041
  416.000    6.683    0.267    0.371   83.260  202.646
  416.250    6.595    0.274    0.394   86.572  202.654
