~VERSION INFORMATION
 VERS.                 2.0:   CWLS LOG ASCII STANDARD -VERSION 2.0
 WRAP.                  NO:   ONE LINE PER DEPTH STEP
~WELL INFORMATION BLOCK
#MNEM.UNIT           DATA                    DESCRIPTION OF MNEMONIC
#---------    -------------------            -------------------------------
# Generated from Intellog Unique Number	CW_76_78/WELL/1032
WELL.         CHIEFCO MCMULLEN               : Well_name    - WELL
LOC .         00/11-34-077-25W4/0            : Location     - LOCATION
UWI .         00/11-34-077-25W4/0            : Uwi          - UNIQUE WELL ID
ENTR.         JAYE                           : Entered      - ENTERED BY
SRVC.         WESTERN ATLAS                  : Scn          - SERVICE COMPANY
DATE.         27 FEB 75                      : Date         - LOG DATE
STRT.M        423.672                        : top_depth    - START DEPTH
STOP.M        603.422                        : bot_depth    - STOP DEPTH
STEP.M        0.25                           : increment    - STEP LENGTH
 NULL. -999.2500:NULL Value
~CURVE INFORMATION BLOCK
#MNEM UNIT       ERCB CURVE CODE    CURVE DESCRIPTION
#-----------   ------------------   ----------------------------------
DEPT.M        00 001 00 00         : DEPTH        - DEPTH
DPHI.V/V      00 890 00 00         : PHID         - DENSITY POROSITY (SANDSTONE)
NPHI.V/V      00 330 00 00         : PHIN         - NEUTRON POROSITY (SANDSTONE)
GR  .API      00 310 00 00         : GR           - GAMMA RAY
CALI.MM       00 280 01 00         : CAL          - CALIPER
ILD .OHMM     00 120 00 00         : RESD         - DEEP RESISTIVITY (DIL)
~PARAMETER INFORMATION
#MNEM.UNIT           DATA             DESCRIPTION OF MNEMONIC
#---------         -----------     ------------------------------
GL  .M        638.251              : gl           - GROUND LEVEL ELEVATION
EREF.M        641.604              : kb           - ELEVATION OF DEPTH REFERENCE
DATM.M        638.251              : datum        - DATUM ELEVATION
TDD .M        608.076              : tdd          - TOTAL DEPTH DRILLER
RUN .         ONE                  : Run          - RUN NUMBER
ENG .         CLARK                : Engineer     - RECORDING ENGINEER
WIT .         GARDENER             : Witness      - WITNESSED BY
BASE.         V.V.                 : Branch       - HOME BASE OF LOGGING UNIT
MUD .         GEL CHEM             : Mud_type     - MUD TYPE
MATR.         SANDSTONE            : Logunit      - NEUTRON MATRIX
TMAX.C        26.1111              : BHT          - MAXIMUM RECORDED TEMPERATURE
BHTD.M        608.076              : BHTDEP       - MAXIMUM RECORDED TEMPERATURE
RMT .C        18.3333              : MDTP         - TEMPERATURE OF MUD
MUDD.KG/M     1140                 : MWT          - MUD DENSITY
NEUT.         1                    : NEUTRON      - NEUTRON TYPE
RESI.         0                    : RESIST       - RESISTIVITY TYPE
RM  .OHMM     4.6                  : RM           - RESISTIVITY OF MUD
RMC .OHMM     0                    : RMC          - RESISTIVITY OF MUD CAKE
RMF .OHMM     3.3                  : RMF          - RESISTIVITY OF MUD FILTRATE
SUFT.C        4.5                  : SUFT         - SURFACE TEMPERATURE
~A  DEPTH     PHID     PHIN       GR      CAL     RESD
  423.672    0.319    0.481   59.865  189.266   12.899
  423.922    0.310    0.477   60.339  190.786   13.434
  424.172    0.302    0.475   61.481  193.128   13.914
  424.422    0.295    0.474   63.717  196.200   14.412
  424.672    0.292    0.471   65.710  197.310   14.603
  424.922    0.287    0.469   67.582  193.892   14.769
  425.172    0.289    0.472   69.328  190.062   14.692
  425.422    0.294    0.477   70.109  188.490   14.063
  425.672    0.296    0.477   71.250  189.708   13.167
  425.922    0.294    0.467   72.393  194.109   11.393
  426.172    0.275    0.453   72.866  197.794   10.170
  426.422    0.268    0.456   71.942  199.934    9.540
  426.672    0.270    0.460   69.559  199.399    9.232
  426.922    0.269    0.454   66.749  197.317    9.201
  427.172    0.257    0.436   64.853  194.413    9.779
  427.422    0.247    0.436   63.196  191.507   11.475
  427.672    0.244    0.440   63.489  189.738   12.445
  427.922    0.242    0.433   64.510  188.686   12.842
  428.172    0.233    0.424   69.541  189.593   12.682
  428.422    0.227    0.426   76.215  194.305   12.072
  428.672    0.242    0.437   81.732  200.459   10.816
  428.922    0.260    0.468   82.993  204.758    9.359
  429.172    0.297    0.476   83.041  205.352    8.339
  429.422    0.290    0.472   82.424  203.787    7.527
  429.672    0.287    0.472   80.402  201.503    7.204
  429.922    0.288    0.468   79.235  200.142    7.246
  430.172    0.287    0.452   78.250  200.327    7.588
  430.422    0.276    0.432   77.508  199.996    8.109
  430.672    0.247    0.423   78.041  196.269    8.492
  430.922    0.223    0.437   79.185  191.097    8.700
  431.172    0.274    0.491   81.356  194.062    8.703
  431.422    0.317    0.492   82.439  199.185    8.657
  431.672    0.300    0.486   82.733  203.693    8.724
  431.922    0.270    0.454   82.293  204.907    8.790
  432.172    0.256    0.447   82.643  197.989    8.793
  432.422    0.250    0.443   83.664  199.613    8.844
  432.672    0.240    0.437   84.501  201.857    8.879
  432.922    0.232    0.427   84.734  201.114    8.963
  433.172    0.238    0.432   84.355  197.594    9.115
  433.422    0.252    0.446   83.310  193.865    9.270
  433.672    0.253    0.447   82.749  191.889    9.427
  433.922    0.263    0.449   82.797  191.456    9.587
  434.172    0.275    0.460   83.149  192.976    9.804
  434.422    0.283    0.468   83.196  196.763    9.877
  434.672    0.287    0.467   83.001  201.471    9.990
  434.922    0.278    0.460   83.107  201.759    9.993
  435.172    0.252    0.439   83.277  200.609    9.868
  435.422    0.236    0.430   83.630  197.910    9.638
  435.672    0.241    0.435   83.741  194.905    9.448
  435.922    0.250    0.442   83.969  192.516    9.228
  436.172    0.248    0.442   84.139  191.771    9.046
  436.422    0.244    0.440   84.735  192.881    8.787
  436.672    0.254    0.444   86.728  194.816    8.566
  436.922    0.264    0.450   89.815  196.853    8.214
  437.172    0.269    0.455   90.714  200.125    7.935
  437.422    0.274    0.458   88.327  204.113    7.822
  437.672    0.277    0.462   86.494  205.124    7.853
  437.922    0.279    0.463   84.292  203.247    7.928
  438.172    0.274    0.462   82.394  198.285    7.988
  438.422    0.267    0.458   81.106  194.148    8.109
  438.672    0.266    0.450   79.330  191.141    8.307
  438.922    0.251    0.437   77.737  190.399    8.541
  439.172    0.220    0.406   76.630  191.817    8.912
  439.422    0.185    0.392   75.155  196.429    9.419
  439.672    0.206    0.404   74.658  198.052   10.177
  439.922    0.216    0.417   74.222  199.163   10.935
  440.172    0.201    0.411   74.208  200.370   11.600
  440.422    0.199    0.400   75.046  200.867   12.060
  440.672    0.202    0.410   76.796  201.258   12.063
  440.922    0.232    0.424   79.822  201.236   11.782
  441.172    0.238    0.430   81.572  200.385   11.339
  441.422    0.237    0.426   82.775  199.752   10.520
  441.672    0.226    0.420   83.430  199.008    9.374
  441.922    0.218    0.419   83.842  198.574    8.602
  442.172    0.234    0.437   83.948  199.373    7.965
  442.422    0.252    0.448   83.086  200.281    7.445
  442.672    0.266    0.459   81.189  202.933    7.271
  442.922    0.281    0.466   78.502  205.281    7.314
  443.172    0.287    0.471   76.241  205.670    7.506
  443.422    0.293    0.475   74.162  202.969    8.065
  443.672    0.297    0.479   72.385  198.629    8.683
  443.922    0.297    0.481   70.608  194.282    9.278
  444.172    0.280    0.474   69.868  192.100    9.878
  444.422    0.228    0.447   69.126  191.770   10.441
  444.672    0.204    0.403   69.050  191.646   11.095
  444.922    0.244    0.421   69.221  192.857   11.900
  445.172    0.251    0.441   69.693  198.292   12.694
  445.422    0.240    0.403   70.470  198.270   13.221
  445.672    0.204    0.335   70.764  199.787   13.322
  445.922    0.186    0.383   70.933  202.235   13.375
  446.172    0.322    0.442   70.918  202.834   13.329
  446.422    0.361    0.541   70.845  198.902   13.211
  446.672    0.366    0.541   71.137  193.735   12.786
  446.922    0.366    0.534   72.217  190.828   12.239
  447.172    0.360    0.521   74.454  190.395   11.757
  447.422    0.342    0.490   77.541  192.224   11.316
  447.672    0.281    0.458   79.531  196.631   10.752
  447.922    0.267    0.455   80.673  198.562   10.030
  448.172    0.270    0.463   80.964  198.851    9.237
  448.422    0.279    0.470   79.798  198.830    9.006
  448.672    0.319    0.495   77.841  197.778    9.125
  448.922    0.339    0.516   75.336  196.927    9.539
  449.172    0.348    0.512   72.161  197.113   10.420
  449.422    0.336    0.457   69.232  198.020   11.425
  449.672    0.286    0.407   65.936  198.308   12.947
  449.922    0.235    0.344   63.311  193.141   14.274
  450.172    0.060    0.230   62.872  190.134   15.970
  450.422    0.027    0.187   67.660  190.935   17.966
  450.672    0.016    0.204   76.218  196.160   18.406
  450.922    0.026    0.203   79.365  197.787   17.520
  451.172    0.209    0.438   80.442  197.146   14.856
  451.422    0.258    0.444   81.159  195.993   13.287
  451.672    0.258    0.445   81.636  194.222   11.993
  451.922    0.257    0.442   82.107  191.419   11.085
  452.172    0.254    0.438   82.643  190.573   10.134
  452.422    0.247    0.434   83.542  191.065    9.420
  452.672    0.243    0.432   84.259  192.178    9.116
  452.922    0.238    0.436   85.279  194.318    8.920
  453.172    0.244    0.447   86.238  195.836    8.825
  453.422    0.256    0.457   86.530  196.743    8.827
  453.672    0.270    0.467   86.091  196.616    8.781
  453.922    0.286    0.472   85.893  195.774    8.832
  454.172    0.286    0.459   86.126  192.973    8.851
  454.422    0.273    0.436   86.659  190.892    8.869
  454.672    0.252    0.422   87.254  191.282    8.905
  454.922    0.224    0.417   87.849  191.977    8.891
  455.172    0.219    0.417   88.263  193.813    8.893
  455.422    0.217    0.415   88.066  195.643    8.913
  455.672    0.216    0.415   87.383  196.957    8.964
  455.922    0.221    0.418   86.885  197.760    8.951
  456.172    0.225    0.422   86.387  197.018    8.855
  456.422    0.226    0.413   85.096  196.791    8.825
  456.672    0.222    0.402   83.382  197.284    8.843
  456.922    0.215    0.396   81.424  194.273    8.977
  457.172    0.203    0.394   79.710  191.167    9.230
  457.422    0.191    0.396   78.845  189.911    9.561
  457.672    0.196    0.397   78.895  191.325    9.958
  457.922    0.195    0.395   80.155  193.572   10.182
  458.172    0.193    0.413   81.299  197.151   10.316
  458.422    0.207    0.430   82.320  198.570   10.113
  458.672    0.238    0.429   82.549  198.955    9.734
  458.922    0.240    0.428   81.990  197.805    9.612
  459.172    0.249    0.436   80.760  195.520    9.405
  459.422    0.252    0.445   79.896  193.128    9.271
  459.672    0.245    0.436   78.910  191.566    9.189
  459.922    0.239    0.431   78.228  190.000    9.242
