~VERSION INFORMATION
 VERS.                 2.0:   CWLS LOG ASCII STANDARD -VERSION 2.0
 WRAP.                  NO:   ONE LINE PER DEPTH STEP
~WELL INFORMATION BLOCK
#MNEM.UNIT           DATA                    DESCRIPTION OF MNEMONIC
#---------    -------------------            -------------------------------
# Generated from Intellog Unique Number	CW_82_90/WELL/2595
WELL.         13-20-082-03W5                 : Well_name    - WELL
LOC .         00/13-20-082-03W5/0            : Location     - LOCATION
UWI .         00/13-20-082-03W5/0            : Uwi          - UNIQUE WELL ID
ENTR.         JJ                             : Entered      - ENTERED BY
SRVC.         SCHLUMBERGER                   : Scn          - SERVICE COMPANY
DATE.         24 JAN 72                      : Date         - LOG DATE
STRT.M        352.958                        : top_depth    - START DEPTH
STOP.M        480.458                        : bot_depth    - STOP DEPTH
STEP.M        0.25                           : increment    - STEP LENGTH
 NULL. -999.2500:NULL Value
~CURVE INFORMATION BLOCK
#MNEM UNIT       ERCB CURVE CODE    CURVE DESCRIPTION
#-----------   ------------------   ----------------------------------
DEPT.M        00 001 00 00         : DEPTH        - DEPTH
DELT.US/F     00 520 00 00         : DELT         - SONIC TRAVEL TIME
GR  .API      00 310 00 00         : GR           - GAMMA RAY
DPHI.V/V      00 890 00 00         : PHID         - DENSITY POROSITY (LIMESTONE)
ILD .OHMM     00 120 00 00         : RESD         - DEEP RESISTIVITY (DIL)
~PARAMETER INFORMATION
#MNEM.UNIT           DATA             DESCRIPTION OF MNEMONIC
#---------         -----------     ------------------------------
GL  .M        583.875              : gl           - GROUND LEVEL ELEVATION
EREF.M        588.264              : kb           - ELEVATION OF DEPTH REFERENCE
DATM.M        588.264              : datum        - DATUM ELEVATION
TDD .M        664.464              : tdd          - TOTAL DEPTH DRILLER
RUN .         ONE                  : Run          - RUN NUMBER
ENG .         MCLEAN               : Engineer     - RECORDING ENGINEER
WIT .         CLARK & ROTA         : Witness      - WITNESSED BY
BASE.         EDM                  : Branch       - HOME BASE OF LOGGING UNIT
MUD .         GEL                  : Mud_type     - MUD TYPE
MATR.         LIMESTONE            : Logunit      - NEUTRON MATRIX
TMAX.C        27.7778              : BHT          - MAXIMUM RECORDED TEMPERATURE
BHTD.M        664.464              : BHTDEP       - MAXIMUM RECORDED TEMPERATURE
RMT .C        14.4444              : MDTP         - TEMPERATURE OF MUD
MUDD.KG/M     1200                 : MWT          - MUD DENSITY
NEUT.         1                    : NEUTRON      - NEUTRON TYPE
RESI.         0                    : RESIST       - RESISTIVITY TYPE
RM  .OHMM     5.22                 : RM           - RESISTIVITY OF MUD
RMC .OHMM     0                    : RMC          - RESISTIVITY OF MUD CAKE
RMF .OHMM     5.19                 : RMF          - RESISTIVITY OF MUD FILTRATE
SUFT.C        5                    : SUFT         - SURFACE TEMPERATURE
~A  DEPTH     DELT       GR     PHID     RESD
  352.958  265.706   87.180    0.260    5.692
  353.208  267.893   79.858    0.256    6.299
  353.458  276.983   79.130    0.245    7.207
  353.708  277.577   78.828    0.234    8.183
  353.958  271.733   70.468    0.206   10.531
  354.208  252.880   66.260    0.181   11.507
  354.458  231.770   65.286    0.165   10.101
  354.708  196.855   64.680    0.165    8.674
  354.958  155.435   60.899    0.195    6.489
  355.208   90.452   59.987    0.237    5.158
  355.458  169.234   59.563    0.267    4.397
  355.708  173.811   63.047    0.303    4.743
  355.958  177.989   63.051    0.302    4.886
  356.208  228.098   59.758    0.239    4.878
  356.458  241.768   60.372    0.261    4.934
  356.708  264.863   70.999    0.231    4.963
  356.958  280.325   78.450    0.254    5.019
  357.208  271.494   78.576    0.246    5.067
  357.458  267.906   76.628    0.215    5.078
  357.708  278.324   75.472    0.229    5.089
  357.958  263.386   74.681    0.239    5.204
  358.208  260.662   73.953    0.241    5.371
  358.458  275.726   73.957    0.225    5.513
  358.708  276.387   74.694    0.226    5.773
  358.958  284.215   75.857    0.274    6.047
  359.208  274.522   77.936    0.302    6.116
  359.458  267.815   82.091    0.309    5.995
  359.708  261.440   81.851    0.262    5.440
  359.958  243.848   78.130    0.282    4.992
  360.208  234.951   70.930    0.263    4.993
  360.458  228.642   64.891    0.250    5.376
  360.708  228.042   67.886    0.261    5.777
  360.958  231.622   70.820    0.284    6.857
  361.208  229.960   70.335    0.298    7.945
  361.458  213.032   66.554    0.303    9.535
  361.708  221.060   62.284    0.285   10.399
  361.958  222.584   54.168    0.296   11.446
  362.208  216.872   47.639    0.303   11.987
  362.458  208.638   45.995    0.272   10.294
  362.708  205.980   46.366    0.287    8.381
  362.958  206.774   47.468    0.287    7.170
  363.208  215.068   50.159    0.233    5.848
  363.458  218.317   52.299    0.216    5.172
  363.708  213.336   57.064    0.254    4.807
  363.958  205.501   64.882    0.278    4.961
  364.208  216.117   74.471    0.251    5.120
  364.458  236.026   80.885    0.216    5.543
  364.708  253.280   72.830    0.206    5.710
  364.958  251.087   70.148    0.223    5.775
  365.208  254.469   72.594    0.236    5.734
  365.458  240.925   75.711    0.239    5.673
  365.708  205.014   74.189    0.233    5.717
  365.958  215.233   77.184    0.246    5.750
  366.208  230.362   73.037    0.256    5.752
  366.458  240.316   73.834    0.254    5.786
  366.708  242.967   82.385    0.215    5.830
  366.958  237.455   79.092    0.238    5.951
  367.208  234.133   72.807    0.243    5.887
  367.458  234.595   74.338    0.237    5.719
  367.708  230.344   77.639    0.212    5.657
  367.958  234.057   79.413    0.220    5.546
  368.208  236.709   79.173    0.234    5.547
  368.458  238.963   74.353    0.224    5.725
  368.708  239.225   73.929    0.223    6.096
  368.958  239.488   78.513    0.229    6.674
  369.208  242.139   73.082    0.242    7.537
  369.458  249.636   75.712    0.259    8.559
  369.708  259.390   80.599    0.292    9.882
  369.958  267.618   83.534    0.300   11.326
  370.208  251.552   71.999    0.296   13.028
  370.458  231.703   61.136    0.275   15.548
  370.708  218.890   59.552    0.223   17.853
  370.958  214.108   61.143    0.169   16.992
  371.208  212.313   60.415    0.109   15.028
  371.458  203.150   54.069    0.117   13.000
  371.708  185.956   50.105    0.160   11.603
  371.958   31.569   48.277    0.246   10.074
  372.208   53.004   48.832    0.300    8.893
  372.458   77.360   49.935    0.293    8.204
  372.708  123.022   50.425    0.260    8.298
  372.958  200.211   53.483    0.237    9.116
  373.208  202.465   56.294    0.259   10.089
  373.458  192.705   60.449    0.276   11.207
  373.708  206.507   64.177    0.295   11.781
  373.958  229.270   68.637    0.297    9.504
  374.208  219.244   70.168    0.261    8.267
  374.458  216.055   61.136    0.229    8.723
  374.708  211.473   64.070    0.240    9.271
  374.958  212.465   67.493    0.257   10.299
  375.208  212.794   69.206    0.281   10.668
  375.458  207.414   63.105    0.289   10.632
  375.708  202.367   60.789    0.278    9.180
  375.958  211.722   59.449    0.284    7.711
  376.208  216.034   60.857    0.277    6.406
  376.458  219.283   63.669    0.254    5.206
  376.708  212.974   58.973    0.233    4.750
  376.958  204.343   59.283    0.245    5.495
  377.208  197.901   60.689    0.258    6.194
  377.458  239.913   66.249    0.273    7.311
  377.708  262.410   70.587    0.241    8.936
  377.958  268.115   75.415    0.200    9.926
  378.208  233.067   71.878    0.191    8.540
  378.458  128.791   63.822    0.214    7.566
  378.708  136.354   61.628    0.208    6.878
  378.958  195.556   65.906    0.199    6.276
  379.208  211.748   64.383    0.212    5.822
  379.458  196.612   59.808    0.246    5.813
  379.708  170.458   63.658    0.275    5.944
  379.958  209.283   69.828    0.274    6.124
  380.208  224.280   73.190    0.270    6.148
  380.458  239.411   63.487    0.259    6.016
  380.708  217.106   63.979    0.247    5.758
  380.958  205.753   69.233    0.277    5.341
  381.208  218.427   71.496    0.291    4.855
  381.458  229.707   66.066    0.304    4.439
  381.708  241.319   68.025    0.316    4.028
  381.958  251.936   68.210    0.294    3.827
  382.208  260.761   64.734    0.256    4.060
  382.458  268.324   70.172    0.223    4.644
  382.708  263.343   72.434    0.254    6.021
  382.958  247.809   69.752    0.128    6.850
  383.208  241.102   63.895    0.104    7.736
  383.458  245.479   60.481    0.072    6.982
  383.708  231.737   59.873    0.083    5.962
  383.958  -34.225   48.827    0.113    4.757
  384.208  -29.184   42.787    0.175    4.316
  384.458   -5.027   46.026    0.221    3.874
  384.708   34.064   53.540    0.266    4.133
  384.958  215.460   62.823    0.223    4.532
  385.208  238.356   68.932    0.247    4.861
  385.458  234.967   75.713    0.233    4.999
  385.708  243.128   76.266    0.215    4.689
  385.958  246.576   70.409    0.233    4.318
  386.208  230.312   64.796    0.263    4.148
  386.458  200.175   63.700    0.254    4.119
  386.708  206.079   69.626    0.258    4.166
  386.958  229.838   75.980    0.245    4.236
  387.208  254.658   70.428    0.238    4.348
  387.458  239.721   62.861    0.247    4.520
  387.708  223.722   63.720    0.262    4.717
  387.958  231.617   68.974    0.258    4.753
  388.208  244.889   74.656    0.242    4.737
  388.458  262.276   79.665    0.234    4.661
  388.708  255.635   77.960    0.234    4.478
  388.958  255.101   74.911    0.231    4.579
  389.208  240.031   72.962    0.223    4.796
  389.458  239.696   74.004    0.229    5.164
  389.708  244.140   75.716    0.220    5.488
  389.958  245.199   82.192    0.196    5.887
  390.208  234.576   85.370    0.218    6.552
  390.458  216.652   76.643    0.237    7.523
  390.708  194.680   79.395    0.247    8.798
  390.958  191.025   83.183    0.118   10.065
  391.208  183.854   78.181    0.100   11.098
  391.458  190.289   69.943    0.084   12.956
  391.708   25.149   59.202    0.104   14.052
  391.958   23.819   57.680    0.148   12.589
  392.208   74.458   59.210    0.246   11.507
  392.458  157.223   68.921    0.267   10.252
  392.708  193.393   67.826    0.261    9.423
  392.958  212.572   63.373    0.256    8.152
  393.208  212.038   65.697    0.225    7.383
  393.458  175.795   72.965    0.193    6.577
  393.708  155.747   75.594    0.217    5.979
  393.958  163.709   72.484    0.238    6.251
  394.208  203.530   67.543    0.247    8.377
  394.458  206.049   62.969    0.213   10.840
  394.708  198.280   64.926    0.096   14.234
  394.958  178.763   63.098    0.064   17.688
  395.208  131.767   58.462    0.041   22.805
  395.458   76.608   53.643    0.035   26.620
  395.708  -61.319   52.304    0.061   33.512
  395.958  -70.150   52.552    0.084   32.908
  396.208   -1.125   53.777    0.106   17.944
