~VERSION INFORMATION
 VERS.                 2.0:   CWLS LOG ASCII STANDARD -VERSION 2.0
 WRAP.                  NO:   ONE LINE PER DEPTH STEP
~WELL INFORMATION BLOCK
#MNEM.UNIT           DATA                    DESCRIPTION OF MNEMONIC
#---------    -------------------            -------------------------------
# Generated from Intellog Unique Number	CS_73_76/WELL/2208
WELL.         DOME PETROLEUM LIMITED         : Well_name    - WELL
LOC .         00/12-08-074-10W4/0            : Location     - LOCATION
UWI .         00/12-08-074-10W4/0            : Uwi          - UNIQUE WELL ID
ENTR.         SP                             : Entered      - ENTERED BY
SRVC.         SCHLUMBERGER                   : Scn          - SERVICE COMPANY
STRT.M        285                            : top_depth    - START DEPTH
STOP.M        515                            : bot_depth    - STOP DEPTH
STEP.M        0.25                           : increment    - STEP LENGTH
 NULL. -999.2500:NULL Value
~CURVE INFORMATION BLOCK
#MNEM UNIT       ERCB CURVE CODE    CURVE DESCRIPTION
#-----------   ------------------   ----------------------------------
DEPT.M        00 001 00 00         : DEPTH        - DEPTH
ILD .OHMM     00 120 00 00         : RESD         - DEEP RESISTIVITY (DIL)
DPHI.V/V      00 890 00 00         : PHID         - DENSITY POROSITY (LIMESTONE)
NPHI.V/V      00 330 00 00         : PHIN         - NEUTRON POROSITY (LIMESTONE)
GR  .API      00 310 00 00         : GR           - GAMMA RAY
~PARAMETER INFORMATION
#MNEM.UNIT           DATA             DESCRIPTION OF MNEMONIC
#---------         -----------     ------------------------------
GL  .M        658.95               : gl           - GROUND LEVEL ELEVATION
EREF.M        663                  : kb           - ELEVATION OF DEPTH REFERENCE
DATM.M        658.95               : datum        - DATUM ELEVATION
TDD .M        527                  : tdd          - TOTAL DEPTH DRILLER
RUN .         ONE                  : Run          - RUN NUMBER
ENG .         BILL                 : Engineer     - RECORDING ENGINEER
WIT .         JIM                  : Witness      - WITNESSED BY
MUD .         GEL                  : Mud_type     - MUD TYPE
MATR.         LIMESTONE            : Logunit      - NEUTRON MATRIX
TMAX.C        23                   : BHT          - MAXIMUM RECORDED TEMPERATURE
BHTD.M        527                  : BHTDEP       - MAXIMUM RECORDED TEMPERATURE
MATR.         1                    : LOGUNIT      - NEUTRON MATRIX
RMT .C        25                   : MDTP         - TEMPERATURE OF MUD
NEUT.         1                    : NEUTRON      - NEUTRON TYPE
RESI.         0                    : RESIST       - RESISTIVITY TYPE
RMC .OHMM     0.25                 : RMC          - RESISTIVITY OF MUD CAKE
RMF .OHMM     0.25                 : RMF          - RESISTIVITY OF MUD FILTRATE
SUFT.C        15                   : SUFT         - SURFACE TEMPERATURE
~A  DEPTH     RESD     PHID     PHIN       GR
# ...
  372.000    9.871    0.357    0.418   58.737
  372.250   10.250    0.359    0.413   57.502
  372.500   10.249    0.363    0.411   56.881
  372.750   10.248    0.352    0.407   56.259
  373.000   10.247    0.344    0.401   54.405
  373.250   10.053    0.338    0.400   54.398
  373.500   10.053    0.332    0.396   56.234
  373.750   10.052    0.341    0.391   57.456
  374.000   10.050    0.331    0.390   58.676
  374.250   10.049    0.322    0.408   58.670
  374.500   10.239    0.321    0.410   58.659
  374.750   10.238    0.331    0.402   58.653
  375.000   10.237    0.338    0.390   58.033
  375.250   10.236    0.346    0.391   58.023
  375.500   10.235    0.346    0.404   57.402
  375.750   10.430    0.340    0.411   56.164
  376.000   10.429    0.333    0.414   56.157
  376.250   10.427    0.322    0.410   58.607
  376.500   10.427    0.319    0.400   60.444
  376.750   10.230    0.314    0.391   61.049
  377.000   10.229    0.321    0.391   61.042
  377.250   10.227    0.326    0.395   61.036
  377.500   10.227    0.320    0.399   60.411
  377.750   10.226    0.321    0.396   60.404
  378.000   10.033    0.320    0.412   61.011
  378.250   10.032    0.321    0.417   61.618
  378.500    9.658    0.337    0.412   60.996
  378.750    9.298    0.335    0.408   62.218
  379.000    8.952    0.334    0.414   65.282
  379.250    8.457    0.326    0.427   67.120
  379.500    8.142    0.316    0.429   68.341
  379.750    7.838    0.314    0.422   67.103
  380.000    7.838    0.316    0.420   66.480
  380.250    8.139    0.321    0.432   65.857
  380.500    8.613    0.326    0.441   65.236
  380.750    8.944    0.325    0.426   63.382
  381.000    9.466    0.315    0.419   62.146
  381.250    9.830    0.302    0.416   62.754
  381.500   10.208    0.293    0.406   63.974
  381.750   10.601    0.283    0.398   65.812
  382.000   10.803    0.280    0.399   67.648
  382.250   11.218    0.281    0.400   70.097
  382.500   11.431    0.288    0.391   71.322
  382.750   11.005    0.290    0.386   71.311
  383.000   10.202    0.288    0.404   71.306
  383.250    9.280    0.293    0.416   73.755
  383.500    7.975    0.288    0.418   77.433
  383.750    6.985    0.288    0.407   79.886
  384.000    5.890    0.277    0.400   81.723
  384.250    4.783    0.272    0.433   83.560
  384.500    3.884    0.266    0.483   86.622
  384.750    3.214    0.275    0.503   87.847
  385.000    2.762    0.279    0.503   89.069
  385.250    2.609    0.281    0.527   88.447
  385.500    2.659    0.275    0.525   85.980
  385.750    2.867    0.270    0.503   82.899
  386.000    3.092    0.270    0.482   82.888
  386.250    3.399    0.265    0.466   83.497
  386.500    3.807    0.261    0.451   82.871
  386.750    4.600    0.264    0.430   82.253
  387.000    5.056    0.274    0.420   79.171
  387.250    5.994    0.298    0.409   76.088
  387.500    6.842    0.312    0.407   73.622
  387.750    7.241    0.324    0.412   71.771
  388.000    7.663    0.329    0.423   70.531
  388.250    7.809    0.328    0.422   71.756
  388.500    7.809    0.326    0.409   74.205
  388.750    7.661    0.324    0.420   74.812
  389.000    7.660    0.318    0.414   74.806
  389.250    7.515    0.313    0.401   71.723
  389.500    7.515    0.308    0.397   68.641
  389.750    7.514    0.302    0.409   65.560
  390.000    7.513    0.304    0.416   64.938
  390.250    7.512    0.300    0.403   69.234
  390.500    7.512    0.297    0.408   73.527
  390.750    7.511    0.297    0.417   75.363
  391.000    7.510    0.299    0.412   74.742
  391.250    7.509    0.288    0.408   74.735
  391.500    7.508    0.279    0.406   76.569
  391.750    7.367    0.300    0.392   77.178
  392.000    7.092    0.314    0.407   76.556
  392.250    7.092    0.312    0.413   75.933
  392.500    7.091    0.310    0.400   76.541
  392.750    7.363    0.296    0.385   77.147
  393.000    7.504    0.257    0.384   72.221
  393.250    8.092    0.206    0.369   64.221
  393.500    8.564    0.062    0.328   56.837
  393.750    8.894    0.030    0.172   51.297
  394.000    9.236    0.156    0.158   60.510
  394.250    8.892    0.198    0.293   72.181
  394.500    7.641    0.214    0.335   81.392
  394.750    7.084    0.239    0.367   80.771
  395.000    6.444    0.248    0.385   79.535
  395.250    6.322    0.248    0.404   80.142
  395.500    5.972    0.248    0.420   83.823
  395.750    5.860    0.239    0.439   87.501
  396.000    5.749    0.234    0.428   85.034
  396.250    5.641    0.236    0.423   83.184
  396.500    5.748    0.239    0.421   80.102
  396.750    5.748    0.239    0.410   78.866
  397.000    5.857    0.242    0.412   79.472
  397.250    5.856    0.250    0.415   80.077
  397.500    5.967    0.258    0.407   80.072
  397.750    5.967    0.251    0.415   80.062
  398.000    5.966    0.252    0.431   80.053
  398.250    5.854    0.261    0.437   81.891
  398.500    5.743    0.258    0.430   86.184
  398.750    5.635    0.254    0.427   88.022
  399.000    5.634    0.250    0.415   89.245
  399.250    5.528    0.235    0.417   86.778
  399.500    5.527    0.219    0.426   84.307
  399.750    5.527    0.219    0.438   83.073
  400.000    5.526    0.220    0.435   83.066
  400.250    5.525    0.215    0.432   86.744
  400.500    5.630    0.212    0.427   89.197
  400.750    5.630    0.208    0.415   91.035
  401.000    5.737    0.207    0.403   89.182
  401.250    5.736    0.204    0.410   86.715
  401.500    5.628    0.209    0.420   86.093
  401.750    5.119    0.213    0.418   87.315
  402.000    4.484    0.206    0.429   87.305
  402.250    3.710    0.222    0.424   85.455
  402.500    3.129    0.241    0.423   89.134
  402.750    2.740    0.275    0.440   92.199
  403.000    2.400    0.303    0.468   94.038
  403.250    2.267    0.306    0.508   90.339
  403.500    2.183    0.314    0.515   87.874
  403.750    2.183    0.332    0.495   86.637
  404.000    2.224    0.338    0.481   87.242
  404.250    2.310    0.322    0.481   87.234
  404.500    2.398    0.302    0.486   87.226
  404.750    2.738    0.268    0.473   87.220
  405.000    3.435    0.244    0.445   87.212
  405.250    3.776    0.247    0.430   83.515
  405.500    4.393    0.253    0.431   81.050
  405.750    4.562    0.259    0.431   80.427
  406.000    4.920    0.263    0.417   81.034
  406.250    5.014    0.260    0.403   81.026
  406.500    5.109    0.250    0.407   82.862
  406.750    5.108    0.238    0.415   82.855
  407.000    4.918    0.239    0.425   81.003
  407.250    4.825    0.248    0.422   74.848
  407.500    4.824    0.264    0.396   68.692
  407.750    4.916    0.274    0.367   65.609
  408.000    5.105    0.275    0.358   65.602
  408.250    5.302    0.266    0.361   66.821
  408.500    5.506    0.276    0.365   68.045
  408.750    5.717    0.289    0.372   69.268
  409.000    5.937    0.286    0.379   72.333
  409.250    6.050    0.286    0.387   73.555
  409.500    6.049    0.290    0.398   73.546
  409.750    6.049    0.276    0.400   73.534
  410.000    6.048    0.260    0.395   74.758
  410.250    5.934    0.252    0.410   76.598
  410.500    5.933    0.244    0.423   80.893
  410.750    5.932    0.237    0.413   82.727
  411.000    5.932    0.242    0.403   82.103
  411.250    5.932    0.248    0.408   80.868
  411.500    5.819    0.248    0.407   79.630
  411.750    5.819    0.252    0.402   79.009
  412.000    5.929    0.249    0.395   77.772
  412.250    5.928    0.252    0.384   77.763
  412.500    5.928    0.254    0.371   77.757
  412.750    5.816    0.263    0.392   77.743
  413.000    5.816    0.262    0.401   77.738
  413.250    5.494    0.257    0.404   77.733
  413.500    4.997    0.269    0.415   77.110
  413.750    4.903    0.273    0.420   75.259
  414.000    4.811    0.277    0.432   69.717
  414.250    4.810    0.288    0.431   66.021
  414.500    5.188    0.308    0.427   65.398
  414.750    5.187    0.312    0.428   66.006
  415.000    5.286    0.301    0.418   69.683
  415.250    5.285    0.294    0.430   70.908
