~VERSION INFORMATION
 VERS.                 2.0:   CWLS LOG ASCII STANDARD -VERSION 2.0
 WRAP.                  NO:   ONE LINE PER DEPTH STEP
~WELL INFORMATION BLOCK
#MNEM.UNIT           DATA                    DESCRIPTION OF MNEMONIC
#---------    -------------------            -------------------------------
# Generated from Intellog Unique Number	CS_67_68/WELL/2197
WELL.         10-29-067-02W4                 : Well_name    - WELL
LOC .         00/10-29-067-02W4/0            : Location     - LOCATION
UWI .         00/10-29-067-02W4/0            : Uwi          - UNIQUE WELL ID
ENTR.         SP                             : Entered      - ENTERED BY
SRVC.         SCHLUMBERGER                   : Scn          - SERVICE COMPANY
STRT.M        375                            : top_depth    - START DEPTH
STOP.M        638                            : bot_depth    - STOP DEPTH
STEP.M        0.25                           : increment    - STEP LENGTH
 NULL. -999.2500:NULL Value
~CURVE INFORMATION BLOCK
#MNEM UNIT       ERCB CURVE CODE    CURVE DESCRIPTION
#-----------   ------------------   ----------------------------------
DEPT.M        00 001 00 00         : DEPTH        - DEPTH
ILD .OHMM     00 120 00 00         : RESD         - DEEP RESISTIVITY (DIL)
DPHI.V/V      00 890 00 00         : PHID         - DENSITY POROSITY (LIMESTONE)
NPHI.V/V      00 330 00 00         : PHIN         - NEUTRON POROSITY (LIMESTONE)
GR  .API      00 310 00 00         : GR           - GAMMA RAY
CALI.MM       00 280 01 00         : CAL          - CALIPER
~PARAMETER INFORMATION
#MNEM.UNIT           DATA             DESCRIPTION OF MNEMONIC
#---------         -----------     ------------------------------
GL  .M        707.5                : gl           - GROUND LEVEL ELEVATION
EREF.M        710.7                : kb           - ELEVATION OF DEPTH REFERENCE
DATM.M        710.7                : datum        - DATUM ELEVATION
TDD .M        645                  : tdd          - TOTAL DEPTH DRILLER
RUN .         ONE                  : Run          - RUN NUMBER
ENG .         BILL                 : Engineer     - RECORDING ENGINEER
WIT .         JIM                  : Witness      - WITNESSED BY
MUD .         GEL                  : Mud_type     - MUD TYPE
MATR.         LIMESTONE            : Logunit      - NEUTRON MATRIX
TMAX.C        20.5                 : BHT          - MAXIMUM RECORDED TEMPERATURE
BHTD.M        645                  : BHTDEP       - MAXIMUM RECORDED TEMPERATURE
MATR.         1                    : LOGUNIT      - NEUTRON MATRIX
RMT .C        25                   : MDTP         - TEMPERATURE OF MUD
NEUT.         1                    : NEUTRON      - NEUTRON TYPE
RESI.         0                    : RESIST       - RESISTIVITY TYPE
RMC .OHMM     0.25                 : RMC          - RESISTIVITY OF MUD CAKE
RMF .OHMM     0.25                 : RMF          - RESISTIVITY OF MUD FILTRATE
SUFT.C        15                   : SUFT         - SURFACE TEMPERATURE
~A  DEPTH     RESD     PHID     PHIN       GR      CAL
# ...
  521.000    5.803    0.245    0.481   75.730  149.978
  521.250    5.936    0.239    0.483   74.407  150.174
  521.500    6.038    0.233    0.481   77.302  150.064
  521.750    6.177    0.241    0.477   78.721  150.055
  522.000    6.308    0.250    0.477   76.909  150.046
  522.250    6.404    0.242    0.475   75.770  150.037
  522.500    6.539    0.249    0.469   77.684  150.029
  522.750    6.652    0.249    0.470   80.879  150.323
  523.000    6.843    0.239    0.481   84.501  150.621
  523.250    7.093    0.225    0.491   86.841  151.123
  523.500    7.750    0.250    0.504   88.204  152.642
  523.750    9.094    0.286    0.515   74.615  153.348
  524.000   11.038    0.301    0.513   68.587  150.893
  524.250   13.425    0.305    0.506   63.479  149.049
  524.500   14.667    0.292    0.501   60.934  148.735
  524.750   15.375    0.290    0.491   57.721  148.726
  525.000   15.699    0.292    0.481   56.580  148.715
  525.250   15.791    0.293    0.474   57.516  149.217
  525.500   15.973    0.289    0.477   59.002  149.516
  525.750   16.619    0.283    0.485   59.570  149.915
  526.000   18.088    0.266    0.500   58.920  150.211
  526.250   19.285    0.219    0.476   59.001  150.100
  526.500   19.766    0.192    0.417   61.403  149.685
  526.750   18.407    0.245    0.452   68.749  149.167
  527.000   16.602    0.267    0.464   79.636  148.343
  527.250   15.547    0.278    0.473   75.322  148.538
  527.500   14.753    0.287    0.489   72.594  149.548
  527.750   11.578    0.296    0.486   77.439  150.762
  528.000    8.072    0.290    0.459   82.466  151.569
  528.250    6.299    0.264    0.429   87.004  151.663
  528.500    4.981    0.235    0.461   91.114  151.346
  528.750    4.074    0.213    0.483   94.738  151.136
  529.000    3.801    0.218    0.486   97.382  150.923
  529.250    3.540    0.236    0.493   95.814  151.118
  529.500    3.391    0.226    0.513   96.020  151.110
  529.750    3.266    0.238    0.517   96.406  151.100
  530.000    3.088    0.251    0.533   87.329  151.293
  530.250    2.733    0.264    0.557   79.962  151.283
  530.500    2.365    0.273    0.572   82.122  151.072
  530.750    2.186    0.276    0.561   84.520  150.963
  531.000    2.110    0.277    0.555   82.648  150.648
  531.250    2.063    0.279    0.580   78.274  150.232
  531.500    2.029    0.286    0.596   78.112  149.715
  531.750    2.003    0.292    0.592   78.684  149.401
  532.000    1.992    0.295    0.573   78.638  149.085
  532.250    1.977    0.298    0.571   77.744  149.179
  532.500    1.977    0.297    0.570   77.214  149.271
  532.750    2.000    0.292    0.558   78.028  149.364
  533.000    2.035    0.292    0.563   79.941  149.661
  533.250    2.093    0.293    0.563   81.243  149.652
  533.500    2.158    0.291    0.553   80.897  149.745
  533.750    2.224    0.277    0.554   81.101  149.735
  534.000    2.309    0.267    0.559   82.220  149.626
  534.250    2.398    0.266    0.552   85.600  149.821
  534.500    2.381    0.275    0.546   87.328  149.711
  534.750    2.280    0.280    0.538   86.676  149.498
  535.000    2.217    0.282    0.541   83.278  149.387
  535.250    2.264    0.282    0.556   79.519  149.071
  535.500    2.460    0.282    0.541   77.032  149.066
  535.750    2.975    0.281    0.493   78.027  148.645
  536.000    3.770    0.271    0.482   80.309  148.336
  536.250    4.525    0.264    0.468   81.915  148.119
  536.500    5.009    0.267    0.451   82.850  148.214
  536.750    5.412    0.271    0.459   81.588  148.103
  537.000    5.630    0.271    0.480   79.169  148.197
  537.250    5.717    0.268    0.491   77.907  148.189
  537.500    5.654    0.265    0.479   77.376  148.178
  537.750    5.570    0.262    0.467   76.175  148.171
  538.000    5.509    0.262    0.471   74.059  148.266
  538.250    5.510    0.264    0.498   77.682  148.256
  538.500    5.605    0.253    0.519   83.139  148.757
  538.750    5.723    0.234    0.491   84.804  148.953
  539.000    5.854    0.221    0.447   80.063  149.046
  539.250    5.966    0.211    0.421   73.736  149.038
  539.500    6.173    0.238    0.405   70.090  149.131
  539.750    6.520    0.262    0.438   73.590  149.019
  540.000    6.886    0.271    0.467   76.114  149.214
  540.250    7.031    0.266    0.492   76.869  149.409
  540.500    6.824    0.252    0.484   78.231  149.400
  540.750    6.167    0.243    0.497   80.021  149.699
  541.000    5.863    0.239    0.492   80.835  149.891
  541.250    5.511    0.243    0.472   76.767  149.986
  541.500    5.369    0.246    0.449   74.282  149.979
  541.750    5.370    0.245    0.459   74.974  150.173
  542.000    5.432    0.262    0.460   73.590  150.266
  542.250    5.463    0.275    0.463   72.513  150.461
  542.500    5.495    0.275    0.467   73.633  150.453
  542.750    5.517    0.268    0.487   78.108  150.442
  543.000    5.518    0.264    0.502   77.641  150.435
  543.250    5.498    0.262    0.488   75.097  150.426
  543.500    5.427    0.262    0.474   75.667  150.418
  543.750    5.347    0.270    0.465   77.762  150.205
  544.000    5.229    0.277    0.458   79.555  150.195
  544.250    5.084    0.270    0.464   81.772  150.186
  544.500    4.944    0.262    0.474   84.844  150.281
  544.750    4.908    0.258    0.477   87.123  150.375
  545.000    5.011    0.253    0.456   82.259  150.569
  545.250    5.393    0.240    0.430   75.200  151.478
  545.500    6.118    0.211    0.424   71.555  151.062
  545.750    7.165    0.177    0.447   67.240  150.340
  546.000    8.175    0.132    0.393   59.021  150.433
  546.250    8.732    0.046    0.319   53.301  151.444
  546.500    9.171    0.003    0.225   50.634  152.656
  546.750    9.347    0.167    0.238   55.661  152.649
  547.000    8.462    0.258    0.386   63.626  152.640
  547.250    7.295    0.281    0.459   66.936  152.020
  547.500    6.506    0.290    0.475   66.956  151.297
  547.750    5.791    0.286    0.467   65.267  150.983
  548.000    5.293    0.270    0.438   67.547  151.179
  548.250    4.929    0.257    0.445   69.766  151.168
  548.500    4.607    0.250    0.458   70.395  150.957
  548.750    4.421    0.268    0.473   73.165  151.151
  549.000    4.356    0.274    0.493   76.053  151.039
  549.250    4.357    0.285    0.509   68.381  150.827
  549.500    4.399    0.308    0.445   64.432  150.617
  549.750    4.879    0.319    0.403   65.368  150.504
  550.000    5.555    0.319    0.401   66.427  150.294
  550.250    6.150    0.321    0.403   67.489  149.978
  550.500    6.606    0.322    0.404   67.627  149.766
  550.750    6.939    0.314    0.404   69.052  149.554
  551.000    7.178    0.306    0.411   64.493  149.340
  551.250    7.330    0.315    0.421   62.742  149.332
  551.500    7.428    0.321    0.425   65.085  149.222
  551.750    7.528    0.315    0.418   66.202  148.908
  552.000    7.529    0.315    0.413   67.994  149.000
  552.250    7.559    0.320    0.416   71.374  148.890
  552.500    7.574    0.315    0.424   75.241  148.574
  552.750    7.619    0.303    0.429   78.681  148.260
  553.000    7.663    0.305    0.433   81.141  148.252
  553.250    7.693    0.302    0.435   82.014  148.039
  553.500    7.738    0.288    0.434   80.081  147.928
  553.750    7.624    0.269    0.426   79.614  147.714
  554.000    7.385    0.247    0.409   80.365  147.704
  554.250    7.008    0.199    0.389   84.481  147.695
  554.500    6.789    0.184    0.384   87.244  147.893
  554.750    6.370    0.175    0.408   89.952  148.293
  555.000    6.159    0.170    0.426   91.193  149.402
  555.250    6.000    0.164    0.429   92.434  151.333
  555.500    6.001    0.168    0.416   93.919  153.363
  555.750    6.002    0.183    0.405   95.160  154.577
  556.000    6.060    0.186    0.397   97.076  154.569
  556.250    6.153    0.177    0.410   94.347  153.642
  556.500    6.212    0.185    0.420   89.423  153.022
  556.750    6.343    0.192    0.410   81.628  152.504
  557.000    6.464    0.197    0.397   75.725  152.290
  557.250    6.613    0.199    0.387   79.596  153.506
