~VERSION INFORMATION
 VERS.                 2.0:   CWLS LOG ASCII STANDARD -VERSION 2.0
 WRAP.                  NO:   ONE LINE PER DEPTH STEP
~WELL INFORMATION BLOCK
#MNEM.UNIT           DATA                    DESCRIPTION OF MNEMONIC
#---------    -------------------            -------------------------------
# Generated from Intellog Unique Number	CS_71_72/WELL/910
WELL.         PEX PHILLIPS AEC KIRBY         : Well_name    - WELL
LOC .         00/11-31-072-07W4/0            : Location     - LOCATION
UWI .         00/11-31-072-07W4/0            : Uwi          - UNIQUE WELL ID
ENTR.         SP                             : Entered      - ENTERED BY
SRVC.         SCHLUMBERGER                   : Scn          - SERVICE COMPANY
STRT.M        310                            : top_depth    - START DEPTH
STOP.M        530                            : bot_depth    - STOP DEPTH
STEP.M        0.25                           : increment    - STEP LENGTH
 NULL. -999.2500:NULL Value
~CURVE INFORMATION BLOCK
#MNEM UNIT       ERCB CURVE CODE    CURVE DESCRIPTION
#-----------   ------------------   ----------------------------------
DEPT.M        00 001 00 00         : DEPTH        - DEPTH
ILD .OHMM     00 120 00 00         : RESD         - DEEP RESISTIVITY (DIL)
DPHI.V/V      00 890 00 00         : PHID         - DENSITY POROSITY (LIMESTONE)
NPHI.V/V      00 330 00 00         : PHIN         - NEUTRON POROSITY (LIMESTONE)
GR  .API      00 310 00 00         : GR           - GAMMA RAY
~PARAMETER INFORMATION
#MNEM.UNIT           DATA             DESCRIPTION OF MNEMONIC
#---------         -----------     ------------------------------
GL  .M        682.8                : gl           - GROUND LEVEL ELEVATION
EREF.M        685.88               : kb           - ELEVATION OF DEPTH REFERENCE
DATM.M        682.8                : datum        - DATUM ELEVATION
TDD .M        536                  : tdd          - TOTAL DEPTH DRILLER
RUN .         ONE                  : Run          - RUN NUMBER
ENG .         BILL                 : Engineer     - RECORDING ENGINEER
WIT .         JIM                  : Witness      - WITNESSED BY
MUD .         GEL                  : Mud_type     - MUD TYPE
MATR.         LIMESTONE            : Logunit      - NEUTRON MATRIX
TMAX.C        26                   : BHT          - MAXIMUM RECORDED TEMPERATURE
BHTD.M        536                  : BHTDEP       - MAXIMUM RECORDED TEMPERATURE
MATR.         1                    : LOGUNIT      - NEUTRON MATRIX
RMT .C        25                   : MDTP         - TEMPERATURE OF MUD
NEUT.         1                    : NEUTRON      - NEUTRON TYPE
RESI.         0                    : RESIST       - RESISTIVITY TYPE
RMC .OHMM     0.25                 : RMC          - RESISTIVITY OF MUD CAKE
RMF .OHMM     0.25                 : RMF          - RESISTIVITY OF MUD FILTRATE
SUFT.C        15                   : SUFT         - SURFACE TEMPERATURE
~A  DEPTH     RESD     PHID     PHIN       GR
# ...
  353.500    8.907    0.189    0.381  111.530
  353.750    8.581    0.165    0.391  118.275
  354.000    8.269    0.153    0.401  122.569
  354.250    8.118    0.183    0.403  124.417
  354.500    7.970    0.189    0.402  122.591
  354.750    7.973    0.187    0.403  118.318
  355.000    8.282    0.184    0.403  112.821
  355.250    8.441    0.186    0.394  110.381
  355.500    8.936    0.195    0.387  110.394
  355.750    9.280    0.211    0.376  111.020
  356.000    9.637    0.234    0.375  111.638
  356.250   10.590    0.257    0.385  107.977
  356.500   11.421    0.308    0.382  106.150
  356.750   11.862    0.266    0.373  104.325
  357.000   12.319    0.246    0.369  101.887
  357.250   12.557    0.250    0.365   98.230
  357.500   13.294    0.266    0.365   97.624
  357.750   13.298    0.241    0.363   97.636
  358.000   13.553    0.225    0.359   97.650
  358.250   13.559    0.225    0.359   97.046
  358.500   14.082    0.230    0.377   96.442
  358.750   14.628    0.223    0.383   94.619
  359.000   14.912    0.213    0.392   92.798
  359.250   14.915    0.212    0.377   92.192
  359.500   14.644    0.220    0.370   90.978
  359.750   13.592    0.230    0.365   90.380
  360.000   13.095    0.231    0.362   91.001
  360.250   11.708    0.225    0.359   94.078
  360.500   11.071    0.240    0.366   96.534
  360.750    9.713    0.276    0.372  101.447
  361.000    8.683    0.247    0.370  103.905
  361.250    7.909    0.221    0.365  105.751
  361.500    7.070    0.246    0.381  106.988
  361.750    6.561    0.247    0.393  108.220
  362.000    6.322    0.235    0.399  109.456
  362.250    6.444    0.228    0.393  108.854
  362.500    7.351    0.194    0.381  104.580
  362.750    9.744    0.178    0.374   97.244
  363.000   11.540    0.225    0.366   89.299
  363.250   15.015    0.254    0.358   85.021
  363.500   17.127    0.282    0.355   79.524
  363.750   18.817    0.291    0.349   77.088
  364.000   20.675    0.228    0.335   79.548
  364.250   22.297    0.087    0.324   80.781
  364.500   22.306    0.064    0.368   84.471
  364.750   18.849    0.083    0.385   85.701
  365.000   16.232    0.146    0.379   88.163
  365.250   15.348    0.212    0.378   87.562
  365.500   14.244    0.275    0.377   87.575
  365.750   13.724    0.244    0.379   88.198
  366.000   13.474    0.228    0.375   89.431
  366.250   12.986    0.206    0.372   90.052
  366.500   12.990    0.221    0.377   91.291
  366.750   12.752    0.229    0.365   91.300
  367.000   12.520    0.199    0.354   90.698
  367.250   11.841    0.157    0.348   92.546
  367.500   11.409    0.179    0.380   95.622
  367.750   10.993    0.197    0.385   96.247
  368.000   10.594    0.197    0.387   95.031
  368.250   10.402    0.227    0.383   89.531
  368.500   10.211    0.245    0.380   87.704
  368.750   10.216    0.232    0.376   91.395
  369.000   10.220    0.222    0.374   92.629
  369.250   10.616    0.218    0.371   93.249
  369.500   10.820    0.228    0.380   91.422
  369.750   11.239    0.245    0.384   82.863
  370.000   11.674    0.255    0.380   80.430
  370.250   11.900    0.252    0.380   81.049
  370.500   11.903    0.240    0.385   82.286
  370.750   11.908    0.234    0.391   84.130
  371.000   11.692    0.226    0.396   87.207
  371.250   11.479    0.280    0.406   88.441
  371.500   11.483    0.354    0.404   89.675
  371.750   12.154    0.369    0.394   89.685
  372.000   12.622    0.375    0.379   80.513
  372.250   13.870    0.333    0.370   71.341
  372.500   15.825    0.321    0.367   65.229
  372.750   16.745    0.317    0.367   63.404
  373.000   17.723    0.318    0.364   65.254
  373.250   17.727    0.326    0.361   66.488
  373.500   18.074    0.329    0.367   68.341
  373.750   18.081    0.326    0.378   68.962
  374.000   18.086    0.313    0.372   70.194
  374.250   18.092    0.334    0.375   71.430
  374.500   17.765    0.338    0.377   71.445
  374.750   17.116    0.332    0.376   71.452
  375.000   16.189    0.325    0.373   72.080
  375.250   15.598    0.319    0.370   72.699
  375.500   15.028    0.323    0.371   73.941
  375.750   13.692    0.334    0.367   73.950
  376.000   13.192    0.329    0.371   73.346
  376.250   12.951    0.301    0.379   72.133
  376.500   12.957    0.281    0.395   70.306
  376.750   13.457    0.306    0.423   65.421
  377.000   14.513    0.338    0.443   60.533
  377.250   15.359    0.385    0.421   56.258
  377.500   15.951    0.373    0.388   52.596
  377.750   16.262    0.349    0.369   52.608
  378.000   16.575    0.326    0.366   52.008
  378.250   16.580    0.329    0.360   50.793
  378.500   16.283    0.329    0.357   50.807
  378.750   15.986    0.335    0.356   50.816
  379.000   15.992    0.345    0.355   51.437
  379.250   15.997    0.324    0.351   52.066
  379.500   16.002    0.309    0.347   52.686
  379.750   16.316    0.312    0.345   54.535
  380.000   16.320    0.327    0.342   55.155
  380.250   16.325    0.332    0.342   55.782
  380.500   16.336    0.337    0.347   56.405
  380.750   16.341    0.343    0.348   55.801
  381.000   16.347    0.335    0.356   54.589
  381.250   16.355    0.326    0.353   52.766
  381.500   16.361    0.325    0.349   51.548
  381.750   16.368    0.329    0.348   49.724
  382.000   16.377    0.337    0.346   48.511
  382.250   17.009    0.346    0.349   47.908
  382.500   17.014    0.341    0.362   49.150
  382.750   17.019    0.331    0.359   50.383
  383.000   17.025    0.327    0.357   52.228
  383.250   17.035    0.327    0.352   55.303
  383.500   17.041    0.336    0.344   56.535
  383.750   16.731    0.341    0.341   59.610
  384.000   16.425    0.333    0.338   60.843
  384.250   16.431    0.332    0.337   62.693
  384.500   15.836    0.331    0.347   62.707
  384.750   15.842    0.327    0.350   62.106
  385.000   15.849    0.326    0.355   61.499
  385.250   15.559    0.327    0.358   60.288
  385.500   15.563    0.338    0.358   59.686
  385.750   15.569    0.344    0.359   59.703
  386.000   15.289    0.327    0.363   60.325
  386.250   15.295    0.318    0.376   60.944
  386.500   15.301    0.309    0.374   62.795
  386.750   15.306    0.322    0.377   63.417
  387.000   15.312    0.337    0.383   62.203
  387.250   15.035    0.345    0.388   59.764
  387.500   15.041    0.344    0.389   60.387
  387.750   15.048    0.344    0.387   62.239
  388.000   15.339    0.339    0.383   62.859
  388.250   15.345    0.323    0.380   62.870
  388.500   15.065    0.345    0.376   61.658
  388.750   15.071    0.359    0.373   61.059
  389.000   15.076    0.350    0.388   61.067
  389.250   14.803    0.335    0.395   61.690
  389.500   14.534    0.328    0.390   62.933
  389.750   14.007    0.324    0.379   64.168
  390.000   14.011    0.332    0.370   64.793
  390.250   13.754    0.319    0.361   65.413
  390.500   13.506    0.312    0.355   66.032
  390.750   13.509    0.301    0.356   66.043
  391.000   13.514    0.308    0.355   64.218
  391.250   14.038    0.325    0.344   63.614
  391.500   14.860    0.333    0.341   64.241
  391.750   15.434    0.328    0.335   64.865
  392.000   16.031    0.329    0.322   64.878
  392.250   16.342    0.299    0.281   64.886
  392.500   16.655    0.282    0.250   63.670
  392.750   16.659    0.271    0.236   62.460
  393.000   16.052    0.032    0.291   64.923
  393.250   15.179    0.255    0.350   65.542
  393.500   13.829    0.308    0.383   67.391
  393.750   13.576    0.318    0.377   66.791
  394.000   13.328    0.330    0.372   66.803
  394.250   13.087    0.341    0.364   66.809
  394.500   12.847    0.338    0.361   69.272
  394.750   12.381    0.336    0.367   70.504
  395.000   11.931    0.334    0.369   72.968
  395.250   11.494    0.331    0.376   75.431
  395.500   10.667    0.327    0.389   77.276
  395.750    9.901    0.318    0.394   80.350
  396.000    8.851    0.311    0.387   81.582
  396.250    8.215    0.306    0.385   84.041
  396.500    7.482    0.305    0.381   89.571
  396.750    6.564    0.304    0.397   92.636
