~VERSION INFORMATION
 VERS.                 2.0:   CWLS LOG ASCII STANDARD -VERSION 2.0
 WRAP.                  NO:   ONE LINE PER DEPTH STEP
~WELL INFORMATION BLOCK
#MNEM.UNIT           DATA                    DESCRIPTION OF MNEMONIC
#---------    -------------------            -------------------------------
# Generated from Intellog Unique Number	CS_71_72/WELL/880
WELL.         AMOCO AEC IPIATIK              : Well_name    - WELL
LOC .         00/10-34-072-06W4/0            : Location     - LOCATION
UWI .         00/10-34-072-06W4/0            : Uwi          - UNIQUE WELL ID
ENTR.         SP                             : Entered      - ENTERED BY
SRVC.         SCHLUMBERGER                   : Scn          - SERVICE COMPANY
STRT.M        325                            : top_depth    - START DEPTH
STOP.M        575                            : bot_depth    - STOP DEPTH
STEP.M        0.25                           : increment    - STEP LENGTH
 NULL. -999.2500:NULL Value
~CURVE INFORMATION BLOCK
#MNEM UNIT       ERCB CURVE CODE    CURVE DESCRIPTION
#-----------   ------------------   ----------------------------------
DEPT.M        00 001 00 00         : DEPTH        - DEPTH
ILD .OHMM     00 120 00 00         : RESD         - DEEP RESISTIVITY (DIL)
DPHI.V/V      00 890 00 00         : PHID         - DENSITY POROSITY (LIMESTONE)
NPHI.V/V      00 330 00 00         : PHIN         - NEUTRON POROSITY (LIMESTONE)
GR  .API      00 310 00 00         : GR           - GAMMA RAY
~PARAMETER INFORMATION
#MNEM.UNIT           DATA             DESCRIPTION OF MNEMONIC
#---------         -----------     ------------------------------
GL  .M        709.8                : gl           - GROUND LEVEL ELEVATION
EREF.M        714                  : kb           - ELEVATION OF DEPTH REFERENCE
DATM.M        709.8                : datum        - DATUM ELEVATION
TDD .M        588.2                : tdd          - TOTAL DEPTH DRILLER
RUN .         ONE                  : Run          - RUN NUMBER
ENG .         BILL                 : Engineer     - RECORDING ENGINEER
WIT .         JIM                  : Witness      - WITNESSED BY
MUD .         GEL                  : Mud_type     - MUD TYPE
MATR.         LIMESTONE            : Logunit      - NEUTRON MATRIX
TMAX.C        11                   : BHT          - MAXIMUM RECORDED TEMPERATURE
BHTD.M        588.2                : BHTDEP       - MAXIMUM RECORDED TEMPERATURE
MATR.         1                    : LOGUNIT      - NEUTRON MATRIX
RMT .C        25                   : MDTP         - TEMPERATURE OF MUD
NEUT.         1                    : NEUTRON      - NEUTRON TYPE
RESI.         0                    : RESIST       - RESISTIVITY TYPE
RMC .OHMM     0.25                 : RMC          - RESISTIVITY OF MUD CAKE
RMF .OHMM     0.25                 : RMF          - RESISTIVITY OF MUD FILTRATE
SUFT.C        15                   : SUFT         - SURFACE TEMPERATURE
~A  DEPTH     RESD     PHID     PHIN       GR
# ...
  412.000    3.526    0.337    0.470   62.485
  412.250    3.729    0.334    0.477   64.324
  412.500    3.871    0.331    0.492   64.938
  412.750    4.019    0.331    0.514   65.552
  413.000    4.171    0.337    0.485   66.780
  413.250    4.495    0.337    0.452   67.393
  413.500    4.580    0.308    0.435   71.671
  413.750    4.330    0.260    0.421   74.724
  414.000    3.527    0.242    0.442   79.609
  414.250    3.153    0.315    0.492   81.442
  414.500    2.819    0.291    0.497   83.279
  414.750    2.616    0.274    0.492   81.456
  415.000    2.616    0.287    0.492   78.413
  415.250    2.819    0.302    0.483   77.198
  415.500    2.927    0.321    0.476   79.036
  415.750    3.095    0.330    0.470   85.750
  416.000    3.154    0.311    0.463   89.412
  416.250    3.274    0.294    0.465   93.077
  416.500    3.274    0.288    0.472   90.035
  416.750    3.213    0.296    0.467   85.775
  417.000    3.154    0.296    0.474   83.950
  417.250    3.154    0.289    0.491   82.126
  417.500    3.154    0.305    0.488   81.522
  417.750    3.214    0.316    0.475   80.919
  418.000    3.214    0.313    0.463   79.096
  418.250    3.274    0.309    0.456   76.662
  418.500    3.274    0.309    0.445   74.228
  418.750    3.336    0.319    0.439   71.798
  419.000    3.399    0.325    0.460   69.975
  419.250    3.463    0.332    0.466   68.151
  419.500    3.529    0.330    0.454   66.936
  419.750    3.529    0.327    0.445   72.433
  420.000    3.529    0.323    0.448   76.705
  420.250    3.337    0.323    0.475   85.250
  420.500    3.275    0.309    0.483   88.302
  420.750    2.983    0.300    0.495   91.357
  421.000    2.667    0.293    0.484   95.022
  421.250    2.255    0.282    0.495   90.150
  421.500    2.297    0.272    0.503   83.451
  421.750    2.718    0.276    0.483   81.625
  422.000    2.929    0.290    0.468   77.974
  422.250    3.097    0.301    0.465   76.762
  422.500    3.276    0.312    0.484   75.547
  422.750    3.465    0.325    0.493   74.333
  423.000    3.465    0.314    0.489   73.728
  423.250    3.098    0.309    0.476   79.224
  423.500    2.769    0.313    0.476   82.887
  423.750    2.476    0.327    0.482   90.214
  424.000    2.173    0.306    0.478   93.269
  424.250    1.979    0.284    0.490   94.492
  424.500    1.907    0.276    0.506   96.328
  424.750    1.871    0.267    0.512   95.113
  425.000    1.907    0.263    0.522   93.290
  425.250    1.907    0.263    0.533   90.247
  425.500    2.055    0.266    0.549   85.375
  425.750    2.133    0.276    0.521   78.677
  426.000    2.256    0.285    0.512   76.851
  426.250    2.342    0.298    0.500   79.296
  426.500    2.431    0.288    0.488   87.840
  426.750    2.342    0.267    0.488   92.113
  427.000    1.907    0.267    0.518   97.609
  427.250    1.705    0.273    0.535   99.443
  427.500    1.496    0.250    0.560  100.670
  427.750    1.338    0.245    0.579  101.895
  428.000    1.289    0.263    0.572  102.510
  428.250    1.415    0.271    0.552  101.296
  428.500    1.674    0.273    0.533   97.644
  428.750    2.094    0.264    0.516   94.602
  429.000    2.342    0.251    0.501   92.778
  429.250    2.771    0.249    0.483   90.954
  429.500    3.100    0.257    0.469   90.353
  429.750    3.340    0.258    0.461   89.748
  430.000    3.467    0.253    0.456   89.143
  430.250    3.403    0.250    0.452   88.539
  430.500    3.279    0.231    0.469   91.596
  430.750    3.218    0.219    0.485   92.822
  431.000    3.100    0.225    0.483   92.826
  431.250    3.043    0.234    0.464   92.225
  431.500    2.987    0.241    0.452   92.231
  431.750    2.987    0.247    0.456   94.676
  432.000    2.932    0.261    0.468   96.510
  432.250    2.878    0.268    0.459   98.955
  432.500    2.878    0.248    0.452  100.180
  432.750    2.824    0.236    0.456  100.795
  433.000    2.433    0.254    0.490   98.363
  433.250    2.433    0.244    0.513   95.932
  433.500    2.433    0.234    0.528   97.767
  433.750    2.388    0.236    0.533  100.210
  434.000    2.300    0.241    0.525  103.877
  434.250    2.258    0.225    0.518  105.711
  434.500    2.175    0.220    0.504  107.545
  434.750    1.981    0.229    0.514  109.382
  435.000    1.874    0.240    0.525  111.220
  435.250    1.772    0.247    0.518  112.444
  435.500    1.675    0.254    0.543  113.060
  435.750    1.614    0.246    0.565  112.454
  436.000    1.614    0.237    0.558  110.632
  436.250    1.555    0.243    0.538  113.079
  436.500    1.526    0.232    0.534  114.913
  436.750    1.498    0.227    0.547  116.747
  437.000    1.470    0.226    0.538  117.975
  437.250    1.443    0.249    0.534  116.150
  437.500    1.443    0.257    0.526  108.840
  437.750    1.470    0.251    0.525  105.796
  438.000    1.584    0.257    0.540  100.318
  438.250    1.707    0.268    0.524   96.666
  438.500    1.840    0.276    0.502   93.621
  438.750    2.136    0.268    0.488   91.796
  439.000    2.259    0.254    0.496   88.753
  439.250    2.434    0.282    0.526   86.320
  439.500    2.623    0.305    0.516   85.106
  439.750    2.827    0.294    0.511   84.503
  440.000    2.623    0.280    0.500   84.508
  440.250    2.527    0.261    0.498   85.735
  440.500    2.527    0.253    0.494   83.914
  440.750    2.673    0.246    0.525   82.700
  441.000    2.775    0.266    0.533   81.486
  441.250    2.880    0.281    0.499   80.882
  441.500    2.990    0.289    0.477   82.107
  441.750    2.990    0.289    0.464   83.944
  442.000    2.935    0.271    0.472   84.558
  442.250    2.990    0.256    0.481   84.564
  442.500    2.990    0.276    0.482   82.744
  442.750    2.990    0.297    0.476   81.529
  443.000    3.104    0.299    0.476   79.705
  443.250    3.222    0.303    0.470   76.663
  443.500    3.408    0.316    0.456   74.839
  443.750    3.538    0.321    0.437   71.187
  444.000    3.884    0.316    0.408   65.704
  444.250    4.427    0.269    0.376   59.002
  444.500    5.140    0.247    0.330   54.130
  444.750    5.857    0.082    0.298   54.136
  445.000    6.080    0.087    0.288   65.120
  445.250    4.952    0.121    0.339   71.222
  445.500    4.265    0.161    0.388   81.595
  445.750    3.605    0.198    0.426   91.358
  446.000    3.105    0.245    0.447   94.411
  446.250    2.936    0.234    0.453   96.856
  446.500    2.725    0.248    0.465   93.203
  446.750    2.675    0.256    0.481   84.674
  447.000    2.675    0.270    0.484   80.411
  447.250    2.829    0.279    0.483   77.978
  447.500    2.992    0.292    0.501   76.764
  447.750    3.164    0.304    0.476   75.550
  448.000    3.285    0.306    0.450   79.219
  448.250    3.410    0.304    0.466   82.272
  448.500    3.347    0.294    0.482   84.715
  448.750    3.165    0.288    0.493   91.432
  449.000    3.106    0.278    0.483   93.265
  449.250    3.106    0.270    0.470   96.929
  449.500    3.165    0.266    0.474   94.496
  449.750    3.225    0.270    0.474   92.063
  450.000    3.225    0.274    0.467   94.508
  450.250    3.225    0.246    0.460   96.953
  450.500    3.049    0.232    0.452   93.911
  450.750    2.938    0.218    0.449   94.528
  451.000    2.830    0.230    0.446   96.973
  451.250    2.626    0.235    0.467   97.587
  451.500    2.305    0.244    0.493   99.424
  451.750    2.061    0.252    0.515  100.651
  452.000    1.842    0.254    0.543  101.264
  452.250    1.775    0.257    0.568  101.272
  452.500    1.877    0.267    0.571  100.059
  452.750    2.061    0.278    0.533   98.233
  453.000    2.348    0.284    0.507   94.582
  453.250    2.531    0.274    0.485   90.931
  453.500    2.221    0.261    0.464   90.935
  453.750    1.775    0.257    0.485   93.991
  454.000    1.529    0.256    0.536   95.825
  454.250    1.342    0.269    0.584   99.490
  454.500    1.199    0.286    0.594  101.937
  454.750    1.155    0.295    0.596  103.163
  455.000    1.134    0.299    0.581  103.778
  455.250    1.134    0.283    0.568  103.782
