~VERSION INFORMATION
 VERS.                 2.0:   CWLS LOG ASCII STANDARD -VERSION 2.0
 WRAP.                  NO:   ONE LINE PER DEPTH STEP
~WELL INFORMATION BLOCK
#MNEM.UNIT           DATA                    DESCRIPTION OF MNEMONIC
#---------    -------------------            -------------------------------
# Generated from Intellog Unique Number	CW_76_78/WELL/2581
WELL.         10-34-078-23W4                 : Well_name    - WELL
LOC .         00/10-34-078-23W4/0            : Location     - LOCATION
UWI .         00/10-34-078-23W4/0            : Uwi          - UNIQUE WELL ID
ENTR.         MAX                            : Entered      - ENTERED BY
SRVC.         SCHLUMBERGER                   : Scn          - SERVICE COMPANY
STRT.M        240.792                        : top_depth    - START DEPTH
STOP.M        488.792                        : bot_depth    - STOP DEPTH
STEP.M        0.25                           : increment    - STEP LENGTH
 NULL. -999.2500:NULL Value
~CURVE INFORMATION BLOCK
#MNEM UNIT       ERCB CURVE CODE    CURVE DESCRIPTION
#-----------   ------------------   ----------------------------------
DEPT.M        00 001 00 00         : DEPTH        - DEPTH
ILD .OHMM     00 120 00 00         : RESD         - DEEP RESISTIVITY (DIL)
NPHI.V/V      00 330 00 00         : PHIN         - NEUTRON POROSITY (SANDSTONE)
DPHI.V/V      00 890 00 00         : PHID         - DENSITY POROSITY (SANDSTONE)
CALI.MM       00 280 01 00         : CAL          - CALIPER
GR  .API      00 310 00 00         : GR           - GAMMA RAY
~PARAMETER INFORMATION
#MNEM.UNIT           DATA             DESCRIPTION OF MNEMONIC
#---------         -----------     ------------------------------
GL  .M        571.683              : gl           - GROUND LEVEL ELEVATION
EREF.M        574.731              : kb           - ELEVATION OF DEPTH REFERENCE
DATM.M        574.731              : datum        - DATUM ELEVATION
TDD .M        494.995              : tdd          - TOTAL DEPTH DRILLER
RUN .         ONE                  : Run          - RUN NUMBER
ENG .         BILL                 : Engineer     - RECORDING ENGINEER
WIT .         JIM                  : Witness      - WITNESSED BY
MUD .         GEL                  : Mud_type     - MUD TYPE
MATR.         SANDSTONE            : Logunit      - NEUTRON MATRIX
TMAX.F        79                   : BHT          - MAXIMUM RECORDED TEMPERATURE
BHTD.F        1624                 : BHTDEP       - MAXIMUM RECORDED TEMPERATURE
RMT .F        69                   : MDTP         - TEMPERATURE OF MUD
MUDD.LB/G     9.9                  : MWT          - MUD DENSITY
NEUT.         1                    : NEUTRON      - NEUTRON TYPE
RESI.         0                    : RESIST       - RESISTIVITY TYPE
RM  .OHMM     3.5                  : RM           - RESISTIVITY OF MUD
RMC .OHMM     4.1                  : RMC          - RESISTIVITY OF MUD CAKE
RMF .OHMM     2.85                 : RMF          - RESISTIVITY OF MUD FILTRATE
SUFT.F        25                   : SUFT         - SURFACE TEMPERATURE
~A  DEPTH     RESD     PHIN     PHID      CAL       GR
# ...
  350.292   11.691    0.471    0.232  189.367   87.707
  350.542   13.012    0.470    0.226  189.367   85.643
  350.792   15.153    0.434    0.125  189.354   77.405
  351.042   15.808    0.283    0.089  189.354   63.284
  351.292   16.199    0.262    0.070  189.331   70.041
  351.542   15.576    0.297    0.054  189.325   76.212
  351.792   11.474    0.349    0.096  189.325   82.383
  352.042   10.633    0.409    0.177  189.307   90.905
  352.292    9.945    0.462    0.205  189.301   93.548
  352.542    9.382    0.473    0.221  189.789   98.542
  352.792    9.019    0.492    0.235  189.780   99.125
  353.042    8.907    0.497    0.242  189.771   94.709
  353.292    8.883    0.478    0.228  189.763   95.585
  353.542    8.931    0.479    0.221  190.252  102.637
  353.792    8.905    0.473    0.215  192.233  104.103
  354.042    8.881    0.463    0.230  193.718  103.804
  354.292    8.771    0.487    0.245  193.712  106.151
  354.542    8.662    0.496    0.252  193.697  108.498
  354.792    8.636    0.495    0.238  193.693  106.729
  355.042    8.610    0.482    0.228  193.186  102.312
  355.292    8.663    0.488    0.223  193.179   99.954
  355.542    8.710    0.503    0.209  192.672   97.891
  355.792    8.851    0.515    0.208  191.666   95.239
  356.042    9.066    0.518    0.221  190.662   91.999
  356.292    9.458    0.481    0.248  189.157   86.407
  356.542    9.695    0.464    0.236  187.657   86.108
  356.792   10.019    0.479    0.232  186.651   92.276
  357.042    9.993    0.503    0.237  187.142   94.919
  357.292    9.697    0.511    0.247  189.622   99.325
  357.542    9.229    0.509    0.236  189.622   99.320
  357.792    8.956    0.502    0.228  191.596   99.021
  358.042    8.678    0.502    0.223  195.570   96.662
  358.292    8.577    0.489    0.227  195.563   96.070
  358.542    8.630    0.484    0.239  194.060   97.239
  358.792    8.846    0.492    0.225  191.560   98.118
  359.042    9.402    0.509    0.235  189.559   97.230
  359.292   10.081    0.511    0.235  188.554   92.226
  359.542   10.818    0.487    0.218  187.552   88.692
  359.792   11.926    0.448    0.216  187.537   84.864
  360.042   14.676    0.450    0.209  186.537   84.564
  360.292   17.560    0.423    0.205  186.030   80.442
  360.542   19.359    0.394    0.198  186.030   76.319
  360.792   20.583    0.405    0.182  185.514   76.020
  361.042   21.670    0.420    0.177  184.510   76.309
  361.292   22.012    0.408    0.176  183.505   76.304
  361.542   22.012    0.408    0.194  183.495   74.828
  361.792   22.048    0.401    0.206  183.488   75.411
  362.042   20.456    0.421    0.204  183.488   82.757
  362.292   16.223    0.439    0.208  183.469   88.341
  362.542   13.224    0.452    0.228  184.955   90.394
  362.792   10.104    0.471    0.271  185.943   94.505
  363.042    9.028    0.488    0.276  187.428   98.029
  363.292    8.517    0.501    0.258  188.913   99.789
  363.542    8.412    0.497    0.247  189.895   96.842
  363.792    8.541    0.487    0.238  190.887   95.954
  364.042    8.995    0.482    0.226  190.887   96.244
  364.292    9.388    0.477    0.212  192.363   97.709
  364.542    9.708    0.466    0.205  194.346  100.644
  364.792    9.948    0.484    0.200  194.834  104.168
  365.042   10.009    0.500    0.199  194.825  102.693
  365.292    9.976    0.500    0.208  194.825   98.276
  365.542    9.950    0.488    0.207  194.809   97.388
  365.792   10.143    0.494    0.213  194.799  102.088
  366.042    9.938    0.497    0.214  194.791  100.025
  366.292    9.740    0.509    0.212  194.781  100.020
  366.542    9.628    0.507    0.207  194.775   99.427
  366.792    9.784    0.496    0.214  194.765  100.597
  367.042   10.034    0.483    0.222  194.251  103.238
  367.292   10.191    0.483    0.210  193.253  101.763
  367.542   10.356    0.483    0.241  192.247  100.876
  367.792   10.524    0.479    0.217  191.244  100.283
  368.042   10.694    0.480    0.220  190.239  100.865
  368.292   10.666    0.471    0.217  189.732  102.331
  368.542   10.456    0.476    0.217  189.722  103.208
  368.792   10.059    0.482    0.206  190.211  103.202
  369.042    9.772    0.499    0.190  191.199  103.198
  369.292    9.403    0.480    0.214  192.685  104.074
  369.542    9.046    0.477    0.214  193.671  105.540
  369.792    8.861    0.484    0.211  193.671  107.004
  370.042    8.770    0.488    0.206  194.152  108.470
  370.292    8.748    0.494    0.199  194.144  109.053
  370.542    8.972    0.500    0.187  194.144  108.459
  370.792    9.977    0.509    0.198  194.125  108.455
  371.042   11.303    0.494    0.239  193.618  106.685
  371.292   13.152    0.493    0.226  193.112   98.740
  371.542   15.172    0.498    0.212  192.605   92.559
  371.792   17.979    0.476    0.225  192.098   88.436
  372.042   20.358    0.502    0.213  191.585   87.550
  372.292   21.846    0.484    0.202  191.583   86.955
  372.542   22.810    0.418    0.188  191.583   84.010
  372.792   23.173    0.393    0.194  191.561   79.888
  373.042   21.898    0.380    0.173  192.054   74.883
  373.292   18.905    0.367    0.158  192.054   72.819
  373.542   15.603    0.384    0.104  192.535   76.049
  373.792   13.959    0.412    0.116  193.523   81.631
  374.042   13.805    0.441    0.164  193.514   85.155
  374.292   14.031    0.451    0.216  193.506   92.796
  374.542   14.647    0.446    0.206  193.496   94.554
  374.792   15.428    0.446    0.181  193.486   95.431
  375.042   16.104    0.422    0.167  193.479   96.603
  375.292   16.373    0.430    0.169  193.469   96.010
  375.542   16.928    0.425    0.156  193.460   97.181
  375.792   17.055    0.415    0.167  193.451   98.057
  376.042   17.020    0.414    0.190  193.451   97.759
  376.292   16.378    0.415    0.196  193.434   96.577
  376.542   15.618    0.418    0.200  193.425   95.396
  376.792   14.491    0.436    0.197  193.418   94.802
  377.042   13.814    0.440    0.182  193.406   96.562
  377.292   13.424    0.443    0.183  193.398   99.496
  377.542   13.038    0.437    0.200  193.389  102.139
  377.792   12.894    0.429    0.210  193.379  104.485
  378.042   13.708    0.457    0.212  192.875  103.892
  378.292   15.668    0.463    0.196  192.367   99.181
  378.542   17.907    0.448    0.173  192.358   95.648
  378.792   19.376    0.414    0.156  192.349   92.703
  379.042   18.989    0.388    0.129  192.342   75.053
  379.292   17.788    0.285    0.097  192.332   72.400
  379.542   15.910    0.282    0.028  192.324   74.454
  379.792   15.325    0.315    0.055  191.816   81.800
  380.042   15.706    0.344    0.110  191.809   89.147
  380.292   16.547    0.445    0.176  191.800   97.082
  380.542   16.815    0.422    0.171  191.790   96.194
  380.792   16.780    0.418    0.169  191.782   94.424
  381.042   16.442    0.419    0.179  192.780   96.969
  381.292   15.969    0.427    0.204  193.764   94.586
  381.542   15.642    0.419    0.179  193.743   93.683
  381.792   15.335    0.409    0.138  193.725   95.155
  382.042   15.165    0.429    0.164  193.203   95.736
  382.292   14.990    0.419    0.184  193.185   98.099
  382.542   14.960    0.434    0.181  193.169  103.128
  382.792   14.794    0.434    0.202  193.653  102.524
  383.042   14.794    0.434    0.212  194.637  100.140
  383.292   14.451    0.455    0.199  195.116   98.648
  383.542   14.306    0.457    0.173  196.105  101.603
  383.792   14.149    0.457    0.192  196.087  105.148
  384.042   13.985    0.457    0.201  196.569  104.841
  384.292   13.831    0.450    0.171  196.048  106.609
  384.542   13.548    0.450    0.169  196.030  107.488
  384.792   13.402    0.466    0.180  196.512  105.102
  385.042   13.254    0.469    0.203  197.501  103.017
  385.292   13.108    0.463    0.189  197.980  106.269
  385.542   13.078    0.444    0.175  197.962  108.332
  385.792   12.927    0.450    0.182  197.944  106.247
  386.042   12.907    0.459    0.183  198.423  103.565
  386.292   12.991    0.465    0.165  198.410  105.925
  386.542   13.079    0.451    0.176  198.389  106.510
