~VERSION INFORMATION
 VERS.                 2.0:   CWLS LOG ASCII STANDARD -VERSION 2.0
 WRAP.                  NO:   ONE LINE PER DEPTH STEP
~WELL INFORMATION BLOCK
#MNEM.UNIT           DATA                    DESCRIPTION OF MNEMONIC
#---------    -------------------            -------------------------------
# Generated from Intellog Unique Number	CS_73_76/WELL/3274
WELL.         BOW VALLEY EXPLORATION         : Well_name    - WELL
LOC .         00/12-34-075-14W4/0            : Location     - LOCATION
UWI .         00/12-34-075-14W4/0            : Uwi          - UNIQUE WELL ID
ENTR.         SP                             : Entered      - ENTERED BY
SRVC.         SCHLUMBERGER                   : Scn          - SERVICE COMPANY
STRT.M        345                            : top_depth    - START DEPTH
STOP.M        585                            : bot_depth    - STOP DEPTH
STEP.M        0.25                           : increment    - STEP LENGTH
 NULL. -999.2500:NULL Value
~CURVE INFORMATION BLOCK
#MNEM UNIT       ERCB CURVE CODE    CURVE DESCRIPTION
#-----------   ------------------   ----------------------------------
DEPT.M        00 001 00 00         : DEPTH        - DEPTH
ILD .OHMM     00 120 00 00         : RESD         - DEEP RESISTIVITY (DIL)
NPHI.V/V      00 330 00 00         : PHIN         - NEUTRON POROSITY (LIMESTONE)
DPHI.V/V      00 890 00 00         : PHID         - DENSITY POROSITY (LIMESTONE)
GR  .API      00 310 00 00         : GR           - GAMMA RAY
~PARAMETER INFORMATION
#MNEM.UNIT           DATA             DESCRIPTION OF MNEMONIC
#---------         -----------     ------------------------------
GL  .M        720.2                : gl           - GROUND LEVEL ELEVATION
EREF.M        723.4                : kb           - ELEVATION OF DEPTH REFERENCE
DATM.M        720.2                : datum        - DATUM ELEVATION
TDD .M        595                  : tdd          - TOTAL DEPTH DRILLER
RUN .         ONE                  : Run          - RUN NUMBER
ENG .         BILL                 : Engineer     - RECORDING ENGINEER
WIT .         JIM                  : Witness      - WITNESSED BY
MUD .         GEL                  : Mud_type     - MUD TYPE
MATR.         LIMESTONE            : Logunit      - NEUTRON MATRIX
TMAX.C        17                   : BHT          - MAXIMUM RECORDED TEMPERATURE
BHTD.M        595                  : BHTDEP       - MAXIMUM RECORDED TEMPERATURE
MATR.         1                    : LOGUNIT      - NEUTRON MATRIX
RMT .C        25                   : MDTP         - TEMPERATURE OF MUD
NEUT.         1                    : NEUTRON      - NEUTRON TYPE
RESI.         0                    : RESIST       - RESISTIVITY TYPE
RMC .OHMM     0.25                 : RMC          - RESISTIVITY OF MUD CAKE
RMF .OHMM     0.25                 : RMF          - RESISTIVITY OF MUD FILTRATE
SUFT.C        15                   : SUFT         - SURFACE TEMPERATURE
~A  DEPTH     RESD     PHIN     PHID       GR
# ...
  432.000   11.468    0.359    0.167   84.764
  432.250   10.261    0.429    0.237   89.029
  432.500    9.706    0.477    0.304   90.860
  432.750    9.352    0.483    0.312   91.488
  433.000    9.352    0.476    0.318   90.301
  433.250    9.351    0.472    0.333   86.693
  433.500    9.179    0.480    0.334   88.541
  433.750    9.178    0.484    0.323   90.368
  434.000    8.844    0.477    0.314   92.812
  434.250    8.522    0.459    0.296   94.050
  434.500    7.625    0.451    0.259   96.490
  434.750    7.212    0.472    0.232   99.536
  435.000    6.697    0.483    0.228  101.978
  435.250    6.335    0.490    0.234  103.209
  435.500    5.882    0.493    0.230  104.446
  435.750    5.564    0.499    0.225  106.287
  436.000    5.361    0.507    0.232  106.905
  436.250    5.166    0.512    0.233  107.532
  436.500    4.978    0.512    0.223  108.163
  436.750    4.708    0.521    0.216  108.188
  437.000    4.292    0.518    0.216  107.602
  437.250    3.770    0.505    0.217  107.624
  437.500    3.191    0.519    0.204  110.674
  437.750    2.751    0.547    0.204  113.115
  438.000    2.508    0.558    0.220  114.954
  438.250    2.651    0.554    0.226  116.796
  438.500    2.908    0.535    0.216  116.814
  438.750    3.073    0.524    0.223  116.846
  439.000    3.310    0.528    0.222  116.253
  439.250    3.630    0.520    0.217  115.071
  439.500    3.767    0.513    0.231  113.878
  439.750    4.369    0.503    0.237  110.886
  440.000    5.066    0.489    0.275  107.877
  440.250    5.355    0.480    0.292  100.038
  440.500    5.984    0.472    0.286   94.010
  440.750    6.564    0.475    0.307   87.984
  441.000    7.068    0.477    0.319   81.354
  441.250    7.898    0.469    0.325   78.350
  441.500    8.196    0.466    0.325   75.959
  441.750    8.505    0.473    0.310   74.770
  442.000    8.504    0.460    0.303   72.370
  442.250    8.194    0.450    0.294   75.425
  442.500    4.970    0.443    0.297   77.862
  442.750    3.368    0.437    0.285   86.355
  443.000    2.647    0.451    0.280   94.842
  443.250    2.283    0.548    0.264  110.591
  443.500    2.042    0.589    0.258  116.057
  443.750    2.240    0.606    0.270  115.480
  444.000    2.746    0.622    0.280  116.710
  444.250    3.126    0.623    0.282  113.710
  444.500    3.693    0.609    0.285  107.077
  444.750    4.612    0.592    0.288   96.213
  445.000    5.550    0.502    0.310   87.160
  445.250    6.318    0.456    0.311   88.393
  445.500    6.930    0.463    0.311   92.051
  445.750    7.059    0.468    0.311   93.280
  446.000    7.059    0.482    0.321   95.128
  446.250    6.928    0.492    0.310   94.534
  446.500    6.801    0.503    0.295   89.725
  446.750    6.800    0.491    0.302   90.950
  447.000    6.800    0.486    0.298   94.001
  447.250    6.800    0.480    0.288   95.835
  447.500    6.799    0.484    0.287   93.439
  447.750    6.799    0.476    0.294   92.863
  448.000    6.798    0.463    0.306   92.276
  448.250    6.798    0.464    0.314   88.677
  448.500    6.797    0.470    0.307   87.480
  448.750    6.672    0.480    0.299   86.901
  449.000    6.672    0.489    0.290   87.529
  449.250    6.549    0.498    0.316   88.764
  449.500    6.428    0.471    0.333   89.997
  449.750    6.310    0.477    0.301   92.433
  450.000    6.427    0.484    0.268   97.905
  450.250    6.427    0.500    0.283  101.555
  450.500    6.547    0.506    0.285   97.951
  450.750    6.669    0.516    0.289   96.766
  451.000    6.793    0.506    0.302   95.574
  451.250    6.919    0.494    0.307   93.178
  451.500    7.048    0.487    0.306   91.988
  451.750    7.179    0.482    0.304   87.788
  452.000    7.589    0.470    0.323   85.988
  452.250    8.022    0.476    0.311   89.049
  452.500    8.800    0.484    0.310   90.275
  452.750   10.017    0.474    0.301   90.894
  453.000   11.833    0.467    0.268   87.891
  453.250   13.978    0.422    0.215   81.261
  453.500   16.512    0.214    0.129   74.025
  453.750   18.452    0.179    0.003   67.396
  454.000   15.331    0.230    0.021   75.280
  454.250   12.505    0.279    0.060   92.245
  454.500    9.829    0.374    0.094   99.521
  454.750    7.870    0.449    0.142  106.802
  455.000    6.786    0.471    0.204  109.851
  455.250    6.071    0.466    0.257  108.663
  455.500    5.960    0.477    0.250  104.451
  455.750    5.959    0.485    0.268  101.450
  456.000    6.070    0.485    0.275   98.456
  456.250    6.070    0.480    0.265   96.667
  456.500    6.069    0.466    0.276   95.476
  456.750    6.069    0.457    0.273   94.890
  457.000    6.069    0.447    0.257   96.120
  457.250    6.182    0.468    0.247   97.957
  457.500    6.414    0.472    0.240   99.795
  457.750    6.656    0.479    0.246  102.242
  458.000    6.907    0.484    0.242  101.053
  458.250    7.035    0.462    0.234   98.656
  458.500    7.717    0.445    0.225   98.071
  458.750    8.158    0.433    0.218   95.674
  459.000    7.860    0.408    0.228   86.627
  459.250    7.435    0.384    0.246   81.810
  459.500    7.164    0.437    0.277   81.234
  459.750    7.573    0.448    0.315   80.645
  460.000    8.621    0.445    0.307   75.829
  460.250    9.813    0.429    0.290   72.831
  460.500   11.380    0.365    0.185   72.850
  460.750   13.196    0.195    0.044   68.034
  461.000   13.949    0.183    0.079   65.034
  461.250   12.481    0.233    0.136   63.848
  461.500    9.280    0.313    0.179   68.709
  461.750    7.710    0.377    0.235   74.174
  462.000    7.293    0.411    0.305   79.645
  462.250    6.772    0.449    0.329   83.899
  462.500    6.647    0.447    0.328   86.342
  462.750    6.525    0.440    0.317   86.967
  463.000    6.524    0.446    0.310   90.020
  463.250    6.646    0.465    0.320   92.467
  463.500    6.770    0.478    0.319   93.691
  463.750    6.769    0.477    0.314   96.745
  464.000    6.523    0.464    0.303   97.972
  464.250    6.403    0.483    0.294   99.204
  464.500    6.402    0.482    0.293  100.444
  464.750    6.284    0.473    0.286  101.067
  465.000    6.284    0.470    0.283  101.694
  465.250    6.283    0.460    0.290  102.324
  465.500    6.283    0.456    0.297  102.349
  465.750    6.283    0.451    0.280  101.760
  466.000    6.400    0.457    0.272  101.784
  466.250    6.399    0.459    0.259   98.781
  466.500    6.399    0.434    0.248   93.365
  466.750    6.281    0.431    0.237   90.358
  467.000    6.165    0.455    0.235   92.198
  467.250    6.165    0.463    0.243   94.034
  467.500    5.940    0.455    0.225   94.057
  467.750    5.315    0.462    0.217   95.290
  468.000    4.756    0.467    0.243   98.947
  468.250    4.256    0.481    0.249  100.776
  468.500    3.808    0.497    0.243  104.433
  468.750    3.738    0.514    0.252  107.484
  469.000    3.669    0.518    0.257  110.532
  469.250    3.669    0.518    0.246  108.126
  469.500    3.737    0.512    0.235  107.547
  469.750    3.737    0.506    0.222  110.603
  470.000    3.877    0.513    0.239  112.435
  470.250    3.950    0.524    0.252  114.271
  470.500    4.023    0.537    0.249  114.291
  470.750    4.332    0.516    0.236  111.898
  471.000    4.413    0.509    0.222  108.895
  471.250    4.752    0.487    0.205  105.286
  471.500    4.931    0.471    0.225  105.313
  471.750    5.023    0.463    0.242  107.758
  472.000    5.212    0.479    0.239  108.982
  472.250    5.211    0.480    0.222  111.424
  472.500    5.211    0.468    0.235  111.452
  472.750    5.115    0.457    0.246  109.658
  473.000    5.021    0.459    0.252  110.295
  473.250    5.114    0.470    0.240  110.913
  473.500    5.307    0.469    0.223  110.331
  473.750    5.406    0.458    0.185  105.517
  474.000    5.609    0.459    0.157   93.438
  474.250    5.714    0.475    0.179   84.997
  474.500    5.820    0.487    0.231   82.597
  474.750    5.820    0.489    0.259   80.204
  475.000    5.928    0.463    0.292   79.015
  475.250    6.039    0.458    0.311   79.035
