~VERSION INFORMATION
 VERS.                 2.0:   CWLS LOG ASCII STANDARD -VERSION 2.0
 WRAP.                  NO:   ONE LINE PER DEPTH STEP
~WELL INFORMATION BLOCK
#MNEM.UNIT           DATA                    DESCRIPTION OF MNEMONIC
#---------    -------------------            -------------------------------
# Generated from Intellog Unique Number	CS_67_68/WELL/2210
WELL.         INTER-CITY GAS ET AL TWEED     : Well_name    - WELL
LOC .         00/11-36-067-13W4/0            : Location     - LOCATION
UWI .         00/11-36-067-13W4/0            : Uwi          - UNIQUE WELL ID
ENTR.         SP                             : Entered      - ENTERED BY
SRVC.         SCHLUMBERGER                   : Scn          - SERVICE COMPANY
STRT.M        304.8                          : top_depth    - START DEPTH
STOP.M        480.050                        : bot_depth    - STOP DEPTH
STEP.M        0.25                           : increment    - STEP LENGTH
 NULL. -999.2500:NULL Value
~CURVE INFORMATION BLOCK
#MNEM UNIT       ERCB CURVE CODE    CURVE DESCRIPTION
#-----------   ------------------   ----------------------------------
DEPT.M        00 001 00 00         : DEPTH        - DEPTH
CALI.MM       00 280 01 00         : CAL          - CALIPER
GR  .API      00 310 00 00         : GR           - GAMMA RAY
DPHI.V/V      00 890 00 00         : PHID         - DENSITY POROSITY (SANDSTONE)
NPHI.V/V      00 330 00 00         : PHIN         - NEUTRON POROSITY (SANDSTONE)
ILD .OHMM     00 120 00 00         : RESD         - DEEP RESISTIVITY (DIL)
~PARAMETER INFORMATION
#MNEM.UNIT           DATA             DESCRIPTION OF MNEMONIC
#---------         -----------     ------------------------------
GL  .M        587.654              : gl           - GROUND LEVEL ELEVATION
EREF.M        590.398              : kb           - ELEVATION OF DEPTH REFERENCE
DATM.M        590.398              : datum        - DATUM ELEVATION
TDD .M        478.536              : tdd          - TOTAL DEPTH DRILLER
RUN .         ONE                  : Run          - RUN NUMBER
ENG .         BILL                 : Engineer     - RECORDING ENGINEER
WIT .         JIM                  : Witness      - WITNESSED BY
MUD .         GEL                  : Mud_type     - MUD TYPE
MATR.         SANDSTONE            : Logunit      - NEUTRON MATRIX
TMAX.C        60                   : BHT          - MAXIMUM RECORDED TEMPERATURE
BHTD.M        478.536              : BHTDEP       - MAXIMUM RECORDED TEMPERATURE
MATR.         1                    : LOGUNIT      - NEUTRON MATRIX
RMT .C        25                   : MDTP         - TEMPERATURE OF MUD
NEUT.         1                    : NEUTRON      - NEUTRON TYPE
RESI.         0                    : RESIST       - RESISTIVITY TYPE
RMC .OHMM     0.25                 : RMC          - RESISTIVITY OF MUD CAKE
RMF .OHMM     0.25                 : RMF          - RESISTIVITY OF MUD FILTRATE
SUFT.C        15                   : SUFT         - SURFACE TEMPERATURE
~A  DEPTH      CAL       GR     PHID     PHIN     RESD
# ...
  341.300  168.147  199.943    0.255    0.582    2.194
  341.550  167.334  188.916    0.258    0.595    2.223
  341.800  165.449  170.807    0.255    0.541    2.256
  342.050  163.196  138.972    0.250    0.500    2.272
  342.300  161.687  112.847    0.257    0.479    2.290
  342.550  161.428  104.666    0.262    0.483    2.353
  342.800  161.188  100.456    0.269    0.493    2.470
  343.050  161.030   98.809    0.277    0.505    2.561
  343.300  160.813   96.116    0.273    0.481    2.576
  343.550  160.650   99.935    0.276    0.488    2.567
  343.800  160.182  102.487    0.275    0.500    2.538
  344.050  159.872  101.573    0.271    0.510    2.518
  344.300  159.698  100.166    0.265    0.522    2.498
  344.550  159.499   99.049    0.267    0.536    2.498
  344.800  159.342   98.278    0.268    0.527    2.498
  345.050  159.279   97.646    0.259    0.502    2.487
  345.300  159.208   97.110    0.256    0.488    2.437
  345.550  158.942   96.799    0.258    0.483    2.382
  345.800  158.939   97.837    0.275    0.492    2.345
  346.050  157.687   99.487    0.272    0.497    2.399
  346.300  156.953  101.817    0.257    0.499    2.452
  346.550  156.862  105.262    0.244    0.503    2.550
  346.800  156.791  104.751    0.234    0.506    2.652
  347.050  156.832  103.029    0.237    0.510    2.771
  347.300  157.131  102.783    0.244    0.517    2.901
  347.550  158.740  103.004    0.253    0.520    2.981
  347.800  161.330  104.042    0.260    0.511    2.861
  348.050  163.340  105.416    0.279    0.506    2.788
  348.300  164.230  106.864    0.300    0.499    2.733
  348.550  163.797  100.997    0.303    0.499    2.690
  348.800  163.269   97.073    0.286    0.506    2.686
  349.050  162.700   97.460    0.255    0.499    2.736
  349.300  162.654  100.862    0.225    0.491    2.810
  349.550  162.609  105.857    0.218    0.491    2.899
  349.800  162.167  104.546    0.223    0.509    3.006
  350.050  162.101  108.313    0.227    0.506    3.128
  350.300  162.347  110.684    0.215    0.495    3.257
  350.550  163.032  113.036    0.225    0.492    3.384
  350.800  165.200  116.007    0.220    0.499    3.531
  351.050  166.767  114.789    0.229    0.496    3.630
  351.300  168.580  106.368    0.239    0.484    3.683
  351.550  169.444  105.085    0.239    0.484    3.632
  351.800  170.134  108.993    0.219    0.486    3.639
  352.050  170.075  109.477    0.208    0.482    3.612
  352.300  169.519  110.723    0.217    0.511    3.580
  352.550  168.722  113.460    0.219    0.528    3.528
  352.800  168.095  114.913    0.228    0.541    3.457
  353.050  168.911  110.097    0.231    0.505    3.408
  353.300  169.368  105.911    0.235    0.469    3.342
  353.550  164.233  102.348    0.241    0.447    3.247
  353.800  161.447  101.981    0.243    0.441    3.136
  354.050  160.906  102.367    0.232    0.440    2.881
  354.300  160.812  102.034    0.241    0.453    2.727
  354.550  161.025   99.106    0.260    0.472    2.600
  354.800  159.513   95.640    0.277    0.483    2.522
  355.050  159.509   97.483    0.295    0.492    2.531
  355.300  159.365  100.511    0.271    0.489    2.645
  355.550  159.417  103.148    0.247    0.458    2.793
  355.800  159.856  104.529    0.240    0.436    2.954
  356.050  160.227  100.862    0.232    0.424    3.181
  356.300  159.627   98.504    0.227    0.421    3.252
  356.550  159.683  102.289    0.215    0.430    3.179
  356.800  159.858  104.839    0.207    0.432    3.232
  357.050  160.113  103.438    0.200    0.433    3.526
  357.300  160.189  105.944    0.210    0.443    3.711
  357.550  160.527  109.171    0.227    0.450    3.823
  357.800  160.979  110.891    0.218    0.460    3.973
  358.050  161.982  110.896    0.221    0.468    4.065
  358.300  162.911  115.406    0.216    0.477    4.120
  358.550  163.895  119.947    0.204    0.484    4.157
  358.800  164.666  122.831    0.188    0.480    4.150
  359.050  164.962  124.744    0.194    0.475    4.095
  359.300  164.755  126.277    0.199    0.473    3.988
  359.550  164.225  124.646    0.200    0.478    3.727
  359.800  162.887  113.609    0.221    0.487    3.402
  360.050  160.797  108.011    0.238    0.486    3.191
  360.300  158.957  105.030    0.258    0.485    2.942
  360.550  157.779  101.633    0.258    0.490    2.738
  360.800  157.344   98.967    0.242    0.482    2.619
  361.050  157.224   95.685    0.250    0.464    2.577
  361.300  157.188   92.065    0.259    0.449    2.536
  361.550  157.374   86.900    0.260    0.455    2.483
  361.800  158.206   84.305    0.266    0.463    2.413
  362.050  159.161   82.981    0.268    0.457    2.357
  362.300  160.376   82.136    0.272    0.450    2.297
  362.550  161.262   81.006    0.268    0.448    2.256
  362.800  162.038   79.265    0.262    0.460    2.215
  363.050  162.561   77.326    0.259    0.478    2.135
  363.300  163.051   75.492    0.282    0.491    2.019
  363.550  163.166   74.840    0.293    0.485    1.982
  363.800  163.148   75.719    0.288    0.462    1.984
  364.050  162.968   78.522    0.277    0.447    2.029
  364.300  162.773   83.531    0.264    0.435    2.175
  364.550  162.473   88.660    0.250    0.425    2.387
  364.800  162.397   92.200    0.240    0.430    2.588
  365.050  162.014   94.185    0.245    0.432    2.766
  365.300  162.034   96.948    0.238    0.422    2.885
  365.550  161.781   99.544    0.243    0.407    2.963
  365.800  161.722  102.167    0.235    0.415    3.016
  366.050  161.775  103.975    0.236    0.430    3.052
  366.300  161.915  105.432    0.237    0.441    3.082
  366.550  162.354  105.687    0.238    0.442    3.156
  366.800  163.152  104.680    0.228    0.439    3.257
  367.050  164.338  105.563    0.211    0.438    3.351
  367.300  165.276  106.307    0.200    0.436    3.477
  367.550  165.758  106.262    0.204    0.434    3.587
  367.800  165.704  105.272    0.199    0.431    3.652
  368.050  165.091  104.809    0.201    0.428    3.733
  368.300  164.391  106.582    0.208    0.425    3.821
  368.550  162.997  108.288    0.212    0.423    3.872
  368.800  161.756  109.851    0.216    0.427    3.862
  369.050  160.934  109.551    0.213    0.435    3.761
  369.300  160.998  106.970    0.206    0.439    3.487
  369.550  161.143  104.942    0.204    0.441    3.252
  369.800  161.386  102.891    0.221    0.447    3.012
  370.050  161.627   98.075    0.228    0.449    2.859
  370.300  161.779   94.650    0.237    0.447    2.843
  370.550  161.682   96.668    0.241    0.429    2.927
  370.800  161.566   98.984    0.229    0.414    3.028
  371.050  161.316  100.346    0.217    0.404    3.169
  371.300  161.153  100.040    0.207    0.429    3.342
  371.550  160.823   98.659    0.224    0.450    3.395
  371.800  160.572   97.939    0.233    0.470    3.221
  372.050  160.508   97.824    0.248    0.484    2.954
  372.300  161.202  101.707    0.258    0.498    2.727
  372.550  162.548  107.244    0.257    0.507    2.593
  372.800  164.154  114.460    0.240    0.498    2.452
  373.050  165.912  120.647    0.219    0.493    2.373
  373.300  165.873  124.246    0.227    0.490    2.332
  373.550  164.608  122.802    0.234    0.488    2.336
  373.800  164.790  116.284    0.241    0.544    2.357
  374.050  165.170  111.084    0.245    0.553    2.385
  374.300  164.991  106.744    0.254    0.528    2.394
  374.550  164.172  100.856    0.274    0.514    2.324
  374.800  162.418   95.815    0.295    0.506    2.230
  375.050  160.360   91.786    0.305    0.503    2.128
  375.300  158.527   88.534    0.312    0.504    2.064
  375.550  158.037   86.516    0.307    0.503    2.043
  375.800  158.378   85.250    0.295    0.495    2.050
  376.050  158.960   85.677    0.315    0.486    2.056
  376.300  159.554   84.795    0.309    0.481    2.063
  376.550  160.342   84.289    0.291    0.483    2.085
  376.800  161.383   86.989    0.283    0.481    2.103
  377.050  162.002   90.693    0.279    0.480    2.125
  377.300  162.252   92.589    0.285    0.485    2.153
  377.550  162.261   93.831    0.293    0.488    2.183
