~VERSION INFORMATION
 VERS.                 2.0:   CWLS LOG ASCII STANDARD -VERSION 2.0
 WRAP.                  NO:   ONE LINE PER DEPTH STEP
~WELL INFORMATION BLOCK
#MNEM.UNIT           DATA                    DESCRIPTION OF MNEMONIC
#---------    -------------------            -------------------------------
# Generated from Intellog Unique Number	CS_67_68/WELL/2195
WELL.         10-14-067-03W4                 : Well_name    - WELL
LOC .         00/10-14-067-03W4/0            : Location     - LOCATION
UWI .         00/10-14-067-03W4/0            : Uwi          - UNIQUE WELL ID
ENTR.         SP                             : Entered      - ENTERED BY
SRVC.         SCHLUMBERGER                   : Scn          - SERVICE COMPANY
STRT.M        380                            : top_depth    - START DEPTH
STOP.M        610                            : bot_depth    - STOP DEPTH
STEP.M        0.25                           : increment    - STEP LENGTH
 NULL. -999.2500:NULL Value
~CURVE INFORMATION BLOCK
#MNEM UNIT       ERCB CURVE CODE    CURVE DESCRIPTION
#-----------   ------------------   ----------------------------------
DEPT.M        00 001 00 00         : DEPTH        - DEPTH
ILD .OHMM     00 120 00 00         : RESD         - DEEP RESISTIVITY (DIL)
DPHI.V/V      00 890 00 00         : PHID         - DENSITY POROSITY (LIMESTONE)
NPHI.V/V      00 330 00 00         : PHIN         - NEUTRON POROSITY (LIMESTONE)
GR  .API      00 310 00 00         : GR           - GAMMA RAY
CALI.MM       00 280 01 00         : CAL          - CALIPER
~PARAMETER INFORMATION
#MNEM.UNIT           DATA             DESCRIPTION OF MNEMONIC
#---------         -----------     ------------------------------
GL  .M        697.3                : gl           - GROUND LEVEL ELEVATION
EREF.M        700.96               : kb           - ELEVATION OF DEPTH REFERENCE
DATM.M        700.96               : datum        - DATUM ELEVATION
TDD .M        618.5                : tdd          - TOTAL DEPTH DRILLER
RUN .         ONE                  : Run          - RUN NUMBER
ENG .         BILL                 : Engineer     - RECORDING ENGINEER
WIT .         JIM                  : Witness      - WITNESSED BY
MUD .         GEL                  : Mud_type     - MUD TYPE
MATR.         LIMESTONE            : Logunit      - NEUTRON MATRIX
TMAX.C        21                   : BHT          - MAXIMUM RECORDED TEMPERATURE
BHTD.M        619                  : BHTDEP       - MAXIMUM RECORDED TEMPERATURE
MATR.         1                    : LOGUNIT      - NEUTRON MATRIX
RMT .C        25                   : MDTP         - TEMPERATURE OF MUD
NEUT.         1                    : NEUTRON      - NEUTRON TYPE
RESI.         0                    : RESIST       - RESISTIVITY TYPE
RMC .OHMM     0.25                 : RMC          - RESISTIVITY OF MUD CAKE
RMF .OHMM     0.25                 : RMF          - RESISTIVITY OF MUD FILTRATE
SUFT.C        15                   : SUFT         - SURFACE TEMPERATURE
~A  DEPTH     RESD     PHID     PHIN       GR      CAL
# ...
  416.500    6.570    0.279    0.381   87.067  202.459
  416.750    6.532    0.279    0.371   84.931  202.570
  417.000    6.532    0.264    0.386   83.712  202.685
  417.250    6.543    0.260    0.396   84.146  202.695
  417.500    6.543    0.264    0.397   89.111  202.908
  417.750    6.555    0.262    0.381   94.627  203.122
  418.000    6.567    0.261    0.390   92.123  203.540
  418.250    6.616    0.259    0.402   89.925  204.061
  418.500    6.678    0.258    0.414   90.054  204.378
  418.750    6.882    0.264    0.409   93.182  204.588
  419.000    7.490    0.278    0.422   93.004  204.803
  419.250    8.229    0.301    0.440   87.744  204.913
  419.500    8.806    0.306    0.371   82.792  204.823
  419.750    9.477    0.276    0.318   79.491  204.933
  420.000    9.803    0.236    0.284   84.028  205.149
  420.250    9.858    0.248    0.330   88.442  205.464
  420.500    8.904    0.305    0.381   90.590  205.680
  420.750    8.288    0.314    0.418   92.862  205.790
  421.000    7.642    0.300    0.424   96.419  205.902
  421.250    7.373    0.291    0.440   98.935  205.912
  421.500    7.276    0.284    0.459  101.022  206.025
  421.750    7.248    0.283    0.475  100.171  206.033
  422.000    7.220    0.283    0.480   96.932  205.841
  422.250    7.247    0.279    0.474   95.836  205.951
  422.500    7.273    0.282    0.461   98.843  205.858
  422.750    7.259    0.288    0.441  102.092  205.972
  423.000    7.245    0.293    0.433  103.201  205.980
  423.250    7.244    0.297    0.451   96.227  205.990
  423.500    7.230    0.310    0.461   92.437  205.798
  423.750    7.230    0.316    0.446   89.688  205.601
  424.000    7.216    0.318    0.429   94.225  205.509
  424.250    7.215    0.318    0.416   98.149  205.621
  424.500    7.174    0.316    0.428   99.011  205.735
  424.750    7.146    0.309    0.435   98.711  205.845
  425.000    7.119    0.298    0.443  100.310  205.754
  425.250    7.105    0.292    0.460  103.132  205.763
  425.500    7.131    0.293    0.447  104.974  205.773
  425.750    7.171    0.292    0.432  101.613  205.884
  426.000    7.266    0.290    0.422   97.088  205.895
  426.250    7.320    0.288    0.412   96.665  205.802
  426.500    7.347    0.285    0.418   98.141  205.712
  426.750    7.374    0.278    0.428   99.983  205.720
  427.000    7.388    0.280    0.419  101.336  205.322
  427.250    7.429    0.285    0.411  102.505  205.128
  427.500    7.499    0.293    0.402  106.246  204.730
  427.750    7.597    0.292    0.394  108.945  204.840
  428.000    7.611    0.288    0.405  104.849  204.749
  428.250    7.654    0.282    0.423  101.855  204.962
  428.500    7.682    0.292    0.437  102.045  204.973
  428.750    7.725    0.308    0.446  101.867  204.779
  429.000    7.768    0.317    0.448   97.833  204.789
  429.250    7.768    0.310    0.451   96.981  204.798
  429.500    7.767    0.303    0.453  103.967  205.014
  429.750    7.767    0.294    0.449  107.463  205.226
  430.000    7.781    0.281    0.439  105.937  205.033
  430.250    7.810    0.270    0.435  105.821  205.042
  430.500    7.809    0.269    0.438  107.480  205.051
  430.750    7.808    0.284    0.445  104.363  204.856
  431.000    7.882    0.294    0.449   94.757  205.070
  431.250    8.016    0.303    0.441   85.273  205.284
  431.500    8.183    0.289    0.428   81.238  205.294
  431.750    8.417    0.259    0.431   86.694  205.203
  432.000    8.576    0.217    0.445   85.475  205.212
  432.250    8.772    0.236    0.451   86.950  205.325
  432.500    8.788    0.268    0.455   88.486  205.435
  432.750    8.787    0.289    0.467   86.472  205.549
  433.000    8.704    0.289    0.481   82.865  205.558
  433.250    8.605    0.287    0.490   75.279  205.567
  433.500    8.508    0.293    0.451   66.653  205.475
  433.750    8.412    0.303    0.428   60.107  205.587
  434.000    8.364    0.309    0.411   54.725  205.601
  434.250    8.300    0.296    0.393   62.508  205.814
  434.500    8.253    0.285    0.381   67.166  205.924
  434.750    8.252    0.276    0.372   69.743  205.933
  435.000    8.298    0.279    0.368   68.218  205.840
  435.250    8.408    0.287    0.369   74.716  205.953
  435.500    8.535    0.300    0.389   79.435  205.963
  435.750    8.599    0.284    0.408   82.012  206.278
  436.000    8.647    0.265    0.403   81.590  206.187
  436.250    8.581    0.270    0.396   80.677  205.991
  436.500    8.436    0.293    0.407   76.091  205.491
  436.750    8.154    0.316    0.415   71.137  205.093
  437.000    7.897    0.333    0.426   65.878  204.695
  437.250    7.662    0.317    0.417   68.394  204.501
  437.500    7.448    0.285    0.395   74.829  204.408
  437.750    7.336    0.284    0.401   81.326  204.214
  438.000    7.294    0.285    0.421   88.371  204.122
  438.250    7.293    0.273    0.432   84.765  203.931
  438.500    7.293    0.266    0.442   92.608  203.735
  438.750    7.347    0.264    0.454   96.348  203.335
  439.000    7.388    0.266    0.420   98.374  202.936
  439.250    7.388    0.266    0.404   90.850  202.947
  439.500    7.387    0.268    0.404   91.897  202.957
  439.750    7.373    0.274    0.404   94.045  202.966
  440.000    7.344    0.295    0.425   85.235  203.078
  440.250    7.344    0.323    0.437   82.118  203.088
  440.500    7.343    0.364    0.444   85.430  203.200
  440.750    7.138    0.361    0.451   88.252  203.108
  441.000    7.137    0.358    0.445   85.809  202.915
  441.250    7.123    0.355    0.440   83.366  202.822
  441.500    7.109    0.353    0.447   80.617  202.528
  441.750    7.095    0.349    0.457   78.113  202.534
  442.000    7.108    0.345    0.433   81.915  202.342
  442.250    7.108    0.343    0.417   86.758  202.351
  442.500    7.148    0.348    0.417   90.069  202.258
  442.750    7.215    0.353    0.424   83.891  202.268
  443.000    7.296    0.338    0.418   81.938  202.279
  443.250    7.434    0.321    0.411   82.862  202.287
  443.500    7.589    0.311    0.422   84.522  202.299
  443.750    7.792    0.301    0.426   87.221  202.409
  444.000    7.999    0.290    0.418   91.636  202.523
  444.250    8.244    0.272    0.412   94.948  202.330
  444.500    8.431    0.261    0.403   96.545  202.239
  444.750    8.511    0.256    0.405   91.959  202.040
  445.000    8.558    0.260    0.410   87.740  202.157
  445.250    8.558    0.266    0.413   89.400  202.264
  445.500    8.493    0.277    0.417   93.018  202.377
  445.750    8.333    0.285    0.423   96.513  202.590
  446.000    8.101    0.286    0.440   86.908  202.803
  446.250    7.859    0.282    0.424   81.770  203.124
  446.500    7.654    0.276    0.412   79.755  203.133
  446.750    7.511    0.273    0.402   80.741  203.143
  447.000    7.482    0.271    0.392   81.850  203.254
  447.250    7.467    0.275    0.398   80.385  203.365
  447.500    7.467    0.286    0.409   73.596  203.272
  447.750    7.466    0.285    0.418   78.500  202.975
  448.000    7.466    0.266    0.435   83.158  202.578
  448.250    7.465    0.253    0.412   88.675  202.587
  448.500    7.422    0.242    0.402   94.131  202.698
  448.750    7.394    0.236    0.418   96.952  202.811
  449.000    7.351    0.246    0.425   99.774  203.025
  449.250    7.310    0.240    0.402  100.699  203.034
  449.500    7.268    0.233    0.386   98.990  203.249
  449.750    7.240    0.233    0.405   95.689  203.668
  450.000    7.308    0.248    0.425   91.900  203.985
  450.250    7.363    0.261    0.414   88.538  204.095
  450.500    7.474    0.274    0.400   84.626  204.207
  450.750    7.644    0.273    0.392   81.509  204.420
  451.000    7.731    0.261    0.414   80.903  204.735
  451.250    7.803    0.248    0.424   82.623  204.952
  451.500    7.817    0.249    0.436   86.241  205.267
  451.750    7.831    0.264    0.412   80.247  205.275
  452.000    7.845    0.274    0.398   74.559  205.694
  452.250    7.874    0.276    0.384   75.177  205.908
  452.500    7.889    0.265    0.389   78.061  205.917
  452.750    7.888    0.259    0.389   79.291  205.930
