~VERSION INFORMATION
 VERS.                 2.0:   CWLS LOG ASCII STANDARD -VERSION 2.0
 WRAP.                  NO:   ONE LINE PER DEPTH STEP
~WELL INFORMATION BLOCK
#MNEM.UNIT           DATA                    DESCRIPTION OF MNEMONIC
#---------    -------------------            -------------------------------
# Generated from Intellog Unique Number	CW_70_72/WELL/1036
NULL.         -999.25                        : NULL_VALUE
WELL.         JOFFRE ET AL CALLW 10-15       : Well_name    - WELL              
LOC .         10-15-071-20W4                 : Location     - LOCATION          
UWI .         00/10-15-071-20W4/0            : Uwi          - UNIQUE WELL ID    
ENTR.         JAYE                           : Entered      - ENTERED BY        
SRVC.         SCHLUMBERGER                   : Scn          - SERVICE COMPANY   
DATE.         13 JAN 79                      : Date         - LOG DATE          
STRT.M        315                            : top_depth    - START DEPTH       
STOP.M        500                            : bot_depth    - STOP DEPTH        
STEP.M        0.25                           : increment    - STEP LENGTH       
~CURVE INFORMATION BLOCK
#MNEM UNIT       ERCB CURVE CODE    CURVE DESCRIPTION
#-----------   ------------------   ----------------------------------
DEPT.M        00 001 00 00         : DEPTH        - DEPTH                       
DPHI.V/V      00 890 00 00         : PHID         - DENSITY POROSITY (SANDSTONE)
NPHI.V/V      00 330 00 00         : PHIN         - NEUTRON POROSITY (SANDSTONE)
GR  .API      00 310 00 00         : GR           - GAMMA RAY                   
CALI.MM       00 280 01 00         : CAL          - CALIPER                     
ILD .OHMM     00 120 00 00         : RESD         - DEEP RESISTIVITY (DIL)      
~PARAMETER INFORMATION       
#MNEM.UNIT           DATA             DESCRIPTION OF MNEMONIC
#---------         -----------     ------------------------------
GL  .M        584.3                : gl           - GROUND LEVEL ELEVATION      
EREF.M        587.6                : kb           - ELEVATION OF DEPTH REFERENCE
DATM.M        584.3                : datum        - DATUM ELEVATION             
TDD .M        530                  : tdd          - TOTAL DEPTH DRILLER         
RUN .         ONE                  : Run          - RUN NUMBER                  
ENG .         MOORE                : Engineer     - RECORDING ENGINEER          
WIT .         O'REILLY             : Witness      - WITNESSED BY                
BASE.         EDM                  : Branch       - HOME BASE OF LOGGING UNIT   
MUD .         FGM                  : Mud_type     - MUD TYPE                    
MATR.         SANDSTONE            : Logunit      - NEUTRON MATRIX              
TMAX.C        26                   : BHT          - MAXIMUM RECORDED TEMPERATURE
BHTD.M        531                  : BHTDEP       - MAXIMUM RECORDED TEMPERATURE
RMT .C        48.9                 : MDTP         - TEMPERATURE OF MUD          
MUDD.KG/M     1090                 : MWT          - MUD DENSITY                 
NEUT.         1                    : NEUTRON      - NEUTRON TYPE                
RESI.         0                    : RESIST       - RESISTIVITY TYPE            
RM  .OHMM     2.79                 : RM           - RESISTIVITY OF MUD          
RMC .OHMM     0                    : RMC          - RESISTIVITY OF MUD CAKE     
RMF .OHMM     4.18                 : RMF          - RESISTIVITY OF MUD FILTRATE 
SUFT.C        0                    : SUFT         - SURFACE TEMPERATURE         
~A  DEPTH     PHID     PHIN       GR      CAL     RESD
# ...
  461.000    0.143    0.394   98.888  181.177    6.383
  461.250    0.133    0.392  100.545  181.068    6.742
  461.500    0.122    0.406   98.263  180.547    7.323
  461.750    0.127    0.403   93.704  180.641    7.866
  462.000    0.134    0.376   89.822  180.735    8.063
  462.250    0.048    0.354   90.064  180.933    7.787
  462.500    0.028    0.330   95.229  180.824    7.492
  462.750    0.083    0.317   99.779  181.021    7.180
  463.000    0.114    0.350  102.483  181.629    6.908
  463.250    0.145    0.369  104.756  182.032    6.646
  463.500    0.148    0.384  107.705  182.126    6.502
  463.750    0.102    0.404  109.117  182.120    6.432
  464.000    0.149    0.388  104.126  182.113    6.472
  464.250    0.136    0.374   96.366  180.976    6.549
  464.500    0.102    0.353   96.177  180.146    6.688
  464.750    0.075    0.343   97.158  180.037    6.792
  465.000    0.081    0.373   97.092  179.619    6.872
  465.250    0.102    0.396   96.656  178.996    6.901
  465.500    0.140    0.410   94.867  178.682    6.880
  465.750    0.118    0.374   93.138  178.159    6.364
  466.000    0.087    0.362   92.703  178.358    5.703
  466.250    0.054    0.360   94.791  178.657    4.646
  466.500    0.119    0.366   98.172  178.958    3.771
  466.750    0.135    0.372  103.030  179.053    2.921
  467.000    0.150    0.399  107.518  178.123    2.647
  467.250    0.184    0.443  110.530  175.654    2.740
  467.500    0.192    0.476  113.294  172.568    3.124
  467.750    0.183    0.496  111.629  171.432    3.677
  468.000    0.171    0.468  103.499  173.578    4.734
  468.250    0.123    0.441   93.154  175.007    5.709
  468.500    0.054    0.406   83.425  176.128    6.872
  468.750    0.031    0.372   83.420  176.735    7.313
  469.000    0.058    0.346   91.602  176.728    7.235
  469.250    0.100    0.363   98.552  176.822    6.831
  469.500    0.115    0.393  104.149  177.020    5.810
  469.750    0.101    0.388  104.390  177.832    5.120
  470.000    0.082    0.380  102.293  178.955    5.065
  470.250    0.097    0.388  102.473  182.229    5.281
  470.500    0.129    0.403  102.961  184.171    6.101
  470.750    0.151    0.425  100.310  181.497    7.022
  471.000    0.099    0.430   93.781  185.387    7.430
  471.250    0.065    0.408   87.068  186.200    7.476
  471.500    0.017    0.362   87.248  178.396    7.300
  471.750   -0.004    0.314   93.952  174.798    6.567
  472.000    0.071    0.324  100.349  174.278    6.030
  472.250    0.099    0.365  102.621  175.808    5.877
  472.500    0.116    0.410   97.816  178.161    5.891
  472.750    0.135    0.406   93.257  179.692    5.927
  473.000    0.097    0.396   95.837  179.272    5.777
  473.250    0.047    0.380   98.726  178.752    5.404
  473.500    0.033    0.367  102.845  178.643    4.852
  473.750    0.105    0.375  107.456  178.636    4.573
  474.000    0.133    0.394  112.745  178.422    4.567
  474.250    0.123    0.406  109.724  178.005    4.621
  474.500    0.076    0.419  103.319  177.688    4.720
  474.750    0.078    0.444   99.745  177.682    4.802
  475.000    0.092    0.440   98.693  177.570    4.877
  475.250    0.084    0.429   98.073  177.665    4.907
  475.500    0.078    0.420  104.593  178.069    4.928
  475.750    0.081    0.421  105.820  178.062    4.967
  476.000    0.115    0.426  105.630  178.156    5.017
  476.250    0.137    0.430  104.272  178.456    5.076
  476.500    0.095    0.433   99.712  178.449    5.126
  476.750    0.055    0.425  101.492  179.262    5.186
  477.000   -0.000    0.404  106.904  181.305    5.160
  477.250    0.110    0.431  110.470  182.631    5.134
  477.500    0.097    0.445  112.496  182.214    5.156
  477.750    0.067    0.433  106.152  181.385    5.227
  478.000    0.052    0.414  106.332  179.839    5.348
  478.250    0.070    0.405  108.482  179.319    5.544
  478.500    0.135    0.438  110.939  184.235    5.726
  478.750    0.139    0.473  112.351  190.178    5.881
  479.000    0.124    0.456  115.300  190.375    6.062
  479.250    0.082    0.427  126.498  186.572    6.415
  479.500    0.019    0.364  149.821  178.665    6.814
  479.750    0.067    0.391  188.962  180.094    7.197
  480.000    0.077    0.436  206.560  190.857    7.644
  480.250    0.105    0.450  223.297  200.697    8.257
  480.500    0.174    0.337  231.663  199.767    8.919
  480.750    0.139    0.297  136.072  181.705    9.615
  481.000    0.092    0.309  130.897  163.232   10.464
  481.250    0.102    0.316   96.117  167.738   11.624
  481.500    0.121    0.321   66.692  174.193   12.768
  481.750    0.152    0.267   62.193  173.160   14.559
  482.000    0.208    0.186   59.728  170.587   17.201
  482.250    0.238    0.160   49.321  169.143   18.545
  482.500    0.261    0.146   37.191  168.621   14.969
  482.750    0.296    0.138   35.956  168.613   10.562
  483.000    0.302    0.173   48.200  168.709    8.685
  483.250    0.256    0.219   56.935  169.010    7.827
  483.500    0.230    0.354   66.040  169.412    7.488
  483.750    0.181    0.364   57.419  169.714    7.326
  484.000    0.199    0.330   53.413  169.706    7.357
  484.250    0.225    0.293   60.363  170.108    7.642
  484.500    0.255    0.384   71.069  170.508    7.936
  484.750    0.199    0.391   83.497  170.707    8.305
  485.000    0.133    0.375   89.463  170.702    8.545
  485.250    0.107    0.354   79.056  170.590    8.728
  485.500    0.123    0.332   70.127  170.584    8.880
  485.750    0.107    0.304   71.907  170.679    8.851
  486.000    0.102    0.291   77.504  170.671    8.709
  486.250    0.089    0.285   82.546  170.971    8.457
  486.500    0.060    0.284   82.049  171.169    8.274
  486.750    0.049    0.288   83.583  171.468    8.125
  487.000    0.094    0.277   88.996  171.769    8.068
  487.250    0.091    0.283  104.625  172.171    8.013
  487.500    0.063    0.296  123.023  173.600    7.928
  487.750    0.043    0.344  124.619  175.131    7.903
  488.000    0.015    0.361  122.152  175.124    7.877
  488.250    0.147    0.354  115.439  174.090    7.852
  488.500    0.201    0.344  104.356  172.543    7.812
  488.750    0.219    0.344   91.179  171.819    7.773
  489.000    0.182    0.340   85.266  172.221    7.734
  489.250    0.149    0.323   70.428  173.239    7.680
  489.500    0.248    0.301   63.961  173.436    7.598
  489.750    0.285    0.288   65.187  173.428    7.420
  490.000    0.282    0.298   68.629  173.422    7.396
  490.250    0.255    0.306   72.687  173.002    8.738
  490.500    0.210    0.299   72.375  172.685   11.042
  490.750    0.224    0.290   74.155  172.475   12.243
  491.000    0.274    0.274   78.644  172.467   12.000
  491.250    0.294    0.240   80.301  172.460   11.719
  491.500    0.313    0.248   75.064  172.657   11.923
  491.750    0.312    0.271   70.567  172.956   12.223
  492.000    0.294    0.291   66.931  173.152   12.672
  492.250    0.260    0.327   63.418  173.148   13.112
  492.500    0.046    0.338   57.628  172.831   13.543
  492.750    0.012    0.293   59.531  173.132   13.908
  493.000    0.023    0.271   62.481  173.535   14.230
  493.250    0.046    0.268   69.124  176.297   14.974
  493.500    0.023    0.291   69.673  177.111   15.611
  493.750    0.002    0.312   60.559  175.154   16.427
  494.000    0.064    0.340   55.816  173.299   17.223
  494.250    0.134    0.365   51.133  172.266   17.007
  494.500    0.180    0.395   48.728  171.128   16.422
  494.750    0.237    0.388   48.231  170.507   15.277
  495.000    0.211    0.365   48.165  169.987   14.344
  495.250    0.202    0.339   51.238  169.364   13.595
  495.500    0.129    0.314   55.234  168.534   12.957
  495.750    0.119    0.279   53.014  168.220   13.110
  496.000   -0.009    0.265   47.716  168.109   14.004
  496.250    0.036    0.257   49.804  167.897   15.526
  496.500    0.099    0.288   57.370  167.889   17.871
  496.750    0.131    0.325   50.779  167.676   20.149
  497.000    0.109    0.324   42.096  167.565   24.256
  497.250    0.040    0.296   34.644  167.661   26.102
