~VERSION INFORMATION
 VERS.                 2.0:   CWLS LOG ASCII STANDARD -VERSION 2.0
 WRAP.                  NO:   ONE LINE PER DEPTH STEP
~WELL INFORMATION BLOCK
#MNEM.UNIT           DATA                    DESCRIPTION OF MNEMONIC
#---------    -------------------            -------------------------------
# Generated from Intellog Unique Number	CC_80_83/WELL/2410
NULL.         -999.25                        : NULL_VALUE
WELL.         NOVALTA NEWBY                  : Well_name    - WELL
LOC .         11-27-081-04W4                 : Location     - LOCATION          
UWI .         00/11-27-081-04W400            : Uwi          - UNIQUE WELL ID    
ENTR.         DW                             : Entered      - ENTERED BY        
SRVC.         SCHLUMBERGER                   : Scn          - SERVICE COMPANY   
DATE.         25 JAN 83                      : Date         - LOG DATE
STRT.M        95                             : top_depth    - START DEPTH       
STOP.M        265.101                        : bot_depth    - STOP DEPTH        
STEP.M        0.3                            : increment    - STEP LENGTH       
~CURVE INFORMATION BLOCK
#MNEM UNIT       ERCB CURVE CODE    CURVE DESCRIPTION
#-----------   ------------------   ----------------------------------
DEPT.M        00 001 00 00         : DEPTH        - DEPTH                       
DPHI.V/V      00 890 00 00         : PHID         - DENSITY POROSITY (LIMESTONE)
NPHI.V/V      00 330 00 00         : PHIN         - NEUTRON POROSITY (LIMESTONE)
GR  .API      00 310 00 00         : GR           - GAMMA RAY                   
ILD .OHMM     00 120 00 00         : RESD         - DEEP RESISTIVITY (DIL)      
~PARAMETER INFORMATION       
#MNEM.UNIT           DATA             DESCRIPTION OF MNEMONIC
#---------         -----------     ------------------------------
GL  .M        464.62               : gl           - GROUND LEVEL ELEVATION      
EREF.M        468.27               : kb           - ELEVATION OF DEPTH REFERENCE
DATM.M        468.27               : datum        - DATUM ELEVATION             
TDD .M        285                  : tdd          - TOTAL DEPTH DRILLER         
RUN .         ONE                  : Run          - RUN NUMBER                  
ENG .         BILL                 : Engineer     - RECORDING ENGINEER          
WIT .         JIM                  : Witness      - WITNESSED BY                
MUD .         GEL                  : Mud_type     - MUD TYPE                    
MATR.         LIMESTONE            : Logunit      - NEUTRON MATRIX              
TMAX.C        23                   : BHT          - MAXIMUM RECORDED TEMPERATURE
BHTD.M        285                  : BHTDEP       - MAXIMUM RECORDED TEMPERATURE
MATR.         1                    : LOGUNIT      - NEUTRON MATRIX              
RMT .C        25                   : MDTP         - TEMPERATURE OF MUD          
NEUT.         1                    : NEUTRON      - NEUTRON TYPE                
RESI.         0                    : RESIST       - RESISTIVITY TYPE            
RMC .OHMM     0.25                 : RMC          - RESISTIVITY OF MUD CAKE     
RMF .OHMM     0.25                 : RMF          - RESISTIVITY OF MUD FILTRATE 
SUFT.C        15                   : SUFT         - SURFACE TEMPERATURE         
~A  DEPTH     PHID     PHIN       GR     RESD
# ...
  199.401    0.329    0.400   71.102    3.776
  199.701    0.330    0.387   74.108    4.069
  200.001    0.323    0.395   78.325    4.725
  200.301    0.311    0.405   79.518    5.698
  200.601    0.315    0.395   77.661    6.871
  200.901    0.348    0.275   72.785    9.626
  201.201    0.343    0.125   54.544   16.268
  201.501    0.336    0.105   40.556   23.223
  201.801    0.341    0.120   35.064   28.530
  202.101    0.335    0.133   37.459   29.063
  202.401    0.330    0.116   44.114   27.976
  202.701    0.341    0.086   56.835   26.939
  203.001    0.350    0.077   59.838   25.456
  203.301    0.350    0.098   50.710   23.169
  203.601    0.342    0.117   47.039   19.933
  203.901    0.352    0.110   45.798   16.831
  204.201    0.356    0.105   41.520   14.212
  204.501    0.348    0.120   39.056   10.136
  204.801    0.349    0.149   40.855    5.665
  205.101    0.346    0.199   44.472    2.829
  205.401    0.337    0.283   43.836    2.018
  205.701    0.320    0.344   38.340    1.802
  206.001    0.311    0.361   37.708    1.580
  206.301    0.308    0.363   39.495    1.550
  206.601    0.300    0.360   39.470    1.550
  206.901    0.287    0.324   40.048    1.669
  207.201    0.271    0.308   43.059    1.733
  207.501    0.280    0.331   50.927    1.765
  207.801    0.279    0.327   61.827    1.764
  208.101    0.279    0.336   57.550    1.667
  208.401    0.295    0.368   61.764    1.605
  208.701    0.297    0.378   62.956    1.635
  209.001    0.288    0.365   62.313    1.665
  209.301    0.280    0.346   58.045    1.664
  209.601    0.280    0.353   46.485    1.602
  209.901    0.293    0.358   45.242    1.543
  210.201    0.304    0.363   45.209    1.485
  210.501    0.309    0.372   41.541    1.513
  210.801    0.309    0.357   38.484    1.541
  211.101    0.300    0.349   36.027    1.661
  211.401    0.266    0.350   42.066    1.756
  211.701    0.276    0.354   46.892    1.691
  212.001    0.283    0.350   46.258    1.597
  212.301    0.286    0.360   44.412    1.454
  212.601    0.297    0.370   47.418    1.374
  212.901    0.307    0.374   45.572    1.373
  213.201    0.301    0.370   36.435    1.373
  213.501    0.296    0.337   33.377    1.425
  213.801    0.286    0.327   35.774    1.506
  214.101    0.276    0.360   46.677    1.535
  214.401    0.289    0.390   50.896    1.534
  214.701    0.308    0.381   39.942    1.562
  215.001    0.308    0.348   36.272    1.622
  215.301    0.283    0.344   37.462    1.780
  215.601    0.252    0.370   45.323    1.746
  215.901    0.236    0.405   57.437    1.713
  216.201    0.299    0.431   62.266    1.649
  216.501    0.318    0.382   58.597    1.588
  216.801    0.312    0.355   37.321    1.529
  217.101    0.270    0.376   47.008    1.472
  217.401    0.275    0.404   55.478    1.418
  217.701    0.309    0.388   48.166    1.365
  218.001    0.309    0.351   43.886    1.314
  218.301    0.306    0.353   43.255    1.289
  218.601    0.323    0.360   38.976    1.313
  218.901    0.326    0.354   37.731    1.363
  219.201    0.282    0.383   42.565    1.496
  219.501    0.254    0.424   70.462    1.496
  219.801    0.279    0.452   75.287    1.467
  220.101    0.314    0.425   55.837    1.494
  220.401    0.319    0.324   34.561    1.672
  220.701    0.296    0.324   35.139    1.942
  221.001    0.251    0.352   53.933    2.477
  221.301    0.224    0.403   81.220    2.385
  221.601    0.217    0.440   86.045    2.130
  221.901    0.234    0.474   86.630    1.939
  222.201    0.278    0.480   62.928    2.012
  222.501    0.285    0.397   57.436    2.128
  222.801    0.267    0.380   62.871    2.087
  223.101    0.201    0.408   74.986    1.796
  223.401    0.265    0.461   88.918    1.545
  223.701    0.300    0.455   73.717    1.329
  224.001    0.329    0.349   41.514    1.233
  224.301    0.327    0.351   32.375    1.187
  224.601    0.332    0.361   29.310    1.164
  224.901    0.350    0.371   31.103    1.164
  225.201    0.354    0.383   32.898    1.163
  225.501    0.350    0.374   32.264    1.163
  225.801    0.343    0.383   34.060    1.141
  226.101    0.337    0.392   38.876    1.162
  226.401    0.340    0.394   40.076    1.229
  226.701    0.342    0.379   39.444    1.375
  227.001    0.331    0.373   36.382    1.538
  227.301    0.253    0.441   47.279    1.566
  227.601    0.263    0.457   66.068    1.508
  227.901    0.311    0.398   47.225    1.399
  228.201    0.335    0.377   39.306    1.322
  228.501    0.335    0.368   33.814    1.249
  228.801    0.326    0.358   33.174    1.202
  229.101    0.327    0.369   34.968    1.136
  229.401    0.317    0.371   34.333    1.115
  229.701    0.329    0.376   34.309    1.093
  230.001    0.334    0.388   33.069    1.093
  230.301    0.332    0.388   33.035    1.134
  230.601    0.326    0.379   33.014    1.269
  230.901    0.319    0.353   36.020    1.474
  231.201    0.296    0.326   44.492    1.501
  231.501    0.259    0.354   55.997    1.473
  231.801    0.287    0.366   54.752    1.366
  232.101    0.336    0.346   46.229    1.243
  232.401    0.347    0.340   33.454    1.175
  232.701    0.347    0.377   29.781    1.110
  233.001    0.334    0.396   32.787    1.109
  233.301    0.326    0.401   34.586    1.130
  233.601    0.325    0.396   35.161    1.218
  233.901    0.316    0.374   40.601    1.706
  234.201    0.302    0.350   51.499    1.873
  234.501    0.262    0.402   74.540    1.872
  234.801    0.267    0.428   79.368    1.769
  235.101    0.283    0.424   65.986    1.494
  235.401    0.328    0.412   42.280    1.261
  235.701    0.341    0.360   36.790    1.237
  236.001    0.334    0.348   42.222    1.237
  236.301    0.298    0.382   51.301    1.358
  236.601    0.265    0.407   59.166    1.607
  236.901    0.264    0.415   62.785    1.832
  237.201    0.266    0.398   65.785    1.901
  237.501    0.275    0.417   63.943    1.865
  237.801    0.269    0.358   56.629    1.795
  238.101    0.264    0.353   53.565    1.729
  238.401    0.290    0.371   57.783    1.664
  238.701    0.307    0.379   59.578    1.573
  239.001    0.297    0.398   60.155    1.303
  239.301    0.315    0.385   56.489    1.255
  239.601    0.328    0.363   49.785    1.231
  239.901    0.331    0.379   44.294    1.208
  240.201    0.330    0.383   43.662    1.207
  240.501    0.319    0.388   47.272    1.230
  240.801    0.325    0.390   47.848    1.206
  241.101    0.330    0.377   42.966    1.183
  241.401    0.330    0.377   43.550    1.183
  241.701    0.327    0.362   43.518    1.205
  242.001    0.323    0.361   42.276    1.204
  242.301    0.326    0.373   43.468    1.204
  242.602    0.331    0.379   44.653    1.226
  242.902    0.334    0.382   43.407    1.297
  243.202    0.336    0.376   43.383    1.371
  243.502    0.330    0.361   46.388    1.478
  243.802    0.296    0.363   51.218    1.562
  244.102    0.260    0.367   59.691    1.562
  244.402    0.236    0.392   69.982    1.422
  244.702    0.277    0.429   69.954    1.318
  245.002    0.335    0.403   47.466    1.343
  245.302    0.346    0.371   43.795    1.502
  245.602    0.292    0.392   49.234    1.649
  245.902    0.248    0.423   60.737    1.845
  246.202    0.258    0.408   68.601    2.064
  246.502    0.255    0.380   69.790    2.063
  246.802    0.241    0.367   69.152    1.913
  247.102    0.256    0.395   74.585    1.471
  247.402    0.318    0.436   72.136    1.265
  247.702    0.337    0.441   49.648    1.174
  248.002    0.365    0.417   36.867    1.068
  248.302    0.373    0.402   35.627    1.068
  248.602    0.368    0.410   37.416    1.129
  248.902    0.362    0.416   38.607    1.216
  249.202    0.349    0.415   42.830    1.311
  249.502    0.325    0.403   48.870    1.466
  249.802    0.271    0.389   54.310    1.610
  250.102    0.259    0.365   62.778    1.978
  250.402    0.242    0.364   67.608    2.172
  250.702    0.226    0.379   72.431    2.212
  251.002    0.230    0.398   72.406    2.170
  251.302    0.254    0.408   70.553    2.050
