~VERSION INFORMATION
 VERS.                 2.0:   CWLS LOG ASCII STANDARD -VERSION 2.0
 WRAP.                  NO:   ONE LINE PER DEPTH STEP
~WELL INFORMATION BLOCK
#MNEM.UNIT           DATA                    DESCRIPTION OF MNEMONIC
#---------    -------------------            -------------------------------
# Generated from Intellog Unique Number	CN_91_93/WELL/1164
WELL.         PARAMOUNT RESOURCES LTD.       : Well_name    - WELL
LOC .         00/11-03-091-20W4/0            : Location     - LOCATION
UWI .         00/11-03-091-20W4/0            : Uwi          - UNIQUE WELL ID
ENTR.         JOETTE                         : Entered      - ENTERED BY
SRVC.         SCHLUMBERGER                   : Scn          - SERVICE COMPANY
DATE.         01/15/92                       : Date         - LOG DATE
STRT.F        262.467                        : top_depth    - START DEPTH
STOP.F        738.189                        : bot_depth    - STOP DEPTH
STEP.F        0.82                           : increment    - STEP LENGTH
 NULL. -999.2500:NULL Value
~CURVE INFORMATION BLOCK
#MNEM UNIT       ERCB CURVE CODE    CURVE DESCRIPTION
#-----------   ------------------   ----------------------------------
DEPT.F        00 001 00 00         : DEPTH        - DEPTH
ILD .OHMM     00 120 00 00         : RESD         - DEEP RESISTIVITY (DIL)
DPHI.V/V      00 890 00 00         : PHID         - DENSITY POROSITY (SANDSTONE)
NPHI.V/V      00 330 00 00         : PHIN         - NEUTRON POROSITY (SANDSTONE)
CALI.IN       00 280 01 00         : CAL          - CALIPER
GR  .API      00 310 00 00         : GR           - GAMMA RAY
~PARAMETER INFORMATION
#MNEM.UNIT           DATA             DESCRIPTION OF MNEMONIC
#---------         -----------     ------------------------------
GL  .F        1635.5               : gl           - GROUND LEVEL ELEVATION
EREF.F        1647.97              : kb           - ELEVATION OF DEPTH REFERENCE
DATM.F        1647.97              : datum        - DATUM ELEVATION
TDD .F        738.189              : tdd          - TOTAL DEPTH DRILLER
RUN .         ONE                  : Run          - RUN NUMBER
ENG .         BILL                 : Engineer     - RECORDING ENGINEER
WIT .         JIM                  : Witness      - WITNESSED BY
MUD .         GEL                  : Mud_type     - MUD TYPE
MATR.         SANDSTONE            : Logunit      - NEUTRON MATRIX
TMAX.F        77                   : BHT          - MAXIMUM RECORDED TEMPERATURE
BHTD.F        738.189              : BHTDEP       - MAXIMUM RECORDED TEMPERATURE
RMT .F        47                   : MDTP         - TEMPERATURE OF MUD
MUDD.LB/G     9.16666              : MWT          - MUD DENSITY
NEUT.         1                    : NEUTRON      - NEUTRON TYPE
RESI.         0                    : RESIST       - RESISTIVITY TYPE
RM  .OHMM     7.42                 : RM           - RESISTIVITY OF MUD
RMC .OHMM     4.8                  : RMC          - RESISTIVITY OF MUD CAKE
RMF .OHMM     5                    : RMF          - RESISTIVITY OF MUD FILTRATE
SUFT.F        39.2                 : SUFT         - SURFACE TEMPERATURE
~A  DEPTH     RESD     PHID     PHIN      CAL       GR
# ...
  621.719   13.767    0.100    0.391    6.383  107.883
  622.539   13.801    0.147    0.393    6.387  101.761
  623.360   12.957    0.167    0.394    6.370   97.802
  624.180   12.286    0.170    0.391    6.353  102.492
  625.000   12.086    0.166    0.389    6.316  108.124
  625.820   12.113    0.150    0.388    6.300  109.107
  626.640   12.253    0.116    0.389    6.284  108.237
  627.461   12.394    0.053    0.390    6.287  106.124
  628.281   12.538    0.025    0.387    6.291  101.231
  629.101   12.331    0.138    0.384    6.295   96.969
  629.921   11.691    0.170    0.392    6.320   93.930
  630.741   11.293    0.185    0.414    6.343   98.620
  631.562   11.213    0.181    0.421    6.428  103.943
  632.382   11.232    0.160    0.414    6.452  107.397
  633.202   11.365    0.086    0.390    6.415  107.454
  634.022   11.396    0.044    0.379    6.358   93.904
  634.843   11.421    0.077    0.378    6.301   87.171
  635.663   11.334    0.157    0.380    6.325   85.058
  636.483   11.362    0.167    0.388    6.389   98.104
  637.303   12.149    0.164    0.388    6.454  100.934
  638.123   13.241    0.114    0.382    6.498  110.265
  638.944   15.983    0.095    0.385    6.523  113.411
  639.764   13.675    0.126    0.384    6.405  109.142
  640.584   11.700    0.082    0.383    6.408  111.979
  641.404   10.590    0.139    0.396    6.533  111.418
  642.224   10.036    0.164    0.399    6.436  103.134
  643.045    9.081    0.184    0.395    6.480  101.962
  643.865    8.371    0.188    0.388    6.525  105.718
  644.685    9.466    0.182    0.389    6.508  110.107
  645.505   10.320    0.172    0.390    6.411  114.179
  646.325   10.320    0.181    0.388    6.313  117.332
  647.146   10.471    0.195    0.385    6.377  116.455
  647.966   10.471    0.194    0.378    6.377  114.363
  648.786   10.612    0.125    0.361    6.428  115.642
  649.606   10.826    0.003    0.348    6.410  113.845
  650.427   11.054    0.101    0.316    6.331  104.325
  651.247   12.273    0.163    0.316    6.376   97.269
  652.067   13.126    0.177    0.329    6.461  101.966
  652.887   14.851    0.178    0.339    6.484  109.128
  653.707   14.341    0.168    0.370    6.489  115.679
  654.528   13.586    0.168    0.375    6.532  118.825
  655.348   12.528    0.179    0.381    6.578  118.882
  656.168   10.620    0.187    0.385    6.601  121.108
  656.988   10.255    0.191    0.398    6.626  126.107
  657.808   10.476    0.196    0.421    6.670  128.024
  658.629   10.499    0.187    0.428    6.714  126.536
  659.449   10.420    0.135    0.421    6.637  129.071
  660.269    9.431    0.069    0.412    6.499  129.732
  661.089    8.692    0.080    0.400    6.340  123.610
  661.909    8.553    0.140    0.383    6.324  112.229
  662.730    8.652    0.188    0.379    6.449  110.432
  663.550    9.165    0.186    0.392    6.513  120.073
  664.370    9.994    0.184    0.406    6.517  123.843
  665.190   10.104    0.188    0.400    6.517  126.062
  666.010    9.940    0.184    0.391    6.445  129.222
  666.831    9.166    0.159    0.398    6.406  128.956
  667.651    8.531    0.161    0.405    6.349  119.120
  668.471    8.231    0.175    0.409    6.373  114.550
  669.291    7.732    0.187    0.412    6.418  117.085
  670.112    7.534    0.187    0.416    6.442  120.532
  670.932    7.916    0.173    0.414    6.507  119.978
  671.752    8.229    0.128    0.375    6.531  121.572
  672.572    8.722    0.054    0.339    6.514  117.613
  673.392    8.903    0.057    0.337    6.416  107.159
  674.213    9.177    0.170    0.343    6.339  107.525
  675.033    9.815    0.174    0.345    6.404  114.385
  675.853   10.800    0.221    0.351    6.468  116.295
  676.673   11.441    0.263    0.358    6.533  110.180
  677.493   12.127    0.276    0.357    6.414  100.028
  678.314   12.728    0.287    0.331    6.317   83.704
  679.134   13.743    0.302    0.359    6.301   70.470
  679.954   14.974    0.302    0.391    6.285   60.016
  680.774   16.933    0.274    0.409    6.287   52.975
  681.594   22.849    0.255    0.421    6.332   49.942
  682.415   32.298    0.258    0.428    6.356   47.829
  683.235   39.729    0.257    0.427    6.360   49.121
  684.055   42.887    0.245    0.416    6.360   51.965
  684.875   41.403    0.235    0.418    6.350   52.949
  685.696   36.099    0.234    0.416    6.331   54.543
  686.516   28.950    0.233    0.416    6.331   59.549
  687.336   26.688    0.231    0.415    6.319   66.100
  688.156   25.526    0.226    0.412    6.302   61.825
  688.976   23.313    0.218    0.407    6.302   59.101
  689.797   20.907    0.226    0.400    6.311   59.165
  690.617   19.447    0.241    0.390    6.333   65.400
  691.437   17.597    0.252    0.376    6.378   64.537
  692.257   16.373    0.258    0.374    6.401   61.504
  693.077   16.409    0.264    0.376    6.401   57.538
  693.898   17.550    0.267    0.386    6.410   52.953
  694.718   21.980    0.253    0.397    6.433   56.106
  695.538   37.076    0.238    0.394    6.437   59.568
  696.358   51.444    0.236    0.387    6.463   60.860
  697.178   57.118    0.238    0.376    6.464   62.469
  697.999   57.794    0.238    0.373    6.468   65.600
  698.819   54.276    0.226    0.369    6.472   70.607
  699.639   48.646    0.205    0.379    6.475   74.378
  700.459   40.856    0.190    0.390    6.479   80.922
  701.280   32.765    0.185    0.396    6.483   87.775
  702.100   27.518    0.175    0.380    6.547  119.671
  702.920   16.698    0.193    0.366    6.612  118.492
  703.740   14.155    0.206    0.362    6.576  112.672
  704.560   10.536    0.204    0.359    6.417  105.006
  705.381   10.857    0.148    0.357    6.380   98.884
  706.201   12.055    0.163    0.352    6.445   97.087
  707.021   13.385    0.258    0.349    6.468   82.308
  707.841   15.140    0.270    0.347    6.492   74.333
  708.661   16.339    0.283    0.343    6.476   71.911
  709.482   19.723    0.290    0.345    6.420   70.423
  710.302   20.899    0.270    0.357    6.382   66.471
  711.122   22.983    0.266    0.371    6.386   65.291
  711.942   28.527    0.269    0.379    6.410   66.268
  712.762   36.757    0.272    0.382    6.454   66.956
  713.583   42.752    0.273    0.369    6.479   66.079
  714.403   45.724    0.269    0.365    6.463   65.511
  715.223   47.546    0.271    0.373    6.405   67.428
  716.043   48.557    0.269    0.379    6.348   70.567
  716.864   48.651    0.256    0.382    6.331   74.344
  717.684   55.559    0.251    0.390    6.335   71.923
  718.504   55.167    0.247    0.398    6.339   71.993
  719.324   54.777    0.250    0.400    6.343   73.272
  720.144   53.873    0.259    0.398    6.343   70.246
  720.965   49.217    0.261    0.391    6.350   69.369
  721.785   46.639    0.250    0.382    6.354   69.432
  722.605   46.755    0.238    0.388    6.357   71.960
  723.425   43.909    0.231    0.398    6.382   72.333
  724.245   41.998    0.238    0.407    6.405   70.838
  725.066   42.090    0.262    0.414    6.591   70.585
  725.886   42.600    0.282    0.414    6.636   70.326
  726.706   43.069    0.283    0.418    6.680   70.383
  727.526   44.797    0.257    0.423    6.684   71.991
  728.346   45.751    0.239    0.427    6.668   53.814
  729.167   46.711    0.167    0.402    6.651   53.555
  729.987   47.692    0.109    0.385    6.635   59.179
  730.807   47.797    0.170    0.376    6.598   66.657
  731.627   46.155    0.191    0.365    6.500   68.890
  732.448   46.257    0.191    0.377    6.383   67.388
  733.268   47.682    0.213    0.386    6.386   62.818
  734.088   47.800    0.225    0.378    6.390   60.389
  734.908   46.998    0.233    0.374    6.394   57.054
  735.728   44.977    0.245    0.388    6.418   53.397
  736.549   34.106    0.249    0.403    6.421   52.526
  737.369   35.157    0.250    0.449    6.425   52.583
  738.189   39.388    0.249    0.444    6.429   61.304
