~VERSION INFORMATION
 VERS.                 2.0:   CWLS LOG ASCII STANDARD -VERSION 2.0
 WRAP.                  NO:   ONE LINE PER DEPTH STEP
~WELL INFORMATION BLOCK
#MNEM.UNIT           DATA                    DESCRIPTION OF MNEMONIC
#---------    -------------------            -------------------------------
# Generated from Intellog Unique Number	CS_71_72/WELL/879
WELL.         SUN OIL COMPANY                : Well_name    - WELL
LOC .         00/10-33-071-18W4/0            : Location     - LOCATION
UWI .         00/10-33-071-18W4/0            : Uwi          - UNIQUE WELL ID
ENTR.         SP                             : Entered      - ENTERED BY
SRVC.         SCHLUMBERGER                   : Scn          - SERVICE COMPANY
STRT.M        298.704                        : top_depth    - START DEPTH
STOP.M        487.454                        : bot_depth    - STOP DEPTH
STEP.M        0.25                           : increment    - STEP LENGTH
 NULL. -999.2500:NULL Value
~CURVE INFORMATION BLOCK
#MNEM UNIT       ERCB CURVE CODE    CURVE DESCRIPTION
#-----------   ------------------   ----------------------------------
DEPT.M        00 001 00 00         : DEPTH        - DEPTH
GR  .API      00 310 00 00         : GR           - GAMMA RAY
DPHI.V/V      00 890 00 00         : PHID         - DENSITY POROSITY (SANDSTONE)
NPHI.V/V      00 330 00 00         : PHIN         - NEUTRON POROSITY (SANDSTONE)
ILD .OHMM     00 120 00 00         : RESD         - DEEP RESISTIVITY (DIL)
~PARAMETER INFORMATION
#MNEM.UNIT           DATA             DESCRIPTION OF MNEMONIC
#---------         -----------     ------------------------------
GL  .M        592.684              : gl           - GROUND LEVEL ELEVATION
EREF.M        595.579              : kb           - ELEVATION OF DEPTH REFERENCE
DATM.M        592.684              : datum        - DATUM ELEVATION
TDD .M        489.814              : tdd          - TOTAL DEPTH DRILLER
RUN .         ONE                  : Run          - RUN NUMBER
ENG .         BILL                 : Engineer     - RECORDING ENGINEER
WIT .         JIM                  : Witness      - WITNESSED BY
MUD .         GEL                  : Mud_type     - MUD TYPE
MATR.         SANDSTONE            : Logunit      - NEUTRON MATRIX
TMAX.C        12.2222              : BHT          - MAXIMUM RECORDED TEMPERATURE
BHTD.M        489.814              : BHTDEP       - MAXIMUM RECORDED TEMPERATURE
MATR.         1                    : LOGUNIT      - NEUTRON MATRIX
RMT .C        25                   : MDTP         - TEMPERATURE OF MUD
NEUT.         1                    : NEUTRON      - NEUTRON TYPE
RESI.         0                    : RESIST       - RESISTIVITY TYPE
RMC .OHMM     0.25                 : RMC          - RESISTIVITY OF MUD CAKE
RMF .OHMM     0.25                 : RMF          - RESISTIVITY OF MUD FILTRATE
SUFT.C        15                   : SUFT         - SURFACE TEMPERATURE
~A  DEPTH       GR     PHID     PHIN     RESD
# ...
  385.704   69.014    0.309    0.452    3.513
  385.954   67.589    0.301    0.446    3.536
  386.204   69.307    0.304    0.448    3.569
  386.454   69.773    0.301    0.452    3.569
  386.704   68.112    0.314    0.459    3.615
  386.954   67.071    0.301    0.453    3.682
  387.204   66.688    0.301    0.450    3.735
  387.454   65.457    0.312    0.456    3.826
  387.704   63.054    0.299    0.447    3.868
  387.954   61.815    0.272    0.435    3.783
  388.204   62.816    0.258    0.431    3.711
  388.454   66.656    0.307    0.443    3.641
  388.704   70.949    0.325    0.453    3.599
  388.954   74.320    0.327    0.453    3.526
  389.204   75.724    0.334    0.454    3.408
  389.454   76.031    0.338    0.454    3.391
  389.704   76.472    0.332    0.455    3.400
  389.954   76.853    0.326    0.455    3.432
  390.204   77.245    0.319    0.457    3.459
  390.454   77.545    0.308    0.463    3.492
  390.704   77.948    0.298    0.463    3.575
  390.954   78.895    0.291    0.458    3.692
  391.204   78.038    0.283    0.463    3.805
  391.454   73.119    0.249    0.472    4.005
  391.704   70.454    0.216    0.464    4.178
  391.954   70.034    0.192    0.453    4.332
  392.204   74.379    0.259    0.449    4.380
  392.454   79.191    0.287    0.444    4.379
  392.704   80.362    0.277    0.445    4.225
  392.954   78.004    0.266    0.444    4.030
  393.204   75.408    0.272    0.463    3.841
  393.454   78.050    0.306    0.477    3.686
  393.704   80.927    0.302    0.479    3.633
  393.954   79.869    0.290    0.480    3.643
  394.204   79.127    0.289    0.474    3.660
  394.454   78.386    0.293    0.464    3.687
  394.704   77.456    0.297    0.461    3.695
  394.954   76.095    0.296    0.458    3.699
  395.204   75.082    0.291    0.456    3.693
  395.454   74.288    0.302    0.457    3.693
  395.704   73.028    0.298    0.470    3.520
  395.954   71.960    0.295    0.471    3.546
  396.204   72.322    0.293    0.457    3.548
  396.454   72.059    0.307    0.449    3.546
  396.704   70.855    0.314    0.452    3.565
  396.954   69.866    0.309    0.464    3.600
  397.204   70.087    0.324    0.473    3.638
  397.454   71.415    0.323    0.462    3.667
  397.704   72.977    0.311    0.464    3.688
  397.954   74.549    0.308    0.465    3.653
  398.204   75.470    0.314    0.460    3.625
  398.454   75.362    0.320    0.461    3.601
  398.704   74.859    0.314    0.462    3.595
  398.954   73.163    0.307    0.449    3.615
  399.204   71.852    0.295    0.441    3.555
  399.454   70.928    0.292    0.433    3.536
  399.704   72.795    0.305    0.433    3.517
  399.954   73.759    0.317    0.434    3.540
  400.204   73.920    0.316    0.428    3.581
  400.454   73.650    0.311    0.431    3.640
  400.704   72.547    0.311    0.472    3.721
  400.954   71.314    0.311    0.486    3.768
  401.204   70.102    0.315    0.471    3.783
  401.454   70.531    0.322    0.452    3.733
  401.704   73.365    0.329    0.445    3.602
  401.954   78.135    0.334    0.443    3.513
  402.204   79.260    0.327    0.444    3.444
  402.454   78.999    0.321    0.436    3.444
  402.704   79.777    0.315    0.430    3.498
  402.954   81.739    0.313    0.430    3.557
  403.204   83.223    0.311    0.440    3.679
  403.454   84.582    0.313    0.447    3.809
  403.704   84.442    0.306    0.439    4.010
  403.954   83.667    0.301    0.449    4.210
  404.204   82.066    0.296    0.471    4.326
  404.454   80.090    0.292    0.463    4.354
  404.704   79.450    0.291    0.453    4.300
  404.954   79.081    0.297    0.447    4.195
  405.204   78.545    0.302    0.440    4.060
  405.454   77.878    0.308    0.436    3.955
  405.704   76.855    0.317    0.432    3.854
  405.954   76.288    0.298    0.441    3.758
  406.204   74.772    0.302    0.440    3.687
  406.454   73.807    0.310    0.439    3.640
  406.704   74.339    0.321    0.438    3.619
  406.954   78.567    0.322    0.440    3.576
  407.204   81.347    0.315    0.450    3.546
  407.454   82.673    0.305    0.462    3.521
  407.704   82.240    0.316    0.478    3.514
  407.954   81.465    0.306    0.481    3.497
  408.204   80.978    0.294    0.471    3.498
  408.454   80.668    0.300    0.464    3.501
  408.704   80.252    0.300    0.458    3.531
  408.954   80.398    0.294    0.455    3.584
  409.204   79.852    0.282    0.456    3.622
  409.454   78.984    0.272    0.461    3.671
  409.704   79.829    0.264    0.463    3.717
  409.954   82.846    0.254    0.462    3.729
  410.204   86.357    0.275    0.462    3.703
  410.454   88.492    0.287    0.466    3.627
  410.704   92.752    0.286    0.458    3.466
  410.954   96.467    0.273    0.454    3.194
  411.204  100.193    0.246    0.464    2.890
  411.454  105.076    0.207    0.487    2.631
  411.704  108.859    0.224    0.518    2.429
  411.954  112.151    0.239    0.532    2.302
  412.204  110.641    0.239    0.524    2.339
  412.454  111.189    0.241    0.522    2.521
  412.704  111.885    0.236    0.528    2.744
  412.954  113.432    0.226    0.524    2.978
  413.204  115.475    0.225    0.508    3.173
  413.454  117.449    0.218    0.533    3.516
  413.704  118.733    0.208    0.487    3.684
  413.954  116.436    0.200    0.468    3.841
  414.204  113.198    0.203    0.465    3.991
  414.454  109.778    0.221    0.464    4.106
  414.704  105.889    0.209    0.452    4.196
  414.954  103.899    0.203    0.440    4.330
  415.204  102.214    0.209    0.439    4.369
  415.454  100.345    0.215    0.451    4.390
  415.704   98.263    0.224    0.457    4.282
  415.954   95.964    0.218    0.455    4.158
  416.204   94.562    0.207    0.451    3.930
  416.454   93.682    0.189    0.448    3.682
  416.704   96.655    0.189    0.447    3.633
  416.954  100.402    0.201    0.433    3.904
  417.204  102.704    0.211    0.431    4.286
  417.454  103.623    0.203    0.429    4.596
  417.704  103.671    0.207    0.431    4.768
  417.954  103.002    0.219    0.436    4.792
  418.204  102.522    0.230    0.446    4.708
  418.454  102.606    0.230    0.451    4.615
  418.704  102.594    0.216    0.443    4.435
  418.954  102.172    0.204    0.446    4.332
  419.204  101.959    0.200    0.470    4.279
  419.454  101.439    0.217    0.477    4.291
  419.704  101.194    0.211    0.459    4.331
  419.954  101.299    0.216    0.457    4.335
  420.204  101.918    0.233    0.462    4.327
  420.454  101.292    0.219    0.461    4.276
  420.704   99.880    0.212    0.455    4.059
  420.954   96.241    0.224    0.448    3.896
  421.204   91.380    0.218    0.439    3.860
  421.454   86.321    0.221    0.444    3.993
  421.704   80.912    0.181    0.442    4.309
  421.954   74.110    0.141    0.420    4.854
  422.204   68.598    0.120    0.359    5.489
  422.454   65.185    0.132    0.320    6.610
  422.704   63.768    0.154    0.350    7.487
  422.954   64.473    0.176    0.381    6.870
  423.204   65.763    0.198    0.405    6.106
  423.454   66.583    0.220    0.426    5.321
  423.704   67.779    0.243    0.439    4.636
  423.954   69.617    0.262    0.442    4.132
  424.204   71.876    0.271    0.438    3.753
  424.454   73.872    0.261    0.439    3.655
  424.704   75.264    0.255    0.443    3.636
  424.954   76.751    0.248    0.438    3.631
  425.204   76.628    0.245    0.432    3.666
  425.454   75.656    0.245    0.432    3.705
  425.704   74.173    0.238    0.441    3.792
  425.954   72.262    0.211    0.430    4.105
  426.204   69.945    0.192    0.395    4.965
  426.454   66.587    0.144    0.303    6.414
  426.704   65.618    0.147    0.364    7.153
  426.954   71.105    0.177    0.409    6.029
  427.204   73.442    0.227    0.432    4.621
  427.454   74.651    0.257    0.442    4.044
  427.704   72.337    0.283    0.450    3.740
  427.954   72.312    0.270    0.443    3.614
  428.204   75.804    0.265    0.434    3.554
  428.454   76.625    0.265    0.425    3.560
  428.704   76.581    0.265    0.419    3.623
  428.954   75.311    0.265    0.423    3.652
