~VERSION INFORMATION
 VERS.                 2.0:   CWLS LOG ASCII STANDARD -VERSION 2.0
 WRAP.                  NO:   ONE LINE PER DEPTH STEP
~WELL INFORMATION BLOCK
#MNEM.UNIT           DATA                    DESCRIPTION OF MNEMONIC
#---------    -------------------            -------------------------------
# Generated from Intellog Unique Number	CW_76_78/WELL/992
WELL.         GULF POC DROWNED 10-35         : Well_name    - WELL
LOC .         00/10-35-076-21W4/0            : Location     - LOCATION
UWI .         00/10-35-076-21W4/0            : Uwi          - UNIQUE WELL ID
ENTR.         JAYE                           : Entered      - ENTERED BY
SRVC.         SCHLUMBERGER                   : Scn          - SERVICE COMPANY
DATE.         26 FEB 77                      : Date         - LOG DATE
STRT.M        408.432                        : top_depth    - START DEPTH
STOP.M        597.432                        : bot_depth    - STOP DEPTH
STEP.M        0.25                           : increment    - STEP LENGTH
 NULL. -999.2500:NULL Value
~CURVE INFORMATION BLOCK
#MNEM UNIT       ERCB CURVE CODE    CURVE DESCRIPTION
#-----------   ------------------   ----------------------------------
DEPT.M        00 001 00 00         : DEPTH        - DEPTH
ILD .OHMM     00 120 00 00         : RESD         - DEEP RESISTIVITY (DIL)
NPHI.V/V      00 330 00 00         : PHIN         - NEUTRON POROSITY (SANDSTONE)
DPHI.V/V      00 890 00 00         : PHID         - DENSITY POROSITY (SANDSTONE)
GR  .API      00 310 00 00         : GR           - GAMMA RAY
CALI.MM       00 280 01 00         : CAL          - CALIPER
~PARAMETER INFORMATION
#MNEM.UNIT           DATA             DESCRIPTION OF MNEMONIC
#---------         -----------     ------------------------------
GL  .M        738.835              : gl           - GROUND LEVEL ELEVATION
EREF.M        742.188              : kb           - ELEVATION OF DEPTH REFERENCE
DATM.M        738.835              : datum        - DATUM ELEVATION
TDD .M        608.076              : tdd          - TOTAL DEPTH DRILLER
RUN .         ONE                  : Run          - RUN NUMBER
MATR.         SANDSTONE            : Logunit      - NEUTRON MATRIX
TMAX.C        26.1111              : BHT          - MAXIMUM RECORDED TEMPERATURE
BHTD.M        608.076              : BHTDEP       - MAXIMUM RECORDED TEMPERATURE
RMT .C        18.3333              : MDTP         - TEMPERATURE OF MUD
MUDD.KG/M     0                    : MWT          - MUD DENSITY
NEUT.         1                    : NEUTRON      - NEUTRON TYPE
RESI.         0                    : RESIST       - RESISTIVITY TYPE
RM  .OHMM     5.13                 : RM           - RESISTIVITY OF MUD
RMC .OHMM     0                    : RMC          - RESISTIVITY OF MUD CAKE
RMF .OHMM     5.09                 : RMF          - RESISTIVITY OF MUD FILTRATE
SUFT.C        -17.7778             : SUFT         - SURFACE TEMPERATURE
~A  DEPTH     RESD     PHIN     PHID       GR      CAL
  408.432    2.629    0.536    0.259  137.305  182.222
  408.682    2.569    0.536    0.220  135.706  183.719
  408.932    2.547    0.539    0.219  138.945  185.453
  409.182    2.456    0.543    0.223  142.640  186.280
  409.432    2.330    0.538    0.215  139.607  186.785
  409.682    2.302    0.529    0.201  134.806  186.736
  409.932    2.363    0.524    0.192  133.400  185.912
  410.182    2.453    0.516    0.201  134.810  185.528
  410.432    2.612    0.510    0.226  134.389  185.923
  410.682    2.886    0.501    0.242  130.503  185.752
  410.932    3.119    0.487    0.247  124.854  185.372
  411.182    3.121    0.470    0.244  119.599  182.886
  411.432    3.015    0.459    0.225  115.055  178.524
  411.682    2.845    0.443    0.230  108.688  173.712
  411.932    2.694    0.451    0.265  103.559  167.246
  412.182    2.552    0.466    0.269  107.581  164.536
  412.432    2.390    0.468    0.214  107.815  166.928
  412.682    2.210    0.484    0.166  114.450  171.407
  412.932    1.924    0.506    0.137  122.849  177.557
  413.182    1.567    0.517    0.176  119.294  179.838
  413.432    1.418    0.526    0.237  115.932  180.446
  413.682    3.365    0.536    0.226  114.527  182.272
  413.932    4.466    0.550    0.218  114.108  187.202
  414.182    5.862    0.566    0.223  112.441  192.351
  414.432    6.621    0.565    0.285  108.752  195.953
  414.682    8.090    0.526    0.318  101.859  191.702
  414.932    9.375    0.415    0.334   88.238  181.136
  415.182    9.731    0.404    0.291   90.952  167.805
  415.432   10.082    0.418    0.276   89.618  162.557
  415.682   10.387    0.435    0.284   78.740  162.621
  415.932   10.743    0.440    0.328   70.410  160.697
  416.182   10.889    0.444    0.342   70.705  158.310
  416.432   10.618    0.448    0.338   77.606  155.383
  416.682   10.469    0.455    0.321   76.984  153.675
  416.932   10.192    0.466    0.313   72.776  153.514
  417.182    9.993    0.421    0.308   68.298  153.911
  417.432    9.586    0.412    0.304   67.160  154.296
  417.682    8.913    0.416    0.297   72.814  154.911
  417.932    8.122    0.420    0.301   80.039  156.192
  418.182    7.607    0.423    0.313   85.499  157.685
  418.432    7.297    0.410    0.305   90.638  159.635
  418.682    7.464    0.402    0.281   93.807  160.909
  418.932    7.762    0.393    0.256   97.828  161.741
  419.182    8.115    0.391    0.238  101.324  162.914
  419.432    8.316    0.410    0.256  103.518  163.078
  419.682    7.977    0.423    0.271  102.709  160.372
  419.932    7.499    0.426    0.277  101.041  157.553
  420.182    6.771    0.414    0.224   94.676  159.498
  420.432    5.948    0.398    0.115   91.440  161.443
  420.682    5.234    0.401    0.052   88.797  162.272
  420.932    4.606    0.422    0.222   93.733  162.449
  421.182    4.106    0.416    0.248  100.631  162.392
  421.432    4.078    0.417    0.249  107.399  162.342
  421.682    4.343    0.431    0.236  117.236  162.960
  421.932    4.772    0.453    0.216  127.009  164.679
  422.182    5.301    0.455    0.198  130.965  168.504
  422.432    5.781    0.439    0.192  121.917  171.215
  422.682    6.012    0.433    0.217  114.828  170.172
  422.932    6.127    0.428    0.245  107.612  167.363
  423.182    6.441    0.417    0.257  102.747  165.752
  423.432    7.195    0.409    0.273   99.191  162.050
  423.682    7.992    0.415    0.283   98.440  161.780
  423.932    9.109    0.447    0.239   96.451  166.043
  424.182    9.899    0.469    0.244   90.799  172.634
  424.432   10.014    0.466    0.275   79.005  169.483
  424.682    9.875    0.425    0.322   62.440  163.239
  424.932    9.808    0.422    0.318   61.953  160.316
  425.182    9.797    0.436    0.326   70.420  159.042
  425.432    9.855    0.437    0.335   74.376  157.665
  425.682   10.024    0.426    0.294   80.293  156.957
  425.932   10.216    0.421    0.273   78.303  156.125
  426.182   10.470    0.433    0.282   72.983  155.631
  426.432   10.630    0.432    0.300   72.950  155.821
  426.682   10.812    0.419    0.309   75.798  156.307
  426.932   10.858    0.422    0.291   82.105  157.037
  427.182   10.609    0.419    0.271   86.389  157.103
  427.432    9.810    0.404    0.265   86.555  157.150
  427.682    8.793    0.380    0.261   82.604  156.557
  427.932    8.131    0.347    0.222   77.152  156.280
  428.182    7.560    0.307    0.178   73.201  156.127
  428.432    7.305    0.370    0.186   79.250  156.286
  428.682    7.404    0.434    0.246   82.553  157.023
  428.932    7.671    0.431    0.294   83.636  157.192
  429.182    7.963    0.417    0.278   85.956  157.249
  429.432    8.235    0.406    0.266   96.643  157.531
  429.682    8.239    0.399    0.260   97.397  157.708
  429.932    8.049    0.417    0.264   90.571  157.872
  430.182    7.694    0.448    0.283   86.233  157.932
  430.432    7.259    0.434    0.301   82.669  158.220
  430.682    6.849    0.416    0.300   82.840  158.053
  430.932    6.790    0.415    0.267   90.386  158.221
  431.182    7.218    0.422    0.260   98.397  158.395
  431.432    7.701    0.419    0.272  104.052  158.561
  431.682    8.082    0.424    0.274  113.695  160.506
  431.932    8.436    0.485    0.270  122.162  162.887
  432.182    8.740    0.474    0.264  123.637  165.490
  432.432    8.793    0.429    0.265  119.033  161.793
  432.682    8.450    0.404    0.266  119.329  159.636
  432.932    7.714    0.395    0.265  125.768  159.817
  433.182    6.914    0.398    0.239  130.508  160.310
  433.432    6.085    0.405    0.239  130.481  160.593
  433.682    5.404    0.393    0.242  126.464  160.210
  433.932    4.942    0.389    0.253  122.118  158.835
  434.182    4.422    0.398    0.253  123.792  158.454
  434.432    4.081    0.412    0.247  128.855  162.165
  434.682    4.137    0.430    0.229  139.285  169.194
  434.932    4.397    0.443    0.191  140.755  172.032
  435.182    4.761    0.457    0.199  137.921  174.742
  435.432    5.386    0.461    0.208  135.402  178.228
  435.682    6.368    0.453    0.209  129.948  178.840
  435.932    6.958    0.450    0.184  123.061  177.353
  436.182    7.383    0.440    0.206  119.890  175.862
  436.432    7.510    0.427    0.219  113.848  172.603
  436.682    7.086    0.404    0.235  107.285  166.134
  436.932    6.352    0.377    0.249  105.360  160.219
  437.182    5.600    0.359    0.267  116.047  156.743
  437.432    4.638    0.381    0.276  121.770  156.250
  437.682    3.899    0.406    0.244  124.945  158.739
  437.932    3.247    0.427    0.229  126.873  165.000
  438.182    2.858    0.449    0.239  129.262  162.740
  438.432    2.687    0.470    0.254  134.001  158.590
  438.682    2.606    0.494    0.273  142.074  156.438
  438.932    2.603    0.545    0.238  149.232  159.710
  439.182    2.580    0.568    0.208  151.624  166.516
  439.432    2.539    0.593    0.213  153.620  170.672
  439.682    2.522    0.582    0.233  154.374  173.500
  439.932    2.585    0.546    0.234  153.429  174.999
  440.182    2.653    0.539    0.246  155.163  172.622
  440.432    2.852    0.548    0.272  157.159  178.768
  440.682    3.162    0.537    0.244  157.651  181.375
  440.932    3.617    0.504    0.247  157.818  178.449
  441.182    4.138    0.510    0.221  158.247  174.193
  441.432    4.563    0.527    0.219  158.544  170.052
  441.682    4.806    0.520    0.231  158.512  168.338
  441.932    4.889    0.484    0.231  158.156  169.514
  442.182    4.865    0.463    0.234  156.625  170.790
  442.432    4.940    0.458    0.241  150.907  171.839
  442.682    5.213    0.455    0.236  147.742  173.450
  442.932    5.561    0.450    0.223  147.450  176.273
  443.182    6.144    0.443    0.229  145.918  179.550
  443.432    6.977    0.456    0.239  145.169  177.614
  443.682    7.609    0.468    0.254  133.966  174.136
  443.932    7.956    0.472    0.268  117.204  170.432
  444.182    7.760    0.458    0.279  100.444  163.961
  444.432    7.595    0.440    0.303   94.012  158.265
  444.682    7.353    0.449    0.327   95.356  152.803
