~VERSION INFORMATION
 VERS.                 2.0:   CWLS LOG ASCII STANDARD -VERSION 2.0
 WRAP.                  NO:   ONE LINE PER DEPTH STEP
~WELL INFORMATION BLOCK
#MNEM.UNIT           DATA                    DESCRIPTION OF MNEMONIC
#---------    -------------------            -------------------------------
# Generated from Intellog Unique Number	CS_73_76/WELL/3264
WELL.         BOW VALLEY INDUSTRIES LTD      : Well_name    - WELL
LOC .         00/11-18-075-12W4/0            : Location     - LOCATION
UWI .         00/11-18-075-12W4/0            : Uwi          - UNIQUE WELL ID
ENTR.         SP                             : Entered      - ENTERED BY
SRVC.         SCHLUMBERGER                   : Scn          - SERVICE COMPANY
STRT.M        315                            : top_depth    - START DEPTH
STOP.M        534                            : bot_depth    - STOP DEPTH
STEP.M        0.25                           : increment    - STEP LENGTH
 NULL. -999.2500:NULL Value
~CURVE INFORMATION BLOCK
#MNEM UNIT       ERCB CURVE CODE    CURVE DESCRIPTION
#-----------   ------------------   ----------------------------------
DEPT.M        00 001 00 00         : DEPTH        - DEPTH
ILD .OHMM     00 120 00 00         : RESD         - DEEP RESISTIVITY (DIL)
NPHI.V/V      00 330 00 00         : PHIN         - NEUTRON POROSITY (LIMESTONE)
DPHI.V/V      00 890 00 00         : PHID         - DENSITY POROSITY (LIMESTONE)
GR  .API      00 310 00 00         : GR           - GAMMA RAY
~PARAMETER INFORMATION
#MNEM.UNIT           DATA             DESCRIPTION OF MNEMONIC
#---------         -----------     ------------------------------
GL  .M        685.02               : gl           - GROUND LEVEL ELEVATION
EREF.M        688.37               : kb           - ELEVATION OF DEPTH REFERENCE
DATM.M        685.02               : datum        - DATUM ELEVATION
TDD .M        544                  : tdd          - TOTAL DEPTH DRILLER
RUN .         ONE                  : Run          - RUN NUMBER
ENG .         BILL                 : Engineer     - RECORDING ENGINEER
WIT .         JIM                  : Witness      - WITNESSED BY
MUD .         GEL                  : Mud_type     - MUD TYPE
MATR.         LIMESTONE            : Logunit      - NEUTRON MATRIX
TMAX.C        23.9                 : BHT          - MAXIMUM RECORDED TEMPERATURE
BHTD.M        537                  : BHTDEP       - MAXIMUM RECORDED TEMPERATURE
MATR.         1                    : LOGUNIT      - NEUTRON MATRIX
RMT .C        25                   : MDTP         - TEMPERATURE OF MUD
NEUT.         1                    : NEUTRON      - NEUTRON TYPE
RESI.         0                    : RESIST       - RESISTIVITY TYPE
RMC .OHMM     0.25                 : RMC          - RESISTIVITY OF MUD CAKE
RMF .OHMM     0.25                 : RMF          - RESISTIVITY OF MUD FILTRATE
SUFT.C        15                   : SUFT         - SURFACE TEMPERATURE
~A  DEPTH     RESD     PHIN     PHID       GR
# ...
  489.000    4.944    0.449    0.221  102.861
  489.250    4.942    0.451    0.212  101.642
  489.500    4.941    0.435    0.217  100.426
  489.750    4.760    0.442    0.215  100.422
  490.000    4.671    0.437    0.160   96.180
  490.250    4.845    0.425    0.188   96.172
  490.500    5.026    0.442    0.212   99.795
  490.750    5.024    0.451    0.196  102.812
  491.000    4.930    0.440    0.189  103.411
  491.250    4.749    0.421    0.205  103.404
  491.500    4.576    0.432    0.186  102.187
  491.750    4.490    0.443    0.167  100.364
  492.000    4.489    0.452    0.158   99.149
  492.250    4.404    0.443    0.183   99.143
  492.500    4.486    0.436    0.194  103.369
  492.750    4.484    0.437    0.181  106.385
  493.000    4.566    0.451    0.172  107.589
  493.250    4.649    0.454    0.183  105.162
  493.500    4.822    0.445    0.188  100.314
  493.750    4.911    0.444    0.167   98.496
  494.000    5.094    0.450    0.152   96.070
  494.250    5.482    0.430    0.129   97.273
  494.500    5.793    0.433    0.207  106.337
  494.750    6.120    0.445    0.223  111.170
  495.000    6.348    0.433    0.222  112.372
  495.250    6.585    0.423    0.225  112.366
  495.500    7.353    0.430    0.240  104.494
  495.750    8.842    0.414    0.245   97.232
  496.000   11.660    0.387    0.254   80.895
  496.250   15.664    0.363    0.277   66.372
  496.500   22.654    0.350    0.308   63.945
  496.750   28.791    0.372    0.324   63.333
  497.000   35.265    0.389    0.302   66.351
  497.250   37.953    0.389    0.280   71.787
  497.500   32.726    0.371    0.266   75.408
  497.750   28.748    0.351    0.257   77.821
  498.000   25.725    0.345    0.245   79.025
  498.250   23.019    0.332    0.232   79.621
  498.500   20.981    0.325    0.228   78.406
  498.750   19.122    0.311    0.263   72.351
  499.000   18.424    0.297    0.285   69.321
  499.250   17.105    0.300    0.293   73.546
  499.500   16.177    0.316    0.244   80.799
  499.750   15.301    0.330    0.228   86.840
  500.000   14.741    0.345    0.242   86.228
  500.250   14.200    0.356    0.250   85.616
  500.500   13.681    0.356    0.242   91.658
  500.750   13.425    0.358    0.226   91.044
  501.000   13.176    0.353    0.235   92.248
  501.250   13.416    0.349    0.199   90.426
  501.500   13.916    0.354    0.224   84.975
  501.750   14.704    0.360    0.248   77.710
  502.000   16.121    0.371    0.266   72.865
  502.250   17.349    0.360    0.287   68.627
  502.500   18.332    0.343    0.261   66.198
  502.750   20.096    0.363    0.253   63.774
  503.000   20.847    0.378    0.267   60.743
  503.250   21.228    0.359    0.270   55.897
  503.500   18.994    0.354    0.215   51.051
  503.750   17.963    0.370    0.218   52.254
  504.000   17.304    0.383    0.253   49.827
  504.250   17.622    0.364    0.280   49.217
  504.500   20.421    0.357    0.307   51.024
  504.750   24.106    0.369    0.309   55.854
  505.000   29.523    0.342    0.307   57.664
  505.250   30.623    0.330    0.299   61.286
  505.500   26.900    0.336    0.287   69.140
  505.750   23.631    0.337    0.237   78.811
  506.000   17.907    0.331    0.207   93.924
  506.250   13.320    0.353    0.184  108.434
  506.500   10.474    0.373    0.212  106.007
  506.750    9.547    0.388    0.255   98.743
  507.000   10.465    0.404    0.280   89.057
  507.250   12.126    0.409    0.299   82.399
  507.500   13.296    0.381    0.323   75.134
  507.750   15.408    0.368    0.308   75.126
  508.000   17.528    0.376    0.314   76.931
  508.250   19.218    0.387    0.321   76.926
  508.500   18.175    0.395    0.319   78.734
  508.750   14.824    0.397    0.311   79.939
  509.000   14.022    0.384    0.300   82.350
  509.250   13.263    0.395    0.303   81.134
  509.500   13.505    0.388    0.294   83.544
  509.750   15.082    0.382    0.277   85.354
  510.000   16.843    0.392    0.267   85.347
  510.250   17.471    0.376    0.246   88.364
  510.500   17.791    0.370    0.224   92.590
  510.750   16.217    0.380    0.239   95.004
  511.000   14.510    0.401    0.251  102.252
  511.250   12.747    0.408    0.234  105.877
  511.500   10.992    0.396    0.217  114.941
  511.750    9.478    0.409    0.204  122.797
  512.000    8.172    0.401    0.191  131.863
  512.250    7.730    0.390    0.181  142.138
  512.500    7.448    0.380    0.167  149.994
  512.750    6.914    0.394    0.181  155.431
  513.000    6.785    0.398    0.184  153.004
  513.250    6.783    0.380    0.188  144.529
  513.500    7.035    0.362    0.195  139.080
  513.750    7.434    0.361    0.204  128.788
  514.000    8.149    0.373    0.216  125.154
  514.250    8.610    0.360    0.233  122.728
  514.500    8.932    0.346    0.221  116.673
  514.750    9.438    0.358    0.199  107.592
  515.000    9.971    0.383    0.207  103.959
  515.250   10.344    0.366    0.189   95.483
  515.500   11.132    0.332    0.164   85.196
  515.750   11.548    0.323    0.184   93.051
  516.000   11.978    0.345    0.229   86.391
  516.250   12.422    0.385    0.245   75.498
  516.500   12.419    0.390    0.261   67.023
  516.750   12.414    0.374    0.275   63.387
  517.000   12.184    0.363    0.273   65.798
  517.250   11.309    0.349    0.266   68.213
  517.500   10.896    0.335    0.269   73.043
  517.750   10.693    0.336    0.266   73.642
  518.000   10.114    0.340    0.250   77.869
  518.250    9.390    0.323    0.266   92.377
  518.500    8.881    0.325    0.216  105.072
  518.750    8.716    0.344    0.193  109.904
  519.000    8.712    0.359    0.177  114.130
  519.250    8.709    0.371    0.165  112.914
  519.500    8.391    0.374    0.173  106.254
  519.750    8.703    0.350    0.193   93.545
  520.000    8.863    0.340    0.196   83.862
  520.250    9.364    0.350    0.208   83.853
  520.500   10.078    0.362    0.202   86.869
  520.750   10.263    0.360    0.208   87.471
  521.000   10.843    0.349    0.209   87.463
  521.250   11.040    0.360    0.232   81.408
  521.500   11.038    0.349    0.233   78.983
  521.750   11.239    0.338    0.230   78.371
  522.000   11.235    0.344    0.242   80.782
  522.250   11.026    0.348    0.247   83.195
  522.500   10.236    0.330    0.232   85.606
  522.750    9.681    0.337    0.213   87.416
  523.000    9.156    0.342    0.203   82.570
  523.250    8.501    0.326    0.222   78.933
  523.500    7.892    0.326    0.231   75.903
  523.750    7.604    0.341    0.243   73.476
  524.000    6.930    0.337    0.255   76.492
  524.250    6.677    0.347    0.222   78.906
  524.500    6.433    0.360    0.215   79.504
  524.750    6.197    0.363    0.227   86.755
  525.000    6.081    0.355    0.244   95.215
  525.250    6.080    0.347    0.233  101.257
  525.500    6.078    0.347    0.208  106.693
  525.750    6.189    0.359    0.176  104.871
  526.000    6.539    0.369    0.189   98.817
  526.250    7.169    0.330    0.203   92.156
  526.500    7.859    0.324    0.212   90.335
  526.750    8.152    0.338    0.227   88.515
  527.000    8.150    0.357    0.249   92.135
  527.250    7.708    0.377    0.269   94.548
  527.500    7.025    0.389    0.242   92.123
  527.750    6.523    0.370    0.229   92.719
  528.000    6.168    0.348    0.217   96.948
  528.250    6.053    0.353    0.179  105.406
  528.500    6.052    0.375    0.197   97.539
  528.750    6.162    0.392    0.218   83.014
  529.000    6.160    0.369    0.237   86.032
  529.250    6.273    0.359    0.254   92.073
  529.500    6.387    0.371    0.234   94.487
  529.750    5.930    0.379    0.216   91.456
  530.000    5.405    0.404    0.287   95.683
  530.250    5.305    0.397    0.300  101.722
  530.500    5.016    0.388    0.294  106.553
  530.750    5.014    0.392    0.288  107.154
  531.000    5.012    0.395    0.282  103.518
  531.250    5.011    0.370    0.271  106.534
  531.500    5.295    0.359    0.222  107.132
  531.750    5.699    0.364    0.196   99.868
  532.000    6.133    0.375    0.178   81.112
  532.250    6.602    0.385    0.093   61.146
