~VERSION INFORMATION
 VERS.                 2.0:   CWLS LOG ASCII STANDARD -VERSION 2.0
 WRAP.                  NO:   ONE LINE PER DEPTH STEP
~WELL INFORMATION BLOCK
#MNEM.UNIT           DATA                    DESCRIPTION OF MNEMONIC
#---------    -------------------            -------------------------------
# Generated from Intellog Unique Number	CS_69_70/WELL/888
WELL.         ALGAS MINERAL ENTERPRISES      : Well_name    - WELL
LOC .         00/11-15-070-17W4/0            : Location     - LOCATION
UWI .         00/11-15-070-17W4/0            : Uwi          - UNIQUE WELL ID
ENTR.         SP                             : Entered      - ENTERED BY
SRVC.         SCHLUMBERGER                   : Scn          - SERVICE COMPANY
STRT.M        274.32                         : top_depth    - START DEPTH
STOP.M        472.07                         : bot_depth    - STOP DEPTH
STEP.M        0.25                           : increment    - STEP LENGTH
 NULL. -999.2500:NULL Value
~CURVE INFORMATION BLOCK
#MNEM UNIT       ERCB CURVE CODE    CURVE DESCRIPTION
#-----------   ------------------   ----------------------------------
DEPT.M        00 001 00 00         : DEPTH        - DEPTH
GR  .API      00 310 00 00         : GR           - GAMMA RAY
DPHI.V/V      00 890 00 00         : PHID         - DENSITY POROSITY (SANDSTONE)
NPHI.V/V      00 330 00 00         : PHIN         - NEUTRON POROSITY (SANDSTONE)
ILD .OHMM     00 120 00 00         : RESD         - DEEP RESISTIVITY (DIL)
~PARAMETER INFORMATION
#MNEM.UNIT           DATA             DESCRIPTION OF MNEMONIC
#---------         -----------     ------------------------------
GL  .M        556.108              : gl           - GROUND LEVEL ELEVATION
EREF.M        559.003              : kb           - ELEVATION OF DEPTH REFERENCE
DATM.M        556.108              : datum        - DATUM ELEVATION
TDD .M        484.632              : tdd          - TOTAL DEPTH DRILLER
RUN .         ONE                  : Run          - RUN NUMBER
ENG .         BILL                 : Engineer     - RECORDING ENGINEER
WIT .         JIM                  : Witness      - WITNESSED BY
MUD .         GEL                  : Mud_type     - MUD TYPE
MATR.         SANDSTONE            : Logunit      - NEUTRON MATRIX
TMAX.C        56                   : BHT          - MAXIMUM RECORDED TEMPERATURE
BHTD.M        1590                 : BHTDEP       - MAXIMUM RECORDED TEMPERATURE
MATR.         1                    : LOGUNIT      - NEUTRON MATRIX
RMT .C        25                   : MDTP         - TEMPERATURE OF MUD
NEUT.         1                    : NEUTRON      - NEUTRON TYPE
RESI.         0                    : RESIST       - RESISTIVITY TYPE
RMC .OHMM     0.25                 : RMC          - RESISTIVITY OF MUD CAKE
RMF .OHMM     0.25                 : RMF          - RESISTIVITY OF MUD FILTRATE
SUFT.C        15                   : SUFT         - SURFACE TEMPERATURE
~A  DEPTH       GR     PHID     PHIN     RESD
# ...
  317.820  123.705    0.209    0.391    3.305
  318.070  118.155    0.216    0.387    3.363
  318.320  113.179    0.236    0.383    3.400
  318.570  107.203    0.239    0.388    3.423
  318.820  100.913    0.240    0.394    3.400
  319.070   96.435    0.216    0.376    3.370
  319.320   92.419    0.230    0.364    3.288
  319.570   90.538    0.249    0.352    3.154
  319.820   88.083    0.258    0.349    3.151
  320.070   90.141    0.251    0.348    3.232
  320.320   92.294    0.259    0.350    3.363
  320.570   94.201    0.252    0.353    3.445
  320.820   95.560    0.253    0.348    3.487
  321.070   91.442    0.266    0.345    3.445
  321.320   87.531    0.274    0.365    3.299
  321.570   83.045    0.274    0.372    3.120
  321.820   78.933    0.271    0.367    2.994
  322.070   75.540    0.268    0.361    2.823
  322.320   73.338    0.267    0.354    2.804
  322.570   72.754    0.272    0.349    2.783
  322.820   73.570    0.282    0.348    2.809
  323.070   75.532    0.283    0.345    2.863
  323.320   77.937    0.290    0.342    2.915
  323.570   77.965    0.297    0.343    2.959
  323.820   76.420    0.294    0.347    2.981
  324.070   75.665    0.290    0.356    3.001
  324.320   75.460    0.294    0.365    3.027
  324.570   76.148    0.294    0.357    3.113
  324.820   78.194    0.283    0.350    3.185
  325.070   80.643    0.270    0.351    3.354
  325.320   83.287    0.244    0.359    3.694
  325.570   85.341    0.210    0.353    4.264
  325.820   82.187    0.176    0.331    4.973
  326.070   76.208    0.128    0.299    5.660
  326.320   69.659    0.092    0.251    6.295
  326.570   70.040    0.108    0.248    6.830
  326.820   77.403    0.143    0.286    7.227
  327.070   83.320    0.170    0.314    6.975
  327.320   87.395    0.167    0.261    5.329
  327.570   92.399    0.127    0.259    4.337
  327.820   97.381    0.148    0.314    3.544
  328.070  100.503    0.187    0.346    3.191
  328.320   97.536    0.216    0.370    3.161
  328.570   94.505    0.236    0.389    3.212
  328.820   92.522    0.256    0.380    3.289
  329.070   91.833    0.255    0.371    3.358
  329.320   92.883    0.246    0.373    3.489
  329.570   95.202    0.239    0.374    3.583
  329.820   97.779    0.235    0.375    3.588
  330.070  101.067    0.223    0.381    3.524
  330.320  105.583    0.205    0.392    3.452
  330.570  109.068    0.189    0.398    3.526
  330.820  112.328    0.187    0.406    3.688
  331.070  109.972    0.201    0.393    3.802
  331.320  104.038    0.229    0.377    3.875
  331.570   97.979    0.233    0.368    3.896
  331.820   92.737    0.245    0.369    3.897
  332.070   88.754    0.246    0.370    3.885
  332.320   87.711    0.229    0.367    3.865
  332.570   92.319    0.236    0.359    3.828
  332.820   99.224    0.222    0.351    3.856
  333.070  103.982    0.209    0.359    3.817
  333.320  108.999    0.209    0.370    3.788
  333.570  111.310    0.205    0.384    3.734
  333.820  111.574    0.201    0.386    3.618
  334.070  109.176    0.198    0.384    3.516
  334.320  106.861    0.203    0.411    3.326
  334.570  104.143    0.216    0.425    3.171
  334.820  105.031    0.214    0.427    3.170
  335.070  109.684    0.195    0.414    3.447
  335.320  113.657    0.191    0.403    3.980
  335.570  115.000    0.204    0.390    4.435
  335.820  112.981    0.215    0.386    4.806
  336.070  107.181    0.221    0.378    5.061
  336.320  108.051    0.218    0.372    5.199
  336.570  109.203    0.207    0.366    5.105
  336.820  109.458    0.193    0.371    5.247
  337.070  109.123    0.187    0.379    5.441
  337.320  105.664    0.191    0.376    5.740
  337.570   97.488    0.218    0.370    6.124
  337.820   92.062    0.249    0.409    6.040
  338.070   81.321    0.272    0.433    5.314
  338.320   71.359    0.365    0.459    4.581
  338.570   61.174    0.495    0.531    4.007
  338.820   60.475    0.325    0.314    3.301
  339.070   66.367    0.280    0.316    2.995
  339.320   69.891    0.264    0.309    2.745
  339.570   68.403    0.295    0.338    2.693
  339.820   68.719    0.306    0.358    2.655
  340.070   71.127    0.321    0.380    2.539
  340.320   73.702    0.341    0.395    2.421
  340.570   76.057    0.330    0.393    2.429
  340.820   78.054    0.313    0.374    2.446
  341.070   80.304    0.297    0.361    2.467
  341.320   83.816    0.296    0.365    2.499
  341.570   87.797    0.307    0.354    2.549
  341.820   90.585    0.320    0.346    2.562
  342.070   93.351    0.321    0.361    2.549
  342.320   91.377    0.308    0.376    2.512
  342.570   85.461    0.311    0.375    2.512
  342.820   80.121    0.320    0.369    2.580
  343.070   75.294    0.332    0.368    2.654
  343.320   71.981    0.305    0.372    2.789
  343.570   71.344    0.292    0.377    2.914
  343.820   73.820    0.285    0.378    2.969
  344.070   75.120    0.277    0.370    2.863
  344.320   75.486    0.282    0.364    2.732
  344.570   74.603    0.287    0.372    2.617
  344.820   73.176    0.292    0.381    2.622
  345.070   72.514    0.303    0.384    2.576
  345.320   73.460    0.310    0.374    2.684
  345.570   77.867    0.310    0.368    2.942
  345.820   82.074    0.290    0.365    3.298
  346.070   87.422    0.257    0.354    3.669
  346.320   93.240    0.234    0.345    3.810
  346.570   96.480    0.220    0.339    3.905
  346.820   96.553    0.220    0.345    3.950
  347.070   92.974    0.237    0.362    3.953
  347.320   91.049    0.255    0.374    3.883
  347.570   95.060    0.255    0.375    3.766
  347.820  100.646    0.237    0.375    3.665
  348.070  103.904    0.226    0.384    3.612
  348.320  104.911    0.221    0.393    3.617
  348.570  103.338    0.216    0.386    3.681
  348.820   99.102    0.242    0.377    3.838
  349.070   98.630    0.256    0.370    3.914
  349.320  102.578    0.255    0.370    3.838
  349.570  101.976    0.261    0.371    3.691
  349.820   90.625    0.282    0.387    3.491
  350.070   85.597    0.298    0.365    3.220
  350.320   81.260    0.298    0.335    3.033
  350.570   79.380    0.283    0.337    2.882
  350.820   79.464    0.294    0.345    2.831
  351.070   80.395    0.297    0.343    2.825
  351.320   81.194    0.288    0.339    2.846
  351.570   81.460    0.279    0.343    2.885
  351.820   81.951    0.262    0.342    2.958
  352.070   81.961    0.263    0.340    3.039
  352.320   80.909    0.267    0.337    3.106
  352.570   78.976    0.287    0.341    3.133
  352.820   76.240    0.278    0.351    3.133
  353.070   73.906    0.267    0.366    3.093
  353.320   71.906    0.279    0.381    3.029
  353.570   71.091    0.275    0.397    2.909
  353.820   73.824    0.265    0.386    2.763
  354.070   75.722    0.276    0.377    2.693
  354.320   76.621    0.282    0.368    2.686
  354.570   77.504    0.286    0.364    2.785
  354.820   78.847    0.291    0.357    2.909
  355.070   80.308    0.287    0.350    3.036
  355.320   82.339    0.274    0.344    3.203
  355.570   84.894    0.257    0.336    3.399
  355.820   87.748    0.237    0.348    3.521
  356.070   89.586    0.220    0.352    3.646
  356.320   90.216    0.214    0.360    3.669
  356.570   90.087    0.211    0.370    3.624
  356.820   89.394    0.215    0.378    3.447
  357.070   87.568    0.232    0.386    3.208
  357.320   84.119    0.238    0.370    2.987
  357.570   79.958    0.282    0.359    2.818
  357.820   80.772    0.283    0.365    2.724
  358.070   80.888    0.294    0.375    2.688
  358.320   79.055    0.297    0.386    2.697
  358.570   78.018    0.292    0.388    2.758
  358.820   81.723    0.280    0.382    2.853
  359.070   87.301    0.270    0.381    2.943
  359.320   93.884    0.256    0.374    2.989
  359.570  100.305    0.233    0.366    2.941
  359.820  105.053    0.185    0.356    2.865
  360.070  107.317    0.188    0.364    2.862
  360.320  107.406    0.213    0.392    2.965
  360.570  108.055    0.237    0.402    3.063
  360.820  109.208    0.248    0.390    3.189
  361.070  109.492    0.234    0.382    3.429
