~VERSION INFORMATION
 VERS.                 2.0:   CWLS LOG ASCII STANDARD -VERSION 2.0
 WRAP.                  NO:   ONE LINE PER DEPTH STEP
~WELL INFORMATION BLOCK
#MNEM.UNIT           DATA                    DESCRIPTION OF MNEMONIC
#---------    -------------------            -------------------------------
# Generated from Intellog Unique Number	CS_73_76/WELL/804
WELL.         PACIFIC PHILLIPS AEC WIAU      : Well_name    - WELL
LOC .         00/10-01-073-09W4/0            : Location     - LOCATION
UWI .         00/10-01-073-09W4/0            : Uwi          - UNIQUE WELL ID
ENTR.         SP                             : Entered      - ENTERED BY
SRVC.         SCHLUMBERGER                   : Scn          - SERVICE COMPANY
STRT.M        320                            : top_depth    - START DEPTH
STOP.M        530                            : bot_depth    - STOP DEPTH
STEP.M        0.25                           : increment    - STEP LENGTH
 NULL. -999.2500:NULL Value
~CURVE INFORMATION BLOCK
#MNEM UNIT       ERCB CURVE CODE    CURVE DESCRIPTION
#-----------   ------------------   ----------------------------------
DEPT.M        00 001 00 00         : DEPTH        - DEPTH
ILD .OHMM     00 120 00 00         : RESD         - DEEP RESISTIVITY (DIL)
DPHI.V/V      00 890 00 00         : PHID         - DENSITY POROSITY (LIMESTONE)
NPHI.V/V      00 330 00 00         : PHIN         - NEUTRON POROSITY (LIMESTONE)
GR  .API      00 310 00 00         : GR           - GAMMA RAY
~PARAMETER INFORMATION
#MNEM.UNIT           DATA             DESCRIPTION OF MNEMONIC
#---------         -----------     ------------------------------
GL  .M        682.9                : gl           - GROUND LEVEL ELEVATION
EREF.M        685.9                : kb           - ELEVATION OF DEPTH REFERENCE
DATM.M        682.9                : datum        - DATUM ELEVATION
TDD .M        544                  : tdd          - TOTAL DEPTH DRILLER
RUN .         ONE                  : Run          - RUN NUMBER
ENG .         BILL                 : Engineer     - RECORDING ENGINEER
WIT .         JIM                  : Witness      - WITNESSED BY
MUD .         GEL                  : Mud_type     - MUD TYPE
MATR.         LIMESTONE            : Logunit      - NEUTRON MATRIX
TMAX.C        16                   : BHT          - MAXIMUM RECORDED TEMPERATURE
BHTD.M        544                  : BHTDEP       - MAXIMUM RECORDED TEMPERATURE
MATR.         1                    : LOGUNIT      - NEUTRON MATRIX
RMT .C        25                   : MDTP         - TEMPERATURE OF MUD
NEUT.         1                    : NEUTRON      - NEUTRON TYPE
RESI.         0                    : RESIST       - RESISTIVITY TYPE
RMC .OHMM     0.25                 : RMC          - RESISTIVITY OF MUD CAKE
RMF .OHMM     0.25                 : RMF          - RESISTIVITY OF MUD FILTRATE
SUFT.C        15                   : SUFT         - SURFACE TEMPERATURE
~A  DEPTH     RESD     PHID     PHIN       GR
# ...
  450.500    6.028    0.225    0.487   87.848
  450.750    6.256    0.223    0.458   87.245
  451.000    6.377    0.230    0.459   87.246
  451.250    6.381    0.222    0.470   86.642
  451.500    6.383    0.213    0.478   87.249
  451.750    6.271    0.208    0.451   87.250
  452.000    6.274    0.212    0.462   86.042
  452.250    6.277    0.207    0.470   89.068
  452.500    6.167    0.208    0.480   87.255
  452.750    6.169    0.220    0.458   86.651
  453.000    6.060    0.223    0.437   90.282
  453.250    5.953    0.224    0.425   91.493
  453.500    5.957    0.220    0.426   91.495
  453.750    5.960    0.211    0.430   91.496
  454.000    5.962    0.201    0.441   90.893
  454.250    5.857    0.191    0.459   90.894
  454.500    5.753    0.201    0.451   89.081
  454.750    5.652    0.208    0.443   89.082
  455.000    5.552    0.212    0.451   89.689
  455.250    5.870    0.203    0.453   89.690
  455.500    6.207    0.200    0.434   90.296
  455.750    6.685    0.208    0.430   93.927
  456.000    6.566    0.221    0.424   95.742
  456.250    6.217    0.226    0.419   95.744
  456.500    5.674    0.213    0.412   96.350
  456.750    5.471    0.201    0.418   96.956
  457.000    5.275    0.194    0.435   97.563
  457.250    4.726    0.201    0.447   96.960
  457.500    4.081    0.198    0.463   95.147
  457.750    3.459    0.209    0.454   93.938
  458.000    2.879    0.200    0.464   92.730
  458.250    2.627    0.213    0.476   90.917
  458.500    2.487    0.234    0.492   88.499
  458.750    2.443    0.246    0.524   87.290
  459.000    2.444    0.248    0.558   86.082
  459.250    2.446    0.242    0.573   86.688
  459.500    2.586    0.259    0.562   89.109
  459.750    2.588    0.247    0.538   91.530
  460.000    2.450    0.252    0.523   93.346
  460.250    2.319    0.234    0.515   94.558
  460.500    2.407    0.253    0.526   94.558
  460.750    2.593    0.265    0.540   93.955
  461.000    2.898    0.254    0.555   93.957
  461.250    3.239    0.258    0.560   92.748
  461.500    3.553    0.249    0.540   89.725
  461.750    3.688    0.247    0.515   85.493
  462.000    3.828    0.241    0.464   81.261
  462.250    3.902    0.232    0.448   80.053
  462.500    3.904    0.230    0.453   80.054
  462.750    3.979    0.243    0.457   81.265
  463.000    4.207    0.241    0.455   82.476
  463.250    4.532    0.249    0.444   83.082
  463.500    4.704    0.263    0.433   82.479
  463.750    5.067    0.246    0.449   78.851
  464.000    5.260    0.277    0.466   75.224
  464.250    5.460    0.293    0.481   71.596
  464.500    5.773    0.280    0.487   69.178
  464.750    5.993    0.292    0.477   66.760
  465.000    5.997    0.297    0.459   66.157
  465.250    6.000    0.300    0.457   66.158
  465.500    6.830    0.305    0.455   66.160
  465.750    7.493    0.300    0.463   65.556
  466.000    8.528    0.287    0.449   64.348
  466.250   10.643    0.266    0.421   63.140
  466.500   13.284    0.242    0.379   60.722
  466.750   15.401    0.197    0.306   60.119
  467.000   12.817    0.038    0.223   59.515
  467.250   10.666    0.038    0.201   58.912
  467.500    8.248    0.096    0.246   59.518
  467.750    7.252    0.150    0.276   66.173
  468.000    5.712    0.202    0.361   69.199
  468.250    5.117    0.229    0.401   69.805
  468.500    4.756    0.259    0.424   69.806
  468.750    4.672    0.290    0.459   69.808
  469.000    4.505    0.304    0.442   69.204
  469.250    4.508    0.298    0.456   68.601
  469.500    4.510    0.267    0.471   67.997
  469.750    4.430    0.235    0.441   69.208
  470.000    4.432    0.247    0.427   69.814
  470.250    4.435    0.272    0.446   68.607
  470.500    4.437    0.279    0.453   65.584
  470.750    4.439    0.282    0.443   64.980
  471.000    4.443    0.289    0.456   64.377
  471.250    4.444    0.292    0.471   64.983
  471.500    4.530    0.293    0.466   67.404
  471.750    4.704    0.295    0.450   68.615
  472.000    4.793    0.298    0.444   69.222
  472.250    4.976    0.298    0.450   69.223
  472.500    4.977    0.289    0.462   67.410
  472.750    5.073    0.275    0.466   66.201
  473.000    5.076    0.252    0.433   64.389
  473.250    4.894    0.238    0.404   63.785
  473.500    4.809    0.243    0.416   63.181
  473.750    4.810    0.261    0.429   66.207
  474.000    4.726    0.272    0.439   69.233
  474.250    4.728    0.265    0.437   71.049
  474.500    4.646    0.254    0.433   72.260
  474.750    4.648    0.258    0.435   72.261
  475.000    4.650    0.276    0.429   72.868
  475.250    4.652    0.279    0.427   72.869
  475.500    4.655    0.285    0.441   73.476
  475.750    4.658    0.289    0.447   73.477
  476.000    4.574    0.284    0.453   75.293
  476.250    4.495    0.266    0.443   80.738
  476.500    4.414    0.247    0.439   81.949
  476.750    4.416    0.231    0.461   84.975
  477.000    4.585    0.233    0.477   84.371
  477.250    4.672    0.218    0.453   81.348
  477.500    4.941    0.221    0.435   81.350
  477.750    5.128    0.202    0.448   81.351
  478.000    5.525    0.220    0.464   80.748
  478.250    5.842    0.212    0.437   78.935
  478.500    6.063    0.196    0.422   77.122
  478.750    6.532    0.215    0.410   74.099
  479.000    6.656    0.213    0.403   73.495
  479.250    6.910    0.220    0.398   72.892
  479.500    7.042    0.219    0.393   74.103
  479.750    7.177    0.228    0.390   78.944
  480.000    7.181    0.238    0.387   81.969
  480.250    7.184    0.226    0.401   84.995
  480.500    8.029    0.239    0.405   83.787
  480.750    8.647    0.258    0.405   79.554
  481.000    9.665    0.270    0.392   78.345
  481.250    9.849    0.282    0.373   82.581
  481.500   10.225    0.249    0.375   89.236
  481.750   10.229    0.215    0.390   94.681
  482.000   10.425    0.225    0.384   94.077
  482.250   11.024    0.241    0.386   92.264
  482.500   11.659    0.247    0.390   90.451
  482.750   12.101    0.256    0.382   87.428
  483.000   12.331    0.264    0.388   80.172
  483.250   12.568    0.244    0.379   75.939
  483.500   11.900    0.234    0.371   77.755
  483.750   11.474    0.241    0.374   81.386
  484.000   10.667    0.219    0.362   81.387
  484.250   10.284    0.197    0.352   81.388
  484.500   10.290    0.201    0.363   85.019
  484.750   11.084    0.210    0.381   85.625
  485.000   11.722    0.230    0.392   83.207
  485.250   12.393    0.242    0.397   80.789
  485.500   13.105    0.262    0.385   80.186
  485.750   13.358    0.247    0.375   82.002
  486.000   13.118    0.251    0.386   83.213
  486.250   12.421    0.243    0.390   83.215
  486.500   11.130    0.251    0.387   85.635
  486.750   10.535    0.255    0.390   91.081
  487.000    9.792    0.240    0.392   95.920
  487.250    9.101    0.224    0.394  102.575
  487.500    8.617    0.193    0.397  107.415
  487.750    8.782    0.176    0.411  102.578
  488.000    9.286    0.215    0.426   90.483
  488.250    9.819    0.234    0.415   83.831
  488.500   10.381    0.238    0.354   77.784
  488.750   11.180    0.234    0.344   75.366
  489.000   11.823    0.233    0.357   76.578
  489.250   12.049    0.238    0.363   75.974
  489.500   11.408    0.227    0.370   75.975
  489.750   10.800    0.215    0.370   77.791
  490.000   10.415    0.219    0.369   79.607
  490.250   10.232    0.221    0.357   75.979
  490.500   10.820    0.223    0.340   80.215
  490.750   11.230    0.213    0.348   79.611
  491.000   11.658    0.202    0.357   74.169
  491.250   11.450    0.214    0.368   69.936
  491.500   10.644    0.253    0.375   74.777
  491.750   10.076    0.268    0.369   80.827
  492.000    9.196    0.231    0.346   83.248
  492.250    8.546    0.214    0.351   82.040
  492.500    7.657    0.215    0.359   82.646
  492.750    7.248    0.213    0.371   86.881
  493.000    8.253    0.194    0.365   86.277
  493.250    8.887    0.187    0.393   80.230
  493.500   11.507    0.204    0.391   71.764
  493.750   13.099    0.268    0.388   66.927
