~VERSION INFORMATION
 VERS.                 2.0:   CWLS LOG ASCII STANDARD -VERSION 2.0
 WRAP.                  NO:   ONE LINE PER DEPTH STEP
~WELL INFORMATION BLOCK
#MNEM.UNIT           DATA                    DESCRIPTION OF MNEMONIC
#---------    -------------------            -------------------------------
# Generated from Intellog Unique Number	CS_73_76/WELL/851
WELL.         BOW VALLEY INDUSTRIES LTD.     : Well_name    - WELL
LOC .         00/11-30-073-13W4/0            : Location     - LOCATION
UWI .         00/11-30-073-13W4/0            : Uwi          - UNIQUE WELL ID
ENTR.         SP                             : Entered      - ENTERED BY
SRVC.         SCHLUMBERGER                   : Scn          - SERVICE COMPANY
STRT.M        325                            : top_depth    - START DEPTH
STOP.M        557                            : bot_depth    - STOP DEPTH
STEP.M        0.25                           : increment    - STEP LENGTH
 NULL. -999.2500:NULL Value
~CURVE INFORMATION BLOCK
#MNEM UNIT       ERCB CURVE CODE    CURVE DESCRIPTION
#-----------   ------------------   ----------------------------------
DEPT.M        00 001 00 00         : DEPTH        - DEPTH
ILD .OHMM     00 120 00 00         : RESD         - DEEP RESISTIVITY (DIL)
DPHI.V/V      00 890 00 00         : PHID         - DENSITY POROSITY (LIMESTONE)
NPHI.V/V      00 330 00 00         : PHIN         - NEUTRON POROSITY (LIMESTONE)
GR  .API      00 310 00 00         : GR           - GAMMA RAY
~PARAMETER INFORMATION
#MNEM.UNIT           DATA             DESCRIPTION OF MNEMONIC
#---------         -----------     ------------------------------
GL  .M        672.66               : gl           - GROUND LEVEL ELEVATION
EREF.M        676.31               : kb           - ELEVATION OF DEPTH REFERENCE
DATM.M        672.31               : datum        - DATUM ELEVATION
TDD .M        665                  : tdd          - TOTAL DEPTH DRILLER
RUN .         ONE                  : Run          - RUN NUMBER
ENG .         BILL                 : Engineer     - RECORDING ENGINEER
WIT .         JIM                  : Witness      - WITNESSED BY
MUD .         GEL                  : Mud_type     - MUD TYPE
MATR.         LIMESTONE            : Logunit      - NEUTRON MATRIX
TMAX.C        24                   : BHT          - MAXIMUM RECORDED TEMPERATURE
BHTD.M        665                  : BHTDEP       - MAXIMUM RECORDED TEMPERATURE
MATR.         1                    : LOGUNIT      - NEUTRON MATRIX
RMT .C        25                   : MDTP         - TEMPERATURE OF MUD
NEUT.         1                    : NEUTRON      - NEUTRON TYPE
RESI.         0                    : RESIST       - RESISTIVITY TYPE
RMC .OHMM     0.25                 : RMC          - RESISTIVITY OF MUD CAKE
RMF .OHMM     0.25                 : RMF          - RESISTIVITY OF MUD FILTRATE
SUFT.C        15                   : SUFT         - SURFACE TEMPERATURE
~A  DEPTH     RESD     PHID     PHIN       GR
# ...
  412.000    6.197    0.318    0.438   63.219
  412.250    6.085    0.322    0.435   64.442
  412.500    5.865    0.313    0.441   65.054
  412.750    5.759    0.312    0.447   64.465
  413.000    5.654    0.311    0.448   65.081
  413.250    5.553    0.310    0.459   65.698
  413.500    5.452    0.306    0.465   65.109
  413.750    5.256    0.314    0.474   64.520
  414.000    5.160    0.318    0.484   66.947
  414.250    4.973    0.301    0.475   72.983
  414.500    4.531    0.284    0.474   80.225
  414.750    4.051    0.266    0.469   87.469
  415.000    3.425    0.247    0.458   93.506
  415.250    2.895    0.243    0.539   95.331
  415.500    2.688    0.263    0.563   91.727
  415.750    3.561    0.294    0.516   82.100
  416.000    4.461    0.308    0.464   72.479
  416.250    4.900    0.312    0.442   68.874
  416.500    5.912    0.312    0.444   68.889
  416.750    6.496    0.311    0.450   68.902
  417.000    6.622    0.303    0.461   72.535
  417.250    6.626    0.300    0.466   73.749
  417.500    6.631    0.303    0.447   67.741
  417.750    6.757    0.299    0.437   64.138
  418.000    6.760    0.290    0.444   61.741
  418.250    6.893    0.278    0.448   65.371
  418.500    7.160    0.292    0.441   66.591
  418.750    7.435    0.301    0.417   66.602
  419.000    8.481    0.284    0.417   66.616
  419.250    9.493    0.195    0.434   61.811
  419.500   13.056    0.068    0.356   56.403
  419.750   19.720    0.038    0.152   50.393
  420.000   27.640    0.031    0.143   54.023
  420.250   32.117    0.029    0.137   57.652
  420.500   35.956    0.025    0.130   55.256
  420.750   35.974    0.040    0.131   51.652
  421.000   35.988    0.068    0.186   47.451
  421.250   34.686    0.093    0.218   45.653
  421.500   30.443    0.057    0.171   50.493
  421.750   28.258    0.039    0.158   52.308
  422.000   25.268    0.098    0.205   54.129
  422.250   26.246    0.160    0.290   52.938
  422.500   24.366    0.146    0.170   49.337
  422.750   20.991    0.066    0.153   51.764
  423.000   18.422    0.041    0.155   56.594
  423.250   16.165    0.104    0.216   60.222
  423.500   13.667    0.279    0.285   60.838
  423.750   12.450    0.254    0.326   57.840
  424.000   12.226    0.074    0.365   53.035
  424.250   13.946    0.027    0.197   48.830
  424.500   14.758    0.002    0.162   45.833
  424.750   15.329    0.015    0.141   42.834
  425.000   12.960    0.204    0.182   57.307
  425.250   11.162    0.261    0.252   68.766
  425.500    9.261    0.279    0.328   74.203
  425.750    7.683    0.280    0.417   74.819
  426.000    6.495    0.269    0.417   72.427
  426.250    5.919    0.267    0.431   70.634
  426.500    5.921    0.256    0.452   72.451
  426.750    5.924    0.241    0.452   77.285
  427.000    6.153    0.228    0.459   80.915
  427.250    6.513    0.223    0.455   79.722
  427.500    6.639    0.246    0.427   76.122
  427.750    6.399    0.257    0.421   74.326
  428.000    6.166    0.261    0.430   74.340
  428.250    5.943    0.251    0.435   77.366
  428.500    5.836    0.247    0.437   79.189
  428.750    5.838    0.252    0.454   77.396
  429.000    5.951    0.268    0.460   74.997
  429.250    6.181    0.286    0.438   72.602
  429.500    6.421    0.274    0.413   79.847
  429.750    6.425    0.256    0.408   86.490
  430.000    6.427    0.251    0.431   88.907
  430.250    6.312    0.256    0.445   78.681
  430.500    6.315    0.237    0.428   75.685
  430.750    6.318    0.218    0.415   78.108
  431.000    6.440    0.207    0.410   76.915
  431.250    6.445    0.204    0.414   76.325
  431.500    6.569    0.210    0.420   79.354
  431.750    6.573    0.210    0.416   81.774
  432.000    6.218    0.215    0.435   84.805
  432.250    6.107    0.216    0.444   85.419
  432.500    5.996    0.231    0.456   88.450
  432.750    5.887    0.238    0.460   90.264
  433.000    5.780    0.225    0.467   91.484
  433.250    5.675    0.230    0.466   89.689
  433.500    6.120    0.243    0.455   86.692
  433.750    6.356    0.248    0.456   86.102
  434.000    6.482    0.245    0.461   85.518
  434.250    6.485    0.245    0.463   84.926
  434.500    6.487    0.258    0.464   83.737
  434.750    6.370    0.276    0.444   82.543
  435.000    6.254    0.276    0.428   83.762
  435.250    5.916    0.255    0.442   83.172
  435.500    5.702    0.254    0.458   82.584
  435.750    5.704    0.251    0.462   85.610
  436.000    5.816    0.243    0.455   86.225
  436.250    5.818    0.249    0.451   84.433
  436.500    5.821    0.252    0.448   84.446
  436.750    5.826    0.245    0.458   88.075
  437.000    5.827    0.244    0.459   90.497
  437.250    5.829    0.240    0.453   89.308
  437.500    5.833    0.239    0.452   83.899
  437.750    5.836    0.241    0.452   89.343
  438.000    5.730    0.251    0.454   89.950
  438.250    5.842    0.255    0.462   82.132
  438.500    5.845    0.258    0.476   85.763
  438.750    5.848    0.263    0.486   85.176
  439.000    5.961    0.270    0.493   80.970
  439.250    6.077    0.275    0.471   79.779
  439.500    6.313    0.278    0.449   80.398
  439.750    6.434    0.280    0.442   79.806
  440.000    6.685    0.281    0.437   78.011
  440.250    6.687    0.275    0.429   75.615
  440.500    6.816    0.267    0.424   74.424
  440.750    6.820    0.258    0.420   79.862
  441.000    6.823    0.267    0.453   82.284
  441.250    6.826    0.268    0.456   81.697
  441.500    6.703    0.262    0.441   78.103
  441.750    6.461    0.257    0.433   76.903
  442.000    6.228    0.267    0.436   75.712
  442.250    6.115    0.273    0.438   78.135
  442.500    6.119    0.275    0.433   82.370
  442.750    6.120    0.270    0.428   84.187
  443.000    6.357    0.269    0.426   82.394
  443.250    6.480    0.266    0.431   81.203
  443.500    6.363    0.264    0.426   83.031
  443.750    5.908    0.261    0.420   84.847
  444.000    5.587    0.260    0.415   85.463
  444.250    4.812    0.258    0.455   88.488
  444.500    3.250    0.253    0.493   93.321
  444.750    2.321    0.260    0.518   98.158
  445.000    2.115    0.258    0.536   99.976
  445.250    2.038    0.248    0.528   98.785
  445.500    2.157    0.241    0.539   98.195
  445.750    2.652    0.244    0.559   98.213
  446.000    2.969    0.247    0.531   97.619
  446.250    3.386    0.247    0.514   96.435
  446.500    3.720    0.249    0.483   95.841
  446.750    4.406    0.239    0.469   94.048
  447.000    4.575    0.234    0.477   92.258
  447.250    5.027    0.237    0.469   90.461
  447.500    5.320    0.244    0.459   91.074
  447.750    5.423    0.246    0.446   92.295
  448.000    5.426    0.248    0.457   90.504
  448.250    5.329    0.246    0.474   89.309
  448.500    5.331    0.245    0.457   88.117
  448.750    5.333    0.235    0.433   89.939
  449.000    5.438    0.222    0.464   90.556
  449.250    5.440    0.212    0.484   83.944
  449.500    5.545    0.211    0.445   80.942
  449.750    5.654    0.233    0.421   82.768
  450.000    5.764    0.250    0.421   82.782
  450.250    5.767    0.262    0.419   82.189
  450.500    5.878    0.253    0.415   83.412
  450.750    5.991    0.247    0.406   82.820
  451.000    5.994    0.251    0.399   79.221
  451.250    5.999    0.238    0.397   77.426
  451.500    6.001    0.246    0.405   73.227
  451.750    6.118    0.264    0.414   71.429
  452.000    6.121    0.283    0.414   71.446
  452.250    6.239    0.290    0.411   70.856
  452.500    6.361    0.292    0.441   70.263
  452.750    6.484    0.295    0.463   69.677
  453.000    6.249    0.290    0.420   68.486
  453.250    6.022    0.201    0.382   72.112
  453.500    6.026    0.218    0.425   76.947
  453.750    6.142    0.234    0.459   77.567
  454.000    6.262    0.219    0.475   76.376
  454.250    6.384    0.163    0.493   73.975
  454.500    6.386    0.060    0.420   60.735
  454.750    6.271    0.056    0.269   58.340
  455.000    5.931    0.115    0.382   71.606
  455.250    5.508    0.160    0.427   84.272
