~VERSION INFORMATION
 VERS.                 2.0:   CWLS LOG ASCII STANDARD -VERSION 2.0
 WRAP.                  NO:   ONE LINE PER DEPTH STEP
~WELL INFORMATION BLOCK
#MNEM.UNIT           DATA                    DESCRIPTION OF MNEMONIC
#---------    -------------------            -------------------------------
# Generated from Intellog Unique Number	CW_70_72/WELL/3750
NULL.         -999.25                        : NULL_VALUE
WELL.         NORCEN ENERGY RESOURCES LTD.   : Well_name    - WELL              
LOC .         00/10-22-071-05W5/0            : Location     - LOCATION          
UWI .         00/10-22-071-05W5/0            : Uwi          - UNIQUE WELL ID    
ENTR.         JOETTE                         : Entered      - ENTERED BY        
SRVC.         COMPUTALOG                     : Scn          - SERVICE COMPANY   
DATE.         05/13/92                       : Date         - LOG DATE          
STRT.M        610                            : top_depth    - START DEPTH       
STOP.M        835                            : bot_depth    - STOP DEPTH        
STEP.M        0.25                           : increment    - STEP LENGTH       
~CURVE INFORMATION BLOCK
#MNEM UNIT       ERCB CURVE CODE    CURVE DESCRIPTION
#-----------   ------------------   ----------------------------------
DEPT.M        00 001 00 00         : DEPTH        - DEPTH                       
DPHI.V/V      00 890 00 00         : PHID         - DENSITY POROSITY (SANDSTONE)
GR  .API      00 310 00 00         : GR           - GAMMA RAY                   
CALI.MM       00 280 01 00         : CAL          - CALIPER                     
ILD .OHMM     00 120 00 00         : RESD         - DEEP RESISTIVITY (DIL)      
NPHI.V/V      00 330 00 00         : PHIN         - NEUTRON POROSITY (SANDSTONE)
~PARAMETER INFORMATION       
#MNEM.UNIT           DATA             DESCRIPTION OF MNEMONIC
#---------         -----------     ------------------------------
GL  .M        778.85               : gl           - GROUND LEVEL ELEVATION      
EREF.M        782.2                : kb           - ELEVATION OF DEPTH REFERENCE
DATM.M        782.2                : datum        - DATUM ELEVATION             
TDD .M        874.9                : tdd          - TOTAL DEPTH DRILLER         
RUN .         ONE                  : Run          - RUN NUMBER                  
ENG .         BILL                 : Engineer     - RECORDING ENGINEER          
WIT .         JIM                  : Witness      - WITNESSED BY                
MUD .         GEL                  : Mud_type     - MUD TYPE                    
MATR.         SANDSTONE            : Logunit      - NEUTRON MATRIX              
TMAX.C        39                   : BHT          - MAXIMUM RECORDED TEMPERATURE
BHTD.M        874.9                : BHTDEP       - MAXIMUM RECORDED TEMPERATURE
MATR.         1                    : LOGUNIT      - NEUTRON MATRIX              
RMT .C        24.4                 : MDTP         - TEMPERATURE OF MUD          
NEUT.         1                    : NEUTRON      - NEUTRON TYPE                
RESI.         0                    : RESIST       - RESISTIVITY TYPE            
RMC .OHMM     2.7                  : RMC          - RESISTIVITY OF MUD CAKE     
RMF .OHMM     4.4                  : RMF          - RESISTIVITY OF MUD FILTRATE 
SUFT.C        15                   : SUFT         - SURFACE TEMPERATURE         
~A  DEPTH     PHID       GR      CAL     RESD     PHIN
  610.000    0.211   92.727  199.673    4.020    0.431
  610.250    0.207   90.261  197.646    3.519    0.426
  610.500    0.208   88.414  195.618    3.262    0.428
  610.750    0.212   87.839  193.591    2.967    0.437
  611.000    0.213   87.861  193.684    2.857    0.445
  611.250    0.211   89.178  192.689    2.805    0.444
  611.500    0.211   91.104  192.745    2.806    0.435
  611.750    0.210   96.846  191.806    2.862    0.445
  612.000    0.210   91.204  190.811    2.975    0.450
  612.250    0.212   81.149  190.867    3.214    0.390
  612.500    0.213   73.627  189.910    3.277    0.359
  612.750    0.219   67.366  189.984    3.343    0.368
  613.000    0.232   69.302  189.008    3.346    0.386
  613.250    0.249   71.881  189.082    3.283    0.401
  613.500    0.266   70.023  189.157    3.285    0.401
  613.750    0.270   63.142  188.181    3.226    0.390
  614.000    0.276   60.665  188.237    3.229    0.373
  614.250    0.274   58.176  187.298    3.231    0.371
  614.500    0.267   56.329  187.372    3.294    0.384
  614.750    0.250   60.157  187.447    3.425    0.395
  615.000    0.221   67.150  187.540    3.493    0.390
  615.250    0.210   72.250  187.596    3.631    0.358
  615.500    0.192   71.653  187.652    3.923    0.365
  615.750    0.164   67.926  186.713    4.000    0.366
  616.000    0.165   66.698  186.750    3.927    0.370
  616.250    0.180   69.896  186.844    3.854    0.384
  616.500    0.193   74.354  189.039    3.506    0.426
  616.750    0.212   80.085  192.229    3.250    0.447
  617.000    0.225   83.914  197.558    3.070    0.456
  617.250    0.224   85.219  200.804    2.846    0.444
  617.500    0.223   85.895  198.777    2.689    0.437
  617.750    0.224   94.767  194.666    2.590    0.443
  618.000    0.226  100.487  193.671    2.543    0.454
  618.250    0.224  104.957  192.695    2.593    0.461
  618.500    0.215  105.633  193.821    2.855    0.451
  618.750    0.207  105.047  197.048    3.084    0.431
  619.000    0.211  101.297  199.225    3.267    0.425
  619.250    0.222   86.208  200.350    3.529    0.422
  619.500    0.268   70.489  199.374    3.740    0.371
  619.750    0.279   62.967  196.314    3.963    0.328
  620.000    0.293   54.172  194.287    4.200    0.320
  620.250    0.284   54.228  192.278    4.202    0.362
  620.500    0.280   54.273  192.316    3.970    0.380
  620.750    0.288   51.784  191.339    3.610    0.397
  621.000    0.296   46.796  191.432    3.283    0.402
  621.250    0.299   48.102  191.507    2.987    0.404
  621.500    0.242   54.452  191.582    2.876    0.415
  621.750    0.205   62.064  192.707    2.769    0.430
  622.000    0.189   75.981  194.884    2.825    0.445
  622.250    0.227  101.890  201.264    2.937    0.457
  622.500    0.238  106.349  205.542    3.173    0.464
  622.750    0.261   83.063  202.483    3.298    0.470
  623.000    0.277   70.496  208.844    3.563    0.397
  623.250    0.300   62.963  198.410    3.633    0.340
  623.500    0.279   53.549  192.178    3.567    0.318
  623.750    0.289   49.822  189.119    3.501    0.313
  624.000    0.286   53.019  189.194    3.372    0.316
  624.250    0.280   55.575  188.199    3.310    0.325
  624.500    0.266   58.142  188.292    3.188    0.315
  624.750    0.245   60.101  187.297    3.130    0.308
  625.000    0.216   61.407  187.371    3.192    0.330
  625.250    0.217   62.071  188.497    3.447    0.331
  625.500    0.212   65.899  189.641    3.584    0.328
  625.750    0.207   73.511  192.850    3.586    0.334
  626.000    0.230   90.603  197.128    3.588    0.355
  626.250    0.246   91.278  197.203    3.523    0.403
  626.500    0.262   83.745  194.125    3.393    0.402
  626.750    0.265   78.115  191.084    3.461    0.371
  627.000    0.264   73.734  190.089    3.598    0.346
  627.250    0.250   74.421  190.182    3.812    0.341
  627.500    0.218   82.663  190.238    4.278    0.341
  627.750    0.214   83.980  190.331    4.363    0.351
  628.000    0.214   80.861  191.457    4.283    0.356
  628.250    0.228   75.231  192.564    4.047    0.321
  628.500    0.247   66.447  191.606    4.049    0.313
  628.750    0.241   57.653  189.579    4.129    0.313
  629.000    0.221   55.175  188.584    4.376    0.336
  629.250    0.204   65.951  189.709    4.727    0.339
  629.500    0.192   77.977  192.937    4.913    0.357
  629.750    0.187   86.219  196.164    5.208    0.345
  630.000    0.185   84.372  197.308    5.311    0.348
  630.250    0.181   83.155  196.351    5.213    0.359
  630.500    0.167   85.114  195.356    4.927    0.375
  630.750    0.164   83.267  194.398    4.745    0.376
  631.000    0.148   82.051  194.491    4.657    0.371
  631.250    0.144   83.357  194.528    4.486    0.385
  631.500    0.160   89.696  196.705    4.488    0.394
  631.750    0.188  101.722  200.983    4.406    0.389
  632.000    0.184  101.766  208.433    4.409    0.373
  632.250    0.191   96.147  209.540    4.412    0.362
  632.500    0.212   96.192  206.481    4.413    0.370
  632.750    0.287   96.226  202.370    4.333    0.388
  633.000    0.319   89.334  200.305    4.336    0.425
  633.250    0.324   84.334  195.125    4.338    0.445
  633.500    0.290   79.335  190.996    4.342    0.424
  633.750    0.282   74.335  188.969    4.261    0.396
  634.000    0.277   68.716  189.062    4.263    0.398
  634.250    0.290   65.596  189.118    4.106    0.418
  634.500    0.305   60.597  189.230    3.735    0.414
  634.750    0.311   54.966  189.286    3.397    0.402
  635.000    0.310   49.336  189.379    3.149    0.389
  635.250    0.303   53.795  189.435    3.092    0.379
  635.500    0.296   60.145  189.491    3.092    0.378
  635.750    0.280   63.973  189.603    3.215    0.384
  636.000    0.278   65.910  189.696    3.279    0.404
  636.250    0.276   64.063  189.752    3.219    0.430
  636.500    0.236   67.260  188.794    3.160    0.419
  636.750    0.213   73.622  187.799    3.102    0.409
  637.000    0.212   81.234  187.855    2.987    0.422
  637.250    0.227   87.584  187.930    2.877    0.446
  637.500    0.249   86.368  188.023    2.824    0.422
  637.750    0.268   76.323  188.117    2.826    0.397
  638.000    0.286   67.540  188.154    2.883    0.409
  638.250    0.301   62.540  188.228    2.997    0.421
  638.500    0.300   57.552  188.303    3.115    0.409
  638.750    0.291   58.846  188.378    3.178    0.392
  639.000    0.283   63.936  188.471    3.304    0.366
  639.250    0.272   66.503  188.545    3.369    0.374
  639.500    0.240   69.700  189.671    3.436    0.393
  639.750    0.235   72.909  190.815    3.572    0.404
  640.000    0.228   75.476  191.941    3.574    0.389
  640.250    0.229   79.304  193.066    3.577    0.384
  640.500    0.229   84.405  195.261    3.579    0.391
  640.750    0.232   87.625  196.368    3.514    0.396
  641.000    0.237   88.908  199.614    3.449    0.406
  641.250    0.245   92.725  201.754    3.386    0.423
  641.500    0.240  104.131  205.018    3.199    0.434
  641.750    0.231  109.232  208.246    2.855    0.439
  642.000    0.234  101.068  210.404    2.749    0.454
  642.250    0.247   98.591  212.561    2.597    0.481
  642.500    0.266   96.113  215.808    2.599    0.501
  642.750    0.281   84.796  214.831    2.651    0.515
  643.000    0.303   76.644  207.531    2.809    0.465
  643.250    0.322   71.655  197.096    3.034    0.425
  643.500    0.323   67.275  191.934    3.341    0.419
  643.750    0.327   61.656  190.939    3.473    0.414
  644.000    0.333   57.906  191.033    3.542    0.405
  644.250    0.338   51.656  191.088    3.612    0.391
  644.500    0.334   49.809  191.182    3.615    0.377
  644.750    0.331   49.224  191.275    3.617    0.368
  645.000    0.329   49.268  191.331    3.618    0.355
  645.250    0.327   49.944  191.406    3.553    0.347
  645.500    0.327   50.619  191.480    3.488    0.348
  645.750    0.327   50.664  190.522    3.490    0.373
  646.000    0.327   50.067  186.393    3.425    0.385
  646.250    0.328   49.481  187.500    3.363    0.392
