~VERSION INFORMATION
 VERS.                 2.0:   CWLS LOG ASCII STANDARD -VERSION 2.0
 WRAP.                  NO:   ONE LINE PER DEPTH STEP
~WELL INFORMATION BLOCK
#MNEM.UNIT           DATA                    DESCRIPTION OF MNEMONIC
#---------    -------------------            -------------------------------
# Generated from Intellog Unique Number	CS_77_79/WELL/984
WELL.         CANADIAN WORLDWIDE ENERGY      : Well_name    - WELL
LOC .         00/11-03-077-04W4/0            : Location     - LOCATION
UWI .         00/11-03-077-04W4/0            : Uwi          - UNIQUE WELL ID
ENTR.         SP                             : Entered      - ENTERED BY
SRVC.         SCHLUMBERGER                   : Scn          - SERVICE COMPANY
STRT.M        175                            : top_depth    - START DEPTH
STOP.M        450                            : bot_depth    - STOP DEPTH
STEP.M        0.25                           : increment    - STEP LENGTH
 NULL. -999.2500:NULL Value
~CURVE INFORMATION BLOCK
#MNEM UNIT       ERCB CURVE CODE    CURVE DESCRIPTION
#-----------   ------------------   ----------------------------------
DEPT.M        00 001 00 00         : DEPTH        - DEPTH
ILD .OHMM     00 120 00 00         : RESD         - DEEP RESISTIVITY (DIL)
DPHI.V/V      00 890 00 00         : PHID         - DENSITY POROSITY (LIMESTONE)
NPHI.V/V      00 330 00 00         : PHIN         - NEUTRON POROSITY (LIMESTONE)
GR  .API      00 310 00 00         : GR           - GAMMA RAY
~PARAMETER INFORMATION
#MNEM.UNIT           DATA             DESCRIPTION OF MNEMONIC
#---------         -----------     ------------------------------
GL  .M        577.9                : gl           - GROUND LEVEL ELEVATION
EREF.M        581.55               : kb           - ELEVATION OF DEPTH REFERENCE
DATM.M        577.9                : datum        - DATUM ELEVATION
TDD .M        450                  : tdd          - TOTAL DEPTH DRILLER
RUN .         ONE                  : Run          - RUN NUMBER
ENG .         BILL                 : Engineer     - RECORDING ENGINEER
WIT .         JIM                  : Witness      - WITNESSED BY
MUD .         GEL                  : Mud_type     - MUD TYPE
MATR.         LIMESTONE            : Logunit      - NEUTRON MATRIX
TMAX.C        23                   : BHT          - MAXIMUM RECORDED TEMPERATURE
BHTD.M        450                  : BHTDEP       - MAXIMUM RECORDED TEMPERATURE
MATR.         1                    : LOGUNIT      - NEUTRON MATRIX
RMT .C        25                   : MDTP         - TEMPERATURE OF MUD
NEUT.         1                    : NEUTRON      - NEUTRON TYPE
RESI.         0                    : RESIST       - RESISTIVITY TYPE
RMC .OHMM     0.25                 : RMC          - RESISTIVITY OF MUD CAKE
RMF .OHMM     0.25                 : RMF          - RESISTIVITY OF MUD FILTRATE
SUFT.C        15                   : SUFT         - SURFACE TEMPERATURE
~A  DEPTH     RESD     PHID     PHIN       GR
  175.000    2.816    0.270    0.489  106.612
  175.250    2.819    0.271    0.491  105.997
  175.500    2.821    0.273    0.501  104.763
  175.750    2.823    0.280    0.522  101.668
  176.000    2.825    0.278    0.538  101.051
  176.250    2.881    0.277    0.554  101.677
  176.500    2.884    0.275    0.563  101.681
  176.750    2.941    0.261    0.550  106.025
  177.000    3.056    0.263    0.539  109.128
  177.250    3.178    0.266    0.533  111.612
  177.500    3.241    0.266    0.526  111.616
  177.750    3.182    0.252    0.490  109.762
  178.000    3.183    0.249    0.496  109.766
  178.250    3.012    0.255    0.500  111.012
  178.500    3.014    0.255    0.508  112.255
  178.750    3.016    0.247    0.507  113.500
  179.000    3.076    0.240    0.485  117.227
  179.250    3.021    0.229    0.471  119.710
  179.500    3.081    0.219    0.487  120.334
  179.750    3.202    0.221    0.497  120.956
  180.000    3.392    0.235    0.495  117.861
  180.250    3.459    0.235    0.471  112.907
  180.500    3.527    0.224    0.465  111.673
  180.750    3.596    0.223    0.477  109.198
  181.000    3.600    0.221    0.501  110.442
  181.250    3.537    0.216    0.522  117.265
  181.500    3.539    0.213    0.533  118.510
  181.750    3.475    0.225    0.542  117.275
  182.000    3.478    0.227    0.539  112.941
  182.250    3.483    0.221    0.523  110.466
  182.500    3.484    0.218    0.501  111.710
  182.750    3.555    0.224    0.485  109.855
  183.000    3.626    0.234    0.485  111.719
  183.250    3.696    0.236    0.497  112.344
  183.500    4.064    0.235    0.488  109.249
  183.750    5.815    0.236    0.409  103.675
  184.000    7.717    0.215    0.367   89.423
  184.250    9.499    0.183    0.316   60.296
  184.500    9.689    0.126    0.252   44.805
  184.750    9.515    0.116    0.243   31.173
  185.000    7.181    0.154    0.253   46.054
  185.250    5.954    0.200    0.315   87.587
  185.500    5.031    0.242    0.362  106.186
  185.750    4.414    0.237    0.401  111.769
  186.000    4.335    0.227    0.428  111.155
  186.250    4.421    0.216    0.423  113.019
  186.500    5.048    0.220    0.429  114.883
  186.750    5.874    0.245    0.436   95.673
  187.000    6.457    0.256    0.422   87.000
  187.250    7.655    0.234    0.397   99.401
  187.500    9.247    0.221    0.383   98.786
  187.750   11.171    0.234    0.379   96.312
  188.000   12.283    0.240    0.366   90.118
  188.250   13.515    0.237    0.357   80.206
  188.500   13.782    0.241    0.341   76.490
  188.750   13.790    0.255    0.341   74.636
  189.000   13.288    0.259    0.344   80.219
  189.250   12.808    0.252    0.350   82.084
  189.500   12.582    0.252    0.366   82.087
  189.750   12.591    0.258    0.381   82.092
  190.000   12.605    0.261    0.386   79.000
  190.250   12.379    0.271    0.376   77.144
  190.500   12.157    0.275    0.362   80.868
  190.750   11.939    0.267    0.367   85.831
  191.000   11.725    0.262    0.377   88.314
  191.250   11.304    0.248    0.382   90.179
  191.500   11.100    0.241    0.368   90.805
  191.750   10.901    0.245    0.361   90.807
  192.000   11.330    0.238    0.376   91.432
  192.250   13.434    0.252    0.386   91.437
  192.500   14.225    0.263    0.397   88.961
  192.750   15.065    0.269    0.377   84.007
  193.000   15.656    0.262    0.340   80.913
  193.250   15.668    0.200    0.327   86.499
  193.500   15.100    0.172    0.337   88.981
  193.750   14.832    0.205    0.355   92.084
  194.000   14.304    0.248    0.376   90.230
  194.250   14.586    0.241    0.379   92.713
  194.500   14.871    0.210    0.373   93.338
  194.750   15.747    0.185    0.374   95.203
  195.000   16.054    0.202    0.377   98.305
  195.250   17.000    0.230    0.382   98.931
  195.500   17.669    0.291    0.384   98.315
  195.750   17.685    0.288    0.363   98.939
  196.000   18.041    0.289    0.353   97.704
  196.250   17.713    0.284    0.364  104.527
  196.500   17.398    0.270    0.378  116.309
  196.750   16.148    0.246    0.393  122.511
  197.000   15.861    0.227    0.398  120.037
  197.250   15.292    0.263    0.404  111.363
  197.500   15.299    0.284    0.408  105.790
  197.750   15.313    0.273    0.379  103.315
  198.000   15.621    0.253    0.358  106.419
  198.250   15.628    0.247    0.353  103.325
  198.500   16.241    0.258    0.358   95.892
  198.750   16.885    0.281    0.362   82.879
  199.000   16.897    0.277    0.352   72.966
  199.250   16.596    0.263    0.346   87.228
  199.500   15.993    0.246    0.352   89.091
  199.750   14.847    0.226    0.367   89.098
  200.000   13.779    0.232    0.392   92.200
  200.250   12.554    0.249    0.382  103.982
  200.500   11.226    0.255    0.369  113.283
  200.750   10.614    0.237    0.392  110.189
  201.000    9.313    0.213    0.410  107.714
  201.250    8.807    0.211    0.424  115.158
  201.500    8.175    0.210    0.419  114.541
  201.750    8.183    0.210    0.424  117.026
  202.000    8.345    0.220    0.436  115.792
  202.250    9.707    0.237    0.434  112.077
  202.500   12.649    0.255    0.411  107.122
  202.750   14.171    0.280    0.375   97.210
  203.000   13.916    0.300    0.365   91.016
  203.250   13.927    0.314    0.374   88.541
  203.500   13.682    0.316    0.384   92.266
  203.750   13.186    0.305    0.384   99.088
  204.000   12.013    0.291    0.378  104.051
  204.250   10.944    0.257    0.364   99.097
  204.500   10.348    0.219    0.327  103.442
  204.750    9.609    0.206    0.316  105.305
  205.000    9.436    0.187    0.336  105.310
  205.250    9.266    0.123    0.352  104.694
  205.500    9.103    0.142    0.386  102.220
  205.750    8.450    0.155    0.378  100.985
  206.000    7.842    0.151    0.383  102.849
  206.250    7.012    0.132    0.396  113.390
  206.500    6.756    0.151    0.400  120.213
  206.750    6.392    0.167    0.414  122.077
  207.000    6.162    0.166    0.424  125.801
  207.250    6.050    0.180    0.431  130.144
  207.500    5.617    0.202    0.435  133.868
  207.750    5.022    0.217    0.438  133.872
  208.000    4.839    0.203    0.451  132.637
  208.250    4.493    0.188    0.475  132.022
  208.500    4.250    0.208    0.496  135.126
  208.750    4.020    0.219    0.511  137.610
  209.000    3.874    0.227    0.514  140.094
  209.250    3.806    0.232    0.477  140.719
  209.500    3.808    0.234    0.467  139.483
  209.750    4.108    0.223    0.478  135.150
  210.000    5.155    0.214    0.472  129.575
  210.250    6.467    0.192    0.428  119.662
  210.500    7.244    0.192    0.409  122.766
  210.750    8.921    0.238    0.416  107.275
  211.000    9.807    0.271    0.420   88.685
  211.250   11.625    0.290    0.402   80.012
  211.500   14.861    0.300    0.376   75.678
  211.750   17.954    0.315    0.376   70.104
  212.000   19.739    0.323    0.385   66.390
  212.250   21.715    0.308    0.389   71.354
  212.500   22.140    0.315    0.388   76.317
  212.750   22.573    0.327    0.380   71.363
  213.000   22.606    0.338    0.369   66.409
  213.250   22.618    0.328    0.364   67.653
  213.500   22.210    0.313    0.375   69.518
  213.750   22.229    0.303    0.380   72.621
  214.000   22.244    0.312    0.390   75.105
  214.250   22.271    0.319    0.397   80.688
  214.500   21.866    0.312    0.399   87.510
  214.750   21.477    0.306    0.404   86.896
  215.000   21.496    0.301    0.408   88.140
  215.250   21.510    0.298    0.411   90.004
  215.500   21.126    0.290    0.418   89.389
  215.750   21.152    0.284    0.432   91.874
  216.000   21.164    0.287    0.433   92.498
  216.250   21.178    0.288    0.439   92.503
  216.500   21.200    0.288    0.449   93.126
  216.750   20.828    0.287    0.444   95.610
  217.000   20.839    0.291    0.436   97.474
  217.250   20.852    0.291    0.433   97.479
  217.500   20.873    0.283    0.426  103.682
  217.750   21.692    0.277    0.410  109.265
  218.000   22.971    0.255    0.389  104.931
  218.250   24.324    0.230    0.365   80.142
