~VERSION INFORMATION
 VERS.                 2.0:   CWLS LOG ASCII STANDARD -VERSION 2.0
 WRAP.                  NO:   ONE LINE PER DEPTH STEP
~WELL INFORMATION BLOCK
#MNEM.UNIT           DATA                    DESCRIPTION OF MNEMONIC
#---------    -------------------            -------------------------------
# Generated from Intellog Unique Number	CW_70_72/WELL/1064
NULL.         -999.25                        : NULL_VALUE
WELL.         LANDBANK ET AL MITSUE 11-36    : Well_name    - WELL              
LOC .         11-36-072-03W5                 : Location     - LOCATION          
UWI .         00/11-36-072-03W5/0            : Uwi          - UNIQUE WELL ID    
ENTR.         JAYE                           : Entered      - ENTERED BY        
SRVC.         SCHLUMBERGER                   : Scn          - SERVICE COMPANY   
DATE.         29 FEB 79                      : Date         - LOG DATE          
STRT.M        395                            : top_depth    - START DEPTH       
STOP.M        635                            : bot_depth    - STOP DEPTH        
STEP.M        0.25                           : increment    - STEP LENGTH       
~CURVE INFORMATION BLOCK
#MNEM UNIT       ERCB CURVE CODE    CURVE DESCRIPTION
#-----------   ------------------   ----------------------------------
DEPT.M        00 001 00 00         : DEPTH        - DEPTH                       
DPHI.V/V      00 890 00 00         : PHID         - DENSITY POROSITY (SANDSTONE)
NPHI.V/V      00 330 00 00         : PHIN         - NEUTRON POROSITY (SANDSTONE)
GR  .API      00 310 00 00         : GR           - GAMMA RAY                   
CALI.MM       00 280 01 00         : CAL          - CALIPER                     
ILD .OHMM     00 120 00 00         : RESD         - DEEP RESISTIVITY (DIL)      
~PARAMETER INFORMATION       
#MNEM.UNIT           DATA             DESCRIPTION OF MNEMONIC
#---------         -----------     ------------------------------
GL  .M        589                  : gl           - GROUND LEVEL ELEVATION      
EREF.M        591.7                : kb           - ELEVATION OF DEPTH REFERENCE
DATM.M        589                  : datum        - DATUM ELEVATION             
TDD .M        637                  : tdd          - TOTAL DEPTH DRILLER         
RUN .         ONE                  : Run          - RUN NUMBER                  
ENG .         MARSCHNER            : Engineer     - RECORDING ENGINEER          
WIT .         LOWTHER              : Witness      - WITNESSED BY                
BASE.         EDM                  : Branch       - HOME BASE OF LOGGING UNIT   
MUD .         GEL XHEM             : Mud_type     - MUD TYPE                    
MATR.         SANDSTONE            : Logunit      - NEUTRON MATRIX              
TMAX.C        25.5                 : BHT          - MAXIMUM RECORDED TEMPERATURE
BHTD.M        638                  : BHTDEP       - MAXIMUM RECORDED TEMPERATURE
RMT .C        7.8                  : MDTP         - TEMPERATURE OF MUD          
MUDD.KG/M     1190                 : MWT          - MUD DENSITY                 
NEUT.         1                    : NEUTRON      - NEUTRON TYPE                
RESI.         0                    : RESIST       - RESISTIVITY TYPE            
RM  .OHMM     4.55                 : RM           - RESISTIVITY OF MUD          
RMC .OHMM     0                    : RMC          - RESISTIVITY OF MUD CAKE     
RMF .OHMM     4.7                  : RMF          - RESISTIVITY OF MUD FILTRATE 
SUFT.C        32                   : SUFT         - SURFACE TEMPERATURE         
~A  DEPTH     PHID     PHIN       GR      CAL     RESD
# ...
  468.000    0.255    0.442   97.619  163.645    4.038
  468.250    0.260    0.478   95.995  162.786    4.108
  468.500    0.266    0.486   96.650  162.437    4.179
  468.750    0.255    0.455   99.270  163.631    4.275
  469.000    0.246    0.452  101.219  165.542    4.332
  469.250    0.231    0.458  103.287  166.731    4.302
  469.500    0.236    0.451  101.234  167.406    4.240
  469.750    0.233    0.442   98.996  167.375    4.094
  470.000    0.221    0.441   96.205  167.025    3.990
  470.250    0.213    0.458   93.169  166.574    3.881
  470.500    0.224    0.464   89.761  166.133    3.804
  470.750    0.255    0.456   86.170  165.786    3.742
  471.000    0.282    0.438   83.811  165.334    3.640
  471.250    0.286    0.448   83.480  165.301    3.508
  471.500    0.280    0.442   85.609  165.262    3.438
  471.750    0.287    0.443   87.982  165.325    3.414
  472.000    0.282    0.440   88.392  165.284    3.396
  472.250    0.273    0.442   87.632  165.340    3.372
  472.500    0.260    0.470   87.671  165.206    3.348
  472.750    0.294    0.479   90.293  165.068    3.349
  473.000    0.289    0.464   91.808  164.825    3.375
  473.250    0.267    0.450   91.477  164.584    3.389
  473.500    0.246    0.440   90.592  164.740    3.391
  473.750    0.252    0.424   85.033  164.917    3.398
  474.000    0.270    0.453   83.658  165.594    3.399
  474.250    0.281    0.475   85.233  165.866    3.471
  474.500    0.290    0.473   89.763  166.236    3.571
  474.750    0.249    0.463   97.430  166.911    3.694
  475.000    0.225    0.454  102.757  167.697    3.916
  475.250    0.191    0.433  105.935  170.530    4.081
  475.500    0.181    0.450  101.052  172.339    4.136
  475.750    0.218    0.444   97.707  172.710    4.122
  476.000    0.242    0.430   97.314  170.826    4.093
  476.250    0.230    0.432   98.829  170.377    4.072
  476.500    0.210    0.429  102.312  171.364    3.998
  476.750    0.203    0.421  103.767  172.654    3.889
  477.000    0.202    0.421  101.591  173.950    3.755
  477.250    0.196    0.438  104.827  175.044    3.612
  477.500    0.206    0.455  108.864  175.006    3.494
  477.750    0.214    0.472  108.533  173.426    3.336
  478.000    0.230    0.472  105.005  171.338    3.221
  478.250    0.239    0.461   99.322  168.943    3.139
  478.500    0.257    0.445   94.500  167.573    3.054
  478.750    0.247    0.447   90.787  167.528    3.015
  479.000    0.233    0.479   86.520  167.394    3.000
  479.250    0.245    0.462   82.315  166.537    3.001
  479.500    0.262    0.453   78.107  164.549    2.963
  479.750    0.274    0.448   74.086  162.868    2.909
  480.000    0.283    0.444   70.433  161.599    2.878
  480.250    0.293    0.438   70.474  161.350    2.826
  480.500    0.291    0.441   71.619  161.628    2.790
  480.750    0.288    0.432   68.333  162.614    2.770
  481.000    0.292    0.418   66.837  164.520    2.756
  481.250    0.302    0.408   66.997  165.818    2.747
  481.500    0.311    0.405   71.711  167.422    2.732
  481.750    0.297    0.418   84.975  168.095    2.708
  482.000    0.281    0.445   80.646  168.162    2.679
  482.250    0.279    0.438   77.302  167.712    2.650
  482.500    0.296    0.447   74.757  167.981    2.612
  482.750    0.305    0.456   72.887  167.943    2.584
  483.000    0.314    0.465   70.097  168.010    2.580
  483.250    0.321    0.454   66.875  168.179    2.585
  483.500    0.329    0.443   68.268  168.552    2.591
  483.750    0.330    0.440   75.562  168.099    2.607
  484.000    0.326    0.442   76.401  167.239    2.627
  484.250    0.314    0.444   76.748  166.692    2.663
  484.500    0.307    0.435   77.218  167.055    2.719
  484.750    0.318    0.436   77.563  167.433    2.792
  485.000    0.325    0.458   79.569  167.807    2.835
  485.250    0.315    0.468   82.440  167.967    2.873
  485.500    0.305    0.477   84.139  167.830    2.890
  485.750    0.296    0.485   83.623  167.785    2.891
  486.000    0.289    0.486   80.280  167.648    2.871
  486.250    0.299    0.466   75.765  167.711    2.861
  486.500    0.311    0.448   73.405  167.670    2.846
  486.750    0.311    0.435   75.288  167.640    2.826
  487.000    0.314    0.426   77.234  167.600    2.796
  487.250    0.303    0.417   76.474  167.357    2.745
  487.500    0.283    0.422   73.127  167.012    2.690
  487.750    0.275    0.431   70.768  166.770    2.642
  488.000    0.297    0.439   70.190  166.630    2.633
  488.250    0.313    0.444   72.318  166.687    2.648
  488.500    0.304    0.441   73.037  166.757    2.710
  488.750    0.285    0.431   72.460  166.615    2.761
  489.000    0.273    0.421   72.190  166.787    2.867
  489.250    0.271    0.417   73.826  167.156    2.966
  489.500    0.268    0.418   76.637  167.319    3.191
  489.750    0.266    0.429   84.672  167.487    3.345
  490.000    0.269    0.442   88.339  167.350    3.278
  490.250    0.275    0.447   85.731  167.517    3.061
  490.500    0.281    0.455   79.925  167.377    2.847
  490.750    0.288    0.447   74.983  167.325    2.619
  491.000    0.304    0.441   70.466  167.391    2.445
  491.250    0.316    0.436   68.231  167.358    2.487
  491.500    0.316    0.429   68.025  167.634    2.681
  491.750    0.299    0.429   70.216  168.004    2.890
  492.000    0.272    0.438   76.653  167.965    3.288
  492.250    0.240    0.411   75.826  167.927    3.577
  492.500    0.192    0.340   72.546  167.577    3.805
  492.750    0.166    0.357   72.829  167.437    3.455
  493.000    0.230    0.411   74.344  167.296    3.062
  493.250    0.264    0.448   75.734  167.255    2.827
  493.500    0.281    0.467   76.145  167.318    2.639
  493.750    0.303    0.469   76.244  167.390    2.529
  494.000    0.319    0.448   76.097  167.349    2.488
  494.250    0.311    0.447   76.505  167.310    2.475
  494.500    0.303    0.451   77.531  167.374    2.476
  494.750    0.299    0.451   80.644  167.236    2.528
  495.000    0.301    0.444   82.282  166.994    2.705
  495.250    0.300    0.445   83.550  166.645    2.856
  495.500    0.290    0.447   87.891  166.405    2.994
  495.750    0.279    0.443   91.376  166.675    3.085
  496.000    0.257    0.447   95.043  170.019    3.168
  496.250    0.240    0.439   97.851  171.724    3.223
  496.500    0.193    0.463  102.197  172.093    3.243
  496.750    0.217    0.492  101.805  172.056    3.231
  497.000    0.230    0.476  101.597  172.324    3.167
  497.250    0.231    0.477  103.113  172.693    3.115
  497.500    0.225    0.471  103.888  173.272    2.991
  497.750    0.228    0.465  104.787  173.645    2.706
  498.000    0.208    0.461  108.149  174.221    2.389
  498.250    0.195    0.463  110.895  174.699    2.082
  498.500    0.212    0.470  111.302  175.064    1.897
  498.750    0.232    0.486  113.125  175.025    1.804
  499.000    0.244    0.504  113.655  174.987    1.916
  499.250    0.245    0.520  109.633  174.954    2.081
  499.500    0.222    0.537  104.873  173.789    2.372
  499.750    0.231    0.491  101.284  171.083    2.817
  500.000    0.244    0.476  100.399  168.994    3.151
  500.250    0.248    0.463  103.453  166.186    3.500
  500.500    0.244    0.455  104.720  164.306    3.822
  500.750    0.235    0.448  104.509  162.626    3.939
  501.000    0.222    0.443  104.981  163.305    3.963
  501.250    0.214    0.439  105.760  165.620    3.935
  501.500    0.208    0.446  107.581  166.917    3.922
  501.750    0.204    0.449  108.788  167.704    3.915
  502.000    0.211    0.451  107.962  168.789    3.917
  502.250    0.221    0.454  107.446  169.364    3.896
  502.500    0.230    0.458  106.748  170.044    3.883
  502.750    0.225    0.459  106.053  171.035    3.842
  503.000    0.208    0.452  103.937  172.329    3.807
  503.250    0.222    0.466   99.791  172.189    3.731
  503.500    0.236    0.462   98.785  171.021    3.677
  503.750    0.257    0.446  100.730  169.754    3.577
  504.000    0.246    0.430  101.263  169.615    3.346
  504.250    0.235    0.435   99.824  170.904    3.089
