~VERSION INFORMATION
 VERS.                 2.0:   CWLS LOG ASCII STANDARD -VERSION 2.0
 WRAP.                  NO:   ONE LINE PER DEPTH STEP
~WELL INFORMATION BLOCK
#MNEM.UNIT           DATA                    DESCRIPTION OF MNEMONIC
#---------    -------------------            -------------------------------
# Generated from Intellog Unique Number	CS_67_68/WELL/2190
WELL.         10-03-067-08W4                 : Well_name    - WELL
LOC .         00/10-03-067-08W4/0            : Location     - LOCATION
UWI .         00/10-03-067-08W4/0            : Uwi          - UNIQUE WELL ID
ENTR.         SP                             : Entered      - ENTERED BY
SRVC.         SCHLUMBERGER                   : Scn          - SERVICE COMPANY
STRT.M        305                            : top_depth    - START DEPTH
STOP.M        545                            : bot_depth    - STOP DEPTH
STEP.M        0.25                           : increment    - STEP LENGTH
 NULL. -999.2500:NULL Value
~CURVE INFORMATION BLOCK
#MNEM UNIT       ERCB CURVE CODE    CURVE DESCRIPTION
#-----------   ------------------   ----------------------------------
DEPT.M        00 001 00 00         : DEPTH        - DEPTH
ILD .OHMM     00 120 00 00         : RESD         - DEEP RESISTIVITY (DIL)
DPHI.V/V      00 890 00 00         : PHID         - DENSITY POROSITY (LIMESTONE)
NPHI.V/V      00 330 00 00         : PHIN         - NEUTRON POROSITY (LIMESTONE)
GR  .API      00 310 00 00         : GR           - GAMMA RAY
CALI.MM       00 280 01 00         : CAL          - CALIPER
~PARAMETER INFORMATION
#MNEM.UNIT           DATA             DESCRIPTION OF MNEMONIC
#---------         -----------     ------------------------------
GL  .M        609.7                : gl           - GROUND LEVEL ELEVATION
EREF.M        613.4                : kb           - ELEVATION OF DEPTH REFERENCE
DATM.M        613.4                : datum        - DATUM ELEVATION
TDD .M        550                  : tdd          - TOTAL DEPTH DRILLER
RUN .         ONE                  : Run          - RUN NUMBER
ENG .         BILL                 : Engineer     - RECORDING ENGINEER
WIT .         JIM                  : Witness      - WITNESSED BY
MUD .         GEL                  : Mud_type     - MUD TYPE
MATR.         LIMESTONE            : Logunit      - NEUTRON MATRIX
TMAX.C        25                   : BHT          - MAXIMUM RECORDED TEMPERATURE
BHTD.M        554.5                : BHTDEP       - MAXIMUM RECORDED TEMPERATURE
MATR.         1                    : LOGUNIT      - NEUTRON MATRIX
RMT .C        25                   : MDTP         - TEMPERATURE OF MUD
NEUT.         1                    : NEUTRON      - NEUTRON TYPE
RESI.         0                    : RESIST       - RESISTIVITY TYPE
RMC .OHMM     0.25                 : RMC          - RESISTIVITY OF MUD CAKE
RMF .OHMM     0.25                 : RMF          - RESISTIVITY OF MUD FILTRATE
SUFT.C        15                   : SUFT         - SURFACE TEMPERATURE
~A  DEPTH     RESD     PHID     PHIN       GR      CAL
# ...
  487.500    3.911    0.291    0.347   37.072  154.393
  487.750    3.867    0.301    0.340   35.896  154.836
  488.000    3.830    0.302    0.338   35.349  155.174
  488.250    3.816    0.290    0.333   34.988  156.042
  488.500    3.830    0.269    0.330   34.812  156.702
  488.750    3.918    0.277    0.336   34.390  156.832
  489.000    4.076    0.285    0.342   31.956  157.390
  489.250    4.323    0.293    0.347   30.461  157.518
  489.500    4.636    0.297    0.298   29.533  157.653
  489.750    5.283    0.150    0.222   28.983  157.155
  490.000    5.918    0.042    0.222   28.496  157.919
  490.250    6.360    0.134    0.268   37.197  158.365
  490.500    6.706    0.173    0.294   56.090  158.610
  490.750    6.938    0.206    0.315   75.989  159.261
  491.000    7.003    0.231    0.330   86.640  160.442
  491.250    7.043    0.192    0.357   93.515  164.247
  491.500    7.191    0.176    0.351   97.119  164.910
  491.750    7.383    0.169    0.340   99.841  164.516
  492.000    7.538    0.169    0.330  101.810  163.177
  492.250    7.653    0.170    0.321  101.763  160.060
  492.500    7.638    0.173    0.334  100.269  158.837
  492.750    7.495    0.178    0.343   97.832  158.648
  493.000    7.423    0.187    0.338   97.284  158.468
  493.250    7.409    0.202    0.334   96.923  158.076
  493.500    7.593    0.197    0.331   95.681  157.790
  493.750    7.694    0.169    0.342  103.124  157.400
  494.000    7.885    0.166    0.363  110.062  157.112
  494.250    8.221    0.182    0.385  113.601  156.302
  494.500    8.734    0.195    0.405   90.086  155.285
  494.750    9.174    0.210    0.385   75.946  154.685
  495.000    9.491    0.210    0.357   72.251  155.240
  495.250    9.491    0.033    0.333   76.736  156.101
  495.500    9.365    0.001    0.307   83.674  159.487
  495.750    8.983    0.077    0.313   93.193  163.610
  496.000    8.502    0.126    0.343  100.507  165.938
  496.250    8.155    0.138    0.354  101.217  169.323
  496.500    7.896    0.145    0.375   90.600  172.915
  496.750    7.762    0.178    0.393   78.099  172.525
  497.000    7.588    0.204    0.367   71.695  165.318
  497.250    7.445    0.206    0.328   72.781  159.264
  497.500    7.333    0.182    0.326   81.481  156.251
  497.750    7.222    0.215    0.365   76.402  154.184
  498.000    7.126    0.238    0.352   80.006  153.689
  498.250    7.072    0.203    0.340   83.357  153.715
  498.500    6.992    0.216    0.342   79.096  153.430
  498.750    6.899    0.227    0.331   77.228  153.455
  499.000    6.808    0.206    0.312   75.670  155.058
  499.250    6.580    0.200    0.280   69.520  158.024
  499.500    6.347    0.189    0.271   61.860  162.456
  499.750    6.181    0.159    0.354   87.487  166.786
  500.000    6.019    0.143    0.420  101.913  170.587
  500.250    6.064    0.135    0.440  111.242  174.284
  500.500    6.168    0.133    0.420  118.368  176.200
  500.750    6.309    0.130    0.389  113.102  167.734
  501.000    6.640    0.124    0.361  109.593  162.729
  501.250    6.896    0.138    0.357  110.554  160.873
  501.500    7.271    0.144    0.371  107.614  160.165
  501.750    7.480    0.175    0.381   94.292  159.460
  502.000    7.917    0.197    0.372   85.059  159.172
  502.250    8.300    0.215    0.366   73.121  158.781
  502.500    8.620    0.229    0.394   70.119  158.075
  502.750    8.952    0.239    0.384   69.506  157.270
  503.000    9.210    0.237    0.370   70.592  156.979
  503.250    9.439    0.236    0.365   70.106  156.588
  503.500    9.600    0.240    0.358   67.292  155.884
  503.750    9.765    0.230    0.353   64.164  155.496
  504.000    9.820    0.221    0.346   61.978  154.996
  504.250    9.745    0.229    0.356   59.606  154.080
  504.500    9.454    0.253    0.379   59.936  153.479
  504.750    8.665    0.265    0.378   63.101  155.716
  505.000    7.489    0.256    0.365   65.571  154.690
  505.250    6.825    0.245    0.364   68.103  153.562
  505.500    6.243    0.265    0.382   61.513  152.543
  505.750    5.744    0.280    0.396   56.121  150.999
  506.000    5.427    0.287    0.377   55.507  149.978
  506.250    5.127    0.273    0.369   53.451  149.379
  506.500    4.908    0.272    0.371   50.822  149.409
  506.750    4.779    0.286    0.371   40.772  149.435
  507.000    4.707    0.304    0.369   35.629  149.986
  507.250    4.671    0.313    0.366   48.797  150.857
  507.500    4.698    0.288    0.362   55.358  152.141
  507.750    4.833    0.275    0.358   58.269  153.222
  508.000    5.086    0.262    0.353   63.635  153.772
  508.250    5.363    0.248    0.350   67.931  153.590
  508.500    5.538    0.231    0.358   68.702  153.407
  508.750    5.762    0.234    0.363   68.594  152.703
  509.000    5.973    0.246    0.368   63.892  152.209
  509.250    6.358    0.252    0.380   55.476  152.023
  509.500    7.439    0.137    0.353   45.552  152.053
  509.750    8.334    0.098    0.305   40.033  152.082
  510.000    8.989    0.061    0.277   37.282  152.323
  510.250    9.425    0.094    0.282   35.851  152.558
  510.500    9.388    0.164    0.321   49.084  153.004
  510.750    7.437    0.210    0.349   55.266  153.558
  511.000    6.260    0.250    0.377   53.583  154.214
  511.250    5.349    0.285    0.379   48.943  154.664
  511.500    4.893    0.286    0.366   51.666  154.795
  511.750    4.459    0.275    0.356   54.451  154.929
  512.000    4.253    0.270    0.389   52.769  155.272
  512.250    4.110    0.287    0.401   49.452  155.301
  512.500    4.033    0.272    0.376   45.001  154.810
  512.750    4.087    0.255    0.367   44.829  154.309
  513.000    4.180    0.264    0.378   49.251  153.392
  513.250    4.284    0.242    0.369   56.440  151.850
  513.500    4.458    0.219    0.369   61.302  150.302
  513.750    4.691    0.226    0.370   58.300  148.971
  514.000    4.826    0.101    0.365   54.545  148.786
  514.250    5.031    0.017    0.342   52.544  150.389
  514.500    5.137    0.006    0.326   59.545  153.146
  514.750    5.156    0.134    0.344   66.799  155.795
  515.000    5.107    0.210    0.360   66.061  157.394
  515.250    4.983    0.259    0.377   62.743  156.479
  515.500    4.834    0.263    0.364   66.095  155.354
  515.750    4.645    0.243    0.349   63.721  154.340
  516.000    4.455    0.239    0.337   58.831  153.840
  516.250    4.363    0.258    0.363   54.190  152.822
  516.500    4.330    0.274    0.384   61.821  153.161
  516.750    4.257    0.247    0.364   72.786  154.238
  517.000    4.106    0.207    0.345   71.230  155.523
  517.250    3.946    0.270    0.368   56.776  156.077
  517.500    3.857    0.296    0.399   43.202  154.531
  517.750    3.784    0.301    0.349   41.520  153.724
  518.000    3.720    0.273    0.335   50.534  153.750
  518.250    3.734    0.215    0.351   64.458  153.882
  518.500    3.784    0.198    0.368   60.384  154.016
  518.750    3.945    0.260    0.382   52.221  154.045
  519.000    4.050    0.277    0.390   53.058  153.863
  519.250    4.230    0.228    0.388   63.014  153.576
  519.500    4.427    0.210    0.381   74.106  152.875
  519.750    4.563    0.195    0.374   82.868  152.479
  520.000    4.650    0.209    0.370   69.735  151.776
  520.250    4.580    0.251    0.372   59.748  151.699
  520.500    4.460    0.265    0.379   53.347  151.832
  520.750    4.277    0.280    0.385   48.016  152.278
  521.000    4.142    0.302    0.381   43.187  153.568
  521.250    4.079    0.266    0.369   51.071  154.650
  521.500    4.110    0.232    0.393   68.705  155.301
  521.750    4.172    0.223    0.411   67.148  155.747
  522.000    4.276    0.242    0.384   56.659  155.462
  522.250    4.341    0.257    0.364   56.425  154.756
  522.500    4.399    0.268    0.366   56.440  153.629
  522.750    4.424    0.265    0.371   59.478  152.509
  523.000    4.407    0.246    0.391   55.782  152.009
  523.250    4.365    0.284    0.411   40.196  151.722
  523.500    4.307    0.300    0.384   35.684  151.333
  523.750    4.186    0.313    0.390   36.204  150.733
