~VERSION INFORMATION
 VERS.                 2.0:   CWLS LOG ASCII STANDARD -VERSION 2.0
 WRAP.                  NO:   ONE LINE PER DEPTH STEP
~WELL INFORMATION BLOCK
#MNEM.UNIT           DATA                    DESCRIPTION OF MNEMONIC
#---------    -------------------            -------------------------------
# Generated from Intellog Unique Number	CS_73_76/WELL/1968
WELL.         AMOCO                          : Well_name    - WELL
LOC .         00/10-18-073-04W4/0            : Location     - LOCATION
UWI .         00/10-18-073-04W4/0            : Uwi          - UNIQUE WELL ID
ENTR.         T                              : Entered      - ENTERED BY
SRVC.         SCHLUMBERGER                   : Scn          - SERVICE COMPANY
STRT.M        300                            : top_depth    - START DEPTH
STOP.M        515                            : bot_depth    - STOP DEPTH
STEP.M        0.25                           : increment    - STEP LENGTH
 NULL. -999.2500:NULL Value
~CURVE INFORMATION BLOCK
#MNEM UNIT       ERCB CURVE CODE    CURVE DESCRIPTION
#-----------   ------------------   ----------------------------------
DEPT.M        00 001 00 00         : DEPTH        - DEPTH
GR  .API      00 310 00 00         : GR           - GAMMA RAY
NPHI.V/V      00 330 00 00         : PHIN         - NEUTRON POROSITY (SANDSTONE)
DPHI.V/V      00 890 00 00         : PHID         - DENSITY POROSITY (SANDSTONE)
ILD .OHMM     00 120 00 00         : RESD         - DEEP RESISTIVITY (DIL)
~PARAMETER INFORMATION
#MNEM.UNIT           DATA             DESCRIPTION OF MNEMONIC
#---------         -----------     ------------------------------
GL  .M        695.3                : gl           - GROUND LEVEL ELEVATION
EREF.M        699.1                : kb           - ELEVATION OF DEPTH REFERENCE
DATM.M        699.1                : datum        - DATUM ELEVATION
TDD .M        530                  : tdd          - TOTAL DEPTH DRILLER
RUN .         ONE                  : Run          - RUN NUMBER
ENG .         BILL                 : Engineer     - RECORDING ENGINEER
WIT .         JIM                  : Witness      - WITNESSED BY
MUD .         GEL                  : Mud_type     - MUD TYPE
MATR.         SANDSTONE            : Logunit      - NEUTRON MATRIX
TMAX.C        23.8                 : BHT          - MAXIMUM RECORDED TEMPERATURE
BHTD.M        530                  : BHTDEP       - MAXIMUM RECORDED TEMPERATURE
MATR.         1                    : LOGUNIT      - NEUTRON MATRIX
RMT .C        25                   : MDTP         - TEMPERATURE OF MUD
NEUT.         1                    : NEUTRON      - NEUTRON TYPE
RESI.         0                    : RESIST       - RESISTIVITY TYPE
RMC .OHMM     5.7                  : RMC          - RESISTIVITY OF MUD CAKE
RMF .OHMM     6.6                  : RMF          - RESISTIVITY OF MUD FILTRATE
SUFT.C        15                   : SUFT         - SURFACE TEMPERATURE
~A  DEPTH       GR     PHIN     PHID     RESD
# ...
  343.500   50.185    0.413    0.315    2.649
  343.750   48.917    0.415    0.315    2.696
  344.000   45.155    0.421    0.318    2.693
  344.250   43.877    0.423    0.324    2.742
  344.500   45.690    0.423    0.337    2.738
  344.750   46.896    0.421    0.348    2.736
  345.000   49.317    0.419    0.346    2.732
  345.250   49.904    0.415    0.339    2.780
  345.500   49.862    0.411    0.336    2.938
  345.750   50.428    0.416    0.333    3.165
  346.000   50.995    0.421    0.332    3.673
  346.250   50.974    0.423    0.332    3.957
  346.500   50.314    0.420    0.329    4.258
  346.750   50.272    0.423    0.325    4.337
  347.000   53.311    0.428    0.323    4.414
  347.250   55.135    0.431    0.325    4.409
  347.500   60.040    0.435    0.327    4.403
  347.750   68.655    0.429    0.303    4.317
  348.000   78.507    0.421    0.281    4.153
  348.250   85.266    0.423    0.257    3.921
  348.500   89.564    0.454    0.248    3.844
  348.750   91.377    0.457    0.232    3.840
  349.000   95.663    0.469    0.237    3.908
  349.250   99.940    0.477    0.256    3.977
  349.500   98.053    0.479    0.254    4.049
  349.750   94.899    0.470    0.266    4.120
  350.000   93.642    0.459    0.288    4.193
  350.250   94.816    0.443    0.293    4.267
  350.500   96.629    0.436    0.292    4.344
  350.750   98.453    0.443    0.282    4.339
  351.000  100.276    0.447    0.279    4.251
  351.250   99.616    0.453    0.276    4.170
  351.500   99.564    0.461    0.273    4.086
  351.750   99.523    0.468    0.267    4.006
  352.000   98.852    0.476    0.258    4.002
  352.250   95.719    0.479    0.250    3.997
  352.500   93.214    0.469    0.244    3.994
  352.750   90.699    0.449    0.237    3.988
  353.000   90.039    0.437    0.233    3.985
  353.250   88.142    0.427    0.225    3.832
  353.500   85.009    0.421    0.225    3.756
  353.750   84.349    0.422    0.242    3.684
  354.000   84.307    0.435    0.259    3.542
  354.250   83.647    0.441    0.271    3.474
  354.500   82.358    0.442    0.278    3.470
  354.750   81.698    0.448    0.287    3.400
  355.000   83.512    0.451    0.292    3.397
  355.250   84.717    0.457    0.294    3.330
  355.500   85.273    0.458    0.290    3.263
  355.750   84.623    0.453    0.286    3.199
  356.000   83.953    0.449    0.283    3.078
  356.250   83.911    0.454    0.280    2.906
  356.500   83.869    0.456    0.283    2.849
  356.750   82.601    0.461    0.289    2.640
  357.000   78.839    0.466    0.297    2.540
  357.250   75.716    0.466    0.302    2.443
  357.500   73.201    0.465    0.308    2.394
  357.750   68.203    0.465    0.312    2.391
  358.000   66.316    0.463    0.318    2.345
  358.250   64.409    0.453    0.323    2.343
  358.500   61.894    0.444    0.325    2.339
  358.750   58.132    0.436    0.323    2.425
  359.000   54.999    0.433    0.321    2.469
  359.250   53.112    0.429    0.321    2.561
  359.500   53.060    0.428    0.320    2.655
  359.750   55.502    0.427    0.322    2.653
  360.000   59.171    0.427    0.324    2.650
  360.250   61.592    0.428    0.326    2.696
  360.500   64.013    0.427    0.326    2.745
  360.750   64.610    0.427    0.328    2.741
  361.000   66.424    0.428    0.326    2.739
  361.250   68.227    0.432    0.323    2.787
  361.500   69.411    0.439    0.321    2.784
  361.750   69.998    0.443    0.312    2.679
  362.000   71.193    0.443    0.303    2.481
  362.250   71.759    0.438    0.298    2.434
  362.500   72.357    0.431    0.289    2.297
  362.750   72.294    0.426    0.285    2.210
  363.000   71.645    0.425    0.276    2.125
  363.250   70.985    0.429    0.281    2.084
  363.500   69.706    0.436    0.284    2.042
  363.750   67.809    0.445    0.291    2.002
  364.000   64.676    0.450    0.295    1.963
  364.250   59.080    0.450    0.315    1.924
  364.500   55.307    0.449    0.317    1.886
  364.750   55.286    0.451    0.319    1.919
  365.000   55.234    0.456    0.322    1.918
  365.250   55.172    0.450    0.324    1.989
  365.500   55.130    0.428    0.325    2.102
  365.750   55.109    0.422    0.325    2.221
  366.000   54.439    0.414    0.329    2.436
  366.250   54.407    0.407    0.333    2.625
  366.500   54.366    0.412    0.333    2.990
  366.750   56.169    0.437    0.334    3.221
  367.000   57.992    0.443    0.334    3.467
  367.250   61.042    0.451    0.332    3.530
  367.500   62.856    0.446    0.326    3.592
  367.750   64.051    0.439    0.321    3.455
  368.000   63.998    0.436    0.310    3.325
  368.250   63.957    0.434    0.295    3.079
  368.500   65.749    0.432    0.267    2.908
  368.750   66.347    0.423    0.261    2.798
  369.000   68.778    0.414    0.220    2.640
  369.250   69.984    0.400    0.192    2.589
  369.500   68.705    0.384    0.168    2.586
  369.750   65.572    0.334    0.161    2.682
  370.000   64.912    0.351    0.217    2.781
  370.250   67.333    0.374    0.244    2.994
  370.500   70.383    0.381    0.277    3.049
  370.750   72.196    0.400    0.288    3.162
  371.000   72.144    0.423    0.300    3.280
  371.250   71.505    0.425    0.294    3.338
  371.500   68.990    0.427    0.295    3.212
  371.750   67.083    0.430    0.297    3.032
  372.000   67.041    0.432    0.302    2.863
  372.250   70.102    0.437    0.306    2.701
  372.500   73.141    0.435    0.307    2.650
  372.750   74.346    0.428    0.279    2.548
  373.000   71.821    0.420    0.273    2.405
  373.250   69.935    0.426    0.280    2.358
  373.500   66.801    0.437    0.308    2.269
  373.750   63.050    0.449    0.313    2.225
  374.000   59.277    0.454    0.323    2.140
  374.250   57.380    0.452    0.331    2.020
  374.500   57.349    0.447    0.327    1.980
  374.750   57.286    0.443    0.316    1.905
  375.000   57.266    0.443    0.314    1.868
  375.250   57.224    0.445    0.317    1.796
  375.500   56.564    0.446    0.328    1.761
  375.750   55.894    0.446    0.338    1.726
  376.000   55.233    0.449    0.344    1.724
  376.250   54.563    0.449    0.353    1.690
  376.500   54.542    0.450    0.354    1.657
  376.750   54.490    0.450    0.354    1.655
  377.000   54.448    0.451    0.354    1.654
  377.250   54.407    0.451    0.352    1.620
  377.500   54.375    0.451    0.347    1.619
  377.750   53.694    0.450    0.346    1.617
  378.000   53.034    0.446    0.349    1.616
  378.250   53.014    0.444    0.351    1.613
  378.500   52.353    0.442    0.351    1.642
  378.750   52.920    0.442    0.354    1.670
  379.000   52.867    0.447    0.354    1.701
  379.250   53.465    0.452    0.355    1.699
  379.500   52.795    0.456    0.355    1.729
  379.750   52.145    0.456    0.355    1.727
  380.000   50.856    0.450    0.352    1.726
  380.250   49.578    0.438    0.349    1.723
  380.500   48.918    0.434    0.352    1.722
  380.750   48.866    0.443    0.351    1.720
  381.000   48.206    0.450    0.343    1.718
  381.250   48.174    0.459    0.338    1.653
  381.500   47.514    0.449    0.340    1.559
  381.750   47.462    0.441    0.346    1.530
  382.000   48.039    0.441    0.353    1.499
  382.250   49.842    0.443    0.356    1.442
  382.500   50.439    0.446    0.356    1.440
  382.750   51.634    0.454    0.356    1.439
  383.000   52.211    0.466    0.357    1.437
  383.250   51.540    0.476    0.360    1.408
  383.500   52.117    0.475    0.361    1.407
  383.750   52.704    0.475    0.361    1.379
  384.000   54.507    0.474    0.356    1.352
  384.250   55.094    0.473    0.337    1.350
  384.500   55.052    0.466    0.321    1.323
  384.750   53.742    0.442    0.313    1.322
  385.000   53.711    0.423    0.317    1.321
  385.250   54.298    0.425    0.323    1.320
  385.500   55.493    0.431    0.332    1.318
  385.750   56.699    0.439    0.338    1.341
  386.000   57.254    0.448    0.345    1.340
  386.250   57.223    0.449    0.351    1.364
  386.500   56.573    0.449    0.350    1.363
  386.750   56.511    0.448    0.348    1.361
