~VERSION INFORMATION
 VERS.                 2.0:   CWLS LOG ASCII STANDARD -VERSION 2.0
 WRAP.                  NO:   ONE LINE PER DEPTH STEP
~WELL INFORMATION BLOCK
#MNEM.UNIT           DATA                    DESCRIPTION OF MNEMONIC
#---------    -------------------            -------------------------------
# Generated from Intellog Unique Number	CS_77_79/WELL/1005
WELL.         HUDSONS BAY OIL AND GAS        : Well_name    - WELL
LOC .         00/11-32-077-11W4/0            : Location     - LOCATION
UWI .         00/11-32-077-11W4/0            : Uwi          - UNIQUE WELL ID
ENTR.         SP                             : Entered      - ENTERED BY
SRVC.         SCHLUMBERGER                   : Scn          - SERVICE COMPANY
STRT.M        274.32                         : top_depth    - START DEPTH
STOP.M        505.82                         : bot_depth    - STOP DEPTH
STEP.M        0.25                           : increment    - STEP LENGTH
 NULL. -999.2500:NULL Value
~CURVE INFORMATION BLOCK
#MNEM UNIT       ERCB CURVE CODE    CURVE DESCRIPTION
#-----------   ------------------   ----------------------------------
DEPT.M        00 001 00 00         : DEPTH        - DEPTH
GR  .API      00 310 00 00         : GR           - GAMMA RAY
DPHI.V/V      00 890 00 00         : PHID         - DENSITY POROSITY (SANDSTONE)
NPHI.V/V      00 330 00 00         : PHIN         - NEUTRON POROSITY (SANDSTONE)
ILD .OHMM     00 120 00 00         : RESD         - DEEP RESISTIVITY (DIL)
~PARAMETER INFORMATION
#MNEM.UNIT           DATA             DESCRIPTION OF MNEMONIC
#---------         -----------     ------------------------------
GL  .M        689.549              : gl           - GROUND LEVEL ELEVATION
EREF.M        10                   : kb           - ELEVATION OF DEPTH REFERENCE
DATM.M        689.549              : datum        - DATUM ELEVATION
TDD .M        504.139              : tdd          - TOTAL DEPTH DRILLER
RUN .         ONE                  : Run          - RUN NUMBER
ENG .         BILL                 : Engineer     - RECORDING ENGINEER
WIT .         JIM                  : Witness      - WITNESSED BY
MUD .         GEL                  : Mud_type     - MUD TYPE
MATR.         SANDSTONE            : Logunit      - NEUTRON MATRIX
TMAX.C        21.1111              : BHT          - MAXIMUM RECORDED TEMPERATURE
BHTD.M        504.139              : BHTDEP       - MAXIMUM RECORDED TEMPERATURE
MATR.         1                    : LOGUNIT      - NEUTRON MATRIX
RMT .C        25                   : MDTP         - TEMPERATURE OF MUD
NEUT.         1                    : NEUTRON      - NEUTRON TYPE
RESI.         0                    : RESIST       - RESISTIVITY TYPE
RMC .OHMM     0.25                 : RMC          - RESISTIVITY OF MUD CAKE
RMF .OHMM     0.25                 : RMF          - RESISTIVITY OF MUD FILTRATE
SUFT.C        15                   : SUFT         - SURFACE TEMPERATURE
~A  DEPTH       GR     PHID     PHIN     RESD
# ...
  361.320   62.957    0.342    0.446    8.158
  361.570   63.151    0.325    0.453    7.717
  361.820   64.201    0.328    0.462    7.293
  362.070   66.187    0.331    0.469    7.240
  362.320   66.327    0.332    0.467    6.727
  362.570   62.838    0.338    0.452    6.419
  362.820   64.653    0.344    0.471    5.604
  363.070   68.811    0.353    0.503    5.041
  363.320   76.568    0.341    0.491    4.399
  363.570   80.260    0.313    0.482    4.184
  363.820   83.692    0.290    0.496    4.187
  364.070   86.098    0.283    0.489    4.935
  364.320   88.816    0.281    0.502    5.997
  364.570   90.076    0.279    0.526    6.922
  364.820   92.324    0.266    0.533    7.962
  365.070   89.558    0.262    0.508    8.361
  365.320   82.860    0.277    0.490    8.324
  365.570   77.625    0.288    0.487    8.109
  365.820   71.777    0.315    0.463    8.461
  366.070   68.191    0.319    0.459    9.009
  366.320   66.908    0.309    0.463    9.351
  366.570   67.930    0.316    0.467    9.586
  366.820   69.402    0.299    0.481    9.702
  367.070   70.445    0.295    0.450    9.715
  367.320   72.197    0.308    0.437    9.459
  367.570   75.628    0.319    0.446    9.061
  367.820   78.752    0.317    0.453    8.642
  368.070   76.408    0.291    0.458    8.050
  368.320   72.764    0.270    0.462    7.388
  368.570   71.146    0.280    0.461    6.782
  368.820   72.484    0.303    0.462    6.136
  369.070   74.231    0.311    0.485    5.524
  369.320   77.399    0.316    0.498    4.960
  369.570   80.694    0.311    0.492    4.782
  369.820   83.916    0.307    0.481    4.693
  370.070   86.757    0.306    0.467    4.719
  370.320   90.244    0.298    0.463    4.784
  370.570   91.799    0.290    0.470    4.887
  370.820   90.061    0.263    0.475    4.880
  371.070   90.178    0.261    0.481    4.882
  371.320   90.498    0.255    0.489    4.882
  371.570   89.150    0.261    0.493    4.881
  371.820   90.199    0.259    0.505    4.735
  372.070   91.416    0.265    0.519    4.600
  372.320   92.115    0.257    0.525    4.466
  372.570   91.722    0.254    0.516    4.662
  372.820   91.713    0.272    0.500    4.977
  373.070   92.077    0.261    0.486    5.362
  373.320   93.509    0.255    0.484    5.577
  373.570   91.811    0.252    0.500    5.915
  373.820   89.875    0.257    0.515    6.190
  374.070   86.712    0.254    0.510    6.587
  374.320   82.757    0.259    0.473    6.840
  374.570   81.189    0.274    0.454    7.063
  374.820   82.221    0.264    0.443    7.045
  375.070   81.822    0.279    0.455    5.976
  375.320   81.204    0.301    0.471    5.350
  375.570   82.181    0.313    0.476    4.740
  375.820   85.428    0.315    0.476    4.336
  376.070   88.812    0.297    0.434    4.078
  376.320   93.704    0.268    0.424    3.925
  376.570   97.213    0.247    0.451    3.754
  376.820   99.294    0.250    0.485    3.608
  377.070  100.439    0.252    0.510    3.470
  377.320  101.354    0.237    0.498    3.261
  377.570  104.087    0.235    0.494    3.183
  377.820  105.231    0.236    0.509    3.188
  378.070  103.651    0.238    0.520    3.192
  378.320  103.489    0.249    0.518    3.218
  378.570  102.797    0.260    0.526    3.191
  378.820  102.240    0.267    0.540    3.200
  379.070  101.458    0.257    0.549    3.115
  379.320  103.308    0.258    0.543    3.083
  379.570  105.367    0.269    0.546    2.990
  379.820  104.414    0.266    0.535    2.985
  380.070  104.488    0.268    0.531    3.074
  380.320  105.128    0.277    0.549    3.371
  380.570  106.554    0.288    0.557    3.531
  380.820  107.036    0.272    0.558    3.916
  381.070  106.045    0.266    0.558    4.596
  381.320  105.741    0.267    0.556    5.506
  381.570  103.277    0.250    0.544    6.494
  381.820  100.079    0.252    0.521    7.480
  382.070   97.370    0.268    0.508    8.012
  382.320   92.267    0.291    0.495    8.109
  382.570   86.947    0.302    0.499    8.161
  382.820   85.823    0.308    0.487    8.178
  383.070   87.937    0.312    0.469    8.013
  383.320   83.292    0.315    0.460    8.030
  383.570   85.686    0.306    0.460    8.037
  383.820   89.042    0.300    0.467    8.108
  384.070   90.140    0.293    0.464    8.188
  384.320   88.837    0.291    0.453    8.198
  384.570   85.787    0.284    0.447    8.251
  384.820   83.483    0.279    0.440    8.521
  385.070   83.272    0.287    0.437    9.355
  385.320   84.293    0.271    0.434    9.989
  385.570   88.796    0.257    0.452   10.230
  385.820   89.748    0.249    0.462   10.264
  386.070   88.265    0.241    0.466    9.775
  386.320   82.517    0.235    0.469    9.215
  386.570   79.558    0.229    0.461    8.604
  386.820   75.882    0.185    0.439    8.053
  387.070   77.269    0.163    0.401    7.825
  387.320   86.035    0.185    0.340    7.593
  387.570   90.002    0.207    0.427    7.367
  387.820   90.036    0.265    0.421    7.024
  388.070   91.970    0.265    0.436    6.826
  388.320   90.055    0.262    0.450    6.628
  388.570   86.805    0.251    0.456    6.426
  388.820   85.883    0.254    0.461    6.400
  389.070   88.145    0.264    0.463    6.400
  389.320   90.344    0.256    0.464    6.390
  389.570   93.985    0.251    0.460    6.535
  389.820   93.227    0.239    0.455    6.523
  390.070   92.126    0.227    0.451    6.469
  390.320   91.854    0.240    0.455    6.407
  390.570   91.836    0.242    0.459    6.222
  390.820   91.794    0.237    0.453    5.920
  391.070   92.468    0.238    0.442    5.523
  391.320   93.473    0.233    0.426    4.662
  391.570   93.399    0.237    0.418    4.021
  391.820   93.597    0.246    0.439    3.464
  392.070   93.933    0.252    0.457    2.982
  392.320   92.955    0.262    0.450    2.644
  392.570   93.514    0.268    0.468    2.541
  392.820   95.447    0.276    0.482    2.615
  393.070   97.382    0.290    0.514    2.754
  393.320   99.978    0.291    0.532    3.163
  393.570   98.747    0.285    0.563    3.598
  393.820   97.194    0.273    0.579    3.981
  394.070   96.713    0.281    0.574    4.437
  394.320   96.366    0.280    0.568    4.966
  394.570   92.951    0.284    0.559    5.489
  394.820   91.322    0.278    0.537    5.594
  395.070   88.524    0.280    0.505    5.616
  395.320   87.576    0.260    0.504    5.792
  395.570   88.608    0.248    0.500    6.084
  395.820   88.889    0.261    0.486    6.409
  396.070   88.454    0.269    0.476    6.932
  396.320   85.255    0.275    0.480    7.503
  396.570   85.169    0.266    0.477    8.098
  396.820   87.198    0.246    0.476    8.566
  397.070   88.211    0.260    0.469    9.553
  397.320   83.786    0.295    0.460    9.700
  397.570   81.874    0.300    0.449    9.140
  397.820   80.635    0.293    0.458    8.384
  398.070   77.391    0.270    0.458    7.817
  398.320   71.805    0.195    0.449    7.354
  398.570   63.521    0.108    0.382    7.105
  398.820   66.170    0.153    0.306    6.897
  399.070   69.896    0.219    0.336    6.749
  399.320   66.799    0.312    0.413    6.745
  399.570   66.077    0.299    0.456    6.644
  399.820   61.698    0.305    0.455    6.704
  400.070   57.944    0.333    0.451    6.772
  400.320   57.446    0.359    0.443    6.778
  400.570   58.370    0.371    0.436    6.784
  400.820   58.680    0.365    0.447    6.786
  401.070   59.135    0.359    0.452    6.924
  401.320   59.602    0.345    0.437    6.942
  401.570   60.471    0.341    0.441    7.175
  401.820   61.481    0.339    0.445    7.260
  402.070   61.578    0.344    0.443    7.330
  402.320   63.232    0.350    0.433    7.584
  402.570   63.734    0.344    0.433    7.662
  402.820   63.338    0.351    0.439    7.732
  403.070   59.217    0.352    0.442    7.851
  403.320   57.647    0.348    0.445    8.131
  403.570   58.046    0.337    0.452    8.831
  403.820   59.905    0.326    0.449    9.625
  404.070   61.870    0.320    0.439   10.631
  404.320   62.831    0.327    0.439   12.027
  404.570   62.800    0.327    0.435   12.775
