~VERSION INFORMATION
 VERS.                 2.0:   CWLS LOG ASCII STANDARD -VERSION 2.0
 WRAP.                  NO:   ONE LINE PER DEPTH STEP
~WELL INFORMATION BLOCK
#MNEM.UNIT           DATA                    DESCRIPTION OF MNEMONIC
#---------    -------------------            -------------------------------
# Generated from Intellog Unique Number	CS_73_76/WELL/2210
WELL.         WAINOCO OIL & GAS LIMITED      : Well_name    - WELL
LOC .         00/14-18-074-12W4/0            : Location     - LOCATION
UWI .         00/14-18-074-12W4/0            : Uwi          - UNIQUE WELL ID
ENTR.         SP                             : Entered      - ENTERED BY
SRVC.         SCHLUMBERGER                   : Scn          - SERVICE COMPANY
STRT.M        310                            : top_depth    - START DEPTH
STOP.M        533                            : bot_depth    - STOP DEPTH
STEP.M        0.25                           : increment    - STEP LENGTH
 NULL. -999.2500:NULL Value
~CURVE INFORMATION BLOCK
#MNEM UNIT       ERCB CURVE CODE    CURVE DESCRIPTION
#-----------   ------------------   ----------------------------------
DEPT.M        00 001 00 00         : DEPTH        - DEPTH
ILD .OHMM     00 120 00 00         : RESD         - DEEP RESISTIVITY (DIL)
DPHI.V/V      00 890 00 00         : PHID         - DENSITY POROSITY (LIMESTONE)
NPHI.V/V      00 330 00 00         : PHIN         - NEUTRON POROSITY (LIMESTONE)
GR  .API      00 310 00 00         : GR           - GAMMA RAY
~PARAMETER INFORMATION
#MNEM.UNIT           DATA             DESCRIPTION OF MNEMONIC
#---------         -----------     ------------------------------
GL  .M        679.35               : gl           - GROUND LEVEL ELEVATION
EREF.M        682.6                : kb           - ELEVATION OF DEPTH REFERENCE
DATM.M        679.35               : datum        - DATUM ELEVATION
TDD .M        543                  : tdd          - TOTAL DEPTH DRILLER
RUN .         ONE                  : Run          - RUN NUMBER
ENG .         BILL                 : Engineer     - RECORDING ENGINEER
WIT .         JIM                  : Witness      - WITNESSED BY
MUD .         GEL                  : Mud_type     - MUD TYPE
MATR.         LIMESTONE            : Logunit      - NEUTRON MATRIX
TMAX.C        23                   : BHT          - MAXIMUM RECORDED TEMPERATURE
BHTD.M        543                  : BHTDEP       - MAXIMUM RECORDED TEMPERATURE
MATR.         1                    : LOGUNIT      - NEUTRON MATRIX
RMT .C        25                   : MDTP         - TEMPERATURE OF MUD
NEUT.         1                    : NEUTRON      - NEUTRON TYPE
RESI.         0                    : RESIST       - RESISTIVITY TYPE
RMC .OHMM     0.25                 : RMC          - RESISTIVITY OF MUD CAKE
RMF .OHMM     0.25                 : RMF          - RESISTIVITY OF MUD FILTRATE
SUFT.C        15                   : SUFT         - SURFACE TEMPERATURE
~A  DEPTH     RESD     PHID     PHIN       GR
# ...
  353.500    5.948    0.207    0.446  103.385
  353.750    5.730    0.221    0.436  102.165
  354.000    5.417    0.235    0.449  100.945
  354.250    5.419    0.245    0.472  103.368
  354.500    5.421    0.256    0.470  106.396
  354.750    5.630    0.255    0.449  108.213
  355.000    5.738    0.256    0.428  109.422
  355.250    5.960    0.255    0.418  105.166
  355.500    6.191    0.267    0.419   98.480
  355.750    6.193    0.275    0.405   91.186
  356.000    6.312    0.277    0.389   90.573
  356.250    6.314    0.268    0.382   92.387
  356.500    6.316    0.267    0.392   92.989
  356.750    6.438    0.269    0.406   91.768
  357.000    7.075    0.280    0.405   86.295
  357.250    7.631    0.293    0.408   84.469
  357.500    8.230    0.290    0.421   79.602
  357.750    8.711    0.288    0.407   77.170
  358.000    9.220    0.297    0.397   72.913
  358.250    9.397    0.293    0.389   75.943
  358.500    9.578    0.290    0.391   74.720
  358.750    9.581    0.292    0.399   74.108
  359.000    9.405    0.295    0.408   75.315
  359.250    9.233    0.299    0.401   75.919
  359.500    9.064    0.300    0.400   76.520
  359.750    8.897    0.306    0.404   74.692
  360.000    8.900    0.311    0.396   76.506
  360.250    9.071    0.321    0.409   77.109
  360.500    9.248    0.318    0.420   77.707
  360.750    9.250    0.313    0.417   75.881
  361.000    9.428    0.310    0.405   72.838
  361.250    9.793    0.300    0.412   72.831
  361.500    9.981    0.294    0.410   69.789
  361.750   10.564    0.294    0.425   67.963
  362.000   10.973    0.308    0.437   67.348
  362.250   11.397    0.319    0.417   69.163
  362.500   11.400    0.326    0.434   68.552
  362.750   13.009    0.323    0.430   67.938
  363.000   15.416    0.318    0.407   67.322
  363.250   16.941    0.300    0.396   67.316
  363.500   18.973    0.244    0.387   67.311
  363.750   20.082    0.200    0.377   67.914
  364.000   20.468    0.147    0.357   63.048
  364.250   18.288    0.064    0.304   63.042
  364.500   16.035    0.125    0.281   65.464
  364.750   13.290    0.272    0.275   66.675
  365.000   12.562    0.294    0.288   68.489
  365.250   11.655    0.309    0.310   69.092
  365.500   10.612    0.303    0.350   67.871
  365.750   10.222    0.298    0.393   66.646
  366.000    9.847    0.302    0.395   66.642
  366.250    9.850    0.314    0.390   67.853
  366.500   10.041    0.308    0.383   69.668
  366.750   10.628    0.303    0.379   72.089
  367.000   10.832    0.297    0.389   71.478
  367.250   11.041    0.302    0.397   67.829
  367.500   11.254    0.282    0.379   63.571
  367.750   11.047    0.263    0.350   60.529
  368.000   10.844    0.221    0.270   58.701
  368.250   10.252    0.193    0.274   65.375
  368.500    9.692    0.220    0.325   69.012
  368.750    9.163    0.270    0.357   69.614
  369.000    8.501    0.308    0.387   68.999
  369.250    8.036    0.302    0.400   70.209
  369.500    7.456    0.296    0.392   70.806
  369.750    6.917    0.291    0.396   72.017
  370.000    6.790    0.301    0.397   73.226
  370.250    7.053    0.317    0.402   76.255
  370.500    7.189    0.319    0.410   77.464
  370.750    7.902    0.333    0.415   77.459
  371.000    8.053    0.338    0.402   75.023
  371.250    8.364    0.350    0.399   68.944
  371.500    8.688    0.387    0.428   65.296
  371.750    9.196    0.570    0.511   71.359
  372.000    9.373    0.558    0.431   68.319
  372.250    9.375    0.323    0.392   63.454
  372.500    9.557    0.323    0.375   59.804
  372.750    9.559    0.321    0.382   60.404
  373.000    9.385    0.312    0.374   62.219
  373.250    9.388    0.306    0.365   63.431
  373.500    9.391    0.315    0.358   65.246
  373.750    9.393    0.322    0.369   65.847
  374.000    9.395    0.329    0.364   66.449
  374.250    9.222    0.340    0.375   65.834
  374.500    9.054    0.344    0.374   64.007
  374.750    9.057    0.334    0.370   62.786
  375.000    8.890    0.336    0.384   62.170
  375.250    8.892    0.343    0.390   63.988
  375.500    8.729    0.339    0.393   66.412
  375.750    8.732    0.328    0.382   68.833
  376.000    8.734    0.323    0.380   69.434
  376.250    8.574    0.334    0.369   67.605
  376.500    8.576    0.337    0.376   66.387
  376.750    8.578    0.338    0.390   68.202
  377.000    8.581    0.349    0.369   70.015
  377.250    8.747    0.355    0.366   70.009
  377.500    8.750    0.336    0.376   68.789
  377.750    8.752    0.333    0.385   68.178
  378.000    8.923    0.331    0.391   66.957
  378.250    8.758    0.342    0.386   67.557
  378.500    8.759    0.349    0.380   68.160
  378.750    8.762    0.349    0.375   69.974
  379.000    8.601    0.347    0.389   71.184
  379.250    8.604    0.355    0.386   71.178
  379.500    8.447    0.354    0.379   69.347
  379.750    8.291    0.343    0.373   68.733
  380.000    8.294    0.343    0.378   68.729
  380.250    8.142    0.331    0.392   69.938
  380.500    8.144    0.324    0.400   70.539
  380.750    7.995    0.313    0.406   71.142
  381.000    7.997    0.321    0.407   70.525
  381.250    7.850    0.333    0.402   70.522
  381.500    7.853    0.330    0.396   69.301
  381.750    7.854    0.322    0.390   69.900
  382.000    7.857    0.332    0.388   69.289
  382.250    7.712    0.335    0.395   68.674
  382.500    7.715    0.340    0.394   70.491
  382.750    7.717    0.347    0.402   71.093
  383.000    7.719    0.351    0.409   69.870
  383.250    7.722    0.347    0.407   69.259
  383.500    7.724    0.342    0.397   69.248
  383.750    7.727    0.346    0.411   69.852
  384.000    7.728    0.336    0.420   70.453
  384.250    7.732    0.339    0.410   71.053
  384.500    7.734    0.321    0.402   71.047
  384.750    7.736    0.319    0.399   71.042
  385.000    7.738    0.321    0.409   70.430
  385.250    7.741    0.324    0.394   68.602
  385.500    7.742    0.312    0.389   67.988
  385.750    7.891    0.310    0.404   67.981
  386.000    7.894    0.320    0.410   67.975
  386.250    7.750    0.331    0.401   67.971
  386.500    7.752    0.345    0.406   68.570
  386.750    7.754    0.344    0.410   70.385
  387.000    7.611    0.347    0.405   71.595
  387.250    7.332    0.340    0.415   72.805
  387.500    7.063    0.334    0.400   71.583
  387.750    6.678    0.347    0.392   71.577
  388.000    6.433    0.353    0.404   75.214
  388.250    6.082    0.340    0.415   80.675
  388.500    5.537    0.326    0.430   78.845
  388.750    5.234    0.318    0.419   73.981
  389.000    4.856    0.325    0.408   71.547
  389.250    4.505    0.319    0.413   73.362
  389.500    4.259    0.309    0.422   83.070
  389.750    4.026    0.293    0.438   86.711
  390.000    3.807    0.269    0.446   90.955
  390.250    3.737    0.252    0.457   92.164
  390.500    3.738    0.236    0.456   92.765
  390.750    3.810    0.231    0.454   92.759
  391.000    3.883    0.232    0.456   90.930
  391.250    3.958    0.238    0.472   89.709
  391.500    4.035    0.238    0.467   88.489
  391.750    4.036    0.232    0.448   88.481
  392.000    3.962    0.225    0.441   92.121
  392.250    4.039    0.230    0.439   97.577
  392.500    4.116    0.237    0.445   98.788
  392.750    4.276    0.243    0.450  101.210
  393.000    4.525    0.236    0.455  101.205
  393.250    4.789    0.215    0.447   97.554
  393.500    5.166    0.207    0.442   93.904
  393.750    5.365    0.196    0.451   90.864
  394.000    5.679    0.194    0.450   91.465
  394.250    5.788    0.200    0.448   92.671
  394.500    5.682    0.200    0.439   93.274
  394.750    5.372    0.195    0.451   92.661
  395.000    4.984    0.193    0.456   92.046
  395.250    4.711    0.197    0.451   92.042
  395.500    4.371    0.205    0.447   93.856
  395.750    4.055    0.210    0.452   96.278
  396.000    3.834    0.220    0.457   98.096
  396.250    3.763    0.224    0.473  101.126
  396.500    3.764    0.222    0.482  100.513
  396.750    3.837    0.243    0.482   93.218
