~VERSION INFORMATION
 VERS.                 2.0:   CWLS LOG ASCII STANDARD -VERSION 2.0
 WRAP.                  NO:   ONE LINE PER DEPTH STEP
~WELL INFORMATION BLOCK
#MNEM.UNIT           DATA                    DESCRIPTION OF MNEMONIC
#---------    -------------------            -------------------------------
# Generated from Intellog Unique Number	CW_79_81/WELL/2470
NULL.         -999.25                        : NULL_VALUE
WELL.         CHEVRON FINA MUSKWA            : Well_name    - WELL              
LOC .         10-18-081-04W5                 : Location     - LOCATION          
UWI .         00/10-18-081-04W5/0            : Uwi          - UNIQUE WELL ID    
ENTR.         MAX                            : Entered      - ENTERED BY        
SRVC.         SCHLUMBERGER                   : Scn          - SERVICE COMPANY   
DATE.         06 MAR 74                      : Date         - LOG DATE
STRT.M        298.704                        : top_depth    - START DEPTH       
STOP.M        542.204                        : bot_depth    - STOP DEPTH        
STEP.M        0.25                           : increment    - STEP LENGTH       
~CURVE INFORMATION BLOCK
#MNEM UNIT       ERCB CURVE CODE    CURVE DESCRIPTION
#-----------   ------------------   ----------------------------------
DEPT.M        00 001 00 00         : DEPTH        - DEPTH                       
ILD .OHMM     00 120 00 00         : RESD         - DEEP RESISTIVITY (DIL)      
NPHI.V/V      00 330 00 00         : PHIN         - NEUTRON POROSITY (SANDSTONE)
DPHI.V/V      00 890 00 00         : PHID         - DENSITY POROSITY (SANDSTONE)
GR  .API      00 310 00 00         : GR           - GAMMA RAY                   
CALI.MM       00 280 01 00         : CAL          - CALIPER                     
~PARAMETER INFORMATION       
#MNEM.UNIT           DATA             DESCRIPTION OF MNEMONIC
#---------         -----------     ------------------------------
GL  .M        596.189              : gl           - GROUND LEVEL ELEVATION      
EREF.M        599.999              : kb           - ELEVATION OF DEPTH REFERENCE
DATM.M        596.189              : datum        - DATUM ELEVATION             
TDD .M        541.934              : tdd          - TOTAL DEPTH DRILLER         
RUN .         ONE                  : Run          - RUN NUMBER                  
ENG .         BILL                 : Engineer     - RECORDING ENGINEER          
WIT .         JIM                  : Witness      - WITNESSED BY                
MUD .         GEL                  : Mud_type     - MUD TYPE                    
MATR.         SANDSTONE            : Logunit      - NEUTRON MATRIX              
TMAX.C        28.3333              : BHT          - MAXIMUM RECORDED TEMPERATURE
BHTD.M        541.934              : BHTDEP       - MAXIMUM RECORDED TEMPERATURE
MATR.         1                    : LOGUNIT      - NEUTRON MATRIX              
RMT .C        20.5556              : MDTP         - TEMPERATURE OF MUD          
NEUT.         1                    : NEUTRON      - NEUTRON TYPE                
RESI.         0                    : RESIST       - RESISTIVITY TYPE            
RMC .OHMM     7.58                 : RMC          - RESISTIVITY OF MUD CAKE     
RMF .OHMM     8.19                 : RMF          - RESISTIVITY OF MUD FILTRATE 
SUFT.C        -15                  : SUFT         - SURFACE TEMPERATURE         
~A  DEPTH     RESD     PHIN     PHID       GR      CAL
# ...
  335.204    5.680    0.462    0.269   81.842  198.329
  335.454    5.869    0.456    0.261   83.721  198.331
  335.704    5.932    0.442    0.259   82.608  198.333
  335.954    5.895    0.423    0.252   75.862  198.252
  336.204    5.721    0.402    0.241   71.463  197.841
  336.454    5.477    0.393    0.227   67.709  197.445
  336.704    5.158    0.388    0.210   66.067  197.348
  336.954    4.925    0.384    0.183   65.013  197.548
  337.204    4.820    0.367    0.147   63.958  198.047
  337.454    4.797    0.327    0.125   66.137  198.844
  337.704    4.690    0.411    0.207   80.562  198.846
  337.954    4.556    0.469    0.223   85.727  199.246
  338.204    4.282    0.496    0.243   88.427  200.241
  338.454    3.999    0.505    0.255   88.898  202.627
  338.704    3.826    0.502    0.260   85.733  205.212
  338.954    3.915    0.484    0.275   74.606  203.411
  339.204    4.095    0.457    0.296   68.251  196.376
  339.454    4.366    0.442    0.305   57.927  195.185
  339.704    4.706    0.427    0.297   53.761  194.590
  339.954    5.023    0.414    0.283   52.472  194.394
  340.204    5.237    0.407    0.275   52.180  194.594
  340.454    5.328    0.415    0.288   52.416  195.723
  340.704    5.408    0.416    0.296   52.417  197.381
  340.954    5.407    0.407    0.288   51.714  197.780
  341.204    5.436    0.403    0.285   50.835  198.179
  341.454    5.455    0.404    0.282   50.836  198.380
  341.704    5.454    0.407    0.280   51.952  198.282
  341.954    5.470    0.405    0.285   53.939  197.887
  342.204    5.552    0.410    0.292   55.651  197.889
  342.454    5.632    0.416    0.295   57.060  197.891
  342.704    5.682    0.422    0.293   57.941  197.893
  342.954    5.722    0.425    0.291   58.647  197.895
  343.204    5.773    0.424    0.294   59.059  197.897
  343.454    5.865    0.416    0.297   58.444  197.899
  343.704    5.908    0.410    0.285   57.711  197.901
  343.954    5.950    0.414    0.276   57.478  198.301
  344.204    5.928    0.420    0.270   57.772  198.402
  344.454    5.821    0.424    0.266   58.360  198.404
  344.704    5.602    0.424    0.263   59.183  198.406
  344.954    5.095    0.429    0.264   60.798  198.408
  345.204    4.428    0.436    0.268   62.999  198.410
  345.454    3.824    0.446    0.275   71.918  198.810
  345.704    3.559    0.465    0.267   79.780  198.911
  345.954    3.534    0.476    0.257   78.021  198.913
  346.204    3.688    0.472    0.253   68.636  198.815
  346.454    4.016    0.458    0.264   63.152  198.255
  346.704    4.464    0.450    0.282   58.019  197.429
  346.954    4.965    0.435    0.292   57.786  197.033
  347.204    5.386    0.432    0.290   58.608  196.936
  347.454    5.588    0.432    0.286   59.079  196.938
  347.704    5.556    0.431    0.284   59.138  196.940
  347.954    5.420    0.428    0.288   60.225  196.859
  348.204    5.340    0.428    0.288   60.960  196.448
  348.454    5.378    0.429    0.282   61.900  196.450
  348.704    5.445    0.425    0.284   62.839  196.749
  348.954    5.523    0.419    0.287   63.193  196.950
  349.204    5.642    0.417    0.289   62.842  197.052
  349.454    5.935    0.426    0.286   61.944  197.451
  349.704    6.162    0.438    0.281   60.967  197.453
  349.954    6.295    0.447    0.288   60.968  197.455
  350.204    6.363    0.440    0.290   62.201  197.457
  350.454    6.293    0.433    0.281   63.845  197.459
  350.704    6.103    0.431    0.267   65.489  197.461
  350.954    5.833    0.432    0.269   67.671  197.546
  351.204    5.577    0.441    0.273   70.361  197.962
  351.454    5.418    0.453    0.277   75.056  199.553
  351.704    5.350    0.462    0.257   80.806  201.443
  351.954    5.330    0.461    0.230   84.915  203.035
  352.204    5.358    0.450    0.211   86.852  203.931
  352.454    5.507    0.438    0.211   88.652  203.933
  352.704    5.674    0.428    0.212   90.609  203.935
  352.954    5.838    0.423    0.215   92.957  204.334
  353.204    5.944    0.422    0.207   93.545  204.734
  353.454    6.008    0.424    0.202   93.311  205.133
  353.704    6.040    0.427    0.204   92.785  205.433
  353.954    6.039    0.431    0.204   92.082  205.436
  354.204    6.038    0.432    0.202   92.083  205.438
  354.454    6.037    0.435    0.206   91.850  205.042
  354.704    6.037    0.431    0.204   92.144  205.839
  354.954    6.036    0.429    0.200   92.967  206.636
  355.204    6.035    0.429    0.195   93.965  206.936
  355.454    6.026    0.430    0.191   94.045  206.938
  355.704    5.980    0.435    0.205   92.090  206.940
  355.954    5.936    0.441    0.207   92.561  206.942
  356.204    5.798    0.447    0.197   90.743  206.944
  356.454    5.591    0.449    0.191   88.867  206.151
  356.704    5.385    0.447    0.197   87.871  204.464
  356.954    5.269    0.447    0.211   87.207  202.397
  357.204    5.268    0.446    0.205   86.231  201.985
  357.454    5.344    0.446    0.208   85.528  202.384
  357.704    5.305    0.445    0.218   87.465  202.784
  357.954    5.133    0.445    0.222   89.930  203.580
  358.204    4.835    0.444    0.218   92.219  204.476
  358.454    4.297    0.440    0.210   95.184  204.644
  358.704    3.707    0.444    0.204   95.918  205.474
  358.954    3.108    0.478    0.206   97.797  207.463
  359.204    2.811    0.484    0.212   98.267  208.856
  359.454    2.725    0.483    0.217   98.151  208.461
  359.704    2.807    0.487    0.214   97.566  206.177
  359.954    3.101    0.486    0.193   95.484  203.249
  360.204    3.447    0.464    0.203   93.285  204.493
  360.454    3.547    0.453    0.204   92.582  204.892
  360.704    3.611    0.443    0.209   90.823  202.609
  360.954    3.650    0.437    0.211   89.299  200.625
  361.204    3.676    0.438    0.214   88.479  199.831
  361.454    3.724    0.453    0.231   87.718  198.873
  361.704    3.837    0.461    0.243   86.252  198.048
  361.954    4.149    0.447    0.248   81.326  195.665
  362.204    4.559    0.442    0.255   72.702  189.111
  362.454    5.042    0.451    0.267   68.010  185.735
  362.704    5.542    0.461    0.277   69.243  186.829
  362.954    5.967    0.452    0.262   73.791  187.295
  363.204    6.012    0.450    0.248   78.925  185.641
  363.454    5.797    0.446    0.257   79.631  185.644
  363.704    5.530    0.442    0.266   78.224  188.924
  363.954    5.317    0.438    0.266   74.588  193.694
  364.204    5.165    0.434    0.264   69.954  197.670
  364.454    5.004    0.428    0.283   66.856  198.070
  364.704    4.929    0.427    0.295   66.613  198.072
  364.954    5.108    0.428    0.281   68.256  198.471
  365.204    5.435    0.434    0.283   68.844  198.871
  365.454    5.918    0.430    0.279   69.197  199.071
  365.704    6.653    0.415    0.254   69.492  199.272
  365.954    8.298    0.372    0.181   68.819  200.400
  366.204   10.770    0.263    0.128   66.620  202.058
  366.454   13.013    0.227    0.089   64.274  202.855
  366.704   16.073    0.203    0.063   62.633  202.757
  366.954   20.093    0.184    0.046   61.343  202.362
  367.204   24.821    0.166    0.028   59.819  202.066
  367.454   28.452    0.145    0.001   57.434  202.068
  367.704   26.216    0.141    0.000   58.413  202.070
  367.954   18.307    0.203    0.000   61.934  202.469
  368.204   12.857    0.263    0.019   68.272  202.571
  368.454    9.214    0.320    0.074   76.486  202.374
  368.704    7.049    0.371    0.147   84.701  201.681
  368.954    5.911    0.422    0.196   90.003  200.259
  369.204    5.528    0.432    0.229   89.515  201.089
  369.454    5.448    0.438    0.232   89.986  201.886
  369.704    5.428    0.442    0.229   90.632  202.087
  369.954    5.427    0.445    0.226   90.516  201.890
  370.204    5.427    0.448    0.221   89.520  201.395
  370.454    5.434    0.456    0.205   88.250  200.519
  370.704    5.474    0.461    0.202   87.762  200.108
  370.954    5.434    0.458    0.215   89.171  201.302
  371.204    5.395    0.448    0.219   89.172  200.708
  371.454    5.394    0.436    0.218   88.235  200.312
