~VERSION INFORMATION
 VERS.                 2.0:   CWLS LOG ASCII STANDARD -VERSION 2.0
 WRAP.                  NO:   ONE LINE PER DEPTH STEP
~WELL INFORMATION BLOCK
#MNEM.UNIT           DATA                    DESCRIPTION OF MNEMONIC
#---------    -------------------            -------------------------------
# Generated from Intellog Unique Number	CW_73_75/WELL/3527
WELL.         pan american                   : Well_name    - WELL
LOC .         00/11-24-075-26W4/0            : Location     - LOCATION
UWI .         00/11-24-075-26W4/0            : Uwi          - UNIQUE WELL ID
ENTR.         TIM                            : Entered      - ENTERED BY
SRVC.         SCHLUMBERGER                   : Scn          - SERVICE COMPANY
STRT.M        502.92                         : top_depth    - START DEPTH
STOP.M        771.17                         : bot_depth    - STOP DEPTH
STEP.M        0.25                           : increment    - STEP LENGTH
 NULL. -999.2500:NULL Value
~CURVE INFORMATION BLOCK
#MNEM UNIT       ERCB CURVE CODE    CURVE DESCRIPTION
#-----------   ------------------   ----------------------------------
DEPT.M        00 001 00 00         : DEPTH        - DEPTH
ILD .OHMM     00 120 00 00         : RESD         - DEEP RESISTIVITY (DIL)
GR  .API      00 310 00 00         : GR           - GAMMA RAY
DELT.US/F     00 520 00 00         : DELT         - SONIC TRAVEL TIME
~PARAMETER INFORMATION
#MNEM.UNIT           DATA             DESCRIPTION OF MNEMONIC
#---------         -----------     ------------------------------
GL  .M        810.768              : gl           - GROUND LEVEL ELEVATION
EREF.M        814.426              : kb           - ELEVATION OF DEPTH REFERENCE
DATM.M        814.426              : datum        - DATUM ELEVATION
TDD .M        773.582              : tdd          - TOTAL DEPTH DRILLER
RUN .         ONE                  : Run          - RUN NUMBER
ENG .         BILL                 : Engineer     - RECORDING ENGINEER
WIT .         JIM                  : Witness      - WITNESSED BY
MUD .         GEL                  : Mud_type     - MUD TYPE
MATR.         SANDSTONE            : Logunit      - NEUTRON MATRIX
TMAX.C        30.5556              : BHT          - MAXIMUM RECORDED TEMPERATURE
BHTD.M        773.582              : BHTDEP       - MAXIMUM RECORDED TEMPERATURE
MATR.         1                    : LOGUNIT      - NEUTRON MATRIX
RMT .C        21.1111              : MDTP         - TEMPERATURE OF MUD
NEUT.         1                    : NEUTRON      - NEUTRON TYPE
RESI.         0                    : RESIST       - RESISTIVITY TYPE
RMC .OHMM     4.6                  : RMC          - RESISTIVITY OF MUD CAKE
RMF .OHMM     2.8                  : RMF          - RESISTIVITY OF MUD FILTRATE
SUFT.C        5                    : SUFT         - SURFACE TEMPERATURE
~A  DEPTH     RESD       GR     DELT
  502.920    4.540  104.773  432.720
  503.170    4.954  104.778  426.732
  503.420    4.955  104.783  426.727
  503.670    4.957  109.193  431.376
  503.920    4.958  113.115  435.361
  504.170    4.753  113.611  436.021
  504.420    4.754  112.637  438.011
  504.670    4.755  111.172  441.332
  504.920    4.756  108.729  446.645
  505.170    5.170  104.328  449.302
  505.420    5.584  100.416  449.962
  505.670    6.411   90.629  402.750
  505.920    7.031   73.501  378.808
  506.170    8.271   70.077  362.181
  506.420    8.271   62.738  352.203
  506.670    8.479   52.462  345.550
  506.920    8.481   44.144  346.209
  507.170    8.481   33.868  349.530
  507.420    7.864   24.571  362.159
  507.670    7.452   18.213  380.106
  507.920    7.041   15.770  392.735
  508.170    6.835   18.223  398.050
  508.420    6.218   21.165  382.752
  508.670    5.394   22.638  383.413
  508.920    5.188   28.028  392.052
  509.170    4.983   36.847  396.037
  509.420    4.984   43.216  394.035
  509.670    5.398   50.075  392.702
  509.920    5.812   55.467  404.666
  510.170    6.020   53.512  421.949
  510.420    6.640   50.090  400.002
  510.670    6.642   45.689  394.678
  510.920    6.642   42.267  390.685
  511.170    6.643   41.294  385.361
  511.420    6.232   41.299  388.015
  511.670    5.820   42.283  390.005
  511.920    5.203   45.225  389.337
  512.170    4.997   48.656  393.321
  512.420    4.587   55.517  395.312
  512.670    4.588   59.928  398.631
  512.920    4.795   60.912  398.626
  513.170    5.003   61.409  392.638
  513.420    5.417   61.413  387.979
  513.670    5.418   61.418  391.299
  513.920    5.419   61.913  396.613
  514.170    5.420   61.916  405.918
  514.420    5.628   61.921  417.216
  514.670    5.835   59.968  432.504
  514.920    6.043   57.035  373.987
  515.170    6.044   47.248  376.643
  515.420    6.458   39.420  377.968
  515.670    6.665   36.489  379.293
  515.920    7.080   36.494  382.613
  516.170    6.875   40.416  385.268
  516.420    6.669   42.379  381.939
  516.670    6.051   37.489  377.944
  516.920    5.227   36.514  378.606
  517.170    4.816   43.862  377.935
  517.420    4.198   50.232  378.597
  517.670    3.993   56.602  383.246
  517.920    3.375   62.481  389.891
  518.170    3.169   68.852  399.195
  518.420    2.758   72.773  419.802
  518.670    2.347   77.675  437.750
  518.920    2.348   82.575  412.478
  519.170    2.143   88.945  411.144
  519.420    2.144   90.421  410.476
  519.670    1.939   89.934  375.895
  519.920    1.940   87.492  332.007
  520.170    1.941   86.029  349.955
  520.420    1.737   86.032  391.174
  520.670    1.737   86.527  415.106
  520.920    1.739   86.532  424.410
  521.170    1.534   87.026  429.060
  521.420    1.534   88.500  437.034
  521.670    1.329   90.954  436.365
  521.920    1.331   89.492  436.359
  522.170    1.332   87.538  434.361
  522.420    1.333   88.033  429.036
  522.670    1.334   89.995  432.357
  522.920    1.542   92.938  439.666
  523.170    1.750   95.880  436.338
  523.420    1.957   96.864  427.024
  523.670    2.165   96.869  435.663
  523.920    2.166   96.386  437.653
  524.170    2.167   95.900  429.005
  524.420    2.168   94.926  429.000
  524.670    2.169   93.464  425.671
  524.920    1.965   92.489  411.704
  525.170    1.965   91.024  394.411
  525.420    1.760   92.990  399.727
  525.670    1.761   94.462  420.999
  525.920    1.763   94.958  439.610
  526.170    1.764   93.984  437.611
  526.420    1.765   93.499  438.938
  526.670    1.767   93.504  434.279
  526.920    1.768   93.509  416.321
  527.170    1.769   92.045  415.651
  527.420    1.770   90.092  430.275
  527.670    1.772   91.076  437.584
  527.920    1.772   94.019  435.585
  528.170    1.774   95.491  438.905
  528.420    1.775   96.965  442.224
  528.670    1.776   96.971  441.554
  528.920    1.571   95.997  444.875
  529.170    1.572   95.023  451.520
  529.420    1.573   96.496  460.824
  529.670    1.575   99.439  464.808
  529.920    1.576   99.444  465.468
  530.170    1.577  100.918  466.128
  530.420    1.578  103.372  465.459
  530.670    1.580  105.334  466.784
  530.920    1.580  104.850  465.450
  531.170    1.582  104.365  463.451
  531.420    1.583  102.902  461.451
  531.670    1.584  102.417  458.786
  531.920    1.585  102.424  457.451
  532.170    1.586  102.918  458.112
  532.420    1.382  103.413  458.774
  532.670    1.383  103.418  459.434
  532.920    1.384  100.484  457.435
  533.170    1.179   95.104  455.436
  533.420    1.180   88.744  457.426
  533.670    0.975   88.749  458.751
  533.920    0.976   89.733  454.091
  534.170    0.978   90.228  450.762
  534.420    0.978   91.212  452.751
  534.670    0.980   95.135  455.407
  534.920    0.981   98.567  454.073
  535.170    0.982  100.529  450.744
  535.420    0.983  101.515  446.750
  535.670    0.985   99.071  442.756
  535.920    0.986   95.649  441.421
  536.170    0.987   95.165  442.746
  536.420    0.988  100.067  442.741
  536.670    0.990  102.029  440.077
  536.920    0.991  101.544  440.074
  537.170    0.992   99.102  440.732
  537.420    0.993   98.617  441.392
  537.670    0.994   97.642  442.054
  537.920    0.995   97.647  443.379
  538.170    0.997   98.631  446.034
  538.420    0.998   99.126  449.352
  538.670    0.999   99.131  450.680
  538.920    1.001  100.118  450.675
  539.170    1.002  101.100  446.681
  539.420    1.003  103.553  442.687
  539.670    1.005  103.069  440.022
  539.920    1.005  100.136  439.353
  540.170    1.007   99.163  438.019
  540.420    1.008  100.637  434.024
  540.670    1.009  102.109  429.365
  540.920    1.010  103.583  422.712
  541.170    1.011  103.099  420.713
  541.420    1.012  102.126  422.703
  541.670    1.014  101.151  423.363
  541.920    1.015  100.667  422.029
  542.170    1.016  100.181  420.695
  542.420    1.018   99.209  416.701
  542.670    1.018   97.746  406.058
  542.920    1.020   96.282  400.733
  543.170    1.022   94.818  398.734
  543.420    1.022   93.843  400.725
  543.670    1.024   91.889  407.368
  543.920    1.025   90.425  414.013
  544.170    1.026   89.941  425.976
  544.420    1.027   89.946  443.924
  544.670    1.028   89.461  443.920
  544.920    1.236   87.508  426.628
  545.170    1.444   85.066  414.654
  545.420    2.270   84.580  411.325
  545.670    3.096   83.606  407.332
  545.920    3.924   80.674  402.673
  546.170    4.337   74.805  398.679
  546.420    4.958   69.914  394.685
  546.670    5.165   64.044  390.027
  546.920    5.579   58.664  377.388
  547.170    5.580   55.242  374.058
  547.420    5.375   52.309  368.070
  547.670    5.170   49.867  345.459
  547.920    4.965   49.871  330.162
  548.170    4.760   49.387  346.115
  548.420    4.554   49.882  410.606
  548.670    4.349   51.357  416.585
  548.920    4.144   51.849  414.586
  549.170    4.145   53.323  404.608
  549.420    3.941   54.307  406.597
  549.670    3.735   54.804  409.918
  549.920    3.737   54.808  411.907
  550.170    3.532   55.304  410.573
  550.420    3.533   55.308  410.568
  550.670    3.534   55.314  413.224
  550.920    3.535   55.318  416.542
  551.170    3.536   54.833  419.863
  551.420    3.537   54.348  413.875
  551.670    3.745   53.864  408.551
  551.920    4.365   52.400  411.871
  552.170    5.191   51.426  411.867
  552.420    4.987   50.941  409.202
  552.670    4.575   51.436  409.198
  552.920    4.164   52.910  410.523
  553.170    4.372   54.874  408.523
  553.420    4.372   56.350  407.189
  553.670    4.374   56.354  409.844
  553.920    4.582   56.360  412.499
  554.170    4.583   56.363  411.829
  554.420    4.584   56.370  409.165
  554.670    4.585   55.883  407.831
  554.920    4.793   53.932  412.479
  555.170    4.793   53.445  414.471
  555.420    4.795   52.471  415.795
  555.670    4.796   51.988  413.131
  555.920    4.591   52.972  411.798
  556.170    4.592   54.445  409.796
  556.420    4.387   55.428  409.794
  556.670    4.388   58.862  410.454
  556.920    4.390   59.846  407.789
