~VERSION INFORMATION
 VERS.                 2.0:   CWLS LOG ASCII STANDARD -VERSION 2.0
 WRAP.                  NO:   ONE LINE PER DEPTH STEP
~WELL INFORMATION BLOCK
#MNEM.UNIT           DATA                    DESCRIPTION OF MNEMONIC
#---------    -------------------            -------------------------------
# Generated from Intellog Unique Number	CW_79_81/WELL/2467
WELL.         10-15-081-19W4                 : Well_name    - WELL
LOC .         00/10-15-081-19W4/0            : Location     - LOCATION
UWI .         00/10-15-081-19W400            : Uwi          - UNIQUE WELL ID
ENTR.         MAX                            : Entered      - ENTERED BY
SRVC.         SCHLUMBERGER                   : Scn          - SERVICE COMPANY
STRT.M        167.64                         : top_depth    - START DEPTH
STOP.M        365.64                         : bot_depth    - STOP DEPTH
STEP.M        0.25                           : increment    - STEP LENGTH
 NULL. -999.2500:NULL Value
~CURVE INFORMATION BLOCK
#MNEM UNIT       ERCB CURVE CODE    CURVE DESCRIPTION
#-----------   ------------------   ----------------------------------
DEPT.M        00 001 00 00         : DEPTH        - DEPTH
ILD .OHMM     00 120 00 00         : RESD         - DEEP RESISTIVITY (DIL)
NPHI.V/V      00 330 00 00         : PHIN         - NEUTRON POROSITY (SANDSTONE)
DPHI.V/V      00 890 00 00         : PHID         - DENSITY POROSITY (SANDSTONE)
GR  .API      00 310 00 00         : GR           - GAMMA RAY
CALI.MM       00 280 01 00         : CAL          - CALIPER
~PARAMETER INFORMATION
#MNEM.UNIT           DATA             DESCRIPTION OF MNEMONIC
#---------         -----------     ------------------------------
GL  .M        576.377              : gl           - GROUND LEVEL ELEVATION
EREF.M        578.815              : kb           - ELEVATION OF DEPTH REFERENCE
DATM.M        576.377              : datum        - DATUM ELEVATION
TDD .M        373.99               : tdd          - TOTAL DEPTH DRILLER
RUN .         ONE                  : Run          - RUN NUMBER
ENG .         BILL                 : Engineer     - RECORDING ENGINEER
WIT .         JIM                  : Witness      - WITNESSED BY
MUD .         GEL                  : Mud_type     - MUD TYPE
MATR.         SANDSTONE            : Logunit      - NEUTRON MATRIX
TMAX.C        20                   : BHT          - MAXIMUM RECORDED TEMPERATURE
BHTD.M        373.99               : BHTDEP       - MAXIMUM RECORDED TEMPERATURE
MATR.         1                    : LOGUNIT      - NEUTRON MATRIX
RMT .C        15.5556              : MDTP         - TEMPERATURE OF MUD
NEUT.         1                    : NEUTRON      - NEUTRON TYPE
RESI.         0                    : RESIST       - RESISTIVITY TYPE
RMC .OHMM     7.16                 : RMC          - RESISTIVITY OF MUD CAKE
RMF .OHMM     8.11                 : RMF          - RESISTIVITY OF MUD FILTRATE
SUFT.C        -20                  : SUFT         - SURFACE TEMPERATURE
~A  DEPTH     RESD     PHIN     PHID       GR      CAL
# ...
  277.140    6.757    0.503    0.283   89.573  162.182
  277.390    7.000    0.489    0.274   91.164  162.136
  277.640    7.098    0.482    0.268   93.104  162.092
  277.890    7.067    0.488    0.263   92.731  162.435
  278.140    6.949    0.500    0.260   89.986  162.968
  278.390    6.794    0.501    0.264   87.792  162.913
  278.640    6.789    0.494    0.259   89.690  162.869
  278.890    6.784    0.494    0.250   88.734  162.822
  279.140    6.780    0.497    0.250   88.824  162.779
  279.390    6.750    0.497    0.252   88.799  162.732
  279.640    6.709    0.494    0.253   87.906  162.682
  279.890    6.713    0.492    0.249   85.548  162.543
  280.140    6.760    0.493    0.252   84.318  162.081
  280.390    6.853    0.489    0.249   84.522  162.431
  280.640    7.023    0.489    0.243   88.196  162.780
  280.890    7.070    0.491    0.235   93.833  163.325
  281.140    6.938    0.492    0.224   98.890  164.064
  281.390    6.724    0.490    0.210  100.169  164.947
  281.640    6.670    0.485    0.214  102.064  165.704
  281.890    6.665    0.490    0.226  101.112  166.058
  282.140    6.696    0.486    0.222  100.510  166.699
  282.390    6.667    0.481    0.212  100.484  167.242
  282.640    6.568    0.483    0.205  101.033  167.493
  282.890    6.448    0.497    0.212  101.875  167.440
  283.140    6.347    0.505    0.213  101.603  167.387
  283.390    6.343    0.498    0.208  101.115  168.123
  283.640    6.338    0.496    0.202  100.802  168.566
  283.890    6.447    0.497    0.203   99.619  168.519
  284.140    6.728    0.497    0.212   97.106  167.396
  284.390    7.374    0.488    0.223   91.301  164.130
  284.640    8.520    0.470    0.200   80.917  163.669
  284.890   11.781    0.422    0.151   67.938  162.843
  285.140   15.557    0.261    0.058   61.376  163.480
  285.390   19.069    0.161    0.004   59.381  163.827
  285.640   21.044    0.166    0.003   60.162  163.688
  285.890   19.945    0.193    0.005   62.659  164.244
  286.140   17.822    0.226    0.016   66.004  163.370
  286.390   15.253    0.272    0.041   72.220  162.946
  286.640   13.378    0.317    0.073   79.478  162.214
  286.890   12.053    0.379    0.138   85.808  161.380
  287.140   11.134    0.439    0.219   89.651  160.644
  287.390   10.423    0.445    0.250   89.463  160.198
  287.640   10.031    0.439    0.247   87.508  160.159
  287.890    9.808    0.449    0.250   83.781  160.108
  288.140    9.643    0.458    0.247   85.256  160.063
  288.390    9.567    0.470    0.240   87.078  160.021
  288.640    9.561    0.483    0.237   87.457  160.173
  288.890    9.553    0.490    0.247   88.189  160.894
  289.140    9.546    0.496    0.240   90.807  160.846
  289.390    9.538    0.484    0.239   93.094  160.803
  289.640    9.504    0.496    0.238   94.183  161.629
  289.890    9.515    0.499    0.242   92.635  162.151
  290.140    9.560    0.483    0.249   89.672  162.084
  290.390    9.553    0.458    0.247   89.549  162.011
  290.640    9.547    0.465    0.227   91.464  161.938
  290.890    9.472    0.481    0.224   96.343  162.667
  291.140    9.449    0.488    0.214   98.760  162.797
  291.390    9.444    0.487    0.217   98.956  162.736
  291.640    9.438    0.483    0.231   98.101  162.682
  291.890    9.416    0.485    0.232   98.725  162.686
  292.140    9.340    0.483    0.229  100.880  163.026
  292.390    9.267    0.473    0.231  101.548  163.352
  292.640    9.194    0.466    0.218  100.285  164.287
  292.890    9.123    0.464    0.213   98.960  165.022
  293.140    9.052    0.467    0.217   98.217  165.353
  293.390    8.966    0.472    0.214   97.226  165.915
  293.640    8.893    0.477    0.228   95.967  167.094
  293.890    8.759    0.481    0.240   95.695  165.048
  294.140    8.676    0.480    0.239   97.007  163.899
  294.390    8.640    0.476    0.235   98.256  163.439
  294.640    8.603    0.473    0.229   98.742  163.570
  294.890    8.435    0.478    0.217   98.941  164.291
  295.140    8.242    0.487    0.208  100.125  164.218
  295.390    8.059    0.488    0.212   97.977  164.556
  295.640    7.924    0.493    0.216   97.061  164.589
  295.890    7.806    0.492    0.216   97.374  164.921
  296.140    7.689    0.483    0.214   98.566  165.556
  296.390    7.551    0.472    0.220  100.368  165.875
  296.640    7.434    0.465    0.221  102.528  165.808
  296.890    7.269    0.478    0.191  102.248  166.141
  297.140    7.148    0.477    0.190  101.454  166.766
  297.390    7.041    0.473    0.200  100.482  167.102
  297.640    6.936    0.469    0.207   99.505  167.046
  297.890    6.821    0.468    0.202   98.279  166.797
  298.140    6.766    0.467    0.210   97.021  165.905
  298.390    6.860    0.466    0.214   99.328  165.055
  298.640    7.031    0.465    0.224  102.334  163.605
  298.890    7.309    0.464    0.238  103.699  161.956
  299.140    7.672    0.460    0.249  102.839  160.899
  299.390    8.066    0.452    0.242  100.921  161.691
  299.640    8.372    0.435    0.248  100.886  162.038
  299.890    8.861    0.420    0.255   98.738  161.577
  300.140    9.479    0.418    0.250   94.489  162.604
  300.390    9.973    0.413    0.246   89.303  163.726
  300.640   10.350    0.400    0.249   84.700  164.354
  300.890   11.386    0.389    0.256   81.959  164.768
  301.140   13.462    0.390    0.244   78.994  165.115
  301.390   15.184    0.367    0.201   75.679  165.837
  301.640   17.317    0.334    0.156   72.539  166.569
  301.890   19.002    0.301    0.118   69.925  166.707
  302.140   19.553    0.266    0.089   68.012  166.148
  302.390   19.051    0.215    0.053   66.699  165.114
  302.640   18.068    0.207    0.030   66.172  164.228
  302.890   16.419    0.260    0.059   69.181  164.957
  303.140   14.845    0.312    0.092   72.015  165.389
  303.390   13.147    0.353    0.119   75.139  165.523
  303.640   11.675    0.379    0.136   77.793  165.459
  303.890   10.692    0.403    0.155   77.884  165.382
  304.140    9.915    0.420    0.195   77.357  165.316
  304.390    9.697    0.440    0.219   76.149  164.855
  304.640    9.534    0.461    0.236   77.747  164.390
  304.890    9.426    0.465    0.248   80.165  164.128
  305.140    9.352    0.452    0.258   82.119  164.068
  305.390    9.264    0.440    0.268   82.626  163.902
  305.640    9.189    0.440    0.274   80.632  163.422
  305.890    9.250    0.447    0.262   81.063  163.365
  306.140    9.061    0.451    0.246   82.371  163.298
  306.390    8.894    0.449    0.246   82.099  163.029
  306.640    8.841    0.446    0.257   80.130  162.566
  306.890    8.835    0.452    0.247   78.631  162.100
  307.140    8.828    0.451    0.242   78.344  162.040
  307.390    8.759    0.451    0.236   77.139  161.983
  307.640    8.739    0.448    0.234   76.462  162.510
  307.890    8.702    0.444    0.231   77.713  162.840
  308.140    8.635    0.441    0.230   82.008  163.073
  308.390    8.566    0.445    0.244   90.938  164.352
  308.640    8.561    0.447    0.243   94.800  165.118
  308.890    8.250    0.453    0.243   97.103  165.450
  309.140    8.084    0.463    0.224   99.231  165.778
  309.390    8.108    0.468    0.213  100.129  165.714
  309.640    8.281    0.464    0.220   98.920  165.259
  309.890    8.456    0.451    0.234   94.745  165.030
  310.140    8.451    0.447    0.232   93.975  166.189
  310.390    8.445    0.454    0.231   96.278  166.534
  310.640    8.440    0.461    0.225   97.355  166.573
  310.890    8.435    0.468    0.220   98.257  165.515
  311.140    8.446    0.474    0.217   99.334  164.059
  311.390    8.500    0.475    0.212  101.347  164.132
  311.640    8.495    0.467    0.211  106.915  162.833
  311.890    8.490    0.466    0.208  105.235  163.952
  312.140    8.577    0.458    0.199  104.433  164.783
  312.390    8.666    0.454    0.188  103.810  165.119
  312.640    8.723    0.456    0.181  104.010  165.253
  312.890    8.780    0.460    0.189  107.015  165.982
  313.140    8.773    0.464    0.201  107.850  166.398
  313.390    8.835    0.465    0.209  107.083  166.751
