~VERSION INFORMATION
 VERS.                 2.0:   CWLS LOG ASCII STANDARD -VERSION 2.0
 WRAP.                  NO:   ONE LINE PER DEPTH STEP
~WELL INFORMATION BLOCK
#MNEM.UNIT           DATA                    DESCRIPTION OF MNEMONIC
#---------    -------------------            -------------------------------
# Generated from Intellog Unique Number	CS_67_68/WELL/852
WELL.         GLOBAL ARTIC ISLAND            : Well_name    - WELL
LOC .         00/12-18-068-17W4/0            : Location     - LOCATION
UWI .         00/12-18-068-17W4/0            : Uwi          - UNIQUE WELL ID
ENTR.         SP                             : Entered      - ENTERED BY
SRVC.         SCHLUMBERGER                   : Scn          - SERVICE COMPANY
STRT.M        385                            : top_depth    - START DEPTH
STOP.M        525                            : bot_depth    - STOP DEPTH
STEP.M        0.25                           : increment    - STEP LENGTH
 NULL. -999.2500:NULL Value
~CURVE INFORMATION BLOCK
#MNEM UNIT       ERCB CURVE CODE    CURVE DESCRIPTION
#-----------   ------------------   ----------------------------------
DEPT.M        00 001 00 00         : DEPTH        - DEPTH
ILD .OHMM     00 120 00 00         : RESD         - DEEP RESISTIVITY (DIL)
DPHI.V/V      00 890 00 00         : PHID         - DENSITY POROSITY (LIMESTONE)
NPHI.V/V      00 330 00 00         : PHIN         - NEUTRON POROSITY (LIMESTONE)
GR  .API      00 310 00 00         : GR           - GAMMA RAY
~PARAMETER INFORMATION
#MNEM.UNIT           DATA             DESCRIPTION OF MNEMONIC
#---------         -----------     ------------------------------
GL  .M        568                  : gl           - GROUND LEVEL ELEVATION
EREF.M        571.3                : kb           - ELEVATION OF DEPTH REFERENCE
DATM.M        568                  : datum        - DATUM ELEVATION
TDD .M        538                  : tdd          - TOTAL DEPTH DRILLER
RUN .         ONE                  : Run          - RUN NUMBER
ENG .         BILL                 : Engineer     - RECORDING ENGINEER
WIT .         JIM                  : Witness      - WITNESSED BY
MUD .         GEL                  : Mud_type     - MUD TYPE
MATR.         LIMESTONE            : Logunit      - NEUTRON MATRIX
TMAX.C        26                   : BHT          - MAXIMUM RECORDED TEMPERATURE
BHTD.M        538                  : BHTDEP       - MAXIMUM RECORDED TEMPERATURE
MATR.         1                    : LOGUNIT      - NEUTRON MATRIX
RMT .C        25                   : MDTP         - TEMPERATURE OF MUD
NEUT.         1                    : NEUTRON      - NEUTRON TYPE
RESI.         0                    : RESIST       - RESISTIVITY TYPE
RMC .OHMM     0.25                 : RMC          - RESISTIVITY OF MUD CAKE
RMF .OHMM     0.25                 : RMF          - RESISTIVITY OF MUD FILTRATE
SUFT.C        15                   : SUFT         - SURFACE TEMPERATURE
~A  DEPTH     RESD     PHID     PHIN       GR
# ...
  472.000    2.388    0.176    0.390  114.675
  472.250    2.207    0.168    0.393  114.302
  472.500    2.146    0.162    0.419  115.022
  472.750    2.200    0.156    0.439  115.984
  473.000    2.462    0.151    0.461  116.523
  473.250    2.783    0.149    0.407  110.082
  473.500    3.192    0.153    0.375  102.914
  473.750    3.474    0.133    0.357   99.933
  474.000    3.838    0.118    0.337   99.742
  474.250    4.161    0.114    0.344   98.279
  474.500    4.641    0.127    0.360  100.091
  474.750    5.224    0.076    0.328  102.267
  475.000    5.740    0.029    0.273   95.099
  475.250    6.294   -0.010    0.170   75.431
  475.500    6.850   -0.009    0.138   56.613
  475.750    7.153    0.023    0.206   63.886
  476.000    6.612    0.055    0.255   75.042
  476.250    5.638    0.082    0.288   88.747
  476.500    5.029    0.113    0.315  113.678
  476.750    4.494    0.115    0.341  121.679
  477.000    4.313    0.090    0.376  119.061
  477.250    4.404    0.055    0.272  106.796
  477.500    4.634    0.014    0.190   89.798
  477.750    4.821    0.027    0.188   64.912
  478.000    4.913    0.052    0.251   60.534
  478.250    4.905    0.088    0.285   77.516
  478.500    4.752    0.112    0.307   89.765
  478.750    4.621    0.132    0.325   98.677
  479.000    4.435    0.142    0.321  106.193
  479.250    4.328    0.122    0.299  101.027
  479.500    4.338    0.105    0.301  103.385
  479.750    4.412    0.092    0.319  101.253
  480.000    4.463    0.081    0.308   92.384
  480.250    4.316    0.084    0.251   86.126
  480.500    4.042    0.105    0.234   81.811
  480.750    3.667    0.121    0.246   89.024
  481.000    3.364    0.137    0.288  100.909
  481.250    3.127    0.147    0.322  109.151
  481.500    3.024    0.152    0.325  114.423
  481.750    2.913    0.151    0.347  119.814
  482.000    2.854    0.139    0.368  121.931
  482.250    2.833    0.134    0.371  121.617
  482.500    2.823    0.135    0.364  120.519
  482.750    2.937    0.129    0.371  119.479
  483.000    3.039    0.125    0.374  117.590
  483.250    3.068    0.131    0.351  116.247
  483.500    3.126    0.136    0.356  119.332
  483.750    3.157    0.136    0.382  119.688
  484.000    3.175    0.127    0.401  114.098
  484.250    3.181    0.118    0.321  108.569
  484.500    3.176    0.116    0.292  106.618
  484.750    3.159    0.130    0.317  114.195
  485.000    3.066    0.141    0.349  121.346
  485.250    2.987    0.147    0.364  126.375
  485.500    2.960    0.146    0.412  131.342
  485.750    2.999    0.143    0.457  134.792
  486.000    3.252    0.140    0.335  118.098
  486.250    3.703    0.130    0.305   99.159
  486.500    4.336    0.106    0.279   89.927
  486.750    5.164    0.086    0.255   85.186
  487.000    5.934    0.077    0.249   83.964
  487.250    6.532    0.109    0.269   84.078
  487.500    6.937    0.133    0.289   87.953
  487.750    7.259    0.147    0.279   90.553
  488.000    7.192    0.164    0.271   87.937
  488.250    7.302    0.178    0.253   82.346
  488.500    7.932    0.191    0.241   75.966
  488.750    8.537    0.198    0.236   72.985
  489.000    9.033    0.190    0.261   71.096
  489.250    9.648    0.177    0.286   72.603
  489.500   10.228    0.167    0.299   73.507
  489.750   10.701    0.169    0.307   73.013
  490.000   11.050    0.177    0.314   70.517
  490.250   11.283    0.185    0.303   68.870
  490.500   11.413    0.183    0.294   70.379
  490.750   11.502    0.179    0.283   72.677
  491.000   11.526    0.175    0.277   74.669
  491.250   11.357    0.166    0.275   76.118
  491.500   10.980    0.160    0.277   77.626
  491.750   10.638    0.159    0.280   78.529
  492.000   10.286    0.160    0.259   79.068
  492.250    9.798    0.160    0.239   79.847
  492.500    8.990    0.153    0.229   88.031
  492.750    8.741    0.154    0.269   96.275
  493.000    8.373    0.168    0.311  102.092
  493.250    7.976    0.167    0.336  107.727
  493.500    7.727    0.115    0.308  111.723
  493.750    7.415    0.094    0.281  108.438
  494.000    7.224    0.092    0.282  105.215
  494.250    7.065    0.087    0.275  115.460
  494.500    7.026    0.079    0.267  127.830
  494.750    6.949    0.072    0.265  139.109
  495.000    6.924    0.067    0.268  132.305
  495.250    6.900    0.063    0.278  125.925
  495.500    6.875    0.064    0.290  119.424
  495.750    6.838    0.075    0.288  114.319
  496.000    6.775    0.080    0.277  109.335
  496.250    6.688    0.084    0.271  107.750
  496.500    6.614    0.082    0.269  106.649
  496.750    6.529    0.077    0.263  105.792
  497.000    6.457    0.075    0.251  105.297
  497.250    6.374    0.074    0.239  106.018
  497.500    6.292    0.074    0.237  108.557
  497.750    6.246    0.073    0.258  112.312
  498.000    6.189    0.068    0.271  113.880
  498.250    6.144    0.063    0.282  113.812
  498.500    6.042    0.059    0.296  119.142
  498.750    5.975    0.061    0.303  122.473
  499.000    5.888    0.066    0.287  124.467
  499.250    5.779    0.070    0.269  122.335
  499.500    5.737    0.078    0.261  119.413
  499.750    5.653    0.076    0.265  117.463
  500.000    5.654    0.075    0.280  116.000
  500.250    5.613    0.081    0.280  114.717
  500.500    5.613    0.081    0.267  114.102
  500.750    5.583    0.075    0.256  117.309
  501.000    5.553    0.068    0.258  118.941
  501.250    5.553    0.071    0.268  119.417
  501.500    5.565    0.076    0.270  118.985
  501.750    5.577    0.080    0.271  117.156
  502.000    5.588    0.083    0.280  110.655
  502.250    5.631    0.083    0.287  106.642
  502.500    5.664    0.082    0.293  104.268
  502.750    5.751    0.081    0.278  101.770
  503.000    5.795    0.076    0.264  100.732
  503.250    5.862    0.079    0.242   99.812
  503.500    5.863    0.088    0.244   99.502
  503.750    5.853    0.093    0.238   99.311
  504.000    5.832    0.098    0.245   99.971
  504.250    5.801    0.100    0.251  101.298
  504.500    5.813    0.094    0.256  107.903
  504.750    5.792    0.092    0.252  112.386
  505.000    5.739    0.094    0.251  117.716
  505.250    5.676    0.099    0.253  120.803
  505.500    5.603    0.103    0.264  126.377
  505.750    5.551    0.092    0.274  131.830
  506.000    5.460    0.089    0.284  136.858
  506.250    5.410    0.113    0.296  132.663
  506.500    5.380    0.150    0.279  119.184
  506.750    5.341    0.144    0.266  108.801
  507.000    5.312    0.133    0.259  103.331
  507.250    5.283    0.124    0.265  102.959
  507.500    5.235    0.129    0.284  111.020
  507.750    5.187    0.136    0.262  114.836
  508.000    5.149    0.132    0.251  110.155
  508.250    5.111    0.122    0.277  113.484
  508.500    5.093    0.126    0.299  112.869
  508.750    5.046    0.140    0.291  114.196
  509.000    4.981    0.147    0.282  115.947
  509.250    4.890    0.141    0.280  112.905
  509.500    4.791    0.136    0.305  116.477
  509.750    4.668    0.163    0.319  120.049
  510.000    4.599    0.184    0.298  115.368
  510.250    4.539    0.177    0.282  110.870
  510.500    4.515    0.139    0.279  118.689
  510.750    4.550    0.119    0.282  124.021
  511.000    4.576    0.101    0.265  118.854
  511.250    4.629    0.108    0.256  110.836
  511.500    4.691    0.115    0.263  105.186
  511.750    4.799    0.117    0.282  103.963
  512.000    4.918    0.116    0.290  110.327
  512.250    5.060    0.114    0.282  113.717
  512.500    5.195    0.118    0.279  109.217
  512.750    5.236    0.120    0.274  105.448
  513.000    5.266    0.114    0.258  102.406
  513.250    5.267    0.111    0.233  103.065
  513.500    5.229    0.114    0.220  106.394
  513.750    5.171    0.117    0.212  109.420
  514.000    5.133    0.110    0.222  115.115
  514.250    5.105    0.109    0.242  122.389
  514.500    5.049    0.111    0.257  128.145
  514.750    5.012    0.103    0.260  131.535
  515.000    5.004    0.111    0.247  128.796
  515.250    5.033    0.118    0.241  123.931
