~VERSION INFORMATION
 VERS.                 2.0:   CWLS LOG ASCII STANDARD -VERSION 2.0
 WRAP.                  NO:   ONE LINE PER DEPTH STEP
~WELL INFORMATION BLOCK
#MNEM.UNIT           DATA                    DESCRIPTION OF MNEMONIC
#---------    -------------------            -------------------------------
# Generated from Intellog Unique Number	CW_73_75/WELL/2737
WELL.         ICG ET AL AMADO4 10-04         : Well_name    - WELL
LOC .         00/10-04-073-20W4/0            : Location     - LOCATION
UWI .         00/10-04-073-20W4/0            : Uwi          - UNIQUE WELL ID
ENTR.         JAYE                           : Entered      - ENTERED BY
SRVC.         SCHLUMBERGER                   : Scn          - SERVICE COMPANY
DATE.         11 JAN 79                      : Date         - LOG DATE
STRT.M        365                            : top_depth    - START DEPTH
STOP.M        575                            : bot_depth    - STOP DEPTH
STEP.M        0.25                           : increment    - STEP LENGTH
 NULL. -999.2500:NULL Value
~CURVE INFORMATION BLOCK
#MNEM UNIT       ERCB CURVE CODE    CURVE DESCRIPTION
#-----------   ------------------   ----------------------------------
DEPT.M        00 001 00 00         : DEPTH        - DEPTH
ILD .OHMM     00 120 00 00         : RESD         - DEEP RESISTIVITY (DIL)
NPHI.V/V      00 330 00 00         : PHIN         - NEUTRON POROSITY (SANDSTONE)
DPHI.V/V      00 890 00 00         : PHID         - DENSITY POROSITY (SANDSTONE)
GR  .API      00 310 00 00         : GR           - GAMMA RAY
CALI.MM       00 280 01 00         : CAL          - CALIPER
~PARAMETER INFORMATION
#MNEM.UNIT           DATA             DESCRIPTION OF MNEMONIC
#---------         -----------     ------------------------------
GL  .M        680.5                : gl           - GROUND LEVEL ELEVATION
EREF.M        683.2                : kb           - ELEVATION OF DEPTH REFERENCE
DATM.M        680.5                : datum        - DATUM ELEVATION
TDD .M        576.5                : tdd          - TOTAL DEPTH DRILLER
RUN .         ONE                  : Run          - RUN NUMBER
ENG .         JORDAN               : Engineer     - RECORDING ENGINEER
WIT .         WALTERS              : Witness      - WITNESSED BY
BASE.         EDM                  : Branch       - HOME BASE OF LOGGING UNIT
MUD .         GEL CHEM             : Mud_type     - MUD TYPE
MATR.         SANDSTONE            : Logunit      - NEUTRON MATRIX
TMAX.C        28.9                 : BHT          - MAXIMUM RECORDED TEMPERATURE
BHTD.M        577                  : BHTDEP       - MAXIMUM RECORDED TEMPERATURE
RMT .C        14                   : MDTP         - TEMPERATURE OF MUD
MUDD.KG/M     9.5                  : MWT          - MUD DENSITY
NEUT.         1                    : NEUTRON      - NEUTRON TYPE
RESI.         0                    : RESIST       - RESISTIVITY TYPE
RM  .OHMM     5.18                 : RM           - RESISTIVITY OF MUD
RMC .OHMM     0                    : RMC          - RESISTIVITY OF MUD CAKE
RMF .OHMM     5.66                 : RMF          - RESISTIVITY OF MUD FILTRATE
SUFT.C        0                    : SUFT         - SURFACE TEMPERATURE
~A  DEPTH     RESD     PHIN     PHID       GR      CAL
# ...
  511.000    5.346    0.468    0.200   93.024  162.283
  511.250    5.315    0.482    0.213   92.292  162.503
  511.500    5.254    0.462    0.203   92.363  162.620
  511.750    5.175    0.443    0.198   94.101  162.740
  512.000    5.087    0.442    0.214   97.380  163.374
  512.250    5.001    0.465    0.227   97.883  163.900
  512.500    4.925    0.458    0.232   96.843  164.224
  512.750    4.860    0.445    0.210   99.568  164.754
  513.000    4.805    0.446    0.181  102.848  165.181
  513.250    4.750    0.481    0.163  102.178  165.610
  513.500    4.705    0.505    0.165   97.374  166.034
  513.750    4.669    0.487    0.195   94.915  165.947
  514.000    4.633    0.480    0.180   90.234  165.551
  514.250    4.597    0.487    0.202   87.590  163.407
  514.500    4.596    0.476    0.185   85.686  160.235
  514.750    4.709    0.472    0.180   82.857  157.986
  515.000    4.815    0.489    0.193   86.815  155.431
  515.250    5.008    0.488    0.221   84.171  152.874
  515.500    5.397    0.464    0.248   76.714  151.039
  515.750    5.894    0.454    0.241   70.675  150.544
  516.000    6.497    0.449    0.229   64.700  150.658
  516.250    6.963    0.450    0.241   57.489  151.498
  516.500    7.255    0.460    0.240   53.117  151.923
  516.750    6.780    0.436    0.231   53.559  151.425
  517.000    6.079    0.415    0.223   55.111  148.046
  517.250    5.767    0.393    0.203   57.835  144.359
  517.500    5.798    0.391    0.190   61.423  145.300
  517.750    6.075    0.404    0.213   63.345  151.589
  518.000    6.634    0.427    0.245   63.786  153.250
  518.250    7.286    0.426    0.230   64.043  152.339
  518.500    7.634    0.385    0.201   61.459  152.355
  518.750    7.283    0.268    0.149   60.050  153.297
  519.000    6.767    0.248    0.076   60.799  156.707
  519.250    6.265    0.280    0.110   61.857  158.675
  519.500    5.380    0.337    0.158   63.842  157.354
  519.750    4.971    0.430    0.229   65.826  154.490
  520.000    4.690    0.469    0.235   67.377  153.376
  520.250    4.474    0.397    0.178   69.176  154.623
  520.500    4.365    0.351    0.130   71.840  156.183
  520.750    4.180    0.384    0.152   75.119  155.271
  521.000    4.040    0.455    0.220   74.017  152.818
  521.250    3.972    0.471    0.272   72.237  151.393
  521.500    3.919    0.466    0.278   73.666  150.380
  521.750    3.882    0.474    0.273   74.477  149.884
  522.000    3.866    0.490    0.286   75.350  149.280
  522.250    3.887    0.504    0.274   75.978  148.886
  522.500    3.923    0.496    0.290   76.047  148.698
  522.750    4.019    0.478    0.271   75.871  149.018
  523.000    4.141    0.464    0.250   75.634  148.931
  523.250    4.219    0.465    0.266   74.903  148.740
  523.500    4.274    0.453    0.257   73.801  148.242
  523.750    4.321    0.460    0.253   72.946  148.772
  524.000    4.337    0.477    0.256   71.228  151.357
  524.250    4.385    0.460    0.271   69.263  155.282
  524.500    4.535    0.450    0.256   68.840  157.764
  524.750    4.906    0.443    0.258   69.836  159.013
  525.000    5.179    0.434    0.248   70.894  159.440
  525.250    5.110    0.453    0.231   72.508  159.766
  525.500    4.893    0.439    0.205   74.616  159.782
  525.750    4.616    0.404    0.191   80.301  159.489
  526.000    4.445    0.411    0.168   88.641  160.530
  526.250    4.264    0.487    0.181   97.968  164.659
  526.500    4.114    0.481    0.181   96.496  167.351
  526.750    3.932    0.471    0.186   95.519  167.982
  527.000    3.716    0.471    0.189   95.836  168.615
  527.250    3.579    0.473    0.205   97.758  169.452
  527.500    3.465    0.500    0.191   99.990  171.936
  527.750    3.407    0.496    0.199  102.898  174.934
  528.000    3.349    0.522    0.215  104.760  177.520
  528.250    3.323    0.506    0.201  106.003  174.657
  528.500    3.329    0.513    0.199  110.578  172.206
  528.750    3.334    0.491    0.185  110.587  171.501
  529.000    3.514    0.496    0.191  107.573  171.617
  529.250    3.759    0.508    0.199  104.621  173.176
  529.500    4.143    0.523    0.213  101.174  174.836
  529.750    4.541    0.510    0.195   95.691  176.805
  530.000    5.006    0.494    0.198   96.441  175.999
  530.250    5.405    0.497    0.184   95.833  173.239
  530.500    5.696    0.478    0.191   93.745  171.711
  530.750    5.879    0.462    0.181   92.890  170.389
  531.000    6.001    0.474    0.147   93.825  169.273
  531.250    6.011    0.485    0.198   93.402  168.161
  531.500    5.898    0.469    0.176   93.164  167.349
  531.750    5.787    0.446    0.187   93.852  166.644
  532.000    5.647    0.431    0.173   95.343  166.044
  532.250    5.520    0.432    0.168   98.499  165.749
  532.500    5.519    0.436    0.163  102.334  165.149
  532.750    5.538    0.431    0.160  106.848  165.267
  533.000    5.579    0.441    0.134  104.451  166.104
  533.250    5.599    0.439    0.166  103.535  168.382
  533.500    5.608    0.436    0.141  102.186  167.988
  533.750    5.597    0.448    0.130   98.739  166.356
  534.000    5.575    0.444    0.109   94.676  164.625
  534.250    5.647    0.436    0.125   94.994  164.023
  534.500    5.721    0.447    0.132   98.150  163.319
  534.750    5.806    0.440    0.157  100.689  162.926
  535.000    5.949    0.437    0.151  104.401  162.733
  535.250    6.071    0.437    0.166  103.176  162.130
  535.500    6.093    0.417    0.208  102.383  161.835
  535.750    6.035    0.399    0.178  102.331  161.851
  536.000    5.922    0.405    0.149  105.425  162.278
  536.250    5.832    0.432    0.118  106.051  163.116
  536.500    5.919    0.458    0.160  102.296  164.058
  536.750    6.191    0.457    0.140  101.935  164.279
  537.000    6.536    0.434    0.160   99.724  163.985
  537.250    7.031    0.434    0.167   97.080  163.280
  537.500    7.451    0.483    0.103   92.398  161.963
  537.750    7.792    0.485    0.137   83.337  160.847
  538.000    8.196    0.390    0.159   77.484  159.834
  538.250    8.428    0.367    0.108   78.418  159.233
  538.500    8.025    0.381    0.082   88.918  158.628
  538.750    7.584    0.396    0.112   92.569  158.231
  539.000    7.276    0.410    0.150   94.675  158.453
  539.250    6.993    0.413    0.150   97.770  158.881
  539.500    6.798    0.426    0.161   99.014  159.924
  539.750    6.733    0.418    0.143   98.097  161.277
  540.000    6.694    0.415    0.117   99.957  162.217
  540.250    6.680    0.418    0.122   98.425  162.850
  540.500    6.654    0.420    0.155   97.878  163.583
  540.750    6.665    0.426    0.178   99.491  164.216
  541.000    6.714    0.440    0.162  100.797  164.540
  541.250    6.750    0.436    0.156   97.967  165.175
  541.500    6.749    0.428    0.162   98.594  165.089
  541.750    6.760    0.426    0.148  100.023  164.794
  542.000    6.759    0.422    0.151  102.993  164.704
  542.250    6.796    0.417    0.133   96.091  164.414
  542.500    6.884    0.413    0.139   93.941  164.123
  542.750    6.922    0.412    0.125  101.294  164.033
  543.000    6.973    0.417    0.129  105.252  163.743
  543.250    7.011    0.429    0.143  104.644  163.655
  543.500    6.957    0.448    0.150  101.568  163.977
  543.750    6.813    0.466    0.141   99.726  163.887
  544.000    6.736    0.453    0.146  102.882  163.802
  544.250    6.535    0.399    0.133   99.806  163.611
  544.500    6.258    0.387    0.142  102.160  163.316
  544.750    6.198    0.388    0.170  106.551  163.332
  545.000    6.232    0.394    0.171  105.635  163.554
  545.250    6.325    0.414    0.166  100.892  163.465
  545.500    6.407    0.432    0.164   97.075  164.920
  545.750    6.527    0.451    0.143   90.975  167.302
  546.000    6.625    0.401    0.166   90.368  174.618
  546.250    6.673    0.371    0.165   94.882  169.801
  546.500    6.536    0.377    0.118   99.335  163.953
  546.750    6.188    0.398    0.137  100.330  162.837
  547.000    5.827    0.414    0.121   99.784  162.238
  547.250    5.274    0.415    0.153   98.683  161.840
