~VERSION INFORMATION
 VERS.                 2.0:   CWLS LOG ASCII STANDARD -VERSION 2.0
 WRAP.                  NO:   ONE LINE PER DEPTH STEP
~WELL INFORMATION BLOCK
#MNEM.UNIT           DATA                    DESCRIPTION OF MNEMONIC
#---------    -------------------            -------------------------------
# Generated from Intellog Unique Number	CS_67_68/WELL/819
WELL.         GULF OIL CANADA LTD            : Well_name    - WELL
LOC .         00/11-07-068-17W4/0            : Location     - LOCATION
UWI .         00/11-07-068-17W4/0            : Uwi          - UNIQUE WELL ID
ENTR.         SP                             : Entered      - ENTERED BY
SRVC.         SCHLUMBERGER                   : Scn          - SERVICE COMPANY
STRT.M        298.704                        : top_depth    - START DEPTH
STOP.M        545.454                        : bot_depth    - STOP DEPTH
STEP.M        0.25                           : increment    - STEP LENGTH
 NULL. -999.2500:NULL Value
~CURVE INFORMATION BLOCK
#MNEM UNIT       ERCB CURVE CODE    CURVE DESCRIPTION
#-----------   ------------------   ----------------------------------
DEPT.M        00 001 00 00         : DEPTH        - DEPTH
GR  .API      00 310 00 00         : GR           - GAMMA RAY
DPHI.V/V      00 890 00 00         : PHID         - DENSITY POROSITY (SANDSTONE)
NPHI.V/V      00 330 00 00         : PHIN         - NEUTRON POROSITY (SANDSTONE)
ILD .OHMM     00 120 00 00         : RESD         - DEEP RESISTIVITY (DIL)
~PARAMETER INFORMATION
#MNEM.UNIT           DATA             DESCRIPTION OF MNEMONIC
#---------         -----------     ------------------------------
GL  .M        176.376              : gl           - GROUND LEVEL ELEVATION
EREF.M        177.595              : kb           - ELEVATION OF DEPTH REFERENCE
DATM.M        176.376              : datum        - DATUM ELEVATION
TDD .M        169.362              : tdd          - TOTAL DEPTH DRILLER
RUN .         ONE                  : Run          - RUN NUMBER
ENG .         BILL                 : Engineer     - RECORDING ENGINEER
WIT .         JIM                  : Witness      - WITNESSED BY
MUD .         GEL                  : Mud_type     - MUD TYPE
MATR.         SANDSTONE            : Logunit      - NEUTRON MATRIX
TMAX.C        20                   : BHT          - MAXIMUM RECORDED TEMPERATURE
BHTD.M        169.362              : BHTDEP       - MAXIMUM RECORDED TEMPERATURE
MATR.         1                    : LOGUNIT      - NEUTRON MATRIX
RMT .C        25                   : MDTP         - TEMPERATURE OF MUD
NEUT.         1                    : NEUTRON      - NEUTRON TYPE
RESI.         0                    : RESIST       - RESISTIVITY TYPE
RMC .OHMM     0.25                 : RMC          - RESISTIVITY OF MUD CAKE
RMF .OHMM     0.25                 : RMF          - RESISTIVITY OF MUD FILTRATE
SUFT.C        15                   : SUFT         - SURFACE TEMPERATURE
~A  DEPTH       GR     PHID     PHIN     RESD
# ...
  342.204  109.024    0.217    0.448    3.029
  342.454  107.829    0.218    0.442    2.999
  342.704  106.942    0.217    0.449    2.940
  342.954  106.617    0.210    0.456    2.875
  343.204  105.888    0.200    0.450    2.790
  343.454  103.902    0.195    0.455    2.684
  343.704   99.362    0.181    0.437    2.581
  343.954   93.491    0.170    0.404    2.586
  344.204   89.187    0.155    0.361    2.711
  344.454   91.671    0.163    0.366    2.921
  344.704   94.512    0.235    0.383    3.163
  344.954   95.297    0.276    0.395    3.369
  345.204   95.071    0.285    0.385    3.519
  345.454   93.758    0.297    0.377    3.670
  345.704   92.129    0.312    0.364    3.600
  345.954   91.250    0.319    0.376    3.354
  346.204   93.154    0.299    0.397    3.081
  346.454   94.845    0.286    0.387    2.767
  346.704   97.732    0.275    0.381    2.542
  346.954  100.287    0.264    0.377    2.500
  347.204  104.538    0.251    0.383    2.620
  347.454  107.078    0.240    0.400    2.746
  347.704  109.011    0.239    0.411    2.877
  347.954  110.229    0.241    0.422    3.089
  348.204  108.709    0.249    0.424    3.338
  348.454  101.620    0.242    0.393    3.535
  348.704   96.955    0.226    0.370    3.753
  348.954   99.498    0.216    0.354    3.997
  349.204  100.453    0.213    0.356    4.259
  349.454  100.000    0.231    0.360    4.553
  349.704   97.291    0.257    0.362    4.865
  349.954   92.973    0.278    0.371    5.109
  350.204   89.947    0.288    0.379    5.161
  350.454   87.742    0.295    0.382    5.361
  350.704   87.680    0.296    0.379    5.633
  350.954   88.979    0.284    0.382    5.851
  351.204   91.801    0.269    0.387    6.161
  351.454   95.650    0.249    0.391    6.555
  351.704   99.123    0.229    0.370    6.925
  351.954  101.415    0.212    0.353    6.963
  352.204  103.168    0.195    0.340    6.255
  352.454  103.752    0.185    0.330    5.764
  352.704  105.342    0.182    0.326    5.250
  352.954  106.371    0.184    0.343    5.044
  353.204  106.025    0.179    0.364    5.036
  353.454  105.589    0.171    0.384    5.145
  353.704  109.796    0.173    0.401    5.272
  353.954  113.077    0.178    0.424    5.341
  354.204  116.044    0.200    0.445    5.267
  354.454  118.094    0.238    0.471    5.018
  354.704  118.467    0.261    0.491    4.588
  354.954  116.439    0.271    0.499    4.140
  355.204  107.298    0.281    0.467    3.679
  355.454  100.038    0.286    0.445    3.333
  355.704   94.707    0.284    0.431    3.616
  355.954   89.208    0.284    0.427    3.843
  356.204   84.963    0.285    0.422    4.091
  356.454   82.605    0.286    0.414    4.342
  356.704   80.987    0.292    0.409    4.522
  356.954   79.485    0.296    0.411    4.606
  357.204   78.519    0.275    0.417    4.610
  357.454   75.782    0.252    0.427    4.582
  357.704   74.412    0.231    0.381    4.610
  357.954   73.831    0.208    0.349    4.685
  358.204   72.520    0.187    0.329    4.895
  358.454   74.354    0.208    0.368    5.435
  358.704   78.971    0.242    0.395    6.147
  358.954   82.445    0.256    0.413    6.849
  359.204   85.038    0.244    0.411    7.095
  359.454   88.019    0.240    0.403    6.413
  359.704   88.159    0.242    0.406    5.548
  359.954   86.453    0.260    0.412    4.759
  360.204   84.943    0.280    0.417    4.116
  360.454   84.507    0.283    0.422    3.791
  360.704   85.041    0.278    0.427    3.731
  360.954   86.287    0.276    0.430    3.673
  361.204   83.967    0.282    0.432    3.597
  361.454   85.537    0.272    0.432    3.511
  361.704   87.376    0.250    0.431    3.386
  361.954   90.400    0.232    0.427    3.243
  362.204   93.531    0.223    0.428    3.160
  362.454   97.160    0.225    0.422    3.146
  362.704   99.108    0.220    0.415    3.191
  362.954  102.028    0.224    0.417    3.293
  363.204  103.422    0.232    0.425    3.406
  363.454  101.635    0.239    0.428    3.540
  363.704  100.291    0.241    0.428    3.638
  363.954  100.515    0.233    0.427    3.693
  364.204  102.879    0.225    0.430    3.731
  364.454  105.159    0.206    0.435    3.649
  364.704  106.593    0.189    0.429    3.690
  364.954  106.745    0.171    0.418    3.738
  365.204  106.218    0.131    0.405    3.861
  365.454  111.905    0.147    0.415    3.984
  365.704  117.642    0.175    0.437    4.107
  365.954  123.786    0.192    0.423    4.206
  366.204  127.190    0.202    0.421    4.290
  366.454  130.794    0.209    0.421    4.176
  366.704  125.963    0.214    0.407    3.922
  366.954  120.555    0.220    0.402    3.801
  367.204  117.672    0.220    0.394    3.923
  367.454  115.934    0.219    0.389    4.079
  367.704  113.128    0.216    0.385    4.290
  367.954  110.669    0.209    0.365    4.505
  368.204  109.036    0.219    0.378    4.705
  368.454  109.176    0.216    0.392    4.865
  368.704  109.660    0.212    0.398    5.014
  368.954  109.519    0.218    0.404    5.051
  369.204  108.318    0.230    0.392    5.092
  369.454  106.534    0.230    0.396    5.117
  369.704  105.410    0.223    0.402    5.108
  369.954  105.429    0.219    0.407    5.058
  370.204  106.515    0.226    0.416    4.947
  370.454  108.722    0.230    0.421    4.850
  370.704  112.207    0.226    0.415    4.746
  370.954  116.374    0.223    0.415    4.608
  371.204  120.826    0.223    0.418    4.386
  371.454  123.613    0.232    0.409    4.303
  371.704  125.524    0.236    0.417    4.220
  371.954  128.481    0.232    0.424    4.174
  372.204  123.155    0.224    0.426    4.143
  372.454  117.364    0.218    0.410    4.161
  372.704  118.014    0.210    0.397    4.224
  372.954  120.189    0.203    0.389    4.270
  373.204  122.030    0.199    0.396    4.349
  373.454  121.053    0.196    0.404    4.441
  373.704  121.326    0.198    0.408    4.546
  373.954  123.274    0.201    0.419    4.547
  374.204  124.809    0.201    0.430    4.469
  374.454  125.227    0.205    0.440    4.255
  374.704  123.004    0.211    0.441    3.992
  374.954  117.673    0.211    0.436    3.733
  375.204  112.616    0.204    0.442    3.521
  375.454  108.216    0.195    0.438    3.348
  375.704  103.812    0.189    0.429    3.228
  375.954   99.499    0.207    0.428    3.174
  376.204   97.525    0.224    0.432    3.183
  376.454  100.141    0.243    0.419    3.256
  376.704  102.769    0.259    0.408    3.323
  376.954  103.735    0.280    0.393    3.402
  377.204   96.410    0.296    0.378    3.426
  377.454   92.261    0.312    0.382    3.392
  377.704   91.049    0.330    0.405    3.289
  377.954   92.250    0.327    0.423    3.168
  378.204   93.491    0.307    0.425    3.104
  378.454   94.006    0.282    0.425    3.084
  378.704   93.914    0.296    0.426    3.100
  378.954   93.515    0.303    0.430    3.154
  379.204   92.701    0.309    0.443    3.185
  379.454   92.513    0.303    0.454    3.184
  379.704   92.881    0.292    0.437    3.061
  379.954   93.739    0.281    0.427    2.934
  380.204   94.429    0.277    0.429    2.824
  380.454   95.235    0.279    0.434    2.757
  380.704   95.900    0.275    0.439    2.710
  380.954   96.803    0.265    0.434    2.721
  381.204   97.434    0.256    0.436    2.756
  381.454   97.487    0.260    0.447    2.810
  381.704   97.056    0.268    0.454    2.917
  381.954   95.492    0.267    0.457    3.066
  382.204   93.124    0.283    0.442    3.188
  382.454   90.920    0.301    0.432    3.218
  382.704   89.098    0.295    0.426    3.107
  382.954   88.418    0.284    0.434    2.987
  383.204   88.533    0.279    0.440    2.946
  383.454   88.676    0.288    0.434    2.936
  383.704   89.261    0.288    0.429    2.942
  383.954   90.211    0.275    0.429    2.938
  384.204   91.985    0.264    0.439    2.945
  384.454   94.338    0.250    0.449    2.975
  384.704   97.314    0.234    0.435    3.022
  384.954  101.392    0.223    0.426    3.103
  385.204  103.008    0.216    0.420    3.203
  385.454  105.904    0.214    0.429    3.303
