~VERSION INFORMATION
 VERS.                 2.0:   CWLS LOG ASCII STANDARD -VERSION 2.0
 WRAP.                  NO:   ONE LINE PER DEPTH STEP
~WELL INFORMATION BLOCK
#MNEM.UNIT           DATA                    DESCRIPTION OF MNEMONIC
#---------    -------------------            -------------------------------
# Generated from Intellog Unique Number	CC_88_90/WELL/3154
WELL.         PETRO-CANADA INC.              : Well_name    - WELL
LOC .         00/11-33-090-17W4/0            : Location     - LOCATION
UWI .         00/11-33-090-17W400            : Uwi          - UNIQUE WELL ID
ENTR.         JOETTE                         : Entered      - ENTERED BY
SRVC.         SCHLUMBERGER                   : Scn          - SERVICE COMPANY
DATE.         03/04/92                       : Date         - LOG DATE
STRT.M        85.000                         : top_depth    - START DEPTH
STOP.M        186.000                        : bot_depth    - STOP DEPTH
STEP.M        0.25                           : increment    - STEP LENGTH
 NULL. -999.2500:NULL Value
~CURVE INFORMATION BLOCK
#MNEM UNIT       ERCB CURVE CODE    CURVE DESCRIPTION
#-----------   ------------------   ----------------------------------
DEPT.M        00 001 00 00         : DEPTH        - DEPTH
GR  .API      00 310 00 00         : GR           - GAMMA RAY
CALI.MM       00 280 01 00         : CAL          - CALIPER
NPHI.V/V      00 330 00 00         : PHIN         - NEUTRON POROSITY (SANDSTONE)
DPHI.V/V      00 890 00 00         : PHID         - DENSITY POROSITY (SANDSTONE)
ILD .OHMM     00 120 00 00         : RESD         - DEEP RESISTIVITY (DIL)
~PARAMETER INFORMATION
#MNEM.UNIT           DATA             DESCRIPTION OF MNEMONIC
#---------         -----------     ------------------------------
GL  .M        499.9                : gl           - GROUND LEVEL ELEVATION
EREF.M        503.3                : kb           - ELEVATION OF DEPTH REFERENCE
DATM.M        503.3                : datum        - DATUM ELEVATION
TDD .M        239                  : tdd          - TOTAL DEPTH DRILLER
RUN .         ONE                  : Run          - RUN NUMBER
ENG .         BILL                 : Engineer     - RECORDING ENGINEER
WIT .         JIM                  : Witness      - WITNESSED BY
MUD .         GEL                  : Mud_type     - MUD TYPE
MATR.         SANDSTONE            : Logunit      - NEUTRON MATRIX
TMAX.C        25                   : BHT          - MAXIMUM RECORDED TEMPERATURE
BHTD.M        238                  : BHTDEP       - MAXIMUM RECORDED TEMPERATURE
RMT .C        14                   : MDTP         - TEMPERATURE OF MUD
MUDD.KG/M     1110                 : MWT          - MUD DENSITY
NEUT.         1                    : NEUTRON      - NEUTRON TYPE
RESI.         0                    : RESIST       - RESISTIVITY TYPE
RM  .OHMM     2.55                 : RM           - RESISTIVITY OF MUD
RMC .OHMM     2.55                 : RMC          - RESISTIVITY OF MUD CAKE
RMF .OHMM     2.55                 : RMF          - RESISTIVITY OF MUD FILTRATE
SUFT.C        4                    : SUFT         - SURFACE TEMPERATURE
~A  DEPTH       GR      CAL     PHIN     PHID     RESD
# ...
  121.500   74.823  152.081    0.297    0.153   16.783
  121.750   83.430  152.072    0.325    0.180   10.435
  122.000   88.350  154.090    0.361    0.247   10.632
  122.250   96.957  157.120    0.402    0.247   11.912
  122.500  116.012  161.161    0.415    0.246   13.600
  122.750  106.797  164.193    0.448    0.255   14.669
  123.000  117.862  165.197    0.458    0.261   15.822
  123.250  127.084  163.163    0.466    0.262   17.391
  123.500  120.327  159.102    0.455    0.272   17.722
  123.750  116.642  153.016    0.439    0.297   18.752
  124.000  120.948  149.966    0.429    0.298   18.746
  124.250  124.024  148.945    0.435    0.304   18.741
  124.500  128.329  150.962    0.436    0.311   17.364
  124.750  116.655  149.940    0.431    0.311   14.086
  125.000  110.512  145.880    0.432    0.267   10.004
  125.250   95.766  144.858    0.440    0.219    8.923
  125.500   90.239  147.886    0.449    0.207    8.752
  125.750   97.002  151.932    0.444    0.211    8.748
  126.000  102.536  158.001    0.467    0.231    8.915
  126.250  110.528  152.925    0.493    0.262    9.615
  126.500  106.844  153.925    0.500    0.276    9.983
  126.750  111.764  154.931    0.478    0.277    9.793
  127.000  106.850  156.953    0.465    0.249    8.409
  127.250  108.697  157.957    0.457    0.215    8.093
  127.500  105.627  157.949    0.452    0.216    8.091
  127.750   93.954  156.923    0.461    0.242    9.415
  128.000   93.957  155.905    0.469    0.250   12.280
  128.250  104.408  154.882    0.471    0.257   14.842
  128.500  102.567  153.860    0.457    0.241   15.706
  128.750  110.560  152.838    0.440    0.224   15.407
  129.000  116.708  152.832    0.424    0.210   13.743
  129.250  103.806  155.862    0.411    0.220   11.803
  129.500   81.685  159.905    0.418    0.250    8.382
  129.750   82.302  162.933    0.428    0.272    7.477
  130.000  101.972  164.952    0.426    0.262    6.544
  130.250  102.590  162.918    0.436    0.235    6.179
  130.500   88.457  157.842    0.482    0.205    6.061
  130.750   79.857  156.821    0.469    0.169    5.945
  131.000   83.548  155.799    0.492    0.180    5.831
  131.250   81.093  155.790    0.512    0.219    5.829
  131.500   77.408  152.743    0.516    0.249    5.828
  131.750   94.619  146.655    0.526    0.241    5.826
  132.000  107.528  149.685    0.536    0.233    5.823
  132.250  105.073  153.730    0.531    0.220    5.934
  132.500   96.472  154.732    0.516    0.214    6.400
  132.750  105.079  152.697    0.525    0.225   10.092
  133.000  108.770  150.665    0.531    0.214   11.523
  133.250   95.867  154.708    0.513    0.220   12.668
  133.500   91.568  156.719    0.443    0.261   14.464
  133.750   87.884  156.715    0.421    0.292   16.205
  134.000   89.116  155.693    0.407    0.277   17.478
  134.250   77.443  155.686    0.384    0.200   18.852
  134.500   80.519  154.663    0.348    0.218   19.577
  134.750  111.865  153.643    0.353    0.271   19.941
  135.000  114.941  152.622    0.363    0.296   19.936
  135.250  114.329  151.598    0.381    0.304   19.556
  135.500  111.260  151.587    0.383    0.307   19.184
  135.750   84.836  152.596    0.391    0.311   19.176
  136.000   81.767  154.613    0.389    0.312   21.484
  136.250   84.843  155.611    0.377    0.310   26.468
  136.500   89.148  155.606    0.387    0.301   31.392
  136.750  103.900  153.572    0.409    0.272   31.379
  137.000  130.330  150.522    0.304    0.181   30.781
  137.250  124.188  149.501    0.184    0.045   27.455
  137.500  111.899  150.507    0.192    0.000   22.273
  137.750  104.529  153.537    0.250    0.035   17.727
  138.000  105.146  154.541    0.310    0.133   15.222
  138.250   91.013  154.530    0.356    0.189   14.650
  138.500   85.486  154.524    0.414    0.241   14.647
  138.750   83.031  153.498    0.418    0.233   15.209
  139.000   82.420  153.494    0.425    0.223   16.401
  139.250   84.881  153.483    0.392    0.183   17.032
  139.500   82.425  153.472    0.381    0.121   17.352
  139.750   80.585  153.468    0.392    0.151   17.020
  140.000   91.650  155.485    0.401    0.173   16.380
  140.250  115.622  157.498    0.409    0.199   16.376
  140.500  122.385  158.504    0.414    0.238   16.370
  140.750  116.857  158.498    0.420    0.237   16.677
  141.000  121.162  156.461    0.427    0.225   16.674
  141.250  121.780  155.442    0.427    0.227   17.313
  141.500  121.783  153.407    0.419    0.235   17.641
  141.750  108.880  154.409    0.411    0.247   17.970
  142.000   92.905  153.385    0.408    0.257   17.967
  142.250   83.075  155.405    0.411    0.261   17.962
  142.500  100.286  154.383    0.416    0.254   17.618
  142.750  124.257  148.295    0.421    0.263   17.612
  143.000  124.875  152.338    0.421    0.280   17.275
  143.250  116.889  150.303    0.421    0.298   16.942
  143.500  111.361  148.271    0.421    0.305   16.619
  143.750   97.229  152.314    0.421    0.283   15.992
  144.000   84.940  154.329    0.412    0.250   15.990
  144.250   64.663  152.294    0.391    0.229   15.983
  144.500   41.313  153.299    0.387    0.227   15.978
  144.750   43.774  155.316    0.422    0.197   16.908
  145.000   40.705  154.294    0.421    0.197   17.560
  145.250   33.333  152.260    0.413    0.234   18.581
  145.500   35.179  151.240    0.401    0.265   18.576
  145.750   59.151  150.217    0.403    0.270   18.572
  146.000   99.101  149.195    0.402    0.241   17.872
  146.250  105.250  151.212    0.391    0.219   16.877
  146.500  108.326  152.219    0.372    0.181   15.343
  146.750   84.361  156.259    0.359    0.195   14.487
  147.000   68.385  157.264    0.373    0.226   14.485
  147.250   48.722  157.257    0.402    0.231   15.622
  147.500   46.267  157.246    0.411    0.238   16.220
  147.750   60.406  157.236    0.426    0.242   16.215
  148.000   65.940  157.227    0.419    0.221   15.025
  148.250   57.953  157.216    0.431    0.197   15.601
  148.500   45.050  156.199    0.421    0.177   17.815
  148.750   45.668  153.151    0.377    0.156   18.499
  149.000   51.203  150.104    0.377    0.227   17.467
  149.250   58.581  148.069    0.415    0.229   15.582
  149.500   58.584  148.058    0.444    0.109   12.402
  149.750   54.900  149.065    0.384    0.044    6.377
  150.000   57.975  152.093    0.321    0.145    4.616
  150.250   63.510  155.125    0.489    0.242    4.277
  150.500   61.669  155.116    0.534    0.264    5.072
  150.750   61.673  164.222    0.549    0.274    7.701
  151.000   55.530  164.215    0.536    0.262    9.133
  151.250   62.908  168.259    0.502    0.252   12.851
  151.500   75.817  168.248    0.472    0.239   13.093
  151.750   83.809  163.174    0.447    0.222   12.600
  152.000   83.198  156.077    0.423    0.206   12.361
  152.250   78.284  153.030    0.420    0.210   12.124
  152.500   67.840  157.073    0.427    0.221   12.121
  152.750   57.396  163.142    0.441    0.233   12.348
  153.000   47.566  163.133    0.449    0.237   12.822
  153.250   35.892  160.084    0.448    0.216   13.316
  153.500   32.823  158.049    0.454    0.149   15.793
  153.750   35.284  154.999    0.441    0.134   18.731
  154.000   38.360  152.961    0.418    0.149   20.985
  154.250   37.134  151.941    0.382    0.176   20.978
  154.500   40.210  151.935    0.356    0.197   19.436
  154.750   46.359  151.924    0.381    0.226   19.064
  155.000   38.987  152.930    0.397    0.251   18.701
  155.250   43.907  152.919    0.396    0.247   18.695
  155.500   48.826  152.915    0.396    0.242   19.047
  155.750   48.830  151.891    0.409    0.250   18.680
  156.000   46.989  151.883    0.416    0.261   19.769
  156.250   46.377  151.872    0.422    0.263   23.005
  156.500   46.381  150.855    0.421    0.226   26.270
  156.750   42.697  149.833    0.402    0.233   31.158
  157.000   48.231  148.809    0.346    0.190   31.745
  157.250   48.849  147.788    0.317    0.181   29.408
  157.500   36.560  147.779    0.334    0.217   28.851
  157.750   29.189  148.781    0.373    0.268   25.735
