~VERSION INFORMATION
 VERS.                 2.0:   CWLS LOG ASCII STANDARD -VERSION 2.0
 WRAP.                  NO:   ONE LINE PER DEPTH STEP
~WELL INFORMATION BLOCK
#MNEM.UNIT           DATA                    DESCRIPTION OF MNEMONIC
#---------    -------------------            -------------------------------
# Generated from Intellog Unique Number	CW_76_78/WELL/994
WELL.         11-06-076-22W4                 : Well_name    - WELL
LOC .         00/11-06-076-22W4/0            : Location     - LOCATION
UWI .         00/11-06-076-22W4/0            : Uwi          - UNIQUE WELL ID
ENTR.         JAYE                           : Entered      - ENTERED BY
SRVC.         SCHLUMBERGER                   : Scn          - SERVICE COMPANY
DATE.         19 DEC 72                      : Date         - LOG DATE
STRT.M        405.384                        : top_depth    - START DEPTH
STOP.M        643.134                        : bot_depth    - STOP DEPTH
STEP.M        0.25                           : increment    - STEP LENGTH
 NULL. -999.2500:NULL Value
~CURVE INFORMATION BLOCK
#MNEM UNIT       ERCB CURVE CODE    CURVE DESCRIPTION
#-----------   ------------------   ----------------------------------
DEPT.M        00 001 00 00         : DEPTH        - DEPTH
ILD .OHMM     00 120 00 00         : RESD         - DEEP RESISTIVITY (DIL)
NPHI.V/V      00 330 00 00         : PHIN         - NEUTRON POROSITY (SANDSTONE)
DPHI.V/V      00 890 00 00         : PHID         - DENSITY POROSITY (SANDSTONE)
GR  .API      00 310 00 00         : GR           - GAMMA RAY
CALI.MM       00 280 01 00         : CAL          - CALIPER
~PARAMETER INFORMATION
#MNEM.UNIT           DATA             DESCRIPTION OF MNEMONIC
#---------         -----------     ------------------------------
GL  .M        697.809              : gl           - GROUND LEVEL ELEVATION
EREF.M        701.04               : kb           - ELEVATION OF DEPTH REFERENCE
DATM.M        697.809              : datum        - DATUM ELEVATION
TDD .M        644.957              : tdd          - TOTAL DEPTH DRILLER
RUN .         ONE                  : Run          - RUN NUMBER
MATR.         SANDSTONE            : Logunit      - NEUTRON MATRIX
TMAX.C        30                   : BHT          - MAXIMUM RECORDED TEMPERATURE
BHTD.M        644.957              : BHTDEP       - MAXIMUM RECORDED TEMPERATURE
RMT .C        17.7778              : MDTP         - TEMPERATURE OF MUD
MUDD.KG/M     0                    : MWT          - MUD DENSITY
NEUT.         1                    : NEUTRON      - NEUTRON TYPE
RESI.         0                    : RESIST       - RESISTIVITY TYPE
RM  .OHMM     2.33                 : RM           - RESISTIVITY OF MUD
RMC .OHMM     0                    : RMC          - RESISTIVITY OF MUD CAKE
RMF .OHMM     2.71                 : RMF          - RESISTIVITY OF MUD FILTRATE
SUFT.C        -17.7778             : SUFT         - SURFACE TEMPERATURE
~A  DEPTH     RESD     PHIN     PHID       GR      CAL
# ...
  624.384    4.870    0.354    0.238   61.843  220.646
  624.634    5.015    0.351    0.242   54.625  220.326
  624.884    4.924    0.369    0.250   62.932  220.626
  625.134    4.601    0.391    0.250   74.357  221.340
  625.384    4.251    0.533    0.240   72.212  221.850
  625.634    4.268    0.564    0.230   86.143  222.565
  625.884    4.634    0.605    0.249   94.451  223.074
  626.134    5.211    0.637    0.287  103.186  223.271
  626.384    5.892    0.599    0.314  109.538  223.882
  626.634    6.601    0.572    0.309  108.065  224.184
  626.884    7.507    0.554    0.370   90.822  224.690
  627.134    8.227    0.505    0.328   90.511  224.994
  627.384    8.518    0.475    0.247   96.068  225.294
  627.634    7.507    0.451    0.260   89.461  225.801
  627.884    6.614    0.415    0.241   79.003  226.104
  628.134    6.046    0.387    0.232   70.684  226.302
  628.384    5.681    0.404    0.221   75.202  226.705
  628.634    5.567    0.439    0.242   82.104  227.524
  628.884    5.517    0.519    0.255   84.115  228.344
  629.134    5.619    0.602    0.268   86.800  229.784
  629.384    5.691    0.640    0.310   94.801  231.429
  629.634    5.703    0.662    0.286  102.620  232.146
  629.884    5.488    0.661    0.246  110.989  233.171
  630.134    5.288    0.627    0.268  117.157  234.092
  630.384    5.061    0.564    0.241   98.997  234.291
  630.634    4.799    0.492    0.225   87.378  234.385
  630.884    4.452    0.384    0.260   73.313  233.858
  631.134    4.092    0.376    0.279   56.376  233.228
  631.384    3.586    0.395    0.270   45.979  231.459
  631.634    3.247    0.410    0.248   44.017  229.586
  631.884    3.259    0.457    0.285   40.344  226.990
  632.134    3.301    0.407    0.297   35.449  223.874
  632.384    3.266    0.359    0.260   29.820  222.417
  632.634    3.183    0.351    0.242   25.780  221.062
  632.884    3.075    0.343    0.240   26.141  220.949
  633.134    2.964    0.335    0.267   27.848  221.043
  633.384    2.888    0.329    0.250   30.104  220.619
  633.634    2.968    0.328    0.247   33.582  220.299
  633.884    3.432    0.323    0.234   39.995  219.980
  634.134    4.146    0.349    0.216   50.503  219.866
  634.384    4.747    0.337    0.202   62.294  220.271
  634.634    5.222    0.374    0.167   78.426  220.883
  634.884    5.193    0.452    0.172   92.296  221.288
  635.134    4.436    0.415    0.264   64.112  222.106
  635.384    3.809    0.375    0.265   53.104  222.718
  635.634    3.388    0.350    0.252   43.257  223.122
  635.884    3.143    0.338    0.238   34.327  223.425
  636.134    3.029    0.337    0.250   36.950  223.829
  636.384    3.092    0.339    0.236   42.140  224.441
  636.634    3.266    0.373    0.215   49.164  224.845
  636.884    3.573    0.411    0.236   55.393  224.938
  637.134    4.245    0.438    0.227   57.833  225.135
  637.384    4.662    0.485    0.211   59.722  225.334
  637.634    4.926    0.526    0.180   69.619  225.533
  637.884    4.836    0.419    0.193   55.555  225.833
  638.134    4.269    0.373    0.273   27.004  226.030
  638.384    3.673    0.357    0.256   23.998  226.021
  638.634    3.351    0.342    0.259   19.963  225.909
  638.884    3.297    0.350    0.290   19.407  225.899
  639.134    3.548    0.409    0.323   21.358  225.891
  639.384    3.960    0.438    0.372   28.321  225.985
  639.634    4.800    0.572    0.434   39.257  226.286
  639.884    6.205    0.528    0.344   55.327  226.690
  640.134    7.212    0.463    0.207   77.327  227.095
  640.384    6.852    0.082    0.184   48.409  227.396
  640.634    6.556    0.042    0.233   31.349  227.387
  640.884    6.438    0.013    0.219   42.102  227.274
  641.134    6.534   -0.000    0.233   62.451  226.850
  641.384    6.690   -0.001    0.228   88.974  226.529
  641.634    6.876   -0.000    0.122   89.519  226.522
  641.884    6.752    0.000    0.150   86.579  226.305
  642.134    6.323    0.000    0.207   72.026  226.087
  642.384    6.059    0.000    0.248   61.812  225.769
  642.634    4.827    0.000    0.247   49.459  225.242
  642.884    4.277    0.000    0.254   37.168  224.923
  643.134    3.881   -0.000    0.274   19.619  224.291
