~VERSION INFORMATION
 VERS.                 2.0:   CWLS LOG ASCII STANDARD -VERSION 2.0
 WRAP.                  NO:   ONE LINE PER DEPTH STEP
~WELL INFORMATION BLOCK
#MNEM.UNIT           DATA                    DESCRIPTION OF MNEMONIC
#---------    -------------------            -------------------------------
# Generated from Intellog Unique Number	CC_80_83/WELL/2392
NULL.         -999.25                        : NULL_VALUE
WELL.         BVX ET ALWATCHUSK              : Well_name    - WELL
LOC .         11-08-082-04W4                 : Location     - LOCATION          
UWI .         00/11-08-082-04W4/0            : Uwi          - UNIQUE WELL ID    
ENTR.         DW                             : Entered      - ENTERED BY        
SRVC.         SCHLUMBERGER                   : Scn          - SERVICE COMPANY   
DATE.         13 FEB 78                      : Date         - LOG DATE
STRT.M        97.536                         : top_depth    - START DEPTH       
STOP.M        307.847                        : bot_depth    - STOP DEPTH        
STEP.M        0.3048                         : increment    - STEP LENGTH       
~CURVE INFORMATION BLOCK
#MNEM UNIT       ERCB CURVE CODE    CURVE DESCRIPTION
#-----------   ------------------   ----------------------------------
DEPT.M        00 001 00 00         : DEPTH        - DEPTH                       
DPHI.V/V      00 890 00 00         : PHID         - DENSITY POROSITY (LIMESTONE)
NPHI.V/V      00 330 00 00         : PHIN         - NEUTRON POROSITY (LIMESTONE)
GR  .API      00 310 00 00         : GR           - GAMMA RAY                   
ILD .OHMM     00 120 00 00         : RESD         - DEEP RESISTIVITY (DIL)      
~PARAMETER INFORMATION       
#MNEM.UNIT           DATA             DESCRIPTION OF MNEMONIC
#---------         -----------     ------------------------------
GL  .M        457.2                : gl           - GROUND LEVEL ELEVATION      
EREF.M        460.248              : kb           - ELEVATION OF DEPTH REFERENCE
DATM.M        460.248              : datum        - DATUM ELEVATION             
TDD .M        320.04               : tdd          - TOTAL DEPTH DRILLER         
RUN .         ONE                  : Run          - RUN NUMBER                  
ENG .         BILL                 : Engineer     - RECORDING ENGINEER          
WIT .         JIM                  : Witness      - WITNESSED BY                
MUD .         GEL                  : Mud_type     - MUD TYPE                    
MATR.         LIMESTONE            : Logunit      - NEUTRON MATRIX              
TMAX.C        20                   : BHT          - MAXIMUM RECORDED TEMPERATURE
BHTD.M        320.04               : BHTDEP       - MAXIMUM RECORDED TEMPERATURE
MATR.         1                    : LOGUNIT      - NEUTRON MATRIX              
RMT .C        25                   : MDTP         - TEMPERATURE OF MUD          
NEUT.         1                    : NEUTRON      - NEUTRON TYPE                
RESI.         0                    : RESIST       - RESISTIVITY TYPE            
RMC .OHMM     0.25                 : RMC          - RESISTIVITY OF MUD CAKE     
RMF .OHMM     0.25                 : RMF          - RESISTIVITY OF MUD FILTRATE 
SUFT.C        15                   : SUFT         - SURFACE TEMPERATURE         
~A  DEPTH     PHID     PHIN       GR     RESD
# ...
  256.639    0.307    0.444   44.444    1.278
  256.944    0.298    0.421   48.765    1.327
  257.249    0.268    0.408   58.025    1.573
  257.554    0.216    0.390   69.136    2.088
  257.859    0.218    0.391   64.815    2.009
  258.163    0.233    0.424   59.259    1.759
  258.468    0.286    0.439   50.000    1.599
  258.773    0.283    0.409   54.321    1.598
  259.078    0.265    0.413   78.395    1.789
  259.383    0.195    0.434   72.840    2.042
  259.688    0.245    0.406   55.556    2.041
  259.992    0.238    0.401   57.407    1.927
  260.297    0.226    0.427   61.728    1.719
  260.602    0.270    0.424   56.790    1.623
  260.907    0.281    0.409   51.852    1.448
  261.212    0.286    0.411   43.827    1.367
  261.516    0.296    0.424   39.506    1.316
  261.821    0.292    0.429   39.506    1.266
  262.126    0.291    0.434   48.148    1.195
  262.431    0.271    0.442   54.938    1.217
  262.736    0.288    0.443   51.235    1.264
  263.040    0.307    0.424   50.617    1.388
  263.345    0.292    0.413   57.407    1.525
  263.650    0.257    0.409   60.494    1.614
  263.955    0.252    0.413   69.753    1.807
  264.260    0.234    0.408   75.309    2.062
  264.564    0.210    0.407   72.840    2.353
  264.869    0.221    0.407   69.136    2.536
  265.174    0.238    0.409   63.580    2.440
  265.479    0.250    0.419   58.025    2.177
  265.784    0.272    0.445   49.383    1.942
  266.089    0.293    0.419   46.296    1.834
  266.393    0.306    0.403   54.321    1.699
  266.698    0.271    0.439   54.938    1.635
  267.003    0.276    0.444   49.383    1.515
  267.308    0.301    0.444   46.296    1.458
  267.613    0.315    0.448   45.679    1.376
  267.917    0.324    0.447   45.062    1.325
  268.222    0.325    0.423   45.679    1.299
  268.527    0.311    0.402   47.531    1.323
  268.832    0.292    0.406   50.617    1.426
  269.137    0.271    0.427   61.728    1.567
  269.441    0.221    0.426   69.136    1.822
  269.746    0.191    0.429   90.124    2.513
  270.051    0.174    0.426   87.654    3.152
  270.356    0.187    0.412   78.395    3.398
  270.661    0.205    0.402   74.691    3.396
  270.965    0.213    0.406   70.988    2.972
  271.270    0.226    0.421   64.815    2.807
  271.575    0.252    0.418   58.642    2.411
  271.880    0.254    0.405   54.321    2.070
  272.185    0.259    0.408   50.617    1.918
  272.490    0.282    0.456   45.679    1.812
  272.794    0.303    0.471   35.803    1.586
  273.099    0.319    0.464   29.630    1.216
  273.404    0.333    0.448   27.160    1.044
  273.709    0.340    0.423   29.012    1.024
  274.014    0.280    0.444   45.062    1.063
  274.318    0.282    0.440   46.914    1.083
  274.623    0.311    0.428   27.778    1.167
  274.928    0.276    0.392   23.457    1.258
  275.233    0.264    0.379   31.482    1.331
  275.538    0.273    0.442   38.272    1.382
  275.842    0.319    0.479   43.210    1.547
  276.147    0.297    0.388   54.938    1.732
  276.452    0.266    0.381   74.691    1.977
  276.757    0.215    0.392   95.062    2.342
  277.062    0.179    0.413   95.679    2.673
  277.366    0.203    0.422   93.827    2.992
  277.671    0.188    0.422   90.124    2.991
  277.976    0.171    0.414   85.802    2.824
  278.281    0.244    0.422   77.778    2.567
  278.586    0.261    0.445   65.432    1.791
  278.891    0.272    0.442   56.173    1.347
  279.195    0.273    0.431   49.383    1.202
  279.500    0.267    0.422   46.296    1.156
  279.805    0.289    0.413   56.173    1.223
  280.110    0.264    0.421   83.951    1.370
  280.415    0.192    0.449   92.593    2.076
  280.719    0.184    0.497   93.210    2.809
  281.024    0.195    0.458   85.185    3.029
  281.329    0.183    0.398   61.728    2.754
  281.634    0.252    0.390   32.099    1.780
  281.939    0.271    0.406   35.185    1.529
  282.243    0.275    0.408   37.037    1.471
  282.548    0.292    0.407   47.531    1.679
  282.853    0.299    0.583   58.642    2.028
  283.158    0.355    0.536   75.926    2.642
  283.463    0.346    0.471  106.173    3.191
  283.767    0.209    0.454  112.346    3.928
  284.072    0.205    0.456  111.111    4.481
  284.377    0.204    0.489  108.025    4.565
  284.682    0.213    0.496   90.741    4.560
  284.987    0.242    0.513   77.160    4.389
  285.292    0.318    0.547   70.370    4.145
  285.596    0.297    0.494   62.963    3.560
  285.901    0.194    0.459   70.370    3.058
  286.206    0.173    0.443   64.815    2.728
  286.511    0.245    0.433   56.173    2.675
  286.816    0.256    0.424   53.704    2.777
  287.120    0.220    0.476   62.963    3.229
  287.425    0.182    0.465   91.358    3.827
  287.730    0.145    0.424   93.210    4.711
  288.035    0.119    0.407   88.272    4.982
  288.340    0.156    0.382   72.222    4.981
  288.644    0.188    0.355   61.728    4.792
  288.949    0.177    0.350   58.025    4.274
  289.254    0.160    0.359   74.074    4.114
  289.559    0.151    0.449  104.321    4.269
  289.864    0.167    0.461  109.877    4.517
  290.168    0.195    0.470  103.086    5.056
  290.473    0.208    0.478   93.210    5.249
  290.778    0.214    0.471   93.827    5.247
  291.083    0.214    0.463   97.531    5.145
  291.388    0.200    0.464   96.296    4.951
  291.693    0.183    0.453   93.827    4.855
  291.997    0.174    0.449   96.296    4.945
  292.302    0.173    0.448   99.383    5.133
  292.607    0.219    0.450   92.593    5.229
  292.912    0.209    0.454   98.765    5.032
  293.217    0.167    0.456  106.790    4.841
  293.521    0.158    0.458  110.494    4.748
  293.826    0.165    0.465  109.877    4.836
  294.131    0.176    0.480  111.111    4.833
  294.436    0.193    0.491  114.198    5.015
  294.741    0.200    0.500  113.580    5.109
  295.045    0.191    0.487  108.025    5.204
  295.350    0.179    0.479  104.321    5.202
  295.655    0.197    0.480  101.235    5.198
  295.960    0.220    0.504   98.765    5.196
  296.265    0.215    0.499   97.531    5.191
  296.569    0.212    0.497   96.296    5.189
  296.874    0.210    0.507   99.383    5.185
  297.179    0.214    0.513  101.852    5.085
  297.484    0.224    0.523  106.173    4.988
  297.789    0.234    0.529  107.407    4.985
  298.094    0.219    0.517  106.173    4.981
  298.398    0.225    0.511  101.235    5.170
  298.703    0.234    0.504  100.000    5.266
  299.008    0.228    0.504  103.086    5.466
  299.313    0.216    0.499  105.556    5.567
  299.618    0.203    0.513  105.556    5.779
  299.922    0.207    0.520  103.086    5.887
  300.227    0.213    0.547   98.765    6.110
  300.532    0.200    0.518   90.741    6.107
  300.837    0.182    0.388   82.099    6.219
  301.142    0.144    0.379   93.210    6.334
  301.446    0.169    0.433   96.296    6.452
  301.751    0.179    0.429   96.296    6.448
  302.056    0.132    0.435   93.210    6.444
  302.361    0.129    0.432   82.716    6.565
  302.666    0.121    0.328   61.728    7.076
  302.970    0.094    0.286   48.765    7.922
  303.275    0.068    0.260   40.123    8.383
  303.580    0.037    0.247   42.593    9.210
  303.885    0.043    0.229   38.889   10.709
  304.190    0.035    0.205   37.037   11.328
  304.495    0.021    0.184   35.803   12.446
  304.799    0.033    0.178   35.803   14.473
  305.104    0.049    0.174   35.185   15.605
  305.409    0.040    0.177   23.457   18.493
  305.714    0.037    0.176   20.988   20.707
  306.019    0.059    0.174   19.753   22.752
  306.323    0.074    0.169   20.370   24.067
  306.628    0.063    0.166   20.988   24.512
  306.933    0.045    0.162   21.605   24.496
  307.238    0.031    0.160   21.605   24.950
  307.543    0.014    0.157   21.605   25.898
  307.847    0.011    0.157   20.988   26.885
