~VERSION INFORMATION
 VERS.                 2.0:   CWLS LOG ASCII STANDARD -VERSION 2.0
 WRAP.                  NO:   ONE LINE PER DEPTH STEP
~WELL INFORMATION BLOCK
#MNEM.UNIT           DATA                    DESCRIPTION OF MNEMONIC
#---------    -------------------            -------------------------------
# Generated from Intellog Unique Number	CW_76_78/WELL/1031
WELL.         CHIEFCO PR ETAL PELICAN 11-34  : Well_name    - WELL
LOC .         00/11-34-077-22W4/0            : Location     - LOCATION
UWI .         00/11-34-077-22W4/0            : Uwi          - UNIQUE WELL ID
ENTR.         jj                             : Entered      - ENTERED BY
SRVC.         SCHLUMBERGER                   : Scn          - SERVICE COMPANY
DATE.         3 MAR 73                       : Date         - LOG DATE
STRT.M        277.368                        : top_depth    - START DEPTH
STOP.M        530.368                        : bot_depth    - STOP DEPTH
STEP.M        0.25                           : increment    - STEP LENGTH
 NULL. -999.2500:NULL Value
~CURVE INFORMATION BLOCK
#MNEM UNIT       ERCB CURVE CODE    CURVE DESCRIPTION
#-----------   ------------------   ----------------------------------
DEPT.M        00 001 00 00         : DEPTH        - DEPTH
DPHI.V/V      00 890 00 00         : PHID         - DENSITY POROSITY (SANDSTONE)
NPHI.V/V      00 330 00 00         : PHIN         - NEUTRON POROSITY (SANDSTONE)
GR  .API      00 310 00 00         : GR           - GAMMA RAY
CALI.MM       00 280 01 00         : CAL          - CALIPER
ILD .OHMM     00 120 00 00         : RESD         - DEEP RESISTIVITY (DIL)
~PARAMETER INFORMATION
#MNEM.UNIT           DATA             DESCRIPTION OF MNEMONIC
#---------         -----------     ------------------------------
GL  .M        606.095              : gl           - GROUND LEVEL ELEVATION
EREF.M        608.381              : kb           - ELEVATION OF DEPTH REFERENCE
DATM.M        606.095              : datum        - DATUM ELEVATION
TDD .M        534.01               : tdd          - TOTAL DEPTH DRILLER
RUN .         ONE                  : Run          - RUN NUMBER
MUD .         GEL CHEM             : Mud_type     - MUD TYPE
MATR.         SANDSTONE            : Logunit      - NEUTRON MATRIX
TMAX.C        24.4444              : BHT          - MAXIMUM RECORDED TEMPERATURE
BHTD.M        534.01               : BHTDEP       - MAXIMUM RECORDED TEMPERATURE
RMT .C        17.2222              : MDTP         - TEMPERATURE OF MUD
MUDD.KG/M     1080                 : MWT          - MUD DENSITY
NEUT.         1                    : NEUTRON      - NEUTRON TYPE
RESI.         0                    : RESIST       - RESISTIVITY TYPE
RM  .OHMM     3.07                 : RM           - RESISTIVITY OF MUD
RMC .OHMM     0                    : RMC          - RESISTIVITY OF MUD CAKE
RMF .OHMM     2.17                 : RMF          - RESISTIVITY OF MUD FILTRATE
SUFT.C        4.5                  : SUFT         - SURFACE TEMPERATURE
~A  DEPTH     PHID     PHIN       GR      CAL     RESD
# ...
  459.868    0.152    0.430  103.864  155.801    5.282
  460.118    0.141    0.427  100.715  155.719    4.742
  460.368    0.119    0.432   95.728  155.636    4.119
  460.618    0.098    0.495   97.646  155.232    3.698
  460.868    0.109    0.566   98.296  154.400    3.452
  461.118    0.166    0.588   88.938  153.466    3.450
  461.368    0.187    0.536   72.613  152.846    3.802
  461.618    0.205    0.481   52.550  152.551    4.690
  461.868    0.242    0.415   41.292  151.825    5.838
  462.118    0.265    0.399   37.447  151.424    7.322
  462.368    0.249    0.380   37.273  151.133   14.569
  462.618    0.254    0.367   37.100  151.048   18.750
  462.868    0.237    0.368   39.904  150.756   19.840
  463.118    0.243    0.375   44.989  150.357   20.237
  463.368    0.224    0.383   47.920  150.055   20.869
  463.618    0.230    0.390   49.078  150.080   22.003
  463.868    0.223    0.408   48.841  149.788   24.294
  464.118    0.230    0.422   48.034  149.709   26.187
  464.368    0.241    0.427   49.382  149.412   27.560
  464.618    0.250    0.428   52.123  148.367   27.799
  464.868    0.253    0.427   53.850  147.212   24.413
  465.118    0.222    0.426   57.227  147.130   20.625
  465.368    0.186    0.420   60.979  146.835   15.830
  465.618    0.190    0.400   68.091  146.866    8.587
  465.868    0.202    0.399   77.293  146.995    6.864
  466.118    0.173    0.417   87.001  147.988    5.735
  466.368    0.130    0.448   90.567  149.298    5.274
  466.618    0.140    0.487   91.153  150.614    5.290
  466.868    0.144    0.504   90.093  151.067    5.516
  467.118    0.133    0.439   84.726  151.310    5.946
  467.368    0.139    0.393   68.971  151.657    6.788
  467.618    0.060    0.372   61.706  151.683    8.373
  467.868    0.092    0.366   58.236  151.709    9.434
  468.118    0.186    0.376   65.222  151.734   10.132
  468.368    0.164    0.401   72.776  151.871   11.353
  468.618    0.145    0.391   70.387  151.572   12.840
  468.868    0.198    0.370   57.608  151.063   14.389
  469.118    0.227    0.356   47.618  149.588   16.034
  469.368    0.218    0.357   50.359  148.971   18.033
  469.618    0.206    0.377   53.226  147.819   19.512
  469.868    0.211    0.386   51.407  144.736   21.306
  470.118    0.241    0.386   40.845  142.297   23.266
  470.368    0.254    0.383   35.985  141.358   25.784
  470.618    0.244    0.377   34.988  140.742   29.647
  470.868    0.246    0.376   37.414  141.196   31.434
  471.118    0.249    0.380   39.712  142.723   32.060
  471.368    0.238    0.373   41.061  144.572   30.992
  471.618    0.223    0.360   42.027  146.744   28.504
  471.868    0.222    0.359   43.056  147.841   25.079
  472.118    0.224    0.365   45.164  148.728   23.365
  472.368    0.226    0.369   48.031  149.073   22.093
  472.618    0.234    0.365   51.026  149.209   20.967
  472.868    0.233    0.361   53.006  149.448   19.935
  473.118    0.220    0.358   54.101  149.368   19.093
  473.368    0.218    0.369   54.181  149.393   18.768
  473.618    0.215    0.377   54.199  149.207   18.448
  473.868    0.210    0.370   54.531  149.236   18.199
  474.118    0.201    0.355   55.689  148.941   18.120
  474.368    0.187    0.337   59.190  148.642   18.042
  474.618    0.173    0.328   61.362  148.670   17.800
  474.868    0.160    0.337   62.329  149.447   17.335
  475.118    0.149    0.347   66.082  150.116   16.697
  475.368    0.146    0.349   70.726  150.683   15.846
  475.618    0.150    0.349   71.057  151.459   14.927
  475.868    0.142    0.348   74.623  152.232   14.219
  476.118    0.136    0.347   75.589  153.331   13.620
  476.368    0.148    0.348   73.265  154.537   13.021
  476.618    0.140    0.349   73.724  155.097   12.449
  476.868    0.169    0.351   76.655  155.231   11.968
  477.118    0.184    0.359   78.636  154.615   11.527
  477.368    0.169    0.372   78.335  153.570   11.082
  477.618    0.160    0.379   79.303  153.061   10.498
  477.868    0.155    0.377   82.107  152.873    9.871
  478.118    0.165    0.375   84.912  152.793    9.163
  478.368    0.147    0.377   87.274  152.495    8.319
  478.618    0.111    0.391   90.646  152.200    7.637
  478.868    0.148    0.400   98.329  152.014    7.248
  479.118    0.154    0.416  100.372  151.716    7.163
  479.368    0.163    0.425  100.137  151.420    7.511
  479.618    0.161    0.403   98.127  151.019    8.247
  479.868    0.155    0.375   90.479  148.795    9.157
  480.118    0.173    0.354   83.211  149.681   10.036
  480.368    0.137    0.344   82.595  150.240   10.217
  480.618    0.145    0.349   81.472  151.128   10.079
  480.868    0.131    0.348   77.879  152.009    9.671
  481.118    0.105    0.346   72.259  152.033    9.368
  481.368    0.087    0.343   68.158  152.065    9.191
  481.618    0.099    0.341   65.515  151.556    9.548
  481.868    0.110    0.328   60.972  151.150   10.542
  482.118    0.066    0.306   53.261  150.642   13.100
  482.368    0.029    0.251   41.560  150.563   16.010
  482.618    0.006    0.216   33.785  150.266   22.143
  482.868    0.002    0.134   25.695  150.186   27.311
  483.118    0.021    0.137   24.825  150.210   26.402
  483.368    0.075    0.163   31.937  150.341   23.534
  483.618    0.111    0.371   40.379  150.478   23.131
  483.868    0.138    0.417   50.911  150.289   24.299
  484.118    0.252    0.492   54.411  149.993   18.207
  484.368    0.374    0.530   59.433  150.018    5.901
  484.618    0.341    0.597   69.775  149.402    5.201
  484.868    0.266    0.590   83.601  149.218    5.047
  485.118    0.277    0.594   91.726  149.346    4.979
  485.368    0.264    0.589   84.522  149.376    5.144
  485.618    0.305    0.576   81.119  149.188    5.353
  485.868    0.294    0.585   88.674  148.898    5.718
  486.118    0.202    0.572   95.217  148.809    6.187
  486.368    0.218    0.519   95.994  148.729    6.669
  486.618    0.226    0.460   90.499  148.329    6.814
  486.868    0.224    0.421   82.344  148.245    6.772
  487.118    0.219    0.433   85.972  148.489    6.632
  487.368    0.226    0.494   94.859  148.511    6.088
  487.618    0.234    0.510  100.070  148.326    5.714
  487.868    0.231    0.506  103.415  154.372    6.023
  488.118    0.171    0.502  103.470  154.895    6.903
  488.368    0.161    0.478  100.852  155.096    8.544
  488.618    0.184    0.449   84.234  154.758   11.446
  488.868    0.234    0.418   55.968  154.421   19.381
  489.118    0.264    0.403   40.241  154.189   25.627
  489.368    0.269    0.401   38.132  154.069   29.211
  489.618    0.283    0.405   39.395  153.731   29.778
  489.868    0.290    0.411   41.168  153.713   27.851
  490.118    0.302    0.425   41.734  153.697   24.743
  490.368    0.325    0.568   40.133  153.791   21.707
  490.618    0.427    0.589   38.216  153.994   18.421
  490.868    0.507    0.594   34.008  154.193   17.228
  491.118    0.494    0.575   33.744  154.502   17.402
  491.368    0.307    0.523   38.890  153.626   18.302
  491.618    0.287    0.426   49.764  153.180   20.223
  491.868    0.293    0.426   51.856  152.952   23.562
  492.118    0.290    0.419   51.465  153.584   25.331
  492.368    0.298    0.418   55.084  154.216   23.302
  492.618    0.288    0.420   60.294  154.416   20.033
  492.868    0.279    0.425   65.759  154.296   16.035
  493.118    0.280    0.421   70.714  153.956   11.993
  493.368    0.241    0.423   78.406  154.264    9.705
  493.618    0.223    0.442   91.189  154.359    7.911
  493.868    0.204    0.490  100.154  154.343    7.619
  494.118    0.234    0.541   97.218  153.897    8.221
  494.368    0.300    0.500   87.281  153.777    9.149
  494.618    0.290    0.458   78.999  153.433    9.604
  494.868    0.254    0.406   73.135  153.099    9.421
  495.118    0.248    0.396   75.099  153.083    8.908
  495.368    0.245    0.401   81.009  153.068    8.394
  495.618    0.235    0.419   94.239  153.377    7.498
  495.868    0.223    0.489  103.712  153.797    7.065
  496.118    0.212    0.546  108.604  154.644    7.006
