~VERSION INFORMATION
 VERS.                 2.0:   CWLS LOG ASCII STANDARD -VERSION 2.0
 WRAP.                  NO:   ONE LINE PER DEPTH STEP
~WELL INFORMATION BLOCK
#MNEM.UNIT           DATA                    DESCRIPTION OF MNEMONIC
#---------    -------------------            -------------------------------
# Generated from Intellog Unique Number	CS_73_76/WELL/4786
WELL.         AMOCO                          : Well_name    - WELL
LOC .         00/11-05-074-04W4/0            : Location     - LOCATION
UWI .         00/11-05-074-04W4/0            : Uwi          - UNIQUE WELL ID
ENTR.         T                              : Entered      - ENTERED BY
SRVC.         SCHLUMBERGER                   : Scn          - SERVICE COMPANY
STRT.M        225                            : top_depth    - START DEPTH
STOP.M        440                            : bot_depth    - STOP DEPTH
STEP.M        0.25                           : increment    - STEP LENGTH
 NULL. -999.2500:NULL Value
~CURVE INFORMATION BLOCK
#MNEM UNIT       ERCB CURVE CODE    CURVE DESCRIPTION
#-----------   ------------------   ----------------------------------
DEPT.M        00 001 00 00         : DEPTH        - DEPTH
GR  .API      00 310 00 00         : GR           - GAMMA RAY
NPHI.V/V      00 330 00 00         : PHIN         - NEUTRON POROSITY (SANDSTONE)
DPHI.V/V      00 890 00 00         : PHID         - DENSITY POROSITY (SANDSTONE)
ILD .OHMM     00 120 00 00         : RESD         - DEEP RESISTIVITY (DIL)
~PARAMETER INFORMATION
#MNEM.UNIT           DATA             DESCRIPTION OF MNEMONIC
#---------         -----------     ------------------------------
GL  .M        630.2                : gl           - GROUND LEVEL ELEVATION
EREF.M        634.4                : kb           - ELEVATION OF DEPTH REFERENCE
DATM.M        634.4                : datum        - DATUM ELEVATION
TDD .M        445                  : tdd          - TOTAL DEPTH DRILLER
RUN .         ONE                  : Run          - RUN NUMBER
ENG .         BILL                 : Engineer     - RECORDING ENGINEER
WIT .         JIM                  : Witness      - WITNESSED BY
MUD .         GEL                  : Mud_type     - MUD TYPE
MATR.         SANDSTONE            : Logunit      - NEUTRON MATRIX
TMAX.C        21                   : BHT          - MAXIMUM RECORDED TEMPERATURE
BHTD.M        445                  : BHTDEP       - MAXIMUM RECORDED TEMPERATURE
MATR.         1                    : LOGUNIT      - NEUTRON MATRIX
RMT .C        25                   : MDTP         - TEMPERATURE OF MUD
NEUT.         1                    : NEUTRON      - NEUTRON TYPE
RESI.         0                    : RESIST       - RESISTIVITY TYPE
RMC .OHMM     5.6                  : RMC          - RESISTIVITY OF MUD CAKE
RMF .OHMM     5.4                  : RMF          - RESISTIVITY OF MUD FILTRATE
SUFT.C        15                   : SUFT         - SURFACE TEMPERATURE
~A  DEPTH       GR     PHIN     PHID     RESD
  225.000   95.457    0.533    0.267    2.288
  225.250   95.468    0.550    0.273    2.290
  225.500   97.969    0.544    0.277    2.331
  225.750   99.235    0.550    0.277    2.334
  226.000   99.876    0.562    0.278    2.336
  226.250   99.283    0.575    0.285    2.378
  226.500   98.674    0.583    0.286    2.382
  226.750   96.847    0.572    0.281    2.385
  227.000   96.239    0.542    0.277    2.347
  227.250   95.640    0.529    0.272    2.350
  227.500   95.672    0.524    0.279    2.351
  227.750   96.303    0.524    0.285    2.435
  228.000   96.950    0.522    0.281    2.522
  228.250   97.591    0.516    0.274    2.524
  228.500   98.237    0.510    0.265    2.485
  228.750   98.868    0.508    0.258    2.445
  229.000   98.889    0.502    0.251    2.448
  229.250   98.296    0.495    0.244    2.451
  229.500   98.318    0.489    0.236    2.453
  229.750   99.584    0.499    0.230    2.456
  230.000  100.215    0.515    0.222    2.458
  230.250  100.861    0.527    0.223    2.503
  230.500  100.263    0.521    0.230    2.548
  230.750   99.660    0.506    0.234    2.593
  231.000   99.067    0.499    0.239    2.642
  231.250   99.094    0.495    0.244    2.600
  231.500  100.355    0.490    0.253    2.516
  231.750   99.756    0.490    0.260    2.475
  232.000   99.783    0.508    0.273    2.478
  232.250   99.794    0.532    0.281    2.481
  232.500  100.441    0.539    0.259    2.442
  232.750  101.087    0.543    0.255    2.404
  233.000  101.103    0.543    0.260    2.366
  233.250  100.500    0.535    0.267    2.328
  233.500   99.907    0.522    0.271    2.411
  233.750   99.928    0.505    0.261    2.454
  234.000   99.955    0.487    0.249    2.458
  234.250   98.727    0.484    0.246    2.419
  234.500   97.514    0.485    0.251    2.342
  234.750   96.296    0.503    0.257    2.304
  235.000   95.703    0.531    0.258    2.230
  235.250   95.714    0.545    0.266    2.195
  235.500   95.741    0.541    0.279    2.161
  235.750   96.377    0.531    0.302    2.162
  236.000   97.643    0.507    0.349    2.165
  236.250   96.425    0.501    0.294    2.203
  236.500   93.343    0.494    0.276    2.442
  236.750   89.646    0.482    0.308    2.750
  237.000   83.476    0.453    0.333    3.099
  237.250   81.633    0.357    0.360    3.102
  237.500   83.519    0.371    0.361    2.806
  237.750   84.160    0.390    0.345    2.626
  238.000   81.702    0.405    0.323    2.764
  238.250   78.000    0.411    0.314    3.114
  238.500   73.684    0.399    0.308    3.570
  238.750   70.607    0.383    0.306    3.697
  239.000   68.149    0.356    0.301    3.578
  239.250   64.453    0.313    0.280    3.462
  239.500   61.995    0.282    0.272    3.132
  239.750   58.918    0.278    0.277    2.832
  240.000   55.221    0.274    0.296    2.435
  240.250   50.285    0.261    0.320    2.203
  240.500   48.453    0.245    0.346    2.027
  240.750   53.427    0.262    0.348    1.929
  241.000   58.406    0.310    0.320    1.867
  241.250   63.385    0.354    0.304    1.900
  241.500   68.984    0.375    0.303    1.936
  241.750   73.969    0.392    0.306    1.937
  242.000   75.849    0.408    0.314    1.972
  242.250   76.490    0.421    0.312    2.008
  242.500   77.126    0.440    0.285    2.044
  242.750   78.398    0.453    0.276    2.047
  243.000   79.648    0.459    0.274    2.083
  243.250   82.159    0.435    0.271    2.085
  243.500   84.040    0.427    0.269    2.123
  243.750   87.160    0.430    0.273    2.126
  244.000   89.660    0.431    0.266    2.202
  244.250   90.927    0.426    0.245    2.240
  244.500   91.557    0.423    0.252    2.321
  244.750   92.823    0.431    0.264    2.362
  245.000   94.704    0.458    0.269    2.405
  245.250   97.199    0.463    0.259    2.408
  245.500   99.705    0.467    0.246    2.409
  245.750   99.101    0.472    0.237    2.255
  246.000   97.264    0.476    0.231    2.182
  246.250   94.806    0.478    0.237    2.077
  246.500   90.490    0.467    0.247    2.078
  246.750   83.075    0.448    0.260    1.978
  247.000   75.660    0.438    0.276    1.947
  247.250   72.583    0.433    0.291    1.949
  247.500   71.990    0.434    0.297    1.918
  247.750   73.870    0.438    0.307    1.888
  248.000   76.990    0.427    0.317    1.859
  248.250   73.913    0.423    0.316    1.860
  248.500   72.070    0.427    0.312    1.862
  248.750   68.379    0.430    0.301    1.864
  249.000   65.916    0.429    0.283    1.866
  249.250   62.850    0.413    0.272    1.900
  249.500   62.246    0.401    0.261    2.000
  249.750   61.648    0.398    0.261    2.106
  250.000   64.768    0.395    0.262    2.218
  250.250   69.742    0.399    0.259    2.336
  250.500   77.200    0.402    0.251    2.419
  250.750   88.376    0.409    0.240    2.506
  251.000   96.454    0.415    0.228    2.550
  251.250  103.918    0.425    0.195    2.596
  251.500  108.277    0.446    0.185    2.689
  251.750  110.778    0.452    0.172    2.737
  252.000  114.523    0.459    0.159    2.695
  252.250  118.882    0.478    0.152    2.608
  252.500  122.008    0.481    0.181    2.565
  252.750  123.258    0.485    0.198    2.483
  253.000  125.138    0.491    0.204    2.404
  253.250  124.540    0.503    0.209    2.365
  253.500  122.708    0.507    0.215    2.368
  253.750  122.110    0.509    0.219    2.411
  254.000  122.751    0.518    0.225    2.583
  254.250  122.773    0.532    0.235    2.673
  254.500  122.794    0.548    0.248    2.912
  254.750  119.717    0.557    0.262    3.172
  255.000  117.874    0.530    0.275    3.514
  255.250  112.938    0.498    0.273    4.026
  255.500  109.241    0.451    0.270    5.192
  255.750  104.305    0.423    0.279    5.560
  256.000   96.890    0.400    0.287    5.956
  256.250   83.277    0.380    0.302    6.377
  256.500   76.482    0.367    0.309    6.948
  256.750   69.067    0.356    0.329    6.957
  257.000   69.708    0.348    0.352    6.961
  257.250   75.927    0.342    0.354    6.970
  257.500   80.906    0.340    0.351    6.977
  257.750   84.026    0.345    0.349    6.986
  258.000   84.053    0.351    0.348    6.876
  258.250   82.830    0.355    0.346    6.653
  258.500   79.763    0.362    0.343    6.333
  258.750   78.535    0.373    0.340    6.336
  259.000   76.077    0.380    0.335    7.385
  259.250   73.000    0.392    0.330    8.901
  259.500   68.064    0.396    0.316    8.915
  259.750   64.373    0.391    0.297    8.479
  260.000   61.290    0.381    0.279    7.544
  260.250   66.889    0.367    0.276    7.059
  260.500   79.305    0.294    0.288    6.278
  260.750   85.524    0.315    0.305    5.875
  261.000   94.221    0.334    0.332    5.406
  261.250  102.310    0.356    0.338    5.320
  261.500  104.190    0.375    0.313    5.509
  261.750   98.009    0.387    0.310    5.799
  262.000   83.772    0.356    0.304    6.423
  262.250   78.836    0.300    0.297    7.116
  262.500   70.181    0.296    0.302    7.756
  262.750   64.625    0.303    0.296    7.893
  263.000   65.897    0.317    0.296    8.033
  263.250   67.153    0.327    0.300    8.181
  263.500   67.174    0.316    0.305    8.329
  263.750   67.201    0.303    0.314    8.623
  264.000   67.212    0.294    0.319    8.346
  264.250   66.624    0.274    0.320    8.075
  264.500   66.015    0.258    0.318    7.307
  264.750   63.569    0.270    0.312    6.835
  265.000   62.351    0.285    0.311    6.079
  265.250   61.742    0.287    0.297    5.142
  265.500   60.535    0.284    0.285    4.420
  265.750   60.545    0.283    0.296    3.868
  266.000   60.578    0.316    0.315    3.938
  266.250   62.464    0.353    0.326    4.007
  266.500   64.334    0.381    0.321    4.080
  266.750   68.693    0.398    0.309    4.085
  267.000   74.912    0.409    0.297    4.089
  267.250   80.511    0.402    0.282    3.891
  267.500   86.735    0.388    0.266    3.582
  267.750   86.131    0.388    0.246    3.523
  268.000   75.617    0.388    0.238    3.410
  268.250   58.287    0.381    0.242    3.355
