~VERSION INFORMATION
 VERS.                 2.0:   CWLS LOG ASCII STANDARD -VERSION 2.0
 WRAP.                  NO:   ONE LINE PER DEPTH STEP
~WELL INFORMATION BLOCK
#MNEM.UNIT           DATA                    DESCRIPTION OF MNEMONIC
#---------    -------------------            -------------------------------
# Generated from Intellog Unique Number	CS_69_70/WELL/897
NULL.         -999.25                        : NULL_VALUE
WELL.         SULPETRO BRENDA IPIATIK        : Well_name    - WELL              
LOC .         00/11-28-070-09W4/0            : Location     - LOCATION          
UWI .         00/11-28-070-09W4/0            : Uwi          - UNIQUE WELL ID    
ENTR.         SP                             : Entered      - ENTERED BY        
SRVC.         SCHLUMBERGER                   : Scn          - SERVICE COMPANY   
STRT.M        260                            : top_depth    - START DEPTH       
STOP.M        470                            : bot_depth    - STOP DEPTH        
STEP.M        0.25                           : increment    - STEP LENGTH       
~CURVE INFORMATION BLOCK
#MNEM UNIT       ERCB CURVE CODE    CURVE DESCRIPTION
#-----------   ------------------   ----------------------------------
DEPT.M        00 001 00 00         : DEPTH        - DEPTH                       
ILD .OHMM     00 120 00 00         : RESD         - DEEP RESISTIVITY (DIL)      
DPHI.V/V      00 890 00 00         : PHID         - DENSITY POROSITY (LIMESTONE)
NPHI.V/V      00 330 00 00         : PHIN         - NEUTRON POROSITY (LIMESTONE)
GR  .API      00 310 00 00         : GR           - GAMMA RAY                   
~PARAMETER INFORMATION       
#MNEM.UNIT           DATA             DESCRIPTION OF MNEMONIC
#---------         -----------     ------------------------------
GL  .M        605.03               : gl           - GROUND LEVEL ELEVATION      
EREF.M        609.53               : kb           - ELEVATION OF DEPTH REFERENCE
DATM.M        605.03               : datum        - DATUM ELEVATION             
TDD .M        480                  : tdd          - TOTAL DEPTH DRILLER         
RUN .         ONE                  : Run          - RUN NUMBER                  
ENG .         BILL                 : Engineer     - RECORDING ENGINEER          
WIT .         JIM                  : Witness      - WITNESSED BY                
MUD .         GEL                  : Mud_type     - MUD TYPE                    
MATR.         LIMESTONE            : Logunit      - NEUTRON MATRIX              
TMAX.C        20                   : BHT          - MAXIMUM RECORDED TEMPERATURE
BHTD.M        480                  : BHTDEP       - MAXIMUM RECORDED TEMPERATURE
MATR.         1                    : LOGUNIT      - NEUTRON MATRIX              
RMT .C        25                   : MDTP         - TEMPERATURE OF MUD          
NEUT.         1                    : NEUTRON      - NEUTRON TYPE                
RESI.         0                    : RESIST       - RESISTIVITY TYPE            
RMC .OHMM     0.25                 : RMC          - RESISTIVITY OF MUD CAKE     
RMF .OHMM     0.25                 : RMF          - RESISTIVITY OF MUD FILTRATE 
SUFT.C        15                   : SUFT         - SURFACE TEMPERATURE         
~A  DEPTH     RESD     PHID     PHIN       GR
# ...
  390.500    2.251    0.298    0.511   89.835
  390.750    2.392    0.287    0.502   89.704
  391.000    2.604    0.276    0.495   90.469
  391.250    2.894    0.289    0.483   91.416
  391.500    3.252    0.294    0.423   88.576
  391.750    3.607    0.281    0.408   86.341
  392.000    3.876    0.290    0.407   84.524
  392.250    4.029    0.295    0.421   83.666
  392.500    4.273    0.287    0.431   83.352
  392.750    4.516    0.275    0.441   83.335
  393.000    4.557    0.259    0.450   82.963
  393.250    4.555    0.241    0.454   82.464
  393.500    4.604    0.239    0.448   82.209
  393.750    4.706    0.247    0.436   81.470
  394.000    5.162    0.228    0.414   80.858
  394.250    5.909    0.150    0.342   76.703
  394.500    6.878    0.062    0.274   66.656
  394.750    8.480    0.007    0.208   56.490
  395.000   11.408   -0.003    0.185   48.366
  395.250   12.329    0.026    0.208   50.514
  395.500   11.294    0.065    0.246   58.488
  395.750    8.038    0.138    0.298   67.844
  396.000    6.231    0.184    0.357   77.378
  396.250    5.511    0.201    0.398   83.793
  396.500    5.249    0.213    0.418   84.317
  396.750    5.074    0.218    0.424   84.062
  397.000    5.007    0.223    0.427   85.850
  397.250    4.941    0.227    0.434   88.654
  397.500    4.875    0.231    0.443   89.905
  397.750    4.846    0.233    0.431   91.750
  398.000    4.835    0.240    0.429   91.917
  398.250    4.842    0.252    0.442   91.181
  398.500    4.895    0.244    0.452   89.426
  398.750    4.946    0.239    0.445   90.312
  399.000    4.946    0.236    0.437   93.419
  399.250    4.943    0.229    0.437   96.890
  399.500    4.923    0.224    0.431  101.981
  399.750    4.893    0.221    0.433  109.294
  400.000    4.884    0.213    0.439  116.068
  400.250    4.837    0.200    0.438   90.463
  400.500    4.808    0.184    0.411   84.863
  400.750    4.753    0.165    0.392   81.184
  401.000    4.690    0.174    0.393   79.066
  401.250    4.610    0.256    0.420   78.448
  401.500    4.592    0.280    0.427   78.436
  401.750    4.564    0.246    0.431   79.563
  402.000    4.563    0.221    0.437   80.449
  402.250    4.535    0.229    0.431   81.635
  402.500    4.509    0.249    0.412   84.923
  402.750    4.524    0.260    0.410   87.912
  403.000    4.447    0.216    0.426   88.319
  403.250    4.244    0.230    0.443   85.840
  403.500    3.677    0.259    0.437   84.145
  403.750    3.419    0.255    0.426   82.868
  404.000    2.897    0.248    0.439   81.709
  404.250    2.601    0.241    0.461   80.916
  404.500    2.279    0.257    0.480   79.581
  404.750    2.155    0.282    0.491   78.424
  405.000    2.102    0.273    0.495   78.709
  405.250    2.137    0.267    0.497   82.778
  405.500    2.322    0.260    0.501   87.631
  405.750    2.552    0.253    0.509   89.659
  406.000    3.004    0.244    0.516   88.021
  406.250    3.615    0.216    0.480   83.262
  406.500    3.928    0.190    0.426   83.667
  406.750    4.245    0.205    0.407   84.673
  407.000    4.404    0.218    0.416   85.198
  407.250    4.476    0.167    0.425   84.223
  407.500    4.475    0.150    0.390   83.427
  407.750    4.506    0.133    0.373   84.131
  408.000    4.496    0.183    0.405   85.261
  408.250    4.512    0.234    0.422   87.646
  408.500    4.518    0.241    0.419   88.655
  408.750    4.542    0.232    0.411   84.134
  409.000    4.591    0.237    0.406   82.196
  409.250    4.615    0.229    0.401   82.843
  409.500    4.674    0.215    0.412   84.570
  409.750    4.750    0.134    0.419   86.118
  410.000    4.883    0.078    0.398   83.220
  410.250    5.141    0.089    0.367   78.761
  410.500    5.404    0.120    0.382   78.084
  410.750    5.312    0.156    0.392   80.169
  411.000    5.088    0.208    0.398   80.998
  411.250    4.653    0.226    0.393   81.944
  411.500    4.161    0.223    0.394   86.736
  411.750    3.776    0.212    0.410   94.950
  412.000    3.421    0.207    0.431  100.041
  412.250    3.117    0.218    0.449  100.686
  412.500    2.925    0.211    0.456   99.831
  412.750    2.859    0.217    0.458   99.517
  413.000    2.901    0.211    0.465  100.581
  413.250    2.933    0.202    0.479  101.889
  413.500    2.981    0.202    0.475  103.133
  413.750    2.985    0.199    0.462  102.341
  414.000    2.907    0.194    0.448  102.084
  414.250    2.885    0.192    0.433  102.911
  414.500    2.814    0.207    0.432  103.495
  414.750    2.804    0.216    0.449  103.183
  415.000    2.782    0.214    0.463  104.009
  415.250    2.796    0.211    0.476  106.514
  415.500    2.961    0.205    0.460  106.862
  415.750    3.254    0.202    0.427  100.060
  416.000    3.844    0.188    0.384   86.770
  416.250    4.909    0.138    0.357   76.484
  416.500    6.617    0.072    0.335   70.883
  416.750    7.394    0.034    0.313   63.780
  417.000    7.056    0.096    0.302   68.148
  417.250    6.392    0.172    0.337   73.060
  417.500    5.642    0.188    0.365   81.694
  417.750    5.547    0.198    0.378   85.225
  418.000    5.917    0.206    0.387   84.488
  418.250    7.213    0.224    0.357   76.905
  418.500    7.913    0.248    0.321   66.500
  418.750    8.760    0.266    0.293   58.435
  419.000    9.379    0.286    0.302   61.303
  419.250    9.785    0.279    0.314   63.149
  419.500   10.020    0.266    0.326   63.917
  419.750    9.759    0.260    0.331   64.082
  420.000   10.200    0.261    0.326   64.605
  420.250   10.445    0.246    0.324   65.314
  420.500   10.937    0.222    0.331   64.157
  420.750   11.305    0.205    0.337   61.199
  421.000   11.598    0.186    0.337   59.024
  421.250   11.637    0.169    0.328   56.664
  421.500   11.334    0.150    0.321   56.771
  421.750   10.756    0.144    0.336   59.820
  422.000   10.056    0.177    0.344   63.590
  422.250    9.580    0.203    0.342   67.117
  422.500    8.990    0.210    0.338   69.687
  422.750    8.578    0.215    0.335   70.754
  423.000    8.308    0.225    0.348   73.021
  423.250    8.245    0.240    0.356   77.149
  423.500    8.412    0.249    0.355   82.482
  423.750    8.743    0.242    0.352   89.315
  424.000    9.240    0.208    0.357   93.986
  424.250    9.839    0.205    0.373   93.731
  424.500   10.495    0.242    0.382   85.727
  424.750   11.030    0.264    0.370   78.925
  425.000   11.485    0.278    0.365   80.350
  425.250   11.333    0.269    0.362   83.881
  425.500    9.930    0.247    0.353   90.650
  425.750    9.165    0.229    0.349   92.922
  426.000    8.713    0.234    0.353   93.145
  426.250    8.630    0.242    0.356   91.087
  426.500    8.562    0.246    0.357   88.972
  426.750    8.639    0.258    0.356   82.891
  427.000    8.700    0.269    0.351   77.289
  427.250    8.745    0.274    0.349   74.692
  427.500    8.742    0.272    0.350   77.861
  427.750    8.689    0.264    0.355   81.509
  428.000    8.623    0.255    0.353   86.602
  428.250    8.398    0.250    0.347   93.073
  428.500    8.226    0.246    0.343   96.904
  428.750    8.131    0.241    0.344  100.853
  429.000    8.157    0.229    0.344  103.722
  429.250    8.217    0.194    0.344   93.855
  429.500    8.492    0.165    0.343   80.927
  429.750    8.778    0.160    0.344   73.704
  430.000    9.645    0.199    0.351   67.322
  430.250   11.480    0.232    0.357   60.639
  430.500   15.330    0.263    0.360   60.144
  430.750   17.679    0.264    0.359   62.470
  431.000   18.477    0.253    0.357   63.598
  431.250   17.600    0.260    0.355   66.526
  431.500   16.703    0.252    0.353   71.077
  431.750   15.588    0.247    0.351   75.687
  432.000   14.959    0.243    0.350   79.097
  432.250   16.653    0.237    0.350   80.704
  432.500   20.455    0.260    0.350   71.559
  432.750   25.408    0.280    0.347   64.396
  433.000   33.242    0.295    0.342   59.996
  433.250   41.986    0.313    0.340   56.135
  433.500   52.539    0.300    0.345   52.158
  433.750   60.142    0.293    0.348   46.375
