~VERSION INFORMATION
 VERS.                 2.0:   CWLS LOG ASCII STANDARD -VERSION 2.0
 WRAP.                  NO:   ONE LINE PER DEPTH STEP
~WELL INFORMATION BLOCK
#MNEM.UNIT           DATA                    DESCRIPTION OF MNEMONIC
#---------    -------------------            -------------------------------
# Generated from Intellog Unique Number	CS_73_76/WELL/3261
WELL.         ALLIED ROXANA MINERALS         : Well_name    - WELL
LOC .         00/11-10-076-15W4/0            : Location     - LOCATION
UWI .         00/11-10-076-15W4/0            : Uwi          - UNIQUE WELL ID
ENTR.         SP                             : Entered      - ENTERED BY
SRVC.         SCHLUMBERGER                   : Scn          - SERVICE COMPANY
STRT.M        341.376                        : top_depth    - START DEPTH
STOP.M        569.626                        : bot_depth    - STOP DEPTH
STEP.M        0.25                           : increment    - STEP LENGTH
 NULL. -999.2500:NULL Value
~CURVE INFORMATION BLOCK
#MNEM UNIT       ERCB CURVE CODE    CURVE DESCRIPTION
#-----------   ------------------   ----------------------------------
DEPT.M        00 001 00 00         : DEPTH        - DEPTH
GR  .API      00 310 00 00         : GR           - GAMMA RAY
DPHI.V/V      00 890 00 00         : PHID         - DENSITY POROSITY (SANDSTONE)
NPHI.V/V      00 330 00 00         : PHIN         - NEUTRON POROSITY (SANDSTONE)
ILD .OHMM     00 120 00 00         : RESD         - DEEP RESISTIVITY (DIL)
~PARAMETER INFORMATION
#MNEM.UNIT           DATA             DESCRIPTION OF MNEMONIC
#---------         -----------     ------------------------------
GL  .M        715.518              : gl           - GROUND LEVEL ELEVATION
EREF.M        718.566              : kb           - ELEVATION OF DEPTH REFERENCE
DATM.M        715.518              : datum        - DATUM ELEVATION
TDD .M        579.12               : tdd          - TOTAL DEPTH DRILLER
RUN .         ONE                  : Run          - RUN NUMBER
ENG .         BILL                 : Engineer     - RECORDING ENGINEER
WIT .         JIM                  : Witness      - WITNESSED BY
MUD .         GEL                  : Mud_type     - MUD TYPE
MATR.         SANDSTONE            : Logunit      - NEUTRON MATRIX
TMAX.C        23.3333              : BHT          - MAXIMUM RECORDED TEMPERATURE
BHTD.M        579.12               : BHTDEP       - MAXIMUM RECORDED TEMPERATURE
MATR.         1                    : LOGUNIT      - NEUTRON MATRIX
RMT .C        25                   : MDTP         - TEMPERATURE OF MUD
NEUT.         1                    : NEUTRON      - NEUTRON TYPE
RESI.         0                    : RESIST       - RESISTIVITY TYPE
RMC .OHMM     0.25                 : RMC          - RESISTIVITY OF MUD CAKE
RMF .OHMM     0.25                 : RMF          - RESISTIVITY OF MUD FILTRATE
SUFT.C        15                   : SUFT         - SURFACE TEMPERATURE
~A  DEPTH       GR     PHID     PHIN     RESD
  341.376  104.991    0.212    0.586    2.530
  341.626  104.415    0.219    0.631    2.521
  341.876  103.581    0.200    0.622    2.621
  342.126  102.593    0.192    0.616    2.605
  342.376  101.491    0.190    0.613    2.821
  342.626  103.074    0.189    0.588    2.932
  342.876  107.047    0.181    0.589    2.998
  343.126  109.814    0.185    0.603    2.978
  343.376  111.092    0.186    0.616    2.849
  343.626  111.246    0.187    0.606    2.853
  343.876  104.508    0.184    0.581    2.824
  344.126  101.160    0.190    0.567    2.777
  344.376  101.221    0.201    0.590    2.777
  344.626  100.986    0.209    0.529    2.780
  344.876  100.058    0.192    0.509    2.777
  345.126   94.339    0.172    0.519    3.094
  345.376   87.448    0.163    0.506    3.425
  345.626   82.849    0.148    0.397    4.078
  345.876   77.491    0.163    0.357    6.339
  346.126   75.400    0.260    0.341    9.436
  346.376   79.082    0.267    0.340   11.870
  346.626   84.115    0.260    0.361   12.191
  346.876   91.006    0.239    0.375   10.693
  347.126   92.998    0.219    0.392    9.838
  347.376   91.973    0.209    0.411    9.147
  347.626   90.202    0.201    0.409    8.320
  347.876   93.219    0.209    0.400    7.833
  348.126   95.160    0.216    0.395    7.777
  348.376   96.150    0.210    0.398    7.769
  348.626   93.472    0.224    0.409    8.120
  348.876   91.914    0.225    0.406    7.835
  349.126   91.899    0.207    0.395    7.935
  349.376   91.874    0.219    0.385    8.086
  349.626   91.823    0.218    0.384    8.344
  349.876   90.778    0.218    0.384    8.473
  350.126   89.709    0.225    0.390    8.642
  350.376   90.064    0.242    0.383    8.640
  350.626   90.668    0.241    0.381    8.424
  350.876   89.574    0.243    0.375    8.392
  351.126   85.239    0.264    0.362    8.334
  351.376   81.535    0.273    0.354    8.460
  351.626   78.250    0.269    0.347    8.713
  351.876   76.591    0.241    0.362    9.035
  352.126   81.900    0.225    0.380    9.304
  352.376   84.262    0.219    0.393    9.350
  352.626   87.372    0.227    0.397    9.011
  352.876   87.077    0.262    0.351    8.930
  353.126   80.561    0.293    0.331    8.979
  353.376   76.670    0.322    0.364    9.065
  353.626   84.964    0.224    0.398    8.943
  353.876   92.264    0.185    0.436    8.900
  354.126   94.042    0.201    0.440    8.547
  354.376   93.907    0.207    0.433    7.771
  354.626   95.085    0.217    0.430    7.020
  354.876   95.856    0.224    0.432    6.537
  355.126   94.200    0.232    0.434    6.257
  355.376   90.080    0.245    0.419    6.066
  355.626   85.283    0.243    0.430    5.908
  355.876   78.882    0.248    0.432    6.386
  356.126   70.409    0.283    0.383    7.307
  356.376   62.791    0.300    0.356    8.064
  356.626   56.893    0.308    0.359    9.116
  356.876   50.248    0.322    0.377   10.196
  357.126   49.270    0.326    0.397   10.586
  357.376   50.555    0.289    0.410   10.495
  357.626   51.135    0.267    0.424   10.037
  357.876   51.921    0.280    0.407    9.814
  358.126   52.872    0.285    0.398    9.477
  358.376   51.860    0.265    0.399    9.339
  358.626   46.194    0.265    0.415    9.310
  358.876   41.203    0.286    0.414    9.374
  359.126   39.392    0.306    0.422    9.505
  359.376   37.685    0.293    0.432    9.631
  359.626   37.021    0.291    0.431    9.698
  359.876   38.261    0.302    0.415    9.603
  360.126   39.612    0.293    0.412    9.392
  360.376   41.043    0.288    0.425    9.298
  360.626   41.176    0.287    0.427    9.506
  360.876   37.306    0.300    0.396    9.705
  361.126   37.272    0.302    0.386    9.963
  361.376   45.757    0.304    0.380   10.207
  361.626   57.969    0.288    0.388   10.009
  361.876   75.063    0.243    0.400    8.960
  362.126   94.246    0.185    0.433    7.179
  362.376  115.620    0.166    0.509    5.818
  362.626  122.665    0.170    0.580    5.075
  362.876  124.654    0.157    0.576    4.475
  363.126  122.806    0.135    0.561    4.124
  363.376  118.877    0.122    0.554    4.022
  363.626  115.596    0.112    0.570    4.033
  363.876  113.602    0.157    0.591    3.949
  364.126  122.060    0.167    0.619    3.963
  364.376  123.845    0.188    0.655    3.432
  364.626  126.588    0.210    0.656    3.206
  364.876  126.094    0.220    0.660    3.026
  365.126  120.931    0.232    0.578    3.365
  365.376  115.308    0.238    0.511    3.983
  365.626  109.667    0.243    0.500    4.842
  365.876  106.847    0.242    0.493    5.969
  366.126  109.106    0.224    0.479    7.480
  366.376  112.465    0.209    0.473    8.725
  366.626  111.452    0.203    0.484    9.288
  366.876  108.138    0.222    0.491    9.328
  367.126  103.465    0.237    0.492    9.032
  367.376   99.632    0.241    0.460    8.903
  367.626  101.017    0.238    0.452    8.769
  367.876  107.679    0.225    0.477    8.282
  368.126  112.732    0.214    0.498    7.684
  368.376  106.788    0.201    0.519    6.996
  368.626  103.405    0.206    0.481    6.659
  368.876   95.361    0.222    0.463    6.824
  369.126   91.041    0.221    0.471    7.411
  369.376   89.787    0.205    0.479    8.332
  369.626   92.859    0.206    0.459    9.268
  369.876  100.780    0.246    0.451   10.062
  370.126  104.691    0.234    0.471   10.188
  370.376  105.767    0.225    0.479    9.772
  370.626  108.966    0.221    0.477    9.224
  370.876  110.831    0.231    0.486    8.451
  371.126  114.217    0.220    0.484    7.871
  371.376  116.654    0.207    0.461    7.493
  371.626  116.085    0.204    0.464    7.223
  371.876  112.970    0.202    0.478    7.064
  372.126  106.706    0.211    0.494    7.056
  372.376   96.778    0.222    0.494    7.307
  372.626   85.900    0.240    0.488    7.787
  372.876   76.008    0.259    0.476    8.064
  373.126   79.824    0.275    0.486    8.458
  373.376   85.502    0.266    0.498    8.418
  373.626   88.494    0.261    0.510    8.297
  373.876   84.776    0.252    0.518    7.912
  374.126   79.431    0.255    0.537    7.261
  374.376   68.498    0.295    0.527    6.914
  374.626   62.066    0.306    0.522    6.692
  374.876   57.608    0.322    0.514    7.232
  375.126   56.648    0.327    0.513    8.038
  375.376   56.659    0.321    0.515    9.356
  375.626   58.034    0.306    0.507   10.302
  375.876   60.968    0.297    0.517   11.187
  376.126   62.594    0.284    0.500   11.349
  376.376   64.254    0.279    0.472   11.405
  376.626   65.525    0.272    0.462   11.425
  376.876   69.544    0.269    0.480   11.438
  377.126   78.986    0.264    0.498   10.741
  377.376   87.505    0.255    0.539    9.333
  377.626   90.239    0.243    0.578    7.972
  377.876   94.392    0.230    0.599    7.003
  378.126   96.161    0.238    0.581    6.252
  378.376   97.511    0.235    0.557    5.941
  378.626  100.531    0.245    0.543    5.738
  378.876  100.739    0.256    0.548    5.662
  379.126   99.181    0.263    0.569    5.551
  379.376   99.958    0.279    0.566    5.224
  379.626  104.358    0.257    0.564    4.806
  379.876   99.521    0.229    0.587    4.606
  380.126   93.671    0.228    0.606    4.757
  380.376   89.365    0.243    0.579    4.874
  380.626   88.663    0.265    0.477    5.290
  380.876   88.777    0.253    0.463    6.022
  381.126   89.188    0.242    0.464    7.029
  381.376   88.808    0.235    0.476    7.480
  381.626   83.623    0.226    0.483    7.403
  381.876   83.043    0.221    0.525    7.143
  382.126   83.041    0.230    0.573    6.898
  382.376   74.059    0.242    0.581    6.948
  382.626   67.638    0.252    0.552    7.291
  382.876   61.750    0.264    0.535    8.046
  383.126   54.615    0.281    0.494    8.872
  383.376   47.597    0.294    0.463   10.482
  383.626   48.062    0.296    0.451   12.092
  383.876   49.940    0.308    0.450   12.749
  384.126   50.624    0.314    0.441   13.085
  384.376   50.331    0.315    0.435   13.204
  384.626   47.448    0.304    0.432   13.138
