~VERSION INFORMATION
 VERS.                 2.0:   CWLS LOG ASCII STANDARD -VERSION 2.0
 WRAP.                  NO:   ONE LINE PER DEPTH STEP
~WELL INFORMATION BLOCK
#MNEM.UNIT           DATA                    DESCRIPTION OF MNEMONIC
#---------    -------------------            -------------------------------
# Generated from Intellog Unique Number	CW_76_78/WELL/2579
WELL.         10-23-078-23W4                 : Well_name    - WELL
LOC .         00/10-23-078-23W4/0            : Location     - LOCATION
UWI .         00/10-23-078-23W4/0            : Uwi          - UNIQUE WELL ID
ENTR.         MAX                            : Entered      - ENTERED BY
SRVC.         SCHLUMBERGER                   : Scn          - SERVICE COMPANY
STRT.M        207.264                        : top_depth    - START DEPTH
STOP.M        493.764                        : bot_depth    - STOP DEPTH
STEP.M        0.25                           : increment    - STEP LENGTH
 NULL. -999.2500:NULL Value
~CURVE INFORMATION BLOCK
#MNEM UNIT       ERCB CURVE CODE    CURVE DESCRIPTION
#-----------   ------------------   ----------------------------------
DEPT.M        00 001 00 00         : DEPTH        - DEPTH
ILD .OHMM     00 120 00 00         : RESD         - DEEP RESISTIVITY (DIL)
NPHI.V/V      00 330 00 00         : PHIN         - NEUTRON POROSITY (SANDSTONE)
DPHI.V/V      00 890 00 00         : PHID         - DENSITY POROSITY (SANDSTONE)
CALI.MM       00 280 01 00         : CAL          - CALIPER
GR  .API      00 310 00 00         : GR           - GAMMA RAY
~PARAMETER INFORMATION
#MNEM.UNIT           DATA             DESCRIPTION OF MNEMONIC
#---------         -----------     ------------------------------
GL  .M        566.623              : gl           - GROUND LEVEL ELEVATION
EREF.M        570.159              : kb           - ELEVATION OF DEPTH REFERENCE
DATM.M        566.623              : datum        - DATUM ELEVATION
TDD .M        495.91               : tdd          - TOTAL DEPTH DRILLER
RUN .         ONE                  : Run          - RUN NUMBER
ENG .         BILL                 : Engineer     - RECORDING ENGINEER
WIT .         JIM                  : Witness      - WITNESSED BY
MUD .         GEL                  : Mud_type     - MUD TYPE
MATR.         SANDSTONE            : Logunit      - NEUTRON MATRIX
TMAX.C        21.6667              : BHT          - MAXIMUM RECORDED TEMPERATURE
BHTD.M        495.91               : BHTDEP       - MAXIMUM RECORDED TEMPERATURE
RMT .C        14.4444              : MDTP         - TEMPERATURE OF MUD
MUDD.KG/M     9000                 : MWT          - MUD DENSITY
NEUT.         1                    : NEUTRON      - NEUTRON TYPE
RESI.         0                    : RESIST       - RESISTIVITY TYPE
RM  .OHMM     6                    : RM           - RESISTIVITY OF MUD
RMC .OHMM     4.35                 : RMC          - RESISTIVITY OF MUD CAKE
RMF .OHMM     7.02                 : RMF          - RESISTIVITY OF MUD FILTRATE
SUFT.C        -6.66667             : SUFT         - SURFACE TEMPERATURE
~A  DEPTH     RESD     PHIN     PHID      CAL       GR
# ...
  353.264    8.807    0.477    0.217  200.519   83.600
  353.514    8.803    0.462    0.208  199.961   83.278
  353.764    8.718    0.446    0.213  200.417   85.316
  354.014    8.712    0.450    0.218  200.860   88.237
  354.264    8.707    0.472    0.219  201.803   84.957
  354.514    8.702    0.463    0.213  201.746   81.969
  354.764    8.702    0.472    0.202  201.707   81.048
  355.014    8.692    0.487    0.196  201.644   81.018
  355.264    8.687    0.511    0.215  202.087   81.575
  355.514    8.680    0.519    0.227  202.042   82.439
  355.764    8.675    0.474    0.208  201.985   82.405
  356.014    8.750    0.446    0.211  201.927   82.671
  356.264    9.066    0.447    0.214  201.889   86.174
  356.514    9.830    0.385    0.216  201.838   86.747
  356.764   10.658    0.363    0.197  201.781   85.826
  357.014   10.945    0.346    0.189  201.230   81.361
  357.264   11.139    0.382    0.186  201.166   75.718
  357.514   11.335    0.422    0.181  201.622   70.957
  357.764   11.640    0.447    0.165  201.564   66.491
  358.014   12.283    0.388    0.142  201.513   64.393
  358.264   15.674    0.335    0.101  201.463   65.844
  358.514   19.291    0.306    0.087  201.399   65.219
  358.764   21.298    0.259    0.059  201.361   63.416
  359.014   27.181    0.243    0.046  200.809   63.386
  359.264   36.290    0.266    0.056  200.258   65.716
  359.514   37.268    0.339    0.105  199.194   69.527
  359.764   30.521    0.420    0.134  199.143   73.921
  360.014   24.545    0.467    0.175  200.099   76.258
  360.264   19.561    0.493    0.189  201.536   80.663
  360.514   14.767    0.495    0.189  201.985   87.133
  360.764   12.767    0.489    0.181  201.934   88.580
  361.014   12.767    0.505    0.177  201.883   83.815
  361.264   11.967    0.516    0.179  201.833   83.785
  361.514   11.226    0.491    0.196  202.269   84.941
  361.764   10.919    0.433    0.192  202.231   84.607
  362.014   10.912    0.442    0.180  202.167   84.581
  362.264   10.905    0.479    0.181  203.117   86.028
  362.514   10.703    0.488    0.188  203.072   84.813
  362.764   10.411    0.452    0.188  202.521   84.487
  363.014   10.034    0.424    0.192  202.464   86.525
  363.264   10.034    0.424    0.201  202.400   87.078
  363.514    9.933    0.446    0.206  202.856   86.457
  363.764    9.933    0.448    0.201  202.798   85.840
  364.014    9.651    0.450    0.186  202.254   85.806
  364.264    9.649    0.453    0.188  201.702   86.075
  364.514    9.818    0.446    0.198  201.145   87.519
  364.764    9.818    0.424    0.214  201.094   88.371
  365.014    9.896    0.429    0.226  201.043   88.049
  365.264   10.164    0.448    0.209  200.979   85.644
  365.514   10.343    0.464    0.194  201.935   83.849
  365.764   10.343    0.477    0.178  202.878   85.880
  366.014   10.518    0.484    0.188  203.334   87.921
  366.264   10.513    0.497    0.194  202.776   87.001
  366.514   10.319    0.483    0.195  200.712   85.498
  366.764    9.854    0.462    0.197  200.673   88.718
  367.014    9.586    0.486    0.192  203.117   91.347
  367.264    9.156    0.510    0.195  204.061   90.422
  367.514    8.588    0.465    0.200  206.511   90.983
  367.764    8.130    0.498    0.208  208.468   90.362
  368.014    7.836    0.525    0.215  211.912   88.560
  368.264    7.690    0.544    0.234  206.352   83.802
  368.514    7.690    0.534    0.246  201.798   81.106
  368.764    7.818    0.519    0.246  199.246   81.375
  369.014    8.179    0.506    0.230  199.695   82.818
  369.264   10.067    0.519    0.215  201.633   82.201
  369.514   12.846    0.544    0.229  201.588   80.690
  369.764   12.955    0.562    0.246  201.531   78.293
  370.014   13.063    0.542    0.230  201.974   77.963
  370.264   13.417    0.503    0.211  203.430   78.233
  370.514   14.812    0.444    0.152  204.886   68.749
  370.764   16.653    0.314    0.082  204.829   66.647
  371.014   18.549    0.326    0.086  204.271   71.639
  371.264   18.710    0.387    0.125  204.221   83.131
  371.514   18.198    0.426    0.154  204.157   85.461
  371.764   16.462    0.444    0.190  204.112   86.609
  372.014   15.166    0.431    0.190  204.568   87.768
  372.264   13.352    0.435    0.192  204.511   90.397
  372.514   12.411    0.448    0.195  204.954   90.954
  372.764   12.177    0.447    0.198  204.402   90.628
  373.014   11.955    0.451    0.203  203.351   89.412
  373.264   11.955    0.459    0.201  198.791   81.110
  373.514   11.941    0.462    0.212  199.240   80.485
  373.764   12.375    0.451    0.212  199.696   82.520
  374.014   13.296    0.438    0.193  200.139   83.080
  374.264   14.158    0.405    0.188  205.091   80.691
  374.514   16.208    0.353    0.152  206.040   75.930
  374.764   19.413    0.307    0.126  204.976   71.468
  375.014   21.239    0.294    0.102  204.431   67.885
  375.264   21.420    0.303    0.120  204.380   69.328
  375.514   20.460    0.456    0.143  204.329   72.851
  375.764   18.175    0.479    0.202  204.772   81.093
  376.014   16.295    0.455    0.222  202.220   81.647
  376.264   16.295    0.437    0.216  198.154   79.545
  376.514   15.274    0.478    0.233  197.609   80.704
  376.764   14.461    0.470    0.245  200.060   81.560
  377.014   13.937    0.465    0.237  201.510   82.117
  377.264   13.678    0.469    0.230  201.953   83.852
  377.514   13.541    0.505    0.218  201.902   84.125
  377.764   13.417    0.507    0.206  201.350   84.091
  378.014   13.289    0.511    0.214  201.293   84.360
  378.264   13.161    0.506    0.214  201.242   85.508
  378.514   13.272    0.491    0.218  200.191   85.766
  378.764   13.259    0.466    0.219  197.138   84.562
  379.014   13.257    0.449    0.221  195.080   80.983
  379.264   13.368    0.443    0.220  195.022   79.475
  379.514   13.362    0.450    0.201  195.465   84.172
  379.764   13.354    0.486    0.193  195.427   85.320
  380.014   13.346    0.482    0.208  195.370   85.881
  380.264   13.337    0.453    0.215  195.819   89.097
  380.514   13.329    0.439    0.219  196.268   90.544
  380.764   13.321    0.467    0.221  196.211   90.514
  381.014   13.188    0.483    0.205  196.160   88.707
  381.264   13.185    0.488    0.205  196.109   87.791
  381.514   12.940    0.485    0.204  197.059   90.719
  381.764   12.816    0.460    0.202  198.002   91.280
  382.014   12.693    0.449    0.202  199.452   90.356
  382.264   12.570    0.451    0.208  202.403   90.621
  382.514   12.565    0.448    0.201  203.346   89.709
  382.764   12.557    0.448    0.198  203.789   87.603
  383.014   12.435    0.449    0.197  204.244   89.054
  383.264   12.205    0.441    0.188  204.193   93.160
  383.514   11.870    0.446    0.177  204.143   94.311
  383.764   11.545    0.472    0.180  204.085   96.342
  384.014   11.332    0.449    0.192  204.034   97.198
  384.264   11.224    0.445    0.177  204.484   95.691
  384.514   11.421    0.441    0.162  204.920   94.775
  384.764   11.730    0.432    0.168  204.375   95.036
  385.014   12.154    0.431    0.169  203.305   93.533
  385.264   12.823    0.448    0.180  203.767   90.541
  385.514   13.169    0.450    0.177  204.710   90.514
  385.764   13.283    0.421    0.189  204.659   91.367
  386.014   13.517    0.417    0.197  204.602   90.749
  386.264   13.267    0.455    0.196  204.050   90.121
  386.514   12.222    0.448    0.185  204.994   88.318
  386.764   11.055    0.436    0.177  205.956   89.765
  387.014   10.465    0.438    0.196  207.400   92.690
  387.264   10.178    0.443    0.194  208.843   96.205
  387.514   10.080    0.450    0.179  210.793   93.804
  387.764   10.258    0.454    0.183  213.244   92.599
  388.014   10.258    0.453    0.199  213.693   90.793
  388.264   10.433    0.435    0.205  203.130   90.467
  388.514   11.312    0.404    0.195  199.577   91.615
  388.764   12.155    0.403    0.183  198.019   91.585
  389.014   14.295    0.418    0.176  195.967   88.601
  389.264   14.949    0.414    0.140  195.922   85.022
  389.514   15.920    0.392    0.115  196.365   77.310
