~VERSION INFORMATION
 VERS.                 2.0:   CWLS LOG ASCII STANDARD -VERSION 2.0
 WRAP.                  NO:   ONE LINE PER DEPTH STEP
~WELL INFORMATION BLOCK
#MNEM.UNIT           DATA                    DESCRIPTION OF MNEMONIC
#---------    -------------------            -------------------------------
# Generated from Intellog Unique Number	CS_67_68/WELL/2200
WELL.         10-33-067-05W4                 : Well_name    - WELL
LOC .         00/10-33-067-05W4/0            : Location     - LOCATION
UWI .         00/10-33-067-05W4/0            : Uwi          - UNIQUE WELL ID
ENTR.         SP                             : Entered      - ENTERED BY
SRVC.         SCHLUMBERGER                   : Scn          - SERVICE COMPANY
STRT.M        320                            : top_depth    - START DEPTH
STOP.M        535                            : bot_depth    - STOP DEPTH
STEP.M        0.25                           : increment    - STEP LENGTH
 NULL. -999.2500:NULL Value
~CURVE INFORMATION BLOCK
#MNEM UNIT       ERCB CURVE CODE    CURVE DESCRIPTION
#-----------   ------------------   ----------------------------------
DEPT.M        00 001 00 00         : DEPTH        - DEPTH
ILD .OHMM     00 120 00 00         : RESD         - DEEP RESISTIVITY (DIL)
DPHI.V/V      00 890 00 00         : PHID         - DENSITY POROSITY (LIMESTONE)
NPHI.V/V      00 330 00 00         : PHIN         - NEUTRON POROSITY (LIMESTONE)
GR  .API      00 310 00 00         : GR           - GAMMA RAY
CALI.MM       00 280 01 00         : CAL          - CALIPER
~PARAMETER INFORMATION
#MNEM.UNIT           DATA             DESCRIPTION OF MNEMONIC
#---------         -----------     ------------------------------
GL  .M        667.11               : gl           - GROUND LEVEL ELEVATION
EREF.M        671.01               : kb           - ELEVATION OF DEPTH REFERENCE
DATM.M        671.01               : datum        - DATUM ELEVATION
TDD .M        543                  : tdd          - TOTAL DEPTH DRILLER
RUN .         ONE                  : Run          - RUN NUMBER
ENG .         BILL                 : Engineer     - RECORDING ENGINEER
WIT .         JIM                  : Witness      - WITNESSED BY
MUD .         GEL                  : Mud_type     - MUD TYPE
MATR.         LIMESTONE            : Logunit      - NEUTRON MATRIX
TMAX.C        25.5                 : BHT          - MAXIMUM RECORDED TEMPERATURE
BHTD.M        543                  : BHTDEP       - MAXIMUM RECORDED TEMPERATURE
MATR.         1                    : LOGUNIT      - NEUTRON MATRIX
RMT .C        25                   : MDTP         - TEMPERATURE OF MUD
NEUT.         1                    : NEUTRON      - NEUTRON TYPE
RESI.         0                    : RESIST       - RESISTIVITY TYPE
RMC .OHMM     0.25                 : RMC          - RESISTIVITY OF MUD CAKE
RMF .OHMM     0.25                 : RMF          - RESISTIVITY OF MUD FILTRATE
SUFT.C        15                   : SUFT         - SURFACE TEMPERATURE
~A  DEPTH     RESD     PHID     PHIN       GR      CAL
  320.000    3.015    0.235    0.506  101.308  181.725
  320.250    3.100    0.228    0.511  104.134  182.260
  320.500    3.140    0.220    0.506  103.418  183.204
  320.750    3.146    0.220    0.510  102.638  183.532
  321.000    3.157    0.226    0.517  107.909  184.682
  321.250    3.314    0.229    0.501  109.940  185.724
  321.500    3.466    0.218    0.480  110.078  186.565
  321.750    3.597    0.207    0.481  103.803  186.895
  322.000    3.748    0.196    0.485  100.516  186.719
  322.250    3.854    0.201    0.487  101.143  186.235
  322.500    3.810    0.228    0.483  103.174  185.956
  322.750    3.656    0.222    0.476  103.864  186.186
  323.000    3.521    0.215    0.475  106.139  186.313
  323.250    3.372    0.221    0.479  106.887  186.749
  323.500    3.235    0.225    0.494  103.421  187.489
  323.750    3.150    0.238    0.511   99.831  188.025
  324.000    3.103    0.250    0.529   97.525  187.744
  324.250    3.149    0.255    0.520  101.452  186.953
  324.500    3.269    0.249    0.515  104.217  185.655
  324.750    3.406    0.246    0.521  102.154  183.954
  325.000    3.489    0.249    0.519   99.481  182.450
  325.250    3.495    0.244    0.519  100.231  181.153
  325.500    3.462    0.236    0.503  100.734  180.462
  325.750    3.422    0.223    0.506   99.896  179.065
  326.000    3.415    0.215    0.524  102.966  178.377
  326.250    3.447    0.234    0.538  107.870  177.995
  326.500    3.564    0.236    0.518  110.878  177.105
  326.750    3.672    0.233    0.485  103.441  176.929
  327.000    3.624    0.253    0.465   99.546  177.360
  327.250    3.569    0.267    0.464   97.730  177.594
  327.500    3.767    0.246    0.485   96.948  177.717
  327.750    3.985    0.252    0.507   95.804  177.133
  328.000    4.270    0.235    0.527   96.369  175.836
  328.250    4.627    0.200    0.456   82.759  173.214
  328.500    4.940    0.113    0.421   70.126  170.289
  328.750    5.099    0.100    0.392   66.415  168.379
  329.000    5.704    0.291    0.399   66.615  167.588
  329.250    5.943    0.299    0.409   66.629  166.596
  329.500    5.953    0.307    0.418   66.278  166.825
  329.750    5.886    0.315    0.426   65.134  166.855
  330.000    5.658    0.328    0.400   62.704  166.371
  330.250    5.418    0.311    0.382   61.499  165.988
  330.500    5.297    0.293    0.444   70.497  165.814
  330.750    5.207    0.279    0.490   76.804  165.632
  331.000    5.090    0.275    0.487   81.403  165.353
  331.250    5.070    0.275    0.468   73.965  165.788
  331.500    5.088    0.278    0.463   76.120  166.427
  331.750    5.164    0.270    0.467   80.411  166.754
  332.000    5.193    0.257    0.469   77.921  166.882
  332.250    5.221    0.262    0.454   79.037  166.908
  332.500    5.230    0.268    0.445   82.537  167.750
  332.750    5.318    0.264    0.457   84.384  169.303
  333.000    5.317    0.251    0.454   84.033  171.060
  333.250    5.177    0.240    0.448   82.338  172.817
  333.500    5.109    0.243    0.459   81.314  174.472
  333.750    4.884    0.252    0.467   83.896  174.294
  334.000    4.616    0.256    0.466   86.784  171.165
  334.250    4.496    0.256    0.459   83.746  169.155
  334.500    4.478    0.259    0.463   84.004  167.857
  334.750    4.648    0.267    0.481   79.315  167.176
  335.000    4.825    0.290    0.477   71.449  166.891
  335.250    5.055    0.303    0.470   63.522  166.206
  335.500    5.336    0.293    0.455   58.343  165.516
  335.750    5.581    0.281    0.442   53.715  164.421
  336.000    5.782    0.323    0.447   50.797  162.819
  336.250    6.013    0.346    0.464   57.535  162.029
  336.500    6.265    0.345    0.430   61.888  161.649
  336.750    6.601    0.336    0.414   55.672  161.471
  337.000    7.221    0.267    0.429   51.899  161.598
  337.250    7.523    0.127    0.447   51.670  162.241
  337.500    7.838    0.076    0.245   49.608  162.363
  337.750    7.778    0.060    0.294   46.264  162.898
  338.000    7.311    0.283    0.348   46.523  163.025
  338.250    6.949    0.312    0.379   51.855  162.847
  338.500    6.629    0.301    0.406   56.392  163.589
  338.750    6.313    0.316    0.422   60.256  163.715
  339.000    6.300    0.349    0.414   59.416  164.148
  339.250    6.229    0.361    0.422   60.717  164.581
  339.500    6.216    0.354    0.446   64.275  165.116
  339.750    6.215    0.342    0.424   70.219  165.855
  340.000    6.260    0.325    0.418   75.550  166.799
  340.250    6.354    0.306    0.409   80.025  167.538
  340.500    6.412    0.285    0.425   82.607  167.460
  340.750    6.483    0.288    0.439   70.647  166.774
  341.000    6.446    0.319    0.433   60.947  164.969
  341.250    6.397    0.335    0.441   57.663  163.874
  341.500    6.206    0.349    0.447   56.090  162.577
  341.750    6.045    0.357    0.428   52.623  161.788
  342.000    5.998    0.356    0.416   46.896  161.407
  342.250    5.986    0.348    0.405   44.039  161.228
  342.500    5.951    0.342    0.401   43.565  161.053
  342.750    5.906    0.342    0.411   43.275  160.976
  343.000    5.894    0.348    0.416   42.558  161.103
  343.250    5.870    0.352    0.421   43.734  161.132
  343.500    5.836    0.356    0.426   44.972  161.153
  343.750    5.814    0.362    0.425   41.017  160.977
  344.000    5.780    0.369    0.416   37.915  160.900
  344.250    5.746    0.373    0.409   41.965  160.930
  344.500    5.639    0.372    0.403   44.913  160.952
  344.750    5.564    0.368    0.400   47.250  160.983
  345.000    5.501    0.369    0.400   47.816  161.007
  345.250    5.439    0.356    0.405   46.425  161.135
  345.500    5.407    0.349    0.413   49.012  161.361
  345.750    5.416    0.344    0.420   51.528  161.388
  346.000    5.476    0.344    0.423   55.029  161.617
  346.250    5.455    0.349    0.414   56.570  161.745
  346.500    5.433    0.356    0.416   54.325  161.874
  346.750    5.463    0.357    0.422   53.424  161.899
  347.000    5.639    0.358    0.417   56.070  162.230
  347.250    5.809    0.356    0.404   58.221  162.461
  347.500    5.874    0.348    0.392   62.027  162.385
  347.750    5.906    0.340    0.389   64.855  162.411
  348.000    5.983    0.336    0.427   66.089  162.436
  348.250    6.095    0.333    0.435   65.616  162.566
  348.500    6.139    0.329    0.440   68.015  162.692
  348.750    6.219    0.324    0.448   72.796  162.623
  349.000    6.348    0.315    0.425   78.801  162.745
  349.250    6.491    0.303    0.418   83.153  162.875
  349.500    6.538    0.291    0.411   87.324  163.103
  349.750    6.562    0.280    0.398   91.250  163.335
  350.000    6.697    0.269    0.387   90.655  163.359
  350.250    6.822    0.261    0.383   86.271  163.689
  350.500    6.911    0.255    0.377   81.398  163.817
  350.750    6.936    0.251    0.368   78.481  163.944
  351.000    6.844    0.262    0.378   80.697  164.174
  351.250    6.805    0.297    0.403   82.485  164.506
  351.500    6.778    0.312    0.420   82.072  164.533
  351.750    6.828    0.311    0.426   78.729  163.845
  352.000    6.891    0.306    0.418   76.604  162.856
  352.250    6.954    0.302    0.402   74.481  162.370
  352.500    8.077    0.291    0.387   80.668  164.638
  352.750    7.837    0.273    0.375   87.345  166.498
  353.000    7.407    0.261    0.435   90.536  166.725
  353.250    7.908    0.268    0.463   89.758  167.058
  353.500    8.239    0.223    0.377   82.380  166.472
  353.750    8.552    0.093    0.336   75.430  164.869
  354.000    8.927    0.145    0.355   70.497  162.554
  354.250    8.581    0.212    0.421   74.485  160.750
  354.500    7.768    0.246    0.455   77.859  159.855
  354.750    7.315    0.271    0.470   79.709  159.071
  355.000    7.164    0.293    0.449   80.640  159.094
  355.250    7.150    0.301    0.430   79.373  159.831
  355.500    7.270    0.304    0.428   81.588  160.880
  355.750    7.351    0.302    0.442   86.677  161.106
  356.000    7.418    0.297    0.440   87.424  161.439
  356.250    7.417    0.292    0.433   86.462  161.769
