~VERSION INFORMATION
 VERS.                 2.0:   CWLS LOG ASCII STANDARD -VERSION 2.0
 WRAP.                  NO:   ONE LINE PER DEPTH STEP
~WELL INFORMATION BLOCK
#MNEM.UNIT           DATA                    DESCRIPTION OF MNEMONIC
#---------    -------------------            -------------------------------
# Generated from Intellog Unique Number	CW_79_81/WELL/2484
WELL.         11-12-081-25W4                 : Well_name    - WELL
LOC .         00/11-12-081-25W4/0            : Location     - LOCATION
UWI .         00/11-12-081-25W4/0            : Uwi          - UNIQUE WELL ID
ENTR.         MAX                            : Entered      - ENTERED BY
SRVC.         SCHLUMBERGER                   : Scn          - SERVICE COMPANY
STRT.M        250                            : top_depth    - START DEPTH
STOP.M        464.75                         : bot_depth    - STOP DEPTH
STEP.M        0.25                           : increment    - STEP LENGTH
 NULL. -999.2500:NULL Value
~CURVE INFORMATION BLOCK
#MNEM UNIT       ERCB CURVE CODE    CURVE DESCRIPTION
#-----------   ------------------   ----------------------------------
DEPT.M        00 001 00 00         : DEPTH        - DEPTH
ILD .OHMM     00 120 00 00         : RESD         - DEEP RESISTIVITY (DIL)
NPHI.V/V      00 330 00 00         : PHIN         - NEUTRON POROSITY (SANDSTONE)
DPHI.V/V      00 890 00 00         : PHID         - DENSITY POROSITY (SANDSTONE)
GR  .API      00 310 00 00         : GR           - GAMMA RAY
CALI.MM       00 280 01 00         : CAL          - CALIPER
~PARAMETER INFORMATION
#MNEM.UNIT           DATA             DESCRIPTION OF MNEMONIC
#---------         -----------     ------------------------------
GL  .M        605.55               : gl           - GROUND LEVEL ELEVATION
EREF.M        609.55               : kb           - ELEVATION OF DEPTH REFERENCE
DATM.M        605.55               : datum        - DATUM ELEVATION
TDD .M        511                  : tdd          - TOTAL DEPTH DRILLER
RUN .         ONE                  : Run          - RUN NUMBER
ENG .         BILL                 : Engineer     - RECORDING ENGINEER
WIT .         JIM                  : Witness      - WITNESSED BY
MUD .         GEL                  : Mud_type     - MUD TYPE
MATR.         SANDSTONE            : Logunit      - NEUTRON MATRIX
TMAX.C        34.2                 : BHT          - MAXIMUM RECORDED TEMPERATURE
BHTD.M        511                  : BHTDEP       - MAXIMUM RECORDED TEMPERATURE
MATR.         1                    : LOGUNIT      - NEUTRON MATRIX
RMT .C        13.3                 : MDTP         - TEMPERATURE OF MUD
NEUT.         1                    : NEUTRON      - NEUTRON TYPE
RESI.         0                    : RESIST       - RESISTIVITY TYPE
RMC .OHMM     7                    : RMC          - RESISTIVITY OF MUD CAKE
RMF .OHMM     6.8                  : RMF          - RESISTIVITY OF MUD FILTRATE
SUFT.C        -20                  : SUFT         - SURFACE TEMPERATURE
~A  DEPTH     RESD     PHIN     PHID       GR      CAL
# ...
  432.500    9.561    0.447    0.147   77.953  218.045
  432.750    9.498    0.452    0.155   78.278  218.668
  433.000    9.441    0.448    0.175   78.557  219.529
  433.250    9.387    0.436    0.189   78.121  219.980
  433.500    9.385    0.429    0.182   77.340  219.549
  433.750    9.436    0.424    0.169   77.843  218.832
  434.000    9.524    0.419    0.154   79.918  218.312
  434.250    9.636    0.417    0.146   82.659  218.531
  434.500    9.713    0.403    0.169   83.422  219.399
  434.750    9.728    0.397    0.166   82.761  219.450
  435.000    9.798    0.391    0.170   81.222  219.509
  435.250    9.992    0.388    0.167   79.860  219.760
  435.500   10.285    0.393    0.154   79.374  220.493
  435.750   10.500    0.409    0.137   80.401  222.038
  436.000   10.360    0.418    0.128   81.888  221.687
  436.250    9.573    0.444    0.142   83.323  220.573
  436.500    8.949    0.452    0.167   83.528  220.928
  436.750    8.554    0.451    0.179   82.745  220.985
  437.000    8.397    0.445    0.170   81.557  220.161
  437.250    8.588    0.429    0.143   81.184  218.990
  437.500    9.214    0.415    0.116   82.675  218.645
  437.750   10.134    0.368    0.083   85.972  218.696
  438.000   10.519    0.380    0.137   89.439  219.047
  438.250   10.301    0.401    0.177   90.869  219.107
  438.500    9.661    0.409    0.175   89.040  218.871
  438.750    8.880    0.412    0.168   83.191  219.013
  439.000    8.895    0.400    0.163   80.555  219.471
  439.250    9.921    0.389    0.147   79.657  219.533
  439.500   11.188    0.376    0.131   78.411  219.296
  439.750   12.044    0.363    0.148   75.883  218.380
  440.000   12.262    0.346    0.196   70.328  216.883
  440.250   13.045    0.303    0.242   56.714  215.153
  440.500   16.230    0.265    0.282   44.375  214.011
  440.750   20.088    0.233    0.322   41.851  213.280
  441.000   23.511    0.219    0.342   41.243  212.275
  441.250   27.629    0.222    0.349   41.623  211.364
  441.500   33.766    0.236    0.349   42.178  210.838
  441.750   40.798    0.250    0.347   42.269  210.913
  442.000   38.180    0.261    0.345   42.554  210.948
  442.250   29.662    0.266    0.342   44.218  211.005
  442.500   25.706    0.275    0.337   47.100  210.771
  442.750   20.532    0.292    0.330   51.091  210.054
  443.000   16.043    0.321    0.318   55.319  208.173
  443.250   13.818    0.370    0.296   58.785  203.158
  443.500   12.835    0.389    0.281   61.974  199.175
  443.750   12.216    0.383    0.258   63.172  200.002
  444.000   12.017    0.372    0.241   65.418  204.326
  444.250   12.338    0.357    0.201   66.731  210.016
  444.500   13.192    0.348    0.158   65.773  214.446
  444.750   14.667    0.363    0.185   61.274  214.266
  445.000   15.981    0.365    0.231   58.402  213.113
  445.250   16.241    0.358    0.260   56.567  212.393
  445.500   15.795    0.354    0.271   54.564  211.669
  445.750   14.977    0.354    0.279   52.968  211.529
  446.000   14.191    0.356    0.290   51.776  211.780
  446.250   13.767    0.360    0.301   50.175  211.378
  446.500   13.581    0.368    0.302   49.001  211.027
  446.750   13.407    0.374    0.291   47.402  210.702
  447.000   13.383    0.378    0.287   47.027  210.954
  447.250   13.550    0.380    0.285   47.294  211.399
  447.500   13.942    0.381    0.286   47.969  211.843
  447.750   14.772    0.386    0.284   49.517  212.299
  448.000   15.728    0.387    0.281   51.247  212.352
  448.250   17.048    0.386    0.276   53.613  212.409
  448.500   19.073    0.388    0.263   55.799  212.752
  448.750   21.333    0.391    0.245   58.511  213.194
  449.000   22.767    0.393    0.222   62.448  213.641
  449.250   21.518    0.391    0.187   69.086  214.266
  449.500   19.402    0.378    0.140   72.999  215.139
  449.750   16.142    0.364    0.143   79.087  215.967
  450.000   13.529    0.389    0.157   85.001  216.212
  450.250   11.331    0.410    0.168   88.412  215.880
  450.500    9.891    0.417    0.169   88.271  215.068
  450.750    9.671    0.422    0.170   83.460  213.808
  451.000    9.911    0.418    0.183   76.700  213.047
  451.250   11.133    0.403    0.208   70.215  212.333
  451.500   12.708    0.391    0.227   66.176  211.615
  451.750   14.710    0.385    0.242   63.532  211.281
  452.000   17.165    0.387    0.248   61.525  211.335
  452.250   20.458    0.402    0.230   59.168  211.410
  452.500   23.539    0.403    0.226   56.542  211.475
  452.750   25.150    0.388    0.195   56.809  211.515
  453.000   27.742    0.368    0.167   57.770  211.572
  453.250   30.686    0.329    0.133   60.245  211.822
  453.500   32.441    0.296    0.106   64.587  212.263
  453.750   29.904    0.341    0.136   71.459  212.721
  454.000   25.796    0.386    0.188   75.379  212.786
  454.250   22.287    0.417    0.210   77.975  213.231
  454.500   19.387    0.424    0.226   79.350  213.089
  454.750   16.979    0.422    0.231   80.083  212.755
  455.000   14.903    0.417    0.229   80.405  212.520
  455.250   12.659    0.411    0.224   80.162  212.507
  455.500   11.086    0.408    0.221   79.958  212.156
  455.750    9.941    0.415    0.206   80.222  212.213
  456.000    8.565    0.415    0.205   80.313  212.274
  456.250    7.220    0.413    0.210   79.416  212.333
  456.500    6.218    0.417    0.210   77.588  212.488
  456.750    5.774    0.428    0.187   75.914  213.272
  457.000    5.873    0.415    0.163   76.674  214.936
  457.250    6.141    0.399    0.149   76.708  217.321
  457.500    6.770    0.402    0.193   76.739  220.866
  457.750    7.991    0.433    0.233   77.236  224.219
  458.000    9.974    0.479    0.252   78.665  225.829
  458.250   12.247    0.508    0.283   81.698  222.826
  458.500   13.444    0.523    0.315   82.704  217.231
  458.750   13.469    0.513    0.332   80.639  217.282
  459.000   12.760    0.495    0.344   73.335  217.628
  459.250   11.194    0.483    0.351   68.245  218.267
  459.500    9.387    0.480    0.345   67.757  219.293
  459.750    7.701    0.479    0.304   69.823  221.395
  460.000    6.743    0.480    0.268   73.016  223.892
  460.250    6.276    0.480    0.274   74.909  226.266
  460.500    6.043    0.480    0.275   76.107  228.075
  460.750    6.053    0.481    0.277   76.606  228.328
  461.000    6.274    0.481    0.277   76.699  225.663
  461.250    6.678    0.481    0.259   77.070  217.463
  461.500    7.002    0.480    0.226   77.590  213.075
  461.750    6.912    0.476    0.210   76.929  214.290
  462.000    6.748    0.472    0.236   74.866  217.838
  462.250    6.613    0.474    0.282   72.337  222.746
  462.500    6.575    0.480    0.331   70.042  227.655
  462.750    6.675    0.480    0.378   68.258  231.237
  463.000    6.635    0.470    0.401   67.316  233.312
  463.250    6.409    0.467    0.392   64.792  235.309
  463.500    6.189    0.479    0.389   63.139  236.728
  463.750    6.022    0.489    0.387   62.123  237.561
  464.000    5.965    0.490    0.386   61.513  238.005
  464.250    6.045    0.490    0.393   61.085  238.473
  464.500    5.753    0.486    0.401   61.121  238.532
  464.750    5.309    0.480    0.401   61.155  238.189
