~VERSION INFORMATION
 VERS.                 2.0:   CWLS LOG ASCII STANDARD -VERSION 2.0
 WRAP.                  NO:   ONE LINE PER DEPTH STEP
~WELL INFORMATION BLOCK
#MNEM.UNIT           DATA                    DESCRIPTION OF MNEMONIC
#---------    -------------------            -------------------------------
# Generated from Intellog Unique Number	CS_77_79/WELL/946
WELL.         AMOCO B-1 LEISMER              : Well_name    - WELL
LOC .         00/10-11-078-10W4/0            : Location     - LOCATION
UWI .         00/10-11-078-10W4/0            : Uwi          - UNIQUE WELL ID
ENTR.         JHS                            : Entered      - ENTERED BY
SRVC.         SCHLUMBERGER                   : Scn          - SERVICE COMPANY
STRT.M        198.12                         : top_depth    - START DEPTH
STOP.M        429.62                         : bot_depth    - STOP DEPTH
STEP.M        0.25                           : increment    - STEP LENGTH
 NULL. -999.2500:NULL Value
~CURVE INFORMATION BLOCK
#MNEM UNIT       ERCB CURVE CODE    CURVE DESCRIPTION
#-----------   ------------------   ----------------------------------
DEPT.M        00 001 00 00         : DEPTH        - DEPTH
RHOB.KG/M3    00 350 00 00         : DENS         - BULK DENSITY
GR  .API      00 310 00 00         : GR           - GAMMA RAY
DPHI.V/V      00 890 00 00         : PHID         - DENSITY POROSITY (SANDSTONE)
NPHI.V/V      00 330 00 00         : PHIN         - NEUTRON POROSITY (SANDSTONE)
ILD .OHMM     00 120 00 00         : RESD         - DEEP RESISTIVITY (DIL)
~PARAMETER INFORMATION
#MNEM.UNIT           DATA             DESCRIPTION OF MNEMONIC
#---------         -----------     ------------------------------
GL  .M        619.354              : gl           - GROUND LEVEL ELEVATION
EREF.M        622.097              : kb           - ELEVATION OF DEPTH REFERENCE
DATM.M        622.097              : datum        - DATUM ELEVATION
TDD .M        429.768              : tdd          - TOTAL DEPTH DRILLER
RUN .         ONE                  : Run          - RUN NUMBER
ENG .         BILL                 : Engineer     - RECORDING ENGINEER
WIT .         JIM                  : Witness      - WITNESSED BY
MUD .         GEL                  : Mud_type     - MUD TYPE
MATR.         SANDSTONE            : Logunit      - NEUTRON MATRIX
TMAX.C        30                   : BHT          - MAXIMUM RECORDED TEMPERATURE
BHTD.M        429.768              : BHTDEP       - MAXIMUM RECORDED TEMPERATURE
MATR.         1                    : LOGUNIT      - NEUTRON MATRIX
RMT .C        25                   : MDTP         - TEMPERATURE OF MUD
NEUT.         1                    : NEUTRON      - NEUTRON TYPE
RESI.         0                    : RESIST       - RESISTIVITY TYPE
RMC .OHMM     0.25                 : RMC          - RESISTIVITY OF MUD CAKE
RMF .OHMM     0.25                 : RMF          - RESISTIVITY OF MUD FILTRATE
SUFT.C        15                   : SUFT         - SURFACE TEMPERATURE
~A  DEPTH     DENS       GR     PHID     PHIN     RESD
# ...
  234.620    0.000   94.649    0.283    0.466   11.913
  234.870    0.000   93.349    0.291    0.458   10.521
  235.120    0.000   93.551    0.292    0.455   10.908
  235.370    0.000   91.617    0.266    0.465   11.335
  235.620    0.000   86.667    0.236    0.479   13.299
  235.870    0.000   78.758    0.230    0.487   16.242
  236.120    0.000   60.038    0.253    0.482   18.478
  236.370    0.000   57.020    0.306    0.457   19.846
  236.620    0.000   58.316    0.282    0.447   20.704
  236.870    0.000   60.045    0.238    0.460   20.116
  237.120    0.000   59.486    0.226    0.494   18.604
  237.370    0.000   60.451    0.297    0.466   16.785
  237.620    0.000   62.269    0.306    0.461   15.438
  237.870    0.000   65.624    0.281    0.458   12.791
  238.120    0.000   70.640    0.283    0.451   11.102
  238.370    0.000   76.277    0.289    0.439    9.880
  238.620    0.000   80.334    0.271    0.435    8.935
  238.870    0.000   82.761    0.236    0.455    7.682
  239.120    0.000   85.561    0.222    0.439    7.021
  239.370    0.000   94.614    0.235    0.438    6.609
  239.620    0.000  100.739    0.252    0.457    6.438
  239.870    0.000  102.929    0.238    0.502    6.652
  240.120    0.000  100.660    0.216    0.515    7.117
  240.370    0.000   98.424    0.219    0.500    8.228
  240.620    0.000   92.860    0.238    0.474    9.524
  240.870    0.000   87.774    0.252    0.466   11.223
  241.120    0.000   84.405    0.238    0.469   12.312
  241.370    0.000   84.647    0.232    0.482   12.677
  241.620    0.000   83.582    0.239    0.495   13.194
  241.870    0.000   80.916    0.275    0.490   13.469
  242.120    0.000   77.763    0.266    0.501   14.761
  242.370    0.000   76.782    0.236    0.484   15.917
  242.620    0.000   75.205    0.223    0.483   16.819
  242.870    0.000   73.313    0.253    0.472   17.553
  243.120    0.000   71.611    0.296    0.463   18.204
  243.370    0.000   70.703    0.272    0.471   18.801
  243.620    0.000   67.653    0.266    0.489   18.856
  243.870    0.000   67.717    0.286    0.488   18.446
  244.120    0.000   70.253    0.287    0.478   17.612
  244.370    0.000   72.298    0.280    0.467   16.836
  244.620    0.000   71.887    0.294    0.462   15.328
  244.870    0.000   74.625    0.303    0.468   14.262
  245.120    0.000   80.938    0.292    0.495   12.456
  245.370    0.000   86.970    0.268    0.508   11.081
  245.620    0.000   88.515    0.268    0.481   10.280
  245.870    0.000   89.242    0.284    0.484    9.535
  246.120    0.000   88.798    0.275    0.510    8.949
  246.370    0.000   89.065    0.262    0.518    8.680
  246.620    0.000   90.818    0.253    0.516    8.687
  246.870    0.000   92.349    0.229    0.529    8.943
  247.120    0.000   91.716    0.227    0.506    9.640
  247.370    0.000   88.768    0.260    0.481   10.639
  247.620    0.000   86.766    0.291    0.467   11.250
  247.870    0.000   86.530    0.315    0.458   12.434
  248.120    0.000   84.134    0.300    0.453   12.487
  248.370    0.000   81.955    0.286    0.463   11.987
  248.620    0.000   81.673    0.292    0.472   11.040
  248.870    0.000   89.709    0.275    0.453   10.420
  249.120    0.000   92.842    0.283    0.466    9.542
  249.370    0.000   92.617    0.247    0.520    7.765
  249.620    0.000   90.023    0.228    0.524    6.626
  249.870    0.000   85.686    0.242    0.509    6.001
  250.120    0.000   82.959    0.260    0.492    5.299
  250.370    0.000   77.897    0.250    0.483    4.707
  250.620    0.000   84.533    0.251    0.539    4.275
  250.870    0.000   83.713    0.260    0.581    4.284
  251.120    0.000   77.375    0.266    0.595    4.845
  251.370    0.000   69.615    0.259    0.610    6.916
  251.620    0.000   58.805    0.277    0.566   12.592
  251.870    0.000   48.815    0.287    0.526   20.093
  252.120    0.000   42.302    0.315    0.476   24.622
  252.370    0.000   45.938    0.320    0.440   25.880
  252.620    0.000   46.712    0.327    0.436   25.227
  252.870    0.000   46.136    0.351    0.452   23.453
  253.120    0.000   47.150    0.345    0.439   22.831
  253.370    0.000   49.453    0.327    0.429   22.610
  253.620    0.000   50.951    0.331    0.440   22.435
  253.870    0.000   50.393    0.337    0.484   22.367
  254.120    0.000   49.767    0.330    0.508   23.543
  254.370    0.000   49.883    0.347    0.507   24.244
  254.620    0.000   50.532    0.356    0.498   25.417
  254.870    0.000   50.750    0.342    0.484   26.814
  255.120    0.000   51.147    0.331    0.485   27.051
  255.370    0.000   53.122    0.340    0.491   27.552
  255.620    0.000   54.770    0.356    0.469   28.148
  255.870    0.000   53.697    0.349    0.459   28.139
  256.120    0.000   52.112    0.351    0.462   27.619
  256.370    0.000   51.368    0.332    0.475   27.004
  256.620    0.000   51.927    0.359    0.481   26.692
  256.870    0.000   52.862    0.343    0.477   26.199
  257.120    0.000   53.812    0.350    0.480   25.715
  257.370    0.000   54.321    0.365    0.478   25.428
  257.620    0.000   54.685    0.348    0.466   24.842
  257.870    0.000   55.105    0.342    0.451   24.388
  258.120    0.000   56.211    0.352    0.453   23.684
  258.370    0.000   56.481    0.353    0.460   22.993
  258.620    0.000   57.564    0.362    0.468   22.328
  258.870    0.000   58.659    0.359    0.472   21.942
  259.120    0.000   57.909    0.362    0.479   21.517
  259.370    0.000   57.071    0.350    0.497   21.198
  259.620    0.000   57.444    0.342    0.496   21.227
  259.870    0.000   57.786    0.351    0.483   20.791
  260.120   -0.000   56.290    0.366    0.472   20.492
  260.370    0.000   54.865    0.368    0.464   20.300
  260.620    0.000   54.261    0.357    0.457   20.101
  260.870   -0.000   55.238    0.348    0.460   20.122
  261.120   -0.000   54.478    0.335    0.470   19.461
  261.370   -0.000   53.168    0.347    0.484   19.055
  261.620    0.000   56.352    0.333    0.490   18.462
  261.870    0.000   56.800    0.325    0.500   18.402
  262.120   -0.000   56.798    0.320    0.481   18.408
  262.370   -0.000   60.058    0.314    0.474   18.409
  262.620   -0.000   63.078    0.333    0.491   18.369
  262.870    0.000   61.389    0.327    0.492   18.101
  263.120    0.000   59.349    0.328    0.480   18.118
  263.370    0.000   58.134    0.346    0.483   18.128
  263.620   -0.000   57.096    0.351    0.483   18.176
  263.870   -0.000   58.153    0.344    0.473   17.822
  264.120   -0.000   60.877    0.357    0.470   17.508
  264.370    0.000   65.563    0.361    0.464   17.302
  264.620    0.000   71.406    0.352    0.454   17.224
  264.870   -0.000   77.471    0.344    0.452   17.233
  265.120   -0.000   79.886    0.338    0.463   16.907
  265.370   -0.000   71.525    0.321    0.487   16.942
  265.620    0.000   59.129    0.321    0.501   16.941
  265.870    0.000   58.187    0.325    0.505   17.319
  266.120    0.000   57.215    0.341    0.508   17.331
  266.370   -0.000   54.733    0.357    0.513   17.867
  266.620   -0.000   53.294    0.341    0.523   18.834
  266.870   -0.000   55.816    0.313    0.501   19.399
  267.120    0.000   58.239    0.287    0.484   20.662
  267.370    0.000   60.196    0.254    0.506   21.224
  267.620    0.000   60.536    0.348    0.465   21.644
  267.870   -0.000   57.190    0.345    0.440   20.715
  268.120   -0.000   54.347    0.327    0.427   19.872
  268.370    0.000   54.104    0.307    0.443   18.106
  268.620    0.000   57.484    0.312    0.508   16.694
  268.870    0.000   60.569    0.343    0.514   16.216
  269.120   -0.000   57.983    0.331    0.508   16.762
  269.370   -0.000   55.908    0.363    0.503   17.111
  269.620   -0.000   55.437    0.354    0.514   17.922
  269.870    0.000   53.877    0.364    0.524   19.375
  270.120    0.000   53.957    0.374    0.528   20.765
  270.370    0.000   55.003    0.382    0.535   21.836
  270.620   -0.000   55.223    0.378    0.525   21.940
  270.870   -0.000   54.287    0.364    0.511   21.669
