~VERSION INFORMATION
 VERS.                 2.0:   CWLS LOG ASCII STANDARD -VERSION 2.0
 WRAP.                  NO:   ONE LINE PER DEPTH STEP
~WELL INFORMATION BLOCK
#MNEM.UNIT           DATA                    DESCRIPTION OF MNEMONIC
#---------    -------------------            -------------------------------
# Generated from Intellog Unique Number	CW_76_78/WELL/1029
WELL.         PETROMK ET AL MARTENCK 11-32   : Well_name    - WELL
LOC .         00/11-32-077-05W5/0            : Location     - LOCATION
UWI .         00/11-32-077-05W5/0            : Uwi          - UNIQUE WELL ID
ENTR.         JAYE                           : Entered      - ENTERED BY
SRVC.         SCHLUMBERGER                   : Scn          - SERVICE COMPANY
DATE.         5 MAR 79                       : Date         - LOG DATE
STRT.M        385                            : top_depth    - START DEPTH
STOP.M        595                            : bot_depth    - STOP DEPTH
STEP.M        0.25                           : increment    - STEP LENGTH
 NULL. -999.2500:NULL Value
~CURVE INFORMATION BLOCK
#MNEM UNIT       ERCB CURVE CODE    CURVE DESCRIPTION
#-----------   ------------------   ----------------------------------
DEPT.M        00 001 00 00         : DEPTH        - DEPTH
ILD .OHMM     00 120 00 00         : RESD         - DEEP RESISTIVITY (DIL)
DPHI.V/V      00 890 00 00         : PHID         - DENSITY POROSITY (SANDSTONE)
NPHI.V/V      00 330 00 00         : PHIN         - NEUTRON POROSITY (SANDSTONE)
GR  .API      00 310 00 00         : GR           - GAMMA RAY
CALI.MM       00 280 01 00         : CAL          - CALIPER
~PARAMETER INFORMATION
#MNEM.UNIT           DATA             DESCRIPTION OF MNEMONIC
#---------         -----------     ------------------------------
GL  .M        684.5                : gl           - GROUND LEVEL ELEVATION
EREF.M        688.5                : kb           - ELEVATION OF DEPTH REFERENCE
DATM.M        684.5                : datum        - DATUM ELEVATION
TDD .M        1896                 : tdd          - TOTAL DEPTH DRILLER
RUN .         ONE                  : Run          - RUN NUMBER
BASE.         EDM                  : Branch       - HOME BASE OF LOGGING UNIT
MATR.         SANDSTONE            : Logunit      - NEUTRON MATRIX
TMAX.C        22.2                 : BHT          - MAXIMUM RECORDED TEMPERATURE
BHTD.M        1896.3               : BHTDEP       - MAXIMUM RECORDED TEMPERATURE
RMT .C        22.2                 : MDTP         - TEMPERATURE OF MUD
MUDD.KG/M     0                    : MWT          - MUD DENSITY
NEUT.         1                    : NEUTRON      - NEUTRON TYPE
RESI.         0                    : RESIST       - RESISTIVITY TYPE
RM  .OHMM     0.0791               : RM           - RESISTIVITY OF MUD
RMC .OHMM     0                    : RMC          - RESISTIVITY OF MUD CAKE
RMF .OHMM     0.0851               : RMF          - RESISTIVITY OF MUD FILTRATE
SUFT.C        4.5                  : SUFT         - SURFACE TEMPERATURE
~A  DEPTH     RESD     PHID     PHIN       GR      CAL
  385.000    2.150    0.365    1.174   87.720  256.872
  385.250    2.192    0.347    1.142   89.369  249.574
  385.500    2.137    0.316    1.124   89.591  238.971
  385.750    2.018    0.332    1.121   89.565  240.660
  386.000    1.997    0.333    1.129   88.547  244.822
  386.250    2.028    0.316    1.145   86.601  251.051
  386.500    2.082    0.342    1.151   86.201  249.845
  386.750    2.182    0.346    1.157   87.108  249.365
  387.000    2.261    0.366    1.164   86.835  248.884
  387.250    2.300    0.364    1.179   85.937  243.752
  387.500    2.314    0.318    1.139   83.864  242.341
  387.750    2.264    0.326    1.142   83.467  236.383
  388.000    2.269    0.306    1.116   84.682  243.854
  388.250    2.330    0.290    1.102   81.742  249.672
  388.500    2.511    0.306    1.114   78.118  254.248
  388.750    2.787    0.327    1.137   74.492  244.367
  389.000    3.800    0.346    1.154   71.365  236.038
  389.250    4.883    0.363    1.123   62.407  228.944
  389.500    4.760    0.340    1.103   53.386  221.440
  389.750    5.393    0.301    1.085   49.514  208.773
  390.000    7.178    0.298    1.095   51.350  206.948
  390.250    7.425    0.309    1.078   51.388  206.774
  390.500    7.526    0.303    1.066   50.679  207.737
  390.750    7.613    0.317    1.066   50.776  208.494
  391.000    7.688    0.319    1.061   51.930  209.665
  391.250    7.749    0.313    1.052   51.905  208.355
  391.500    7.825    0.311    1.050   50.889  204.672
  391.750    7.931    0.312    1.047   49.746  202.744
  392.000    7.964    0.314    1.061   48.725  202.984
  392.250    8.027    0.316    1.048   47.957  204.257
  392.500    8.091    0.322    1.051   48.989  205.632
  392.750    8.080    0.337    1.069   49.953  206.182
  393.000    8.083    0.336    1.049   51.104  206.736
  393.250    8.315    0.315    1.051   51.700  206.975
  393.500    8.943    0.298    1.057   50.000  206.800
  393.750    9.234    0.309    1.030   49.539  207.043
  394.000    9.221    0.295    1.049   47.589  208.212
  394.250    8.939    0.290    1.057   46.636  208.968
  394.500    8.304    0.284    1.074   49.524  209.107
  394.750    7.844    0.274    1.051   53.035  209.865
  395.000    7.465    0.265    1.046   54.932  210.309
  395.250    7.304    0.261    1.033   55.340  210.344
  395.500    7.147    0.258    1.018   52.274  211.307
  395.750    7.137    0.273    1.002   51.876  212.478
  396.000    7.287    0.272    1.025   52.165  213.644
  396.250    7.722    0.271    1.027   52.385  213.785
  396.500    8.107    0.269    1.016   52.731  213.821
  396.750    7.379    0.285    1.011   52.394  214.371
  397.000    5.856    0.291    1.014   51.257  214.712
  397.250    4.849    0.290    1.012   50.050  215.885
  397.500    6.083    0.265    1.018   46.797  216.740
  397.750    7.339    0.223    1.037   43.300  217.805
  398.000   11.143    0.200    0.977   41.536  217.325
  398.250   10.371    0.244    0.996   47.343  216.532
  398.500   11.813    0.275    1.021   50.479  216.668
  398.750   12.426    0.282    1.046   51.820  216.701
  399.000   10.718    0.288    1.036   52.228  216.948
  399.250    8.925    0.295    1.021   52.263  217.389
  399.500    6.849    0.297    1.020   51.991  217.840
  399.750    6.030    0.304    1.044   51.903  217.868
  400.000    6.997    0.294    1.065   50.386  218.423
  400.250   14.889    0.282    1.081   46.143  218.664
  400.500   13.755    0.273    1.057   46.247  218.696
  400.750    9.893    0.277    1.016   46.278  218.628
  401.000    9.502    0.279    0.993   46.749  218.041
  401.250   10.069    0.285    1.014   47.347  218.072
  401.500    9.529    0.287    1.020   48.496  218.002
  401.750    9.516    0.286    1.012   50.085  217.727
  402.000   10.159    0.284    0.999   53.221  217.454
  402.250   11.151    0.290    0.982   53.444  217.383
  402.500   11.860    0.274    0.996   55.838  217.314
  402.750   11.932    0.261    1.020   61.893  217.348
  403.000   11.502    0.266    1.043   61.742  217.482
  403.250   10.726    0.266    1.062   60.661  216.691
  403.500   11.366    0.270    1.045   63.366  217.240
  403.750   13.287    0.255    1.033   70.910  219.651
  404.000   12.952    0.249    1.044   71.751  220.922
  404.250   11.637    0.248    1.043   65.707  222.196
  404.500   11.198    0.250    1.041   62.209  223.779
  404.750   14.205    0.256    1.012   58.338  225.464
  405.000   14.666    0.256    1.027   55.211  226.840
  405.250    9.831    0.247    0.993   54.811  220.368
  405.500    8.575    0.262    1.019   54.353  214.828
  405.750    9.447    0.288    1.056   52.526  214.140
  406.000   10.802    0.293    1.042   51.943  213.759
  406.250    9.923    0.285    1.040   51.360  213.689
  406.500    9.133    0.276    1.043   50.838  215.064
  406.750    8.612    0.289    1.036   50.563  216.544
  407.000    8.728    0.275    1.026   50.165  219.263
  407.250   13.651    0.249    1.038   49.457  221.465
  407.500   15.096    0.168    1.043   45.337  222.946
  407.750   11.268    0.136    0.929   45.996  219.983
  408.000    9.400    0.196    0.912   50.809  215.886
  408.250    7.214    0.267    1.018   51.650  212.720
  408.500    7.948    0.300    1.063   52.246  211.515
  408.750    7.691    0.322    1.083   54.142  211.651
  409.000    6.923    0.319    1.070   55.918  212.408
  409.250    7.069    0.303    1.052   56.697  212.544
  409.500    8.656    0.303    1.038   56.360  213.199
  409.750    9.916    0.293    1.038   56.086  214.470
  410.000    9.454    0.284    1.036   56.433  216.468
  410.250    8.946    0.270    1.041   54.733  216.296
  410.500    8.967    0.292    1.047   52.910  214.987
  410.750    9.555    0.289    1.058   51.831  214.505
  411.000    9.848    0.295    1.070   52.360  214.951
  411.250    9.371    0.301    1.065   53.454  214.363
  411.500    8.436    0.296    1.052   54.295  214.295
  411.750    8.424    0.302    1.050   55.075  214.329
  412.000    9.077    0.296    1.071   55.547  214.671
  412.250    9.708    0.290    1.071   55.336  215.017
  412.500    9.136    0.300    1.043   54.503  215.261
  412.750    8.775    0.302    1.052   56.524  215.502
  413.000    9.247    0.296    1.089   57.739  215.747
  413.250    9.565    0.288    1.062   58.457  215.979
  413.500    8.674    0.286    1.063   61.099  216.118
  413.750    8.582    0.284    1.061   64.922  216.254
  414.000    8.651    0.284    1.037   68.120  216.183
  414.250    8.340    0.290    1.028   71.324  216.113
  414.500    8.343    0.291    1.042   72.783  215.944
  414.750    7.594    0.294    1.042   74.187  215.564
  415.000    6.648    0.294    1.039   70.997  215.491
  415.250    6.814    0.299    1.043   59.557  215.110
  415.500    7.493    0.307    1.047   53.575  214.835
  415.750    8.441    0.316    1.033   51.440  215.184
  416.000    7.900    0.321    1.041   51.848  215.212
  416.250    6.457    0.308    1.055   52.132  215.659
  416.500    5.653    0.320    1.035   52.297  215.280
  416.750    5.614    0.308    1.027   52.702  215.420
  417.000    6.163    0.302    1.041   53.175  216.074
  417.250    6.827    0.302    1.055   53.581  216.623
  417.500    7.062    0.299    1.042   54.303  216.141
  417.750    7.105    0.306    1.061   55.143  215.453
  418.000    6.650    0.319    1.064   55.553  216.516
  418.250    6.628    0.308    1.054   54.036  216.241
  418.500    7.398    0.303    1.034   52.584  214.827
  418.750    8.016    0.317    1.010   51.195  213.727
  419.000    8.184    0.307    1.026   50.240  212.726
  419.250    8.342    0.307    1.061   49.964  212.554
  419.500    8.774    0.324    1.089   50.000  212.487
  419.750    9.026    0.323    1.096   50.226  212.833
  420.000    8.930    0.321    1.077   50.635  213.174
  420.250    7.949    0.306    1.038   50.296  213.724
  420.500    9.123    0.271    0.995   47.913  214.893
  420.750   36.056    0.124    0.963   44.227  217.095
  421.000  118.181    0.074    0.778   39.239  218.267
  421.250   95.707    0.002    0.738   36.546  219.643
