~VERSION INFORMATION
 VERS.                 2.0:   CWLS LOG ASCII STANDARD -VERSION 2.0
 WRAP.                  NO:   ONE LINE PER DEPTH STEP
~WELL INFORMATION BLOCK
#MNEM.UNIT           DATA                    DESCRIPTION OF MNEMONIC
#---------    -------------------            -------------------------------
# Generated from Intellog Unique Number	CS_67_68/WELL/2191
WELL.         MANNVILLE et al ATMORE         : Well_name    - WELL
LOC .         00/10-06-067-15W4/0            : Location     - LOCATION
UWI .         00/10-06-067-15W4/0            : Uwi          - UNIQUE WELL ID
ENTR.         SP                             : Entered      - ENTERED BY
SRVC.         SCHLUMBERGER                   : Scn          - SERVICE COMPANY
STRT.M        345                            : top_depth    - START DEPTH
STOP.M        534                            : bot_depth    - STOP DEPTH
STEP.M        0.25                           : increment    - STEP LENGTH
 NULL. -999.2500:NULL Value
~CURVE INFORMATION BLOCK
#MNEM UNIT       ERCB CURVE CODE    CURVE DESCRIPTION
#-----------   ------------------   ----------------------------------
DEPT.M        00 001 00 00         : DEPTH        - DEPTH
ILD .OHMM     00 120 00 00         : RESD         - DEEP RESISTIVITY (DIL)
DPHI.V/V      00 890 00 00         : PHID         - DENSITY POROSITY (LIMESTONE)
NPHI.V/V      00 330 00 00         : PHIN         - NEUTRON POROSITY (LIMESTONE)
GR  .API      00 310 00 00         : GR           - GAMMA RAY
CALI.MM       00 280 01 00         : CAL          - CALIPER
~PARAMETER INFORMATION
#MNEM.UNIT           DATA             DESCRIPTION OF MNEMONIC
#---------         -----------     ------------------------------
GL  .M        588                  : gl           - GROUND LEVEL ELEVATION
EREF.M        592.1                : kb           - ELEVATION OF DEPTH REFERENCE
DATM.M        592.1                : datum        - DATUM ELEVATION
TDD .M        534.7                : tdd          - TOTAL DEPTH DRILLER
RUN .         ONE                  : Run          - RUN NUMBER
ENG .         BILL                 : Engineer     - RECORDING ENGINEER
WIT .         JIM                  : Witness      - WITNESSED BY
MUD .         GEL                  : Mud_type     - MUD TYPE
MATR.         LIMESTONE            : Logunit      - NEUTRON MATRIX
TMAX.C        27                   : BHT          - MAXIMUM RECORDED TEMPERATURE
BHTD.M        535                  : BHTDEP       - MAXIMUM RECORDED TEMPERATURE
MATR.         1                    : LOGUNIT      - NEUTRON MATRIX
RMT .C        25                   : MDTP         - TEMPERATURE OF MUD
NEUT.         1                    : NEUTRON      - NEUTRON TYPE
RESI.         0                    : RESIST       - RESISTIVITY TYPE
RMC .OHMM     0.25                 : RMC          - RESISTIVITY OF MUD CAKE
RMF .OHMM     0.25                 : RMF          - RESISTIVITY OF MUD FILTRATE
SUFT.C        15                   : SUFT         - SURFACE TEMPERATURE
~A  DEPTH     RESD     PHID     PHIN       GR      CAL
# ...
  381.500    1.896    0.283    0.416   87.484  157.142
  381.750    1.974    0.285    0.423   89.442  156.818
  382.000    2.078    0.277    0.437   91.956  156.082
  382.250    2.175    0.267    0.449   95.885  155.037
  382.500    2.272    0.258    0.444   99.936  154.406
  382.750    2.388    0.251    0.443  103.125  154.694
  383.000    2.495    0.245    0.448  104.160  154.676
  383.250    2.612    0.240    0.436  101.810  155.069
  383.500    2.713    0.238    0.426   99.399  156.590
  383.750    2.808    0.235    0.429  102.096  157.290
  384.000    2.863    0.238    0.434  107.565  158.092
  384.250    2.875    0.220    0.438  113.646  158.892
  384.500    2.833    0.210    0.440  119.236  159.288
  384.750    2.734    0.223    0.444  123.657  159.988
  385.000    2.565    0.230    0.451  125.925  160.380
  385.250    2.424    0.224    0.433  122.713  160.773
  385.500    2.266    0.213    0.428  115.255  160.750
  385.750    2.154    0.204    0.441  110.628  160.940
  386.000    2.071    0.199    0.449  105.938  160.924
  386.250    2.040    0.219    0.456  101.865  160.598
  386.500    2.173    0.233    0.432   99.640  158.731
  386.750    2.261    0.245    0.419   98.152  157.485
  387.000    2.341    0.258    0.413   95.556  155.312
  387.250    2.436    0.270    0.415   91.421  154.576
  387.500    2.570    0.259    0.417   91.655  156.507
  387.750    2.757    0.256    0.401   95.584  158.847
  388.000    2.969    0.404    0.452   99.390  160.267
  388.250    3.197    0.454    0.493   97.841  159.939
  388.500    3.424    0.442    0.500   83.674  158.384
  388.750    3.577    0.359    0.476   81.693  156.723
  389.000    3.661    0.298    0.457   89.560  156.501
  389.250    3.621    0.290    0.448   89.302  156.381
  389.500    3.409    0.286    0.439   85.846  156.054
  389.750    3.272    0.283    0.423   83.804  154.396
  390.000    3.194    0.298    0.411   82.069  153.146
  390.250    3.183    0.295    0.405   81.812  153.950
  390.500    3.166    0.287    0.412   81.863  155.470
  390.750    3.167    0.280    0.411   81.668  156.991
  391.000    3.180    0.295    0.405   81.596  156.973
  391.250    3.206    0.303    0.400   81.523  156.852
  391.500    3.231    0.296    0.404   81.571  155.808
  391.750    3.208    0.291    0.415   81.685  153.431
  392.000    3.102    0.290    0.414   81.367  153.001
  392.250    2.927    0.287    0.396   80.002  154.318
  392.500    2.741    0.286    0.375   79.007  155.631
  392.750    2.595    0.292    0.375   77.580  155.818
  393.000    2.412    0.299    0.391   77.693  155.496
  393.250    2.284    0.298    0.393   80.635  154.656
  393.500    2.180    0.302    0.385   82.349  154.329
  393.750    2.127    0.303    0.385   82.831  154.107
  394.000    2.096    0.296    0.391   80.296  153.984
  394.250    2.097    0.287    0.392   79.424  153.762
  394.500    2.126    0.277    0.402   83.475  154.361
  394.750    2.196    0.268    0.413   88.510  154.855
  395.000    2.290    0.265    0.401   92.194  155.655
  395.250    2.384    0.265    0.383   91.074  156.564
  395.500    2.495    0.255    0.383   90.202  157.672
  395.750    2.622    0.232    0.397   96.962  158.885
  396.000    2.771    0.213    0.405  109.939  159.998
  396.250    2.895    0.217    0.411  116.452  163.774
  396.500    3.008    0.223    0.421  107.947  165.706
  396.750    3.113    0.219    0.426  108.306  165.580
  397.000    3.192    0.230    0.418  109.711  164.952
  397.250    3.235    0.244    0.410  102.682  164.010
  397.500    3.243    0.256    0.403   98.364  163.785
  397.750    3.244    0.237    0.412   94.536  163.974
  398.000    3.221    0.216    0.428   96.001  164.264
  398.250    3.192    0.205    0.432   98.208  164.654
  398.500    3.163    0.197    0.425  100.598  164.945
  398.750    3.123    0.203    0.426  102.557  164.826
  399.000    3.071    0.212    0.419  102.546  162.344
  399.250    3.020    0.201    0.409  103.210  161.814
  399.500    2.971    0.179    0.444  104.063  163.743
  399.750    2.961    0.194    0.465  105.345  165.060
  400.000    3.012    0.206    0.482  109.333  165.760
  400.250    3.171    0.214    0.461  112.217  165.638
  400.500    3.320    0.217    0.434  115.283  165.418
  400.750    3.462    0.211    0.416  116.258  164.066
  401.000    3.624    0.201    0.405  110.830  162.302
  401.250    3.744    0.215    0.409  105.342  160.950
  401.500    3.838    0.226    0.411  100.037  160.213
  401.750    3.921    0.227    0.412  106.304  160.403
  402.000    3.982    0.215    0.416  111.895  161.307
  402.250    4.036    0.200    0.406  113.729  162.010
  402.500    4.061    0.182    0.400  110.086  163.016
  402.750    4.117    0.169    0.395  108.108  163.098
  403.000    4.142    0.178    0.398  107.419  163.079
  403.250    4.135    0.196    0.407  107.593  162.655
  403.500    4.044    0.204    0.415  108.629  162.530
  403.750    3.947    0.198    0.423  110.034  162.926
  404.000    3.782    0.196    0.419  112.916  163.729
  404.250    3.733    0.191    0.410  115.551  164.736
  404.500    3.630    0.186    0.401  117.634  165.437
  404.750    3.530    0.200    0.396  111.283  165.317
  405.000    3.432    0.214    0.400   99.332  163.761
  405.250    3.350    0.208    0.415   91.566  161.177
  405.500    3.185    0.217    0.423   90.384  159.825
  405.750    2.971    0.227    0.429   91.298  158.779
  406.000    2.787    0.230    0.416   90.980  158.353
  406.250    2.629    0.230    0.406   94.231  157.822
  406.500    2.490    0.248    0.397   87.510  157.392
  406.750    2.354    0.268    0.402   83.131  157.581
  407.000    2.229    0.280    0.411   79.673  157.047
  407.250    2.135    0.272    0.416   77.877  156.006
  407.500    2.100    0.265    0.413   79.774  154.449
  407.750    2.141    0.261    0.403   77.178  153.507
  408.000    2.258    0.269    0.404   77.168  152.563
  408.250    2.382    0.274    0.398   80.172  152.036
  408.500    2.546    0.259    0.384   85.946  151.606
  408.750    2.700    0.235    0.370   93.505  152.100
  409.000    2.843    0.203    0.360   98.605  152.700
  409.250    3.004    0.194    0.363  103.703  152.989
  409.500    3.086    0.198    0.375  104.369  152.970
  409.750    2.989    0.213    0.385   98.018  152.950
  410.000    2.907    0.223    0.396   93.576  152.730
  410.250    2.853    0.230    0.408   90.426  152.918
  410.500    2.849    0.238    0.400   89.614  153.412
  410.750    2.872    0.245    0.396   92.190  154.318
  411.000    2.922    0.238    0.391   95.010  156.144
  411.250    3.013    0.227    0.389   97.216  157.767
  411.500    3.078    0.215    0.389   99.297  158.880
  411.750    3.120    0.205    0.398   97.623  159.889
  412.000    3.156    0.196    0.426   96.012  160.792
  412.250    3.164    0.204    0.423   95.078  161.181
  412.500    3.159    0.217    0.416   96.423  161.268
  412.750    3.148    0.223    0.414   99.920  160.636
  413.000    3.149    0.217    0.419  102.863  160.412
  413.250    3.168    0.213    0.413   99.713  160.086
  413.500    3.182    0.212    0.404   96.379  159.759
  413.750    3.219    0.212    0.400   93.167  159.846
  414.000    3.282    0.209    0.404   95.249  160.034
  414.250    3.365    0.201    0.397   95.423  161.141
  414.500    3.424    0.195    0.386  101.506  162.356
  414.750    3.497    0.191    0.375  107.774  163.468
  415.000    3.579    0.203    0.373  111.764  163.963
  415.250    3.662    0.199    0.381  113.291  164.353
  415.500    3.755    0.193    0.363  112.235  164.439
  415.750    3.842    0.188    0.338  110.068  164.319
  416.000    3.895    0.184    0.340  108.704  163.480
  416.250    3.948    0.181    0.369  105.616  160.281
  416.500    3.980    0.177    0.388  104.005  158.621
  416.750    4.042    0.173    0.385  108.611  157.578
  417.000    4.066    0.168    0.385  117.094  156.843
  417.250    4.060    0.164    0.382  122.622  157.236
  417.500    3.845    0.170    0.375  118.795  159.781
  417.750    3.553    0.176    0.371  109.613  161.916
