~VERSION INFORMATION
 VERS.                 2.0:   CWLS LOG ASCII STANDARD -VERSION 2.0
 WRAP.                  NO:   ONE LINE PER DEPTH STEP
~WELL INFORMATION BLOCK
#MNEM.UNIT           DATA                    DESCRIPTION OF MNEMONIC
#---------    -------------------            -------------------------------
# Generated from Intellog Unique Number	CW_79_81/WELL/913
WELL.         HOMESTEAD ET AL WEAVER         : Well_name    - WELL
LOC .         00/11-25-080-01W5/0            : Location     - LOCATION
UWI .         00/11-25-080-01W5/0            : Uwi          - UNIQUE WELL ID
ENTR.         MAX                            : Entered      - ENTERED BY
SRVC.         SCHLUMBERGER                   : Scn          - SERVICE COMPANY
STRT.M        260                            : top_depth    - START DEPTH
STOP.M        505                            : bot_depth    - STOP DEPTH
STEP.M        0.25                           : increment    - STEP LENGTH
 NULL. -999.2500:NULL Value
~CURVE INFORMATION BLOCK
#MNEM UNIT       ERCB CURVE CODE    CURVE DESCRIPTION
#-----------   ------------------   ----------------------------------
DEPT.M        00 001 00 00         : DEPTH        - DEPTH
ILD .OHMM     00 120 00 00         : RESD         - DEEP RESISTIVITY (DIL)
NPHI.V/V      00 330 00 00         : PHIN         - NEUTRON POROSITY (SANDSTONE)
DPHI.V/V      00 890 00 00         : PHID         - DENSITY POROSITY (SANDSTONE)
CALI.MM       00 280 01 00         : CAL          - CALIPER
GR  .API      00 310 00 00         : GR           - GAMMA RAY
~PARAMETER INFORMATION
#MNEM.UNIT           DATA             DESCRIPTION OF MNEMONIC
#---------         -----------     ------------------------------
GL  .M        580                  : gl           - GROUND LEVEL ELEVATION
EREF.M        583.67               : kb           - ELEVATION OF DEPTH REFERENCE
DATM.M        580                  : datum        - DATUM ELEVATION
TDD .M        515                  : tdd          - TOTAL DEPTH DRILLER
RUN .         ONE                  : Run          - RUN NUMBER
ENG .         BILL                 : Engineer     - RECORDING ENGINEER
WIT .         JIM                  : Witness      - WITNESSED BY
MUD .         GEL                  : Mud_type     - MUD TYPE
MATR.         SANDSTONE            : Logunit      - NEUTRON MATRIX
TMAX.C        24                   : BHT          - MAXIMUM RECORDED TEMPERATURE
BHTD.M        515                  : BHTDEP       - MAXIMUM RECORDED TEMPERATURE
RMT .C        16                   : MDTP         - TEMPERATURE OF MUD
MUDD.KG/M     1100                 : MWT          - MUD DENSITY
NEUT.         1                    : NEUTRON      - NEUTRON TYPE
RESI.         0                    : RESIST       - RESISTIVITY TYPE
RM  .OHMM     6.62                 : RM           - RESISTIVITY OF MUD
RMC .OHMM     0                    : RMC          - RESISTIVITY OF MUD CAKE
RMF .OHMM     4.5                  : RMF          - RESISTIVITY OF MUD FILTRATE
SUFT.C        4                    : SUFT         - SURFACE TEMPERATURE
~A  DEPTH     RESD     PHIN     PHID      CAL       GR
# ...
  333.000   23.021    0.259    0.155  167.402   44.701
  333.250   16.819    0.336    0.198  166.954   47.437
  333.500   14.930    0.417    0.265  166.499   53.190
  333.750   13.500    0.444    0.305  165.557   55.027
  334.000   12.908    0.463    0.320  167.623   56.263
  334.250   12.806    0.474    0.325  168.171   58.100
  334.500   12.822    0.479    0.319  164.721   61.145
  334.750   12.839    0.463    0.304  164.768   60.579
  335.000   12.620    0.467    0.315  165.323   58.802
  335.250   12.407    0.466    0.312  166.888   57.631
  335.500   12.307    0.469    0.314  166.440   58.874
  335.750   12.212    0.473    0.319  165.491   60.106
  336.000   12.227    0.480    0.319  164.535   61.342
  336.250   12.243    0.484    0.314  163.084   61.675
  336.500   11.926    0.469    0.319  165.143   60.203
  336.750   11.614    0.453    0.320  168.720   59.031
  337.000   11.523    0.446    0.315  168.266   60.564
  337.250   11.536    0.463    0.315  168.326   61.498
  337.500   11.342    0.471    0.316  168.874   60.327
  337.750   11.046    0.491    0.327  169.931   58.562
  338.000   10.960    0.505    0.327  168.982   58.285
  338.250   11.079    0.510    0.332  165.525   58.325
  338.500   11.196    0.508    0.337  163.078   58.658
  338.750   11.419    0.503    0.333  163.132   59.288
  339.000   11.543    0.498    0.336  163.178   59.024
  339.250   11.666    0.495    0.339  163.232   58.153
  339.500   11.680    0.485    0.338  163.292   58.783
  339.750   11.483    0.480    0.339  163.346   60.620
  340.000   11.183    0.481    0.337  163.399   62.759
  340.250   10.789    0.487    0.331  163.466   63.693
  340.500    9.757    0.497    0.319  163.513   66.137
  340.750    7.748    0.508    0.312  163.065   68.279
  341.000    6.210    0.508    0.312  163.620   70.116
  341.250    5.311    0.506    0.277  166.181   73.458
  341.500    4.849    0.533    0.289  168.742   74.092
  341.750    4.679    0.556    0.313  170.300   77.133
  342.000    4.684    0.551    0.318  170.855   80.474
  342.250    4.822    0.519    0.292  172.413   83.820
  342.500    5.107    0.500    0.252  173.978   85.954
  342.750    5.306    0.484    0.238  174.025   86.893
  343.000    5.566    0.486    0.241  173.577   87.824
  343.250    5.730    0.494    0.249  173.142   87.262
  343.500    5.791    0.492    0.246  172.179   86.388
  343.750    5.693    0.484    0.245  170.227   85.221
  344.000    5.701    0.483    0.256  169.779   84.350
  344.250    5.709    0.490    0.260  170.334   84.081
  344.500    5.664    0.497    0.264  170.395   84.711
  344.750    5.415    0.499    0.269  170.956   86.248
  345.000    4.989    0.503    0.265  171.999   87.784
  345.250    4.857    0.507    0.256  172.066   89.020
  345.500    4.865    0.507    0.256  171.612   89.955
  345.750    4.962    0.496    0.254  171.171   90.600
  346.000    5.502    0.483    0.250  169.720   89.128
  346.250    6.393    0.477    0.257  170.275   88.250
  346.500    6.768    0.470    0.251  170.830   87.383
  346.750    6.839    0.473    0.243  169.881   88.013
  347.000    6.851    0.471    0.237  172.936   88.647
  347.250    6.859    0.489    0.230  173.498   87.175
  347.500    6.742    0.488    0.236  173.552   85.707
  347.750    6.688    0.478    0.239  173.097   87.243
  348.000    6.698    0.472    0.245  171.646   87.271
  348.250    6.769    0.466    0.254  170.710   88.808
  348.500    7.166    0.460    0.256  171.760   88.844
  348.750    7.801    0.464    0.245  172.830   87.071
  349.000    7.668    0.480    0.231  172.369   87.400
  349.250    7.330    0.492    0.231  171.927   87.737
  349.500    7.205    0.498    0.215  171.473   87.171
  349.750    7.085    0.489    0.215  171.533   86.903
  350.000    7.085    0.493    0.215  171.580   86.634
  350.250    7.102    0.500    0.224  171.640   87.565
  350.500    7.113    0.507    0.228  171.687   87.898
  350.750    7.121    0.520    0.229  171.747   85.824
  351.000    7.333    0.528    0.235  170.812   80.745
  351.250    7.763    0.525    0.243  169.849   76.565
  351.500    8.372    0.514    0.249  167.910   73.588
  351.750    8.947    0.518    0.255  167.449   71.514
  352.000    8.958    0.516    0.264  167.001   67.631
  352.250    9.662    0.499    0.275  168.565   65.557
  352.500   10.419    0.478    0.297  170.618   65.289
  352.750   11.138    0.449    0.279  172.176   68.931
  353.000   10.845    0.492    0.281  175.238   72.574
  353.250    9.898    0.503    0.306  175.793   75.920
  353.500    9.117    0.511    0.323  180.868   75.350
  353.750    8.798    0.510    0.344  184.933   73.577
  354.000    9.057    0.493    0.340  170.438   71.499
  354.250    9.860    0.475    0.314  168.499   74.845
  354.500   10.634    0.479    0.274  171.562   80.593
  354.750   10.846    0.470    0.248  172.117   82.736
  355.000   10.178    0.464    0.215  172.170   83.670
  355.250    9.205    0.486    0.230  171.722   84.304
  355.500    8.800    0.490    0.235  171.769   85.544
  355.750    8.650    0.490    0.239  171.823   85.877
  356.000    8.583    0.494    0.235  171.883   85.002
  356.250    8.595    0.496    0.244  172.445   83.530
  356.500    8.605    0.519    0.252  172.492   83.261
  356.750    8.539    0.514    0.251  173.040   82.692
  357.000    8.552    0.502    0.246  173.100   81.826
  357.250    8.552    0.487    0.241  174.163   80.654
  357.500    8.496    0.470    0.238  174.217   80.987
  357.750    8.506    0.466    0.239  174.271   82.219
  358.000    8.597    0.464    0.241  173.829   83.458
  358.250    8.687    0.458    0.239  173.870   84.991
  358.500    8.780    0.456    0.243  173.923   85.934
  358.750    8.472    0.461    0.241  170.975   86.868
  359.000    8.174    0.479    0.234  166.509   86.299
  359.250    8.035    0.478    0.226  164.556   82.416
  359.500    8.046    0.466    0.234  168.120   81.244
  359.750    8.060    0.463    0.237  169.183   83.082
  360.000    8.143    0.486    0.245  169.738   85.822
  360.250    8.161    0.481    0.249  170.293   86.760
  360.500    8.397    0.467    0.250  170.848   87.097
  360.750    8.408    0.469    0.251  170.902   87.126
  361.000    8.343    0.480    0.248  171.464   87.763
  361.250    8.200    0.477    0.240  172.019   89.300
  361.500    8.060    0.477    0.243  172.072   90.832
  361.750    7.998    0.481    0.244  172.119   92.971
  362.000    7.860    0.480    0.233  172.674   91.507
  362.250    8.018    0.475    0.231  172.728   88.225
  362.500    9.403    0.470    0.239  174.794   84.643
  362.750   10.522    0.471    0.242  174.353   79.259
  363.000   11.997    0.465    0.259  169.893   71.770
  363.250   13.685    0.461    0.301  165.922   65.480
  363.500   14.350    0.457    0.300  160.459   67.317
  363.750   15.194    0.471    0.288  163.033   71.268
  364.000   15.499    0.480    0.286  165.100   70.695
  364.250   16.712    0.480    0.299  166.143   67.722
  364.500   19.415    0.468    0.286  166.711   66.250
  364.750   19.441    0.458    0.276  167.761   66.884
  365.000   16.783    0.470    0.260  168.817   69.620
  365.250   15.174    0.493    0.268  170.877   74.165
  365.500   14.242    0.488    0.288  171.933   72.998
  365.750   14.396    0.475    0.293  172.495   71.826
  366.000   14.820    0.474    0.295  172.040   71.859
  366.250   15.983    0.471    0.279  170.596   73.098
  366.500   17.400    0.463    0.266  169.145   72.525
  366.750   19.478    0.453    0.258  168.189   71.658
  367.000   20.433    0.456    0.263  169.259   72.593
  367.250   20.078    0.453    0.267  169.313   74.430
  367.500   18.496    0.455    0.267  170.864   78.972
  367.750   16.568    0.456    0.270  171.921   81.118
  368.000   13.911    0.458    0.270  170.965   81.748
  368.250   12.581    0.472    0.259  168.009   83.292
  368.500   11.808    0.481    0.268  167.060   84.524
  368.750   11.392    0.480    0.275  166.111   86.060
  369.000   10.790    0.474    0.289  165.161   88.495
  369.250    9.665    0.475    0.293  165.737   91.239
