~VERSION INFORMATION
 VERS.                 2.0:   CWLS LOG ASCII STANDARD -VERSION 2.0
 WRAP.                  NO:   ONE LINE PER DEPTH STEP
~WELL INFORMATION BLOCK
#MNEM.UNIT           DATA                    DESCRIPTION OF MNEMONIC
#---------    -------------------            -------------------------------
# Generated from Intellog Unique Number	CW_73_75/WELL/2751
WELL.         NORCEN POR MARTEN HILLS 15-34  : Well_name    - WELL
LOC .         00/15-34-073-25W4/0            : Location     - LOCATION
UWI .         00/15-34-073-25W4/0            : Uwi          - UNIQUE WELL ID
ENTR.         JAYE                           : Entered      - ENTERED BY
SRVC.         COMPUTALOG                     : Scn          - SERVICE COMPANY
DATE.         24 FEB 83                      : Date         - LOG DATE
STRT.M        430                            : top_depth    - START DEPTH
STOP.M        650                            : bot_depth    - STOP DEPTH
STEP.M        0.25                           : increment    - STEP LENGTH
 NULL. -999.2500:NULL Value
~CURVE INFORMATION BLOCK
#MNEM UNIT       ERCB CURVE CODE    CURVE DESCRIPTION
#-----------   ------------------   ----------------------------------
DEPT.M        00 001 00 00         : DEPTH        - DEPTH
DPHI.V/V      00 890 00 00         : PHID         - DENSITY POROSITY (SANDSTONE)
NPHI.V/V      00 330 00 00         : PHIN         - NEUTRON POROSITY (SANDSTONE)
GR  .API      00 310 00 00         : GR           - GAMMA RAY
CALI.MM       00 280 01 00         : CAL          - CALIPER
ILD .OHMM     00 120 00 00         : RESD         - DEEP RESISTIVITY (DIL)
~PARAMETER INFORMATION
#MNEM.UNIT           DATA             DESCRIPTION OF MNEMONIC
#---------         -----------     ------------------------------
GL  .M        681.45               : gl           - GROUND LEVEL ELEVATION
EREF.M        684.45               : kb           - ELEVATION OF DEPTH REFERENCE
DATM.M        681.45               : datum        - DATUM ELEVATION
TDD .M        652                  : tdd          - TOTAL DEPTH DRILLER
RUN .         ONE                  : Run          - RUN NUMBER
ENG .         GRBAVAC              : Engineer     - RECORDING ENGINEER
WIT .         STEVENS/BOGNER       : Witness      - WITNESSED BY
BASE.         EDM                  : Branch       - HOME BASE OF LOGGING UNIT
MUD .         GEL CHEM             : Mud_type     - MUD TYPE
MATR.         SANDSTONE            : Logunit      - NEUTRON MATRIX
TMAX.C        30                   : BHT          - MAXIMUM RECORDED TEMPERATURE
BHTD.M        651.5                : BHTDEP       - MAXIMUM RECORDED TEMPERATURE
RMT .C        17                   : MDTP         - TEMPERATURE OF MUD
MUDD.KG/M     1120                 : MWT          - MUD DENSITY
NEUT.         1                    : NEUTRON      - NEUTRON TYPE
RESI.         0                    : RESIST       - RESISTIVITY TYPE
RM  .OHMM     5                    : RM           - RESISTIVITY OF MUD
RMC .OHMM     5                    : RMC          - RESISTIVITY OF MUD CAKE
RMF .OHMM     5                    : RMF          - RESISTIVITY OF MUD FILTRATE
SUFT.C        0                    : SUFT         - SURFACE TEMPERATURE
~A  DEPTH     PHID     PHIN       GR      CAL     RESD
# ...
  539.500    0.172    0.350   66.487  195.472    5.992
  539.750    0.200    0.351   66.395  194.766    5.286
  540.000    0.239    0.378   68.994  193.340    4.940
  540.250    0.260    0.397   69.280  192.528    4.599
  540.500    0.274    0.388   69.503  192.242    4.307
  540.750    0.273    0.378   71.599  193.615    4.080
  541.000    0.257    0.422   77.953  199.973    3.880
  541.250    0.262    0.474   85.561  206.752    3.640
  541.500    0.283    0.503   88.097  211.135    3.508
  541.750    0.282    0.470   85.251  199.630    3.421
  542.000    0.261    0.455   85.789  199.964    3.406
  542.250    0.248    0.475   88.512  204.976    3.399
  542.500    0.251    0.482   95.365  205.516    3.417
  542.750    0.263    0.471   90.957  201.697    3.522
  543.000    0.272    0.433   81.356  195.695    3.617
  543.250    0.259    0.413   74.882  189.694    3.672
  543.500    0.234    0.390   68.036  186.913    3.778
  543.750    0.252    0.362   66.761  189.639    3.835
  544.000    0.266    0.363   68.105  192.467    4.141
  544.250    0.256    0.369   73.519  195.193    4.636
  544.500    0.219    0.378   80.623  197.395    4.995
  544.750    0.192    0.382   85.538  199.393    5.110
  545.000    0.175    0.390   91.644  200.768    5.128
  545.250    0.174    0.396   92.866  201.413    5.327
  545.500    0.169    0.393   89.081  200.813    5.555
  545.750    0.166    0.382   84.862  200.525    5.694
  546.000    0.172    0.368   84.898  200.133    5.824
  546.250    0.177    0.360   87.620  199.748    5.890
  546.500    0.181    0.367   91.471  199.768    5.922
  546.750    0.193    0.383   91.571  199.166    5.965
  547.000    0.182    0.398   90.662  198.673    6.009
  547.250    0.170    0.406   88.195  198.074    6.054
  547.500    0.176    0.394   84.539  197.681    6.146
  547.750    0.177    0.379   80.318  197.288    6.287
  548.000    0.157    0.356   75.908  197.000    6.544
  548.250    0.135    0.356   77.822  196.918    7.160
  548.500    0.119    0.346   79.795  196.837    7.819
  548.750    0.151    0.331   75.948  196.658    8.232
  549.000    0.166    0.360   76.984  196.053    8.785
  549.250    0.182    0.379   83.464  195.038    8.970
  549.500    0.187    0.382   88.566  194.545    8.098
  549.750    0.179    0.369   88.912  194.357    7.172
  550.000    0.175    0.357   87.446  194.175    6.691
  550.250    0.178    0.379   88.417  194.200    6.362
  550.500    0.185    0.395   91.207  194.223    6.131
  550.750    0.181    0.391   90.927  194.556    6.059
  551.000    0.171    0.375   86.522  194.891    5.953
  551.250    0.162    0.365   83.925  195.332    5.951
  551.500    0.169    0.373   85.022  196.081    5.995
  551.750    0.179    0.395   90.061  197.040    6.098
  552.000    0.174    0.413   85.090  198.000    6.214
  552.250    0.171    0.416   81.621  198.545    6.308
  552.500    0.176    0.406   80.468  198.566    6.294
  552.750    0.183    0.390   81.567  199.005    6.328
  553.000    0.190    0.374   83.603  199.338    6.374
  553.250    0.185    0.362   85.388  199.365    6.434
  553.500    0.175    0.355   88.240  199.387    6.469
  553.750    0.166    0.357   88.900  198.996    6.504
  554.000    0.165    0.359   88.493  200.576    6.564
  554.250    0.162    0.361   89.278  201.744    6.613
  554.500    0.158    0.371   91.881  202.389    6.674
  554.750    0.153    0.379   90.849  202.417    6.788
  555.000    0.140    0.367   86.379  203.063    6.878
  555.250    0.127    0.350   83.912  204.331    6.955
  555.500    0.150    0.346   86.824  205.807    7.047
  555.750    0.172    0.368   92.675  206.975    7.126
  556.000    0.185    0.369   94.464  206.791    7.165
  556.250    0.184    0.362   92.742  207.022    7.135
  556.500    0.180    0.352   90.903  207.671    7.078
  556.750    0.180    0.346   89.995  208.004    7.021
  557.000    0.179    0.348   88.529  208.234    6.938
  557.250    0.178    0.358   84.686  208.051    6.936
  557.500    0.176    0.372   78.772  207.866    6.934
  557.750    0.171    0.382   83.189  206.539    6.865
  558.000    0.167    0.393   89.979  202.511    6.732
  558.250    0.210    0.401   89.826  197.239    6.526
  558.500    0.235    0.391   75.532  193.732    6.206
  558.750    0.282    0.380   68.870  191.157    6.015
  559.000    0.305    0.373   60.773  189.518    6.166
  559.250    0.297    0.368   56.111  187.882    6.811
  559.500    0.284    0.360   57.029  186.971    8.380
  559.750    0.277    0.355   57.874  186.061   10.270
  560.000    0.283    0.362   58.404  185.251   11.454
  560.250    0.290    0.366   57.249  184.752   11.899
  560.500    0.295    0.377   55.344  184.464   12.102
  560.750    0.300    0.374   59.009  184.592   12.285
  561.000    0.301    0.364   58.356  185.240   12.377
  561.250    0.299    0.376   53.509  186.196   12.564
  561.500    0.296    0.375   54.672  187.259   12.730
  561.750    0.293    0.368   56.767  188.531   13.123
  562.000    0.291    0.352   58.746  188.660   13.738
  562.250    0.290    0.345   58.779  188.681   14.548
  562.500    0.289    0.356   58.375  188.911   14.740
  562.750    0.288    0.370   58.093  189.454   14.593
  563.000    0.294    0.378   58.002  188.958   14.339
  563.250    0.297    0.381   57.849  188.982   13.661
  563.500    0.292    0.381   57.637  188.801   13.166
  563.750    0.285    0.376   56.791  188.619   13.086
  564.000    0.275    0.371   54.510  188.742   13.336
  564.250    0.273    0.362   52.356  189.180   13.933
  564.500    0.278    0.350   54.890  190.245   14.419
  564.750    0.278    0.336   58.561  191.306   14.922
  565.000    0.275    0.349   58.467  192.682   15.205
  565.250    0.271    0.365   58.373  194.164   15.287
  565.500    0.269    0.360   58.534  195.329   15.313
  565.750    0.271    0.351   58.566  196.076   14.477
  566.000    0.270    0.341   56.912  196.514   13.979
  566.250    0.268    0.358   53.941  195.498   13.762
  566.500    0.261    0.392   52.974  194.485   13.599
  566.750    0.251    0.383   54.012  193.158   13.859
  567.000    0.233    0.284   56.736  193.388   14.704
  567.250    0.182    0.206   59.021  193.618   15.813
  567.500    0.034    0.151   54.551  194.268   17.235
  567.750    0.016    0.128   48.141  195.329   19.262
  568.000    0.009    0.119   44.233  196.288   23.157
  568.250    0.006    0.124   46.645  197.037   28.820
  568.500    0.005    0.139   52.248  197.476   35.937
  568.750    0.011    0.156   60.917  196.983   40.626
  569.000    0.032    0.194   59.636  196.691   40.611
  569.250    0.121    0.267   55.855  196.199   37.592
  569.500    0.158    0.311   59.584  196.951   34.203
  569.750    0.201    0.348   61.998  198.528   28.980
  570.000    0.250    0.353   62.845  200.318   25.618
  570.250    0.240    0.349   62.310  200.759   22.128
  570.500    0.233    0.355   61.222  200.366   19.674
  570.750    0.236    0.369   60.754  199.350   17.762
  571.000    0.234    0.373   60.474  197.316   16.697
  571.250    0.228    0.368   61.074  200.955   16.154
  571.500    0.239    0.362   61.169  203.370   15.332
  571.750    0.258    0.372   61.138  205.263   14.385
  572.000    0.241    0.360   64.809  207.053   13.393
  572.250    0.222    0.362   69.345  207.802   12.185
  572.500    0.209    0.368   75.133  208.345   10.525
  572.750    0.200    0.391   77.487  209.305    9.394
  573.000    0.197    0.402   74.078  209.223    7.990
  573.250    0.196    0.412   69.855  208.625    6.771
  573.500    0.198    0.407   65.886  206.882    6.316
  573.750    0.222    0.389   65.610  205.450    6.549
  574.000    0.229    0.375   64.769  204.645    7.664
  574.250    0.222    0.362   63.421  204.564    8.597
  574.500    0.211    0.358   61.641  204.377    9.228
  574.750    0.212    0.374   64.993  204.300    9.350
  575.000    0.226    0.382   64.526  204.115    9.528
  575.250    0.228    0.370   64.935  204.348    9.397
  575.500    0.226    0.359   66.035  204.786    9.376
  575.750    0.236    0.386   64.754  204.811    9.463
