~VERSION INFORMATION
 VERS.                 2.0:   CWLS LOG ASCII STANDARD -VERSION 2.0
 WRAP.                  NO:   ONE LINE PER DEPTH STEP
~WELL INFORMATION BLOCK
#MNEM.UNIT           DATA                    DESCRIPTION OF MNEMONIC
#---------    -------------------            -------------------------------
# Generated from Intellog Unique Number	CN_91_93/WELL/3241
WELL.         PARAMOUNT RESOURCES LTD.       : Well_name    - WELL
LOC .         00/10-18-092-20W4/0            : Location     - LOCATION
UWI .         00/10-18-092-20W4/0            : Uwi          - UNIQUE WELL ID
ENTR.         JOETTE                         : Entered      - ENTERED BY
SRVC.         COMPUTALOG                     : Scn          - SERVICE COMPANY
DATE.         04/14/92                       : Date         - LOG DATE
STRT.M        90                             : top_depth    - START DEPTH
STOP.M        230                            : bot_depth    - STOP DEPTH
STEP.M        0.25                           : increment    - STEP LENGTH
 NULL. -999.2500:NULL Value
~CURVE INFORMATION BLOCK
#MNEM UNIT       ERCB CURVE CODE    CURVE DESCRIPTION
#-----------   ------------------   ----------------------------------
DEPT.M        00 001 00 00         : DEPTH        - DEPTH
CALI.MM       00 280 01 00         : CAL          - CALIPER
GR  .API      00 310 00 00         : GR           - GAMMA RAY
NPHI.V/V      00 330 00 00         : PHIN         - NEUTRON POROSITY (SANDSTONE)
DPHI.V/V      00 890 00 00         : PHID         - DENSITY POROSITY (SANDSTONE)
ILD .OHMM     00 120 00 00         : RESD         - DEEP RESISTIVITY (DIL)
~PARAMETER INFORMATION
#MNEM.UNIT           DATA             DESCRIPTION OF MNEMONIC
#---------         -----------     ------------------------------
GL  .M        533.15               : gl           - GROUND LEVEL ELEVATION
EREF.M        536.95               : kb           - ELEVATION OF DEPTH REFERENCE
DATM.M        536.95               : datum        - DATUM ELEVATION
TDD .M        230.7                : tdd          - TOTAL DEPTH DRILLER
RUN .         ONE                  : Run          - RUN NUMBER
ENG .         BILL                 : Engineer     - RECORDING ENGINEER
WIT .         JIM                  : Witness      - WITNESSED BY
MUD .         GEL                  : Mud_type     - MUD TYPE
MATR.         SANDSTONE            : Logunit      - NEUTRON MATRIX
TMAX.C        119                  : BHT          - MAXIMUM RECORDED TEMPERATURE
BHTD.M        230.7                : BHTDEP       - MAXIMUM RECORDED TEMPERATURE
RMT .C        12                   : MDTP         - TEMPERATURE OF MUD
MUDD.KG/M     1070                 : MWT          - MUD DENSITY
NEUT.         1                    : NEUTRON      - NEUTRON TYPE
RESI.         0                    : RESIST       - RESISTIVITY TYPE
RM  .OHMM     3                    : RM           - RESISTIVITY OF MUD
RMC .OHMM     3                    : RMC          - RESISTIVITY OF MUD CAKE
RMF .OHMM     3                    : RMF          - RESISTIVITY OF MUD FILTRATE
SUFT.C        4                    : SUFT         - SURFACE TEMPERATURE
~A  DEPTH      CAL       GR     PHIN     PHID     RESD
# ...
  163.000  223.738   68.279    0.322    0.200   15.505
  163.250  222.803   66.513    0.320    0.182   13.565
  163.500  222.872   72.579    0.351    0.223    8.738
  163.750  222.976   79.850    0.417    0.240    7.645
  164.000  223.028   90.134    0.439    0.239    6.563
  164.250  223.097   99.222    0.400    0.239    6.200
  164.500  225.174  102.276    0.361    0.236    6.084
  164.750  227.269   96.293    0.343    0.189    5.971
  165.000  229.312   91.525    0.373    0.188    7.234
  165.250  233.397   92.169    0.403    0.180    8.435
  165.500  234.471   98.225    0.398    0.174    8.937
  165.750  235.561  102.494    0.378    0.158    9.650
  166.000  232.635  100.116    0.369    0.125   11.041
  166.250  230.662   96.542    0.364    0.108   11.474
  166.500  225.745   93.572    0.319    0.085   12.158
  166.750  224.776   88.794    0.310    0.079   12.638
  167.000  223.876   86.425    0.434    0.113   13.137
  167.250  223.927   85.262    0.423    0.141   12.893
  167.500  223.979   84.099    0.409    0.162   12.654
  167.750  228.082   88.960    0.394    0.193   12.661
  168.000  230.142   93.821    0.396    0.186   12.908
  168.250  234.262   95.067    0.390    0.145   13.420
  168.500  235.318   92.107    0.372    0.119   13.683
  168.750  235.388   89.136    0.428    0.167   13.687
  169.000  234.436   86.757    0.456    0.179   13.433
  169.250  230.506   87.401    0.464    0.198   12.690
  169.500  227.563   92.263    0.434    0.193   11.987
  169.750  225.624   94.714    0.413    0.186   11.763
  170.000  227.701   90.549    0.369    0.102   12.463
  170.250  230.783   89.385    0.275    0.006   13.720
  170.500  231.890   82.187    0.250    0.059   14.262
  170.750  231.942   65.962    0.421    0.160   13.998
  171.000  230.003   67.209    0.431    0.233   13.224
  171.250  225.069   75.082    0.395    0.234   12.488
  171.500  223.113   82.956    0.354    0.205   11.573
  171.750  221.157   90.237    0.317    0.200   10.724
  172.000  221.226   92.086    0.353    0.174    9.939
  172.250  221.295   93.945    0.487    0.143    8.865
  172.500  223.373   90.362    0.528    0.197    8.213
  172.750  226.489   86.788    0.419    0.221    7.186
  173.000  228.532   92.252    0.507    0.218    6.288
  173.250  231.613  101.933    0.512    0.218    5.828
  173.500  233.708  101.985    0.532    0.220    5.719
  173.750  230.782  101.424    0.546    0.220    6.796
  174.000  229.847  102.660    0.490    0.176    8.077
  174.250  228.878   97.882    0.412    0.240    9.785
  174.500  226.939   85.272    0.346    0.249   12.317
  174.750  226.021   76.869    0.337    0.263   14.639
  175.000  225.086   73.295    0.390    0.282   15.216
  175.250  224.151   74.552    0.435    0.283   14.935
  175.500  223.234   77.004    0.427    0.248   14.656
  175.750  222.264   77.647    0.404    0.249   13.586
  176.000  221.330   77.087    0.356    0.191   13.330
  176.250  220.395   77.128    0.420    0.130   13.082
  176.500  218.490   78.375    0.430    0.167   12.842
  176.750  217.521   82.633    0.422    0.126   12.601
  177.000  218.611   89.302    0.475    0.190   11.904
  177.250  221.710   94.173    0.488    0.218   11.462
  177.500  222.749   90.590    0.510    0.193   12.617
  177.750  223.840   87.016    0.449    0.128   15.579
  178.000  223.909   84.659    0.387    0.044   18.873
  178.250  223.978   81.677    0.293    0.005   21.178
  178.500  222.039   66.658    0.238    0.008   26.152
  178.750  218.109   60.664    0.223   -0.002   31.681
  179.000  215.132   54.079    0.205   -0.015   34.219
  179.250  211.202   54.120    0.191   -0.026   34.229
  179.500  210.250   57.777    0.273   -0.012   31.723
  179.750  213.348   63.261    0.322    0.023   29.393
  180.000  217.434   66.907    0.339    0.099   24.752
  180.250  221.537   72.973    0.349    0.122   20.844
  180.500  222.627   79.641    0.371    0.168   17.553
  180.750  222.679   85.105    0.371    0.193   15.655
  181.000  221.744   89.977    0.339    0.219   13.700
  181.250  221.814   93.643    0.368    0.224   13.191
  181.500  220.896   97.289    0.391    0.241   12.700
  181.750  220.931  101.558    0.389    0.237   12.465
  182.000  222.021   99.180    0.399    0.215   12.469
  182.250  223.112   96.822    0.402    0.205   12.236
  182.500  223.146   99.875    0.415    0.200   12.011
  182.750  223.216   99.304    0.434    0.204   11.789
  183.000  223.302   95.129    0.386    0.212   11.569
  183.250  224.376   90.350    0.382    0.213   11.139
  183.500  225.449   87.982    0.404    0.212   10.933
  183.750  225.535   92.251    0.368    0.192   11.808
  184.000  225.587   97.102    0.342    0.169   12.039
  184.250  223.631  103.168    0.378    0.160   11.816
  184.500  221.692  101.402    0.382    0.178   11.597
  184.750  220.774  100.841    0.386    0.208   11.601
  185.000  220.861  100.893    0.394    0.196   11.832
  185.250  220.913  100.322    0.386    0.200   12.064
  185.500  221.986  104.591    0.365    0.210   12.302
  185.750  223.059  111.259    0.400    0.201   12.787
  186.000  225.137  108.289    0.370    0.189   13.548
  186.250  226.227  101.101    0.334    0.166   14.916
  186.500  227.266   99.335    0.296    0.135   16.111
  186.750  229.361   95.149    0.250    0.077   16.114
  187.000  229.430   88.564    0.270    0.155   16.121
  187.250  230.503   84.990    0.415    0.181   15.229
  187.500  229.586   88.657    0.436    0.181   13.846
  187.750  227.630   92.313    0.473    0.160   13.078
  188.000  222.696   97.174    0.375    0.126   12.590
  188.250  226.781  102.638    0.328    0.120   11.895
  188.500  229.863  100.270    0.358    0.159   11.675
  188.750  231.940   93.695    0.364    0.193   11.456
  189.000  228.980   97.351    0.364    0.174   11.460
  189.250  226.037  100.405    0.361    0.175   11.466
  189.500  228.114   98.639    0.353    0.198   11.692
  189.750  230.191  101.090    0.358    0.191   11.476
  190.000  231.265  105.349    0.402    0.199   10.839
  190.250  231.334  108.403    0.405    0.191   10.638
  190.500  231.403  106.034    0.360    0.162   10.440
  190.750  233.481  102.461    0.361    0.162   11.062
  191.000  234.554   97.673    0.405    0.208   12.414
  191.250  234.623   89.882    0.400    0.199   13.665
  191.500  230.676   86.912    0.370    0.140   15.043
  191.750  224.755   91.170    0.289    0.062   15.043
  192.000  223.786   93.019    0.227    0.091   18.587
  192.250  222.868   90.059    0.318    0.184   16.896
  192.500  222.937   93.102    0.378    0.208   16.268
  192.750  222.003   96.758    0.353    0.214   15.077
  193.000  222.072   95.595    0.327    0.217   14.796
  193.250  222.158   94.442    0.341    0.220   14.247
  193.500  223.197   94.494    0.336    0.192   13.980
  193.750  227.317   95.128    0.344    0.178   13.463
  194.000  229.377   96.966    0.335    0.182   13.212
  194.250  233.463  101.235    0.393    0.172   13.216
  194.500  236.544  107.914    0.364    0.162   13.479
  194.750  236.614  110.355    0.347    0.143   13.744
  195.000  232.684  107.987    0.362    0.154   14.287
  195.250  230.727  102.606    0.376    0.180   14.568
  195.500  226.815  100.851    0.397    0.175   14.026
  195.750  225.845  102.097    0.386    0.173   12.752
  196.000  225.915  101.536    0.415    0.173   12.514
  196.250  229.013  100.373    0.440    0.152   12.283
  196.500  233.116  100.414    0.321    0.088   13.267
  196.750  235.176  102.855    0.291    0.012   14.055
  197.000  237.271  101.692    0.366    0.077   14.331
  197.250  237.306   95.709    0.390    0.196   14.066
  197.500  234.363   88.532    0.354    0.199   12.786
  197.750  230.416   93.382    0.337    0.202   10.363
  198.000  228.477  100.061    0.452    0.212    8.084
  198.250  228.563   98.898    0.472    0.217    7.492
  198.500  229.654  100.736    0.493    0.187    7.212
  198.750  229.688  107.405    0.513    0.170    7.356
  199.000  229.775  107.457    0.499    0.164    7.793
  199.250  229.879  105.681    0.410    0.185    8.257
