~VERSION INFORMATION
 VERS.                 2.0:   CWLS LOG ASCII STANDARD -VERSION 2.0
 WRAP.                  NO:   ONE LINE PER DEPTH STEP
~WELL INFORMATION BLOCK
#MNEM.UNIT           DATA                    DESCRIPTION OF MNEMONIC
#---------    -------------------            -------------------------------
# Generated from Intellog Unique Number	CW_70_72/WELL/3750
NULL.         -999.25                        : NULL_VALUE
WELL.         NORCEN ENERGY RESOURCES LTD.   : Well_name    - WELL              
LOC .         00/10-22-071-05W5/0            : Location     - LOCATION          
UWI .         00/10-22-071-05W5/0            : Uwi          - UNIQUE WELL ID    
ENTR.         JOETTE                         : Entered      - ENTERED BY        
SRVC.         COMPUTALOG                     : Scn          - SERVICE COMPANY   
DATE.         05/13/92                       : Date         - LOG DATE          
STRT.M        610                            : top_depth    - START DEPTH       
STOP.M        835                            : bot_depth    - STOP DEPTH        
STEP.M        0.25                           : increment    - STEP LENGTH       
~CURVE INFORMATION BLOCK
#MNEM UNIT       ERCB CURVE CODE    CURVE DESCRIPTION
#-----------   ------------------   ----------------------------------
DEPT.M        00 001 00 00         : DEPTH        - DEPTH                       
DPHI.V/V      00 890 00 00         : PHID         - DENSITY POROSITY (SANDSTONE)
GR  .API      00 310 00 00         : GR           - GAMMA RAY                   
CALI.MM       00 280 01 00         : CAL          - CALIPER                     
ILD .OHMM     00 120 00 00         : RESD         - DEEP RESISTIVITY (DIL)      
NPHI.V/V      00 330 00 00         : PHIN         - NEUTRON POROSITY (SANDSTONE)
~PARAMETER INFORMATION       
#MNEM.UNIT           DATA             DESCRIPTION OF MNEMONIC
#---------         -----------     ------------------------------
GL  .M        778.85               : gl           - GROUND LEVEL ELEVATION      
EREF.M        782.2                : kb           - ELEVATION OF DEPTH REFERENCE
DATM.M        782.2                : datum        - DATUM ELEVATION             
TDD .M        874.9                : tdd          - TOTAL DEPTH DRILLER         
RUN .         ONE                  : Run          - RUN NUMBER                  
ENG .         BILL                 : Engineer     - RECORDING ENGINEER          
WIT .         JIM                  : Witness      - WITNESSED BY                
MUD .         GEL                  : Mud_type     - MUD TYPE                    
MATR.         SANDSTONE            : Logunit      - NEUTRON MATRIX              
TMAX.C        39                   : BHT          - MAXIMUM RECORDED TEMPERATURE
BHTD.M        874.9                : BHTDEP       - MAXIMUM RECORDED TEMPERATURE
MATR.         1                    : LOGUNIT      - NEUTRON MATRIX              
RMT .C        24.4                 : MDTP         - TEMPERATURE OF MUD          
NEUT.         1                    : NEUTRON      - NEUTRON TYPE                
RESI.         0                    : RESIST       - RESISTIVITY TYPE            
RMC .OHMM     2.7                  : RMC          - RESISTIVITY OF MUD CAKE     
RMF .OHMM     4.4                  : RMF          - RESISTIVITY OF MUD FILTRATE 
SUFT.C        15                   : SUFT         - SURFACE TEMPERATURE         
~A  DEPTH     PHID       GR      CAL     RESD     PHIN
# ...
  792.500    0.260   71.002  204.452    2.286    0.369
  792.750    0.258   69.178  204.527    2.516    0.376
  793.000    0.250   72.995  204.601    2.934    0.385
  793.250    0.243   71.778  204.676    3.050    0.380
  793.500    0.229   69.931  204.750    3.052    0.367
  793.750    0.200   70.607  205.876    3.054    0.357
  794.000    0.195   75.718  205.951    2.941    0.368
  794.250    0.193   77.002  207.095    2.887    0.378
  794.500    0.196   79.569  207.151    2.781    0.383
  794.750    0.202   82.766  208.314    2.782    0.401
  795.000    0.202   79.039  209.421    2.784    0.419
  795.250    0.195   80.345  211.597    2.839    0.421
  795.500    0.180   82.912  213.792    2.952    0.412
  795.750    0.171   87.371  214.918    3.250    0.402
  796.000    0.171   90.579  216.062    3.647    0.391
  796.250    0.155   91.255  216.118    4.093    0.387
  796.500    0.141   91.930  215.141    4.421    0.377
  796.750    0.142   92.605  214.184    4.424    0.353
  797.000    0.147   93.292  214.240    4.512    0.357
  797.250    0.134   93.314  213.245    4.690    0.367
  797.500    0.123   92.728  211.255    5.264    0.368
  797.750    0.109   89.643  211.292    5.577    0.351
  798.000    0.097   87.785  209.302    5.909    0.324
  798.250    0.100   84.677  209.339    6.508    0.309
  798.500    0.113   80.927  207.312    6.636    0.328
  798.750    0.111   70.252  206.354    6.392    0.332
  799.000    0.110   76.602  206.410    5.925    0.331
  799.250    0.114   83.583  205.453    5.492    0.336
  799.500    0.133   89.314  205.509    4.994    0.350
  799.750    0.146   92.512  205.602    4.630    0.364
  800.000    0.162   93.187  204.644    4.546    0.371
  800.250    0.174   83.774  204.700    4.547    0.367
  800.500    0.192   78.774  204.793    4.465    0.362
  800.750    0.200   76.296  203.817    4.468    0.361
  801.000    0.199   75.710  202.822    4.469    0.357
  801.250    0.193   75.755  201.883    4.559    0.351
  801.500    0.184   71.386  201.920    4.649    0.336
  801.750    0.169   66.386  201.995    4.742    0.319
  802.000    0.146   67.703  202.070    4.745    0.323
  802.250    0.150   70.259  202.163    4.747    0.343
  802.500    0.163   74.718  203.288    4.661    0.361
  802.750    0.166   83.591  204.414    4.576    0.370
  803.000    0.157   86.788  204.488    4.578    0.359
  803.250    0.152   86.202  205.595    4.494    0.354
  803.500    0.157   81.833  206.721    4.330    0.358
  803.750    0.166   78.725  206.814    4.250    0.370
  804.000    0.162   80.673  206.907    4.171    0.374
  804.250    0.154   81.337  206.963    4.096    0.382
  804.500    0.154   83.285  207.057    4.098    0.372
  804.750    0.158   86.493  207.131    4.022    0.361
  805.000    0.161   89.060  207.224    3.948    0.359
  805.250    0.159   92.269  207.262    3.732    0.347
  805.500    0.154   93.553  207.336    3.594    0.323
  805.750    0.147   95.489  207.411    3.527    0.330
  806.000    0.135   98.067  207.486    3.462    0.353
  806.250    0.131   98.743  207.579    3.272    0.365
  806.500    0.153   99.418  207.635    3.151    0.376
  806.750    0.171  100.724  207.709    2.921    0.398
  807.000    0.197  102.041  208.854    2.657    0.385
  807.250    0.194  102.716  212.081    2.510    0.381
  807.500    0.184  103.392  212.137    2.197    0.384
  807.750    0.203  103.436  214.351    1.851    0.408
  808.000    0.266  102.220  215.495    1.589    0.465
  808.250    0.337   99.743  215.551    1.391    0.515
  808.500    0.331   92.209  216.658    1.290    0.518
  808.750    0.320   80.273  217.783    1.266    0.510
  809.000    0.323   77.796  221.011    1.291    0.506
  809.250    0.329   79.102  225.289    1.394    0.508
  809.500    0.300   81.061  228.517    1.690    0.486
  809.750    0.300   80.452  228.591    1.825    0.460
  810.000    0.299   81.128  227.634    2.169    0.440
  810.250    0.281   83.706  228.759    2.387    0.424
  810.500    0.260   88.153  239.343    2.784    0.407
  810.750    0.218   90.090  237.316    3.064    0.381
  811.000    0.195   85.090  229.002    3.186    0.364
  811.250    0.189   88.288  222.733    3.249    0.374
  811.500    0.142   92.127  209.164    3.314    0.380
  811.750    0.132   82.702  208.169    3.380    0.373
  812.000    0.143   83.377  208.262    3.383    0.372
  812.250    0.170   87.206  208.318    3.320    0.371
  812.500    0.187   86.001  209.481    3.259    0.376
  812.750    0.212   86.676  209.537    3.261    0.392
  813.000    0.198   89.254  210.663    3.591    0.385
  813.250    0.172   88.038  211.788    3.733    0.367
  813.500    0.156   84.288  212.914    3.955    0.364
  813.750    0.153   81.822  214.058    4.034    0.367
  814.000    0.148   82.486  214.114    4.037    0.371
  814.250    0.136   83.803  213.138    3.963    0.365
  814.500    0.126   86.370  211.129    3.817    0.355
  814.750    0.114   88.306  210.153    3.675    0.344
  815.000    0.115   88.340  209.176    3.218    0.333
  815.250    0.163   89.015  209.232    3.158    0.342
  815.500    0.190   89.690  209.307    2.928    0.400
  815.750    0.190   92.888  213.604    2.874    0.414
  816.000    0.164   95.477  218.915    2.876    0.432
  816.250    0.171   94.261  225.332    2.878    0.425
  816.500    0.167   93.045  223.305    2.935    0.407
  816.750    0.151   94.339  220.208    3.294    0.379
  817.000    0.132   96.906  215.028    3.696    0.345
  817.250    0.087   97.582  213.019    3.917    0.307
  817.500    0.144   88.799  212.043    3.846    0.304
  817.750    0.192   84.429  206.863    3.565    0.375
  818.000    0.183   88.257  212.192    3.499    0.440
  818.250    0.167   89.575  214.350    3.370    0.394
  818.500    0.148   90.892  218.647    3.438    0.361
  818.750    0.122   94.698  216.601    3.439    0.343
  819.000    0.095   96.003  211.439    3.645    0.326
  819.250    0.074   96.048  206.259    3.789    0.313
  819.500    0.098   96.093  205.264    3.938    0.329
  819.750    0.134   95.507  206.427    4.173    0.381
  820.000    0.155   96.835  207.534    4.175    0.376
  820.250    0.148   99.391  209.711    3.871    0.364
  820.500    0.147  101.328  211.906    3.521    0.359
  820.750    0.149  102.634  212.994    3.390    0.368
  821.000    0.162  101.417  215.189    3.328    0.373
  821.250    0.193   94.526  216.333    3.205    0.363
  821.500    0.204   82.590  216.408    3.333    0.352
  821.750    0.237   73.795  215.413    3.600    0.337
  822.000    0.215   59.968  212.335    3.814    0.326
  822.250    0.192   54.349  205.053    4.199    0.308
  822.500    0.170   53.774  199.873    4.365    0.291
  822.750    0.177   53.177  197.864    4.286    0.297
  823.000    0.171   52.580  197.920    4.049    0.307
  823.250    0.165   52.016  198.013    3.899    0.298
  823.500    0.166   52.669  198.069    3.616    0.303
  823.750    0.184   53.975  198.162    3.548    0.311
  824.000    0.196   55.912  198.237    3.551    0.303
  824.250    0.179   57.229  198.293    3.552    0.296
  824.500    0.161   56.013  198.368    3.556    0.292
  824.750    0.172   57.949  198.461    3.625    0.310
  825.000    0.184   60.516  197.484    3.699    0.325
  825.250    0.181   61.191  197.559    3.700    0.331
  825.500    0.171   60.617  196.583    3.847    0.337
  825.750    0.181   58.770  195.606    3.923    0.345
  826.000    0.196   58.173  195.662    4.079    0.348
  826.250    0.195   58.218  194.705    4.322    0.329
  826.500    0.188   61.415  194.761    4.493    0.320
  826.750    0.180   65.885  193.803    4.672    0.317
  827.000    0.181   67.833  192.864    4.857    0.316
  827.250    0.184   67.855  192.920    5.049    0.321
  827.500    0.178   66.639  193.013    5.351    0.324
  827.750    0.167   69.217  193.050    5.353    0.316
  828.000    0.158   72.415  193.144    5.459    0.306
  828.250    0.165   71.829  194.269    5.464    0.304
  828.500    0.183   67.471  194.325    5.574    0.320
  828.750    0.194   64.363  196.539    5.794    0.332
