~VERSION INFORMATION
 VERS.                 2.0:   CWLS LOG ASCII STANDARD -VERSION 2.0
 WRAP.                  NO:   ONE LINE PER DEPTH STEP
~WELL INFORMATION BLOCK
#MNEM.UNIT           DATA                    DESCRIPTION OF MNEMONIC
#---------    -------------------            -------------------------------
# Generated from Intellog Unique Number	CN_94_101/WELL/2789
WELL.         NORTHSTAR ENERGYN CORP.        : Well_name    - WELL
LOC .         00/11-35-094-16W4/0            : Location     - LOCATION
UWI .         00/11-35-094-16W400            : Uwi          - UNIQUE WELL ID
ENTR.         JOETTE                         : Entered      - ENTERED BY
SRVC.         SCHLUMBERGER                   : Scn          - SERVICE COMPANY
DATE.         07/06/92                       : Date         - LOG DATE
STRT.M        150                            : top_depth    - START DEPTH
STOP.M        290                            : bot_depth    - STOP DEPTH
STEP.M        0.25                           : increment    - STEP LENGTH
 NULL. -999.2500:NULL Value
~CURVE INFORMATION BLOCK
#MNEM UNIT       ERCB CURVE CODE    CURVE DESCRIPTION
#-----------   ------------------   ----------------------------------
DEPT.M        00 001 00 00         : DEPTH        - DEPTH
GR  .API      00 310 00 00         : GR           - GAMMA RAY
NPHI.V/V      00 330 00 00         : PHIN         - NEUTRON POROSITY (SANDSTONE)
DPHI.V/V      00 890 00 00         : PHID         - DENSITY POROSITY (SANDSTONE)
ILD .OHMM     00 120 00 00         : RESD         - DEEP RESISTIVITY (DIL)
~PARAMETER INFORMATION
#MNEM.UNIT           DATA             DESCRIPTION OF MNEMONIC
#---------         -----------     ------------------------------
GL  .M        538.7                : gl           - GROUND LEVEL ELEVATION
EREF.M        542.3                : kb           - ELEVATION OF DEPTH REFERENCE
DATM.M        542.3                : datum        - DATUM ELEVATION
TDD .M        300                  : tdd          - TOTAL DEPTH DRILLER
RUN .         ONE                  : Run          - RUN NUMBER
ENG .         BILL                 : Engineer     - RECORDING ENGINEER
WIT .         JIM                  : Witness      - WITNESSED BY
MUD .         GEL                  : Mud_type     - MUD TYPE
MATR.         SANDSTONE            : Logunit      - NEUTRON MATRIX
TMAX.C        15                   : BHT          - MAXIMUM RECORDED TEMPERATURE
BHTD.M        300                  : BHTDEP       - MAXIMUM RECORDED TEMPERATURE
RMT .C        15                   : MDTP         - TEMPERATURE OF MUD
MUDD.KG/M     1055                 : MWT          - MUD DENSITY
NEUT.         1                    : NEUTRON      - NEUTRON TYPE
RESI.         0                    : RESIST       - RESISTIVITY TYPE
RM  .OHMM     0.25                 : RM           - RESISTIVITY OF MUD
RMC .OHMM     0.25                 : RMC          - RESISTIVITY OF MUD CAKE
RMF .OHMM     0.25                 : RMF          - RESISTIVITY OF MUD FILTRATE
SUFT.C        4                    : SUFT         - SURFACE TEMPERATURE
~A  DEPTH       GR     PHIN     PHID     RESD
  150.000  105.330    0.521    0.333    2.785
  150.250  101.289    0.526    0.326    2.956
  150.500  105.519    0.525    0.211    3.134
  150.750  112.075    0.521    0.212    3.263
  151.000  114.542    0.510    0.235    3.275
  151.250  113.438    0.502    0.261    3.176
  151.500  108.833    0.495    0.289    3.127
  151.750  109.539    0.500    0.285    3.019
  152.000  110.832    0.509    0.285    2.977
  152.250  110.291    0.530    0.291    3.102
  152.500  107.449    0.558    0.302    3.345
  152.750  102.844    0.553    0.300    4.676
  153.000   97.088    0.537    0.296    5.441
  153.250   94.810    0.516    0.297    6.209
  153.500   91.967    0.483    0.297    7.087
  153.750   89.101    0.457    0.292    7.948
  154.000   81.560    0.433    0.261    7.976
  154.250   82.829    0.416    0.232    7.574
  154.500   87.035    0.424    0.279    7.320
  154.750   88.891    0.455    0.270    6.591
  155.000   86.073    0.464    0.266    6.254
  155.250   86.143    0.460    0.272    5.940
  155.500   94.485    0.446    0.278    5.740
  155.750   99.865    0.444    0.273    5.666
  156.000  100.571    0.452    0.265    6.003
  156.250   85.957    0.458    0.288    6.360
  156.500   84.289    0.452    0.337    6.869
  156.750   86.146    0.448    0.333    7.703
  157.000   83.891    0.454    0.304    8.320
  157.250   76.913    0.452    0.248    9.339
  157.500   68.808    0.435    0.242    9.714
  157.750   71.815    0.424    0.219   10.301
  158.000   76.632    0.416    0.242   10.529
  158.250   76.727    0.430    0.319    9.999
  158.500   75.059    0.467    0.316    9.673
  158.750   72.193    0.486    0.301    9.887
  159.000   71.113    0.499    0.292    9.922
  159.250   71.818    0.458    0.281    9.243
  159.500   74.826    0.456    0.282    6.913
  159.750   81.405    0.464    0.288    4.889
  160.000   87.373    0.481    0.298    4.475
  160.250   95.127    0.496    0.307    4.663
  160.500   96.396    0.505    0.304    5.037
  160.750   96.514    0.506    0.282    5.336
  161.000  100.133    0.502    0.263    5.674
  161.250  103.141    0.490    0.267    5.789
  161.500  107.370    0.509    0.259    6.027
  161.750  106.877    0.523    0.244    6.166
  162.000  104.035    0.521    0.230    6.419
  162.250  103.542    0.522    0.234    6.561
  162.500  101.874    0.515    0.246    6.579
  162.750   99.008    0.510    0.241    6.602
  163.000   99.713    0.511    0.241    6.505
  163.250   98.610    0.515    0.248    6.409
  163.500   82.257    0.509    0.268    5.981
  163.750   88.225    0.495    0.161    5.572
  164.000  103.052    0.487    0.120    5.191
  164.250  107.234    0.513    0.137    5.119
  164.500  113.813    0.529    0.170    5.039
  164.750  112.146    0.502    0.243    4.789
  165.000  108.692    0.494    0.289    4.226
  165.250  105.286    0.500    0.281    3.869
  165.500  107.142    0.517    0.271    3.742
  165.750  110.174    0.530    0.266    3.756
  166.000  112.030    0.535    0.271    4.053
  166.250  110.362    0.538    0.287    4.458
  166.500  105.170    0.530    0.293    5.000
  166.750  101.717    0.512    0.286    5.505
  167.000   95.374    0.500    0.278    5.951
  167.250   91.920    0.500    0.267    6.185
  167.500   87.879    0.487    0.275    6.816
  167.750   90.934    0.460    0.285    7.096
  168.000   95.140    0.465    0.280    7.388
  168.250   97.584    0.493    0.283    7.558
  168.500   94.742    0.506    0.295    7.572
  168.750   84.851    0.490    0.309    7.466
  169.000   76.698    0.455    0.314    7.091
  169.250   83.841    0.463    0.288    6.980
  169.500   93.357    0.470    0.275    7.274
  169.750   97.000    0.475    0.272    7.299
  170.000   94.721    0.491    0.277    6.676
  170.250   87.767    0.510    0.278    5.784
  170.500   80.813    0.526    0.273    5.388
  170.750   76.772    0.511    0.273    5.610
  171.000   72.778    0.483    0.279    6.653
  171.250   70.499    0.465    0.296    7.313
  171.500   68.832    0.464    0.317    8.201
  171.750   70.101    0.486    0.358    8.697
  172.000   73.132    0.497    0.364    8.727
  172.250   82.061    0.494    0.342    7.989
  172.500   90.379    0.501    0.319    7.181
  172.750   96.370    0.512    0.307    6.574
  173.000   92.377    0.499    0.317    6.248
  173.250   95.384    0.483    0.309    6.146
  173.500   96.677    0.477    0.282    6.060
  173.750   94.422    0.476    0.274    6.082
  174.000   93.906    0.485    0.306    5.997
  174.250   96.937    0.496    0.302    5.898
  174.500   98.817    0.500    0.297    5.602
  174.750   98.300    0.497    0.300    5.223
  175.000   94.307    0.499    0.303    5.057
  175.250   92.639    0.510    0.293    5.265
  175.500   95.083    0.528    0.297    5.481
  175.750   95.765    0.523    0.316    5.496
  176.000   94.073    0.521    0.333    5.722
  176.250   89.469    0.519    0.363    5.848
  176.500   83.102    0.435    0.309    6.201
  176.750   85.569    0.429    0.280    6.961
  177.000   89.752    0.420    0.245    7.247
  177.250   96.355    0.429    0.262    7.273
  177.500   99.386    0.454    0.294    6.901
  177.750  101.806    0.491    0.293    6.089
  178.000  104.250    0.525    0.277    5.275
  178.250  108.480    0.533    0.241    4.737
  178.500  113.884    0.500    0.218    4.425
  178.750  114.543    0.490    0.225    4.433
  179.000  109.374    0.479    0.192    4.788
  179.250  104.159    0.461    0.183    5.171
  179.500  106.015    0.481    0.205    5.194
  179.750  111.983    0.521    0.210    4.937
  180.000  117.388    0.541    0.212    4.856
  180.250  116.307    0.554    0.227    4.611
  180.500  114.029    0.546    0.246    4.383
  180.750  114.147    0.531    0.261    4.399
  181.000  118.940    0.525    0.260    4.500
  181.250  120.209    0.522    0.254    4.596
  181.500  110.882    0.526    0.251    4.878
  181.750   99.229    0.507    0.183    4.977
  182.000   94.037    0.478    0.154    5.087
  182.250   99.418    0.465    0.140    5.715
  182.500  102.472    0.483    0.205    5.939
  182.750  103.131    0.490    0.217    6.421
  183.000  110.297    0.476    0.247    6.808
  183.250  113.940    0.454    0.239    7.220
  183.500  109.899    0.437    0.238    7.949
  183.750  103.508    0.429    0.239    8.586
  184.000   99.491    0.425    0.248    8.931
  184.250  100.760    0.419    0.270    9.470
  184.500   96.156    0.411    0.266    9.688
  184.750   89.789    0.415    0.260    9.546
  185.000   92.844    0.432    0.250    9.748
  185.250   96.462    0.432    0.246   10.176
  185.500   98.883    0.449    0.252   10.194
  185.750   99.564    0.473    0.259   10.052
  186.000   97.309    0.446    0.260   10.088
  186.250   96.253    0.436    0.254   10.123
  186.500  100.459    0.446    0.256    9.983
  186.750  104.101    0.462    0.264   10.018
  187.000   98.298    0.456    0.267    9.853
  187.250   97.218    0.445    0.266    9.888
  187.500   97.359    0.425    0.261    9.751
  187.750   95.644    0.410    0.239   10.160
  188.000   88.079    0.390    0.191   10.367
  188.250   79.363    0.371    0.178   10.993
  188.500   86.506    0.380    0.166   11.445
  188.750   93.085    0.403    0.207   11.276
  189.000   96.116    0.426    0.241   10.908
  189.250   93.274    0.432    0.254   10.368
  189.500   90.408    0.436    0.256   10.029
  189.750   90.549    0.432    0.241    9.882
  190.000   92.406    0.418    0.220    9.916
  190.250   94.826    0.407    0.221    9.951
  190.500   95.508    0.414    0.242   10.181
  190.750   96.190    0.414    0.255   10.199
  191.000   98.046    0.411    0.267   10.048
  191.250   98.141    0.408    0.270    9.369
  191.500   94.123    0.415    0.271    8.744
  191.750   94.829    0.425    0.265    8.304
  192.000   97.273    0.414    0.250    8.326
  192.250   97.344    0.405    0.244    8.837
  192.500   99.200    0.404    0.253    9.553
  192.750  105.803    0.415    0.257    9.747
  193.000  108.223    0.429    0.252    9.980
  193.250  105.381    0.431    0.246    9.816
