~VERSION INFORMATION
 VERS.                 2.0:   CWLS LOG ASCII STANDARD -VERSION 2.0
 WRAP.                  NO:   ONE LINE PER DEPTH STEP
~WELL INFORMATION BLOCK
#MNEM.UNIT           DATA                    DESCRIPTION OF MNEMONIC
#---------    -------------------            -------------------------------
# Generated from Intellog Unique Number	CW_76_78/WELL/2805
WELL.         SCURRY ATKINSON PASTECHO 10-18 : Well_name    - WELL
LOC .         00/10-18-078-03W5/0            : Location     - LOCATION
UWI .         00/10-18-078-03W5/0            : Uwi          - UNIQUE WELL ID
ENTR.         JJ                             : Entered      - ENTERED BY
SRVC.         WESTERN ATLAS                  : Scn          - SERVICE COMPANY
DATE.         25 FEB 73                      : Date         - LOG DATE
STRT.M        472.44                         : top_depth    - START DEPTH
STOP.M        600.44                         : bot_depth    - STOP DEPTH
STEP.M        0.25                           : increment    - STEP LENGTH
 NULL. -999.2500:NULL Value
~CURVE INFORMATION BLOCK
#MNEM UNIT       ERCB CURVE CODE    CURVE DESCRIPTION
#-----------   ------------------   ----------------------------------
DEPT.M        00 001 00 00         : DEPTH        - DEPTH
DELT.US/F     00 520 00 00         : DELT         - SONIC TRAVEL TIME
GR  .API      00 310 00 00         : GR           - GAMMA RAY
ILD .OHMM     00 120 00 00         : RESD         - DEEP RESISTIVITY (DIL)
~PARAMETER INFORMATION
#MNEM.UNIT           DATA             DESCRIPTION OF MNEMONIC
#---------         -----------     ------------------------------
GL  .M        664.769              : gl           - GROUND LEVEL ELEVATION
EREF.M        668.426              : kb           - ELEVATION OF DEPTH REFERENCE
DATM.M        664.769              : datum        - DATUM ELEVATION
TDD .M        602.59               : tdd          - TOTAL DEPTH DRILLER
RUN .         ONE                  : Run          - RUN NUMBER
ENG .         FAYE                 : Engineer     - RECORDING ENGINEER
WIT .         GRIGGTS              : Witness      - WITNESSED BY
BASE.         F.S.J.               : Branch       - HOME BASE OF LOGGING UNIT
MUD .         MUD/GEL              : Mud_type     - MUD TYPE
MATR.         SANDSTONE            : Logunit      - NEUTRON MATRIX
TMAX.C        25                   : BHT          - MAXIMUM RECORDED TEMPERATURE
BHTD.M        600.456              : BHTDEP       - MAXIMUM RECORDED TEMPERATURE
RMT .C        10                   : MDTP         - TEMPERATURE OF MUD
MUDD.KG/M     1104                 : MWT          - MUD DENSITY
NEUT.         1                    : NEUTRON      - NEUTRON TYPE
RESI.         0                    : RESIST       - RESISTIVITY TYPE
RM  .OHMM     3.7                  : RM           - RESISTIVITY OF MUD
RMC .OHMM     4.5                  : RMC          - RESISTIVITY OF MUD CAKE
RMF .OHMM     2                    : RMF          - RESISTIVITY OF MUD FILTRATE
SUFT.C        5                    : SUFT         - SURFACE TEMPERATURE
~A  DEPTH     DELT       GR     RESD
# ...
  526.690  369.740   68.047    7.942
  526.940  359.607   69.021    7.932
  527.190  362.628   68.497    7.993
  527.440  374.223   64.272    8.296
  527.690  386.653   61.265    9.050
  527.940  382.870   59.822   10.097
  528.190  362.655   61.145   11.057
  528.440  334.485   61.231   11.519
  528.690  323.689   58.638   10.632
  528.940  321.361   56.860    9.795
  529.190  303.823   56.712    8.997
  529.440  300.925   61.704    8.298
  529.690  326.438   67.193    7.754
  529.940  369.440   68.968    7.363
  530.190  368.296   67.832    7.225
  530.440  354.417   70.413    7.242
  530.690  352.442   73.720    7.237
  530.940  350.038   72.301    7.374
  531.190  345.752   71.391    7.985
  531.440  345.323   71.801    8.902
  531.690  333.649   67.132    9.505
  531.940  300.175   62.110    9.435
  532.190  277.314   58.646    9.178
  532.440  286.169   56.954    8.643
  532.690  278.871   58.832    7.960
  532.940  326.562   59.512    7.677
  533.190  300.279   62.073    7.877
  533.440  263.246   65.370    7.686
  533.690  319.803   69.349    7.606
  533.940  352.267   73.062    7.601
  534.190  356.949   71.361    7.598
  534.440  358.778   72.255    7.601
  534.690  354.132   74.250    7.614
  534.940  349.940   75.036    7.533
  535.190  352.579   75.498    7.481
  535.440  355.457   75.334    7.465
  535.690  351.161   78.112    7.428
  535.940  353.188   77.555    7.461
  536.190  355.064   74.939    7.425
  536.440  358.077   73.715    7.138
  536.690  366.332   73.159    6.917
  536.940  369.429   74.710    7.227
  537.190  368.305   77.303    7.554
  537.440  364.489   75.628    7.583
  537.690  357.531   74.900    7.499
  537.940  367.654   74.835    7.259
  538.190  375.894   73.043    7.008
  538.440  371.047   71.424    6.872
  538.690  372.409   73.216    6.961
  538.940  379.132   75.391    7.088
  539.190  377.764   73.841    7.127
  539.440  368.824   72.205    7.209
  539.690  372.304   70.877    7.307
  539.940  367.797   70.565    7.275
  540.190  360.011   72.282    7.339
  540.440  363.821   76.708    7.340
  540.690  355.668   77.901    7.400
  540.940  359.288   77.118    7.429
  541.190  365.937   78.849    7.488
  541.440  371.731   81.496    7.533
  541.690  371.846   80.376    7.822
  541.940  359.984   79.444    8.090
  542.190  349.553   77.985    8.042
  542.440  343.950   76.643    7.776
  542.690  341.336   77.440    7.475
  542.940  341.383   80.510    7.245
  543.190  350.466   83.393    6.923
  543.440  364.617   84.371    6.597
  543.690  375.962   87.026    6.310
  543.940  379.833   86.379    6.168
  544.190  386.061   88.151    6.184
  544.440  391.048   93.394    6.458
  544.690  378.857   92.392    7.046
  544.940  368.401   87.057    7.949
  545.190  366.197   80.995    9.329
  545.440  357.895   74.011   10.783
  545.690  329.309   67.795   12.136
  545.940  304.240   70.964   13.261
  546.190  299.436   76.862   13.959
  546.440  326.565   73.612   14.735
  546.690  336.309   67.878   15.814
  546.940  299.659   58.709   16.349
  547.190  234.667   49.403   16.230
  547.440  212.158   49.213   15.664
  547.690  270.470   54.259   15.029
  547.940  327.697   59.176   14.882
  548.190  352.081   59.324   15.196
  548.440  349.025   57.117   14.766
  548.690  329.862   55.434   13.691
  548.940  295.125   51.876   12.563
  549.190  291.873   59.938   11.784
  549.440  339.934   67.846   11.355
  549.690  353.702   71.644   11.821
  549.940  348.907   74.273   12.825
  550.190  333.809   68.631   14.064
  550.440  338.233   65.234   14.105
  550.690  355.747   64.726   13.553
  550.940  348.067   63.963   12.963
  551.190  333.321   63.308   12.233
  551.440  336.082   61.920   11.547
  551.690  338.830   64.662   10.585
  551.940  339.286   69.355    9.616
  552.190  340.587   74.900    8.749
  552.440  343.111   75.834    8.119
  552.690  355.861   73.983    7.845
  552.940  365.817   70.921    7.583
  553.190  365.980   70.644    7.382
  553.440  362.343   72.208    7.235
  553.690  367.324   74.618    7.115
  553.940  370.964   73.553    7.027
  554.190  366.359   74.769    7.171
  554.440  360.964   76.548    7.346
  554.690  363.162   76.054    7.594
  554.940  367.684   74.335    7.706
  555.190  363.549   73.234    7.777
  555.440  366.742   71.798    7.610
  555.690  363.348   70.262    7.442
  555.940  360.182   73.112    7.268
  556.190  360.843   77.544    7.146
  556.440  363.399   81.940    7.063
  556.690  370.118   85.604    7.061
  556.940  369.638   82.242    7.037
  557.190  362.005   79.048    7.188
  557.440  361.977   79.401    7.441
  557.690  370.683   78.625    7.929
  557.940  366.456   76.263    8.449
  558.190  363.330   71.311    9.009
  558.440  355.033   64.758    9.858
  558.690  344.675   63.987   10.588
  558.940  352.136   66.934   10.934
  559.190  354.799   66.981   10.619
  559.440  343.382   65.629   10.257
  559.690  349.434   65.221   10.248
  559.940  354.290   66.369   10.435
  560.190  354.914   66.636   10.869
  560.440  348.829   64.349   10.989
  560.690  343.744   66.445   10.666
  560.940  337.348   68.608   10.002
  561.190  335.156   64.588    9.357
  561.440  340.992   62.770    8.820
  561.690  337.639   62.417    8.334
  561.940  316.516   65.635    7.963
  562.190  325.411   69.411    7.868
  562.440  353.611   70.123    8.168
  562.690  351.777   69.827    8.713
  562.940  339.905   70.070    9.803
  563.190  335.959   68.829   11.300
  563.440  326.719   62.021   12.710
  563.690  300.092   53.275   14.457
  563.940  248.869   41.649   14.644
  564.190  218.051   36.805   12.649
  564.440  206.457   38.237   11.171
  564.690  207.741   44.416    9.862
  564.940  213.371   51.593    8.790
  565.190  233.479   59.697    8.059
  565.440  326.392   66.040    7.543
  565.690  344.550   70.133    7.160
  565.940  347.814   77.100    7.055
  566.190  356.794   80.688    7.051
  566.440  355.985   82.601    7.076
  566.690  355.844   82.189    7.132
  566.940  361.479   79.762    7.325
  567.190  354.515   76.347    7.609
  567.440  350.217   78.458    7.570
  567.690  352.761   80.097    7.215
  567.940  345.919   78.232    7.101
  568.190  337.122   79.772    7.043
  568.440  348.126   83.460    6.877
  568.690  353.235   86.186    6.840
  568.940  358.016   86.225    6.955
  569.190  360.831   87.566    7.190
  569.440  361.837   84.783    7.400
  569.690  365.416   80.932    7.588
  569.940  362.288   78.266    7.739
  570.190  350.722   77.926    7.855
  570.440  346.887   81.038    7.813
  570.690  353.080   83.277    7.784
  570.940  326.359   80.505    8.086
  571.190  318.664   77.901    8.960
  571.440  317.881   75.106   10.064
  571.690  315.595   70.268   10.914
  571.940  299.544   66.606   10.654
  572.190  262.922   63.875    9.877
  572.440  251.655   61.176    9.097
  572.690  250.993   60.999    8.245
  572.940  249.980   65.160    7.457
  573.190  279.112   69.047    7.415
  573.440  304.719   72.987    7.378
  573.690  317.447   73.083    7.311
  573.940  323.980   72.578    7.261
  574.190  326.114   74.597    7.227
  574.440  325.902   76.089    7.136
  574.690  325.577   75.708    7.330
  574.940  327.334   75.759    7.301
  575.190  328.947   75.883    7.485
  575.440  328.414   76.051    7.569
  575.690  325.498   75.841    7.543
  575.940  318.908   75.924    7.643
  576.190  315.608   77.793    7.749
  576.440  324.378   82.784    7.737
  576.690  321.547   86.111    7.414
  576.940  321.174   84.533    6.862
  577.190  325.707   87.459    6.441
  577.440  341.931   92.606    6.472
  577.690  362.450   96.291    6.622
  577.940  377.443   93.086    6.925
  578.190  377.809   86.508    7.395
  578.440  350.305   81.478    7.653
  578.690  329.860   80.586    7.539
  578.940  339.232   82.690    7.229
  579.190  347.107   84.447    7.012
  579.440  348.635   85.950    7.005
  579.690  354.409   86.761    7.240
  579.940  351.344   85.996    7.431
  580.190  351.378   82.683    7.422
  580.440  357.740   79.374    7.245
  580.690  356.904   79.539    6.892
