~VERSION INFORMATION
 VERS.                 2.0:   CWLS LOG ASCII STANDARD -VERSION 2.0
 WRAP.                  NO:   ONE LINE PER DEPTH STEP
~WELL INFORMATION BLOCK
#MNEM.UNIT           DATA                    DESCRIPTION OF MNEMONIC
#---------    -------------------            -------------------------------
# Generated from Intellog Unique Number	CW_79_81/WELL/901
WELL.         PARAMOUNT ET AL HORIZON        : Well_name    - WELL
LOC .         00/11-11-080-19W4/0            : Location     - LOCATION
UWI .         00/11-11-080-19W4/0            : Uwi          - UNIQUE WELL ID
ENTR.         MAX                            : Entered      - ENTERED BY
SRVC.         COMPUTALOG                     : Scn          - SERVICE COMPANY
STRT.M        185.928                        : top_depth    - START DEPTH
STOP.M        365.678                        : bot_depth    - STOP DEPTH
STEP.M        0.25                           : increment    - STEP LENGTH
 NULL. -999.2500:NULL Value
~CURVE INFORMATION BLOCK
#MNEM UNIT       ERCB CURVE CODE    CURVE DESCRIPTION
#-----------   ------------------   ----------------------------------
DEPT.M        00 001 00 00         : DEPTH        - DEPTH
ILD .OHMM     00 120 00 00         : RESD         - DEEP RESISTIVITY (DIL)
NPHI.V/V      00 330 00 00         : PHIN         - NEUTRON POROSITY (SANDSTONE)
DPHI.V/V      00 890 00 00         : PHID         - DENSITY POROSITY (SANDSTONE)
CALI.MM       00 280 01 00         : CAL          - CALIPER
GR  .API      00 310 00 00         : GR           - GAMMA RAY
~PARAMETER INFORMATION
#MNEM.UNIT           DATA             DESCRIPTION OF MNEMONIC
#---------         -----------     ------------------------------
GL  .M        563.88               : gl           - GROUND LEVEL ELEVATION
EREF.M        566.928              : kb           - ELEVATION OF DEPTH REFERENCE
DATM.M        563.88               : datum        - DATUM ELEVATION
TDD .M        366.674              : tdd          - TOTAL DEPTH DRILLER
RUN .         ONE                  : Run          - RUN NUMBER
ENG .         BILL                 : Engineer     - RECORDING ENGINEER
WIT .         JIM                  : Witness      - WITNESSED BY
MUD .         GEL                  : Mud_type     - MUD TYPE
MATR.         SANDSTONE            : Logunit      - NEUTRON MATRIX
TMAX.C        16.1111              : BHT          - MAXIMUM RECORDED TEMPERATURE
BHTD.M        366.674              : BHTDEP       - MAXIMUM RECORDED TEMPERATURE
RMT .C        20                   : MDTP         - TEMPERATURE OF MUD
MUDD.KG/M     9600                 : MWT          - MUD DENSITY
NEUT.         1                    : NEUTRON      - NEUTRON TYPE
RESI.         0                    : RESIST       - RESISTIVITY TYPE
RM  .OHMM     4.6                  : RM           - RESISTIVITY OF MUD
RMC .OHMM     0                    : RMC          - RESISTIVITY OF MUD CAKE
RMF .OHMM     3.9                  : RMF          - RESISTIVITY OF MUD FILTRATE
SUFT.C        -3.88889             : SUFT         - SURFACE TEMPERATURE
~A  DEPTH     RESD     PHIN     PHID      CAL       GR
# ...
  295.428    9.161    0.432    0.214  160.319   69.571
  295.678    9.085    0.424    0.213  157.289   74.992
  295.928    9.047    0.442    0.218  155.781   78.614
  296.178    8.932    0.428    0.220  155.802   79.226
  296.428    8.816    0.427    0.224  156.839   78.938
  296.678    8.779    0.431    0.223  159.410   74.140
  296.928    8.623    0.418    0.228  160.955   72.954
  297.178    8.308    0.407    0.231  160.467   75.070
  297.428    8.192    0.416    0.225  158.962   73.880
  297.678    7.917    0.422    0.223  158.477   75.996
  297.928    7.205    0.419    0.234  159.004   72.703
  298.178    6.613    0.418    0.223  160.046   76.621
  298.428    6.298    0.458    0.221  161.082   85.650
  298.678    6.261    0.464    0.223  163.142   85.365
  298.928    6.543    0.480    0.254  164.181   86.580
  299.178    7.102    0.466    0.277  163.184   81.481
  299.428    8.177    0.450    0.286  156.085   77.887
  299.678    9.014    0.436    0.285  154.071   72.490
  299.928    9.375    0.419    0.272  154.086   58.677
  300.178   10.013    0.432    0.251  154.110   49.375
  300.428   10.969    0.443    0.236  154.134   56.898
  300.678   12.045    0.396    0.195  154.152   61.118
  300.928   12.763    0.295    0.169  155.700   50.914
  301.178   14.037    0.214    0.133  157.251   46.416
  301.428   15.072    0.164    0.096  157.270   46.130
  301.678   17.657    0.070    0.068  156.787   43.436
  301.928   20.043    0.071    0.065  156.803   41.947
  302.178   20.006    0.122    0.078  156.827   41.056
  302.428   17.468    0.184    0.097  157.357   41.369
  302.678   16.081    0.230    0.148  156.869   45.593
  302.928   15.249    0.256    0.155  156.379   48.008
  303.178   13.425    0.302    0.169  155.891   47.119
  303.428   12.396    0.312    0.230  155.406   52.842
  303.678   11.088    0.383    0.285  154.921   55.860
  303.928   10.416    0.432    0.289  154.939   55.873
  304.178   10.102    0.460    0.291  154.963   56.489
  304.428   10.304    0.451    0.266  154.475   53.495
  304.678   10.703    0.439    0.179  154.496   52.906
  304.928   11.823    0.323    0.134  160.663   51.793
  305.178   11.874    0.407    0.268  161.796   56.674
  305.428   11.724    0.455    0.283  161.401   63.075
  305.678   11.059    0.461    0.283  159.507   61.346
  305.928   10.074    0.448    0.278  159.083   62.910
  306.178    9.368    0.447    0.276  159.212   64.189
  306.428    9.379    0.444    0.283  158.817   63.045
  306.678    9.469    0.470    0.281  158.422   61.901
  306.928    9.439    0.470    0.265  158.537   58.960
  307.178    9.451    0.440    0.269  159.670   56.621
  307.428    9.461    0.442    0.276  160.294   58.794
  307.678    9.392    0.456    0.272  160.917   57.667
  307.928    9.364    0.463    0.265  162.079   58.637
  308.178    9.376    0.435    0.264  162.675   59.607
  308.428    9.384    0.431    0.262  162.308   63.285
  308.678    9.354    0.449    0.262  161.899   63.661
  308.928    9.285    0.451    0.259  161.490   62.225
  309.178    9.257    0.438    0.252  160.600   64.691
  309.428    9.347    0.429    0.218  159.681   68.076
  309.678   10.511    0.382    0.065  159.795   62.720
  309.928   12.631    0.319    0.025  159.910   48.340
  310.178   14.871    0.267    0.024  164.623   42.391
  310.428   16.753    0.093    0.053  163.719   44.572
  310.678   17.241    0.197    0.076  161.286   52.161
  310.928   16.017    0.316    0.103  160.382   60.050
  311.178   13.719    0.379    0.229  160.511   61.329
  311.428   12.496    0.405    0.222  160.116   70.731
  311.678   11.789    0.418    0.237  158.702   67.180
  311.928   10.605    0.434    0.256  157.288   68.760
  312.178    9.860    0.436    0.247  155.874   73.340
  312.428    9.632    0.434    0.231  155.989   71.001
  312.678    9.524    0.423    0.236  156.613   68.361
  312.928    9.455    0.420    0.243  159.260   71.437
  313.178    9.386    0.439    0.229  158.879   76.627
  313.428    9.357    0.448    0.217  158.470   78.817
  313.678    9.329    0.453    0.215  162.674   81.876
  313.928    9.297    0.437    0.216  164.840   77.732
  314.178    9.269    0.432    0.202  164.940   78.101
  314.428    9.241    0.397    0.195  165.055   78.469
  314.678    9.251    0.414    0.214  165.183   76.749
  314.928    9.342    0.425    0.218  165.283   76.206
  315.178    9.431    0.422    0.203  165.398   77.786
  315.428    9.521    0.427    0.194  165.017   80.553
  315.678    9.531    0.430    0.198  165.160   79.417
  315.928    9.503    0.410    0.212  165.260   81.891
  316.178    9.552    0.405    0.211  165.361   88.886
  316.428    9.602    0.423    0.221  165.489   87.450
  316.678    9.734    0.437    0.221  165.604   92.648
  316.928    9.822    0.438    0.214  165.194   93.919
  317.178    9.991    0.442    0.206  164.290   90.669
  317.428   10.283    0.406    0.197  162.891   84.712
  317.678   10.531    0.391    0.188  162.496   76.356
  317.928   10.582    0.377    0.211  161.591   75.513
  318.178   10.671    0.392    0.216  159.159   87.630
  318.428   10.723    0.431    0.212  157.731   91.316
  318.678   10.495    0.434    0.212  157.845   89.287
  318.928   10.306    0.419    0.212  160.011   86.931
  319.178   10.396    0.416    0.212  160.635   86.697
  319.428   10.525    0.403    0.210  161.273   90.977
  319.678   10.377    0.404    0.193  163.425   93.167
  319.928   10.149    0.388    0.194  165.068   87.201
  320.178    9.880    0.415    0.210  165.182   84.862
  320.428    9.734    0.444    0.207  165.297   87.946
  320.678    9.704    0.449    0.198  164.393   86.811
  320.928    9.674    0.409    0.198  163.502   86.594
  321.178    9.564    0.413    0.182  161.594   87.547
  321.428    9.733    0.431    0.172  159.656   83.403
  321.678    9.986    0.407    0.165  158.242   81.357
  321.928    9.718    0.408    0.183  157.833   88.953
  322.178    9.327    0.422    0.200  158.966   92.940
  322.428    8.423    0.434    0.209  159.081   91.203
  322.678    8.593    0.412    0.211  158.700   94.279
  322.928    8.404    0.405    0.208  159.310   92.541
  323.178    8.018    0.426    0.199  160.457   94.113
  323.428    7.909    0.448    0.199  162.623   94.189
  323.678    8.119    0.419    0.204  165.794   94.557
  323.928    8.287    0.404    0.159  165.909   90.104
  324.178    8.220    0.382    0.147  161.439   83.253
  324.428    8.188    0.380    0.173  157.973   76.092
  324.678    8.995    0.418    0.200  158.611   75.257
  324.928    9.802    0.421    0.199  161.768   84.066
  325.178    9.495    0.395    0.196  162.915   88.938
  325.428    9.227    0.389    0.200  163.030   92.933
  325.678    9.077    0.381    0.203  163.130   91.789
  325.928    9.049    0.387    0.207  163.768   93.962
  326.178    9.139    0.390    0.201  163.882   95.242
  326.428    9.347    0.400    0.185  165.030   90.788
  326.678   10.473    0.386    0.186  165.668   82.124
  326.928   11.239    0.365    0.165  164.735   78.581
  327.178   12.127    0.378    0.156  161.807   79.861
  327.428   12.573    0.359    0.160  157.847   70.293
  327.678   13.779    0.329    0.147  156.928   67.653
  327.928   15.421    0.310    0.142  160.099   69.534
  328.178   14.915    0.293    0.106  161.770   64.471
  328.428   13.970    0.296    0.124  160.851   64.238
  328.678   13.185    0.305    0.194  159.423   71.534
  328.928   12.599    0.383    0.215  159.028   73.406
  329.178   11.614    0.404    0.219  159.666   77.092
  329.428   11.185    0.383    0.238  160.304   78.965
  329.678   11.185    0.390    0.222  159.895   80.235
  329.928   11.015    0.379    0.205  160.010   85.434
  330.178   10.978    0.382    0.185  159.134   88.802
  330.428   11.190    0.391    0.200  158.710   94.602
  330.678   11.439    0.383    0.207  161.386   96.784
  330.928   11.527    0.377    0.194  163.538   94.127
  331.178   11.897    0.376    0.167  163.638   78.243
  331.428   12.945    0.361    0.150  163.286   72.294
  331.678   14.029    0.356    0.173  162.382   76.272
