~VERSION INFORMATION
 VERS.                 2.0:   CWLS LOG ASCII STANDARD -VERSION 2.0
 WRAP.                  NO:   ONE LINE PER DEPTH STEP
~WELL INFORMATION BLOCK
#MNEM.UNIT           DATA                    DESCRIPTION OF MNEMONIC
#---------    -------------------            -------------------------------
# Generated from Intellog Unique Number	CS_77_79/WELL/981
WELL.         CANON SIEBANS COWPAR           : Well_name    - WELL
LOC .         00/10-33-079-04W4/0            : Location     - LOCATION
UWI .         00/10-33-079-04W4/0            : Uwi          - UNIQUE WELL ID
ENTR.         JHS                            : Entered      - ENTERED BY
SRVC.         SCHLUMBERGER                   : Scn          - SERVICE COMPANY
STRT.M        103.632                        : top_depth    - START DEPTH
STOP.M        319.882                        : bot_depth    - STOP DEPTH
STEP.M        0.25                           : increment    - STEP LENGTH
 NULL. -999.2500:NULL Value
~CURVE INFORMATION BLOCK
#MNEM UNIT       ERCB CURVE CODE    CURVE DESCRIPTION
#-----------   ------------------   ----------------------------------
DEPT.M        00 001 00 00         : DEPTH        - DEPTH
RHOB.KG/M3    00 350 00 00         : DENS         - BULK DENSITY
GR  .API      00 310 00 00         : GR           - GAMMA RAY
DPHI.V/V      00 890 00 00         : PHID         - DENSITY POROSITY (SANDSTONE)
NPHI.V/V      00 330 00 00         : PHIN         - NEUTRON POROSITY (SANDSTONE)
ILD .OHMM     00 120 00 00         : RESD         - DEEP RESISTIVITY (DIL)
~PARAMETER INFORMATION
#MNEM.UNIT           DATA             DESCRIPTION OF MNEMONIC
#---------         -----------     ------------------------------
GL  .M        470.916              : gl           - GROUND LEVEL ELEVATION
EREF.M        474.269              : kb           - ELEVATION OF DEPTH REFERENCE
DATM.M        474.269              : datum        - DATUM ELEVATION
TDD .M        329.184              : tdd          - TOTAL DEPTH DRILLER
RUN .         ONE                  : Run          - RUN NUMBER
ENG .         BILL                 : Engineer     - RECORDING ENGINEER
WIT .         JIM                  : Witness      - WITNESSED BY
MUD .         GEL                  : Mud_type     - MUD TYPE
MATR.         SANDSTONE            : Logunit      - NEUTRON MATRIX
TMAX.C        60                   : BHT          - MAXIMUM RECORDED TEMPERATURE
BHTD.M        329.184              : BHTDEP       - MAXIMUM RECORDED TEMPERATURE
MATR.         1                    : LOGUNIT      - NEUTRON MATRIX
RMT .C        25                   : MDTP         - TEMPERATURE OF MUD
NEUT.         1                    : NEUTRON      - NEUTRON TYPE
RESI.         0                    : RESIST       - RESISTIVITY TYPE
RMC .OHMM     0.25                 : RMC          - RESISTIVITY OF MUD CAKE
RMF .OHMM     0.25                 : RMF          - RESISTIVITY OF MUD FILTRATE
SUFT.C        15                   : SUFT         - SURFACE TEMPERATURE
~A  DEPTH     DENS       GR     PHID     PHIN     RESD
# ...
  249.632 2179.190   31.802    0.310    0.412    1.466
  249.882 2151.670   35.914    0.327    0.395    1.622
  250.132 2191.030   48.814    0.303    0.373    1.828
  250.382 2221.250   55.651    0.286    0.408    2.062
  250.632 2270.050   65.725    0.257    0.448    2.239
  250.882 2297.000   65.834    0.242    0.445    2.371
  251.132 2282.320   60.395    0.250    0.424    2.407
  251.382 2250.920   61.295    0.268    0.409    2.365
  251.632 2263.610   57.901    0.261    0.400    2.223
  251.882 2254.280   56.137    0.267    0.392    2.104
  252.132 2264.000   55.471    0.261    0.405    1.968
  252.382 2275.040   47.375    0.254    0.425    1.889
  252.632 2216.460   42.712    0.289    0.429    1.740
  252.882 2233.640   38.983    0.279    0.399    1.679
  253.132 2208.640   35.678    0.293    0.375    1.692
  253.382 2219.830   33.811    0.287    0.356    1.674
  253.632 2237.430   31.275    0.276    0.349    1.732
  253.882 2251.260   32.038    0.268    0.337    1.751
  254.132 2255.370   32.696    0.266    0.324    1.823
  254.382 2277.500   33.331    0.253    0.327    1.855
  254.632 2264.870   33.990    0.260    0.333    1.852
  254.882 2285.660   33.275    0.248    0.331    1.852
  255.132 2275.590   33.355    0.254    0.325    1.852
  255.382 2284.880   34.864    0.249    0.315    1.910
  255.632 2281.320   36.291    0.251    0.314    1.974
  255.882 2251.910   39.356    0.268    0.320    2.141
  256.132 2281.240   43.373    0.251    0.331    2.266
  256.382 2305.890   52.397    0.236    0.342    2.538
  256.632 2347.580   59.998    0.212    0.371    2.711
  256.882 2344.220   63.267    0.214    0.385    2.856
  257.132 2327.640   61.136    0.224    0.385    2.875
  257.382 2339.060   58.167    0.217    0.376    2.926
  257.632 2310.890   56.723    0.233    0.366    2.854
  257.882 2326.470   56.870    0.224    0.362    2.598
  258.132 2326.810   57.908    0.224    0.365    2.416
  258.382 2347.830   58.932    0.212    0.388    2.248
  258.632 2349.300   59.267    0.211    0.418    1.906
  258.882 2284.000   56.791    0.249    0.444    1.735
  259.132 2180.860   45.170    0.309    0.428    1.604
  259.382 2156.030   37.338    0.324    0.403    1.592
  259.632 2190.460   36.282    0.304    0.388    1.557
  259.882 2206.810   39.289    0.294    0.389    1.596
  260.132 2226.220   39.169    0.283    0.403    1.700
  260.382 2251.920   39.172    0.268    0.384    1.790
  260.632 2283.540   37.428    0.249    0.357    1.883
  260.882 2270.750   32.875    0.257    0.335    1.936
  261.132 2255.850   31.951    0.266    0.312    1.983
  261.382 2288.820   31.996    0.246    0.310    1.979
  261.632 2331.570   32.617    0.221    0.308    1.978
  261.882 2321.510   32.636    0.227    0.303    1.966
  262.132 2292.190   32.010    0.244    0.303    1.942
  262.382 2299.300   31.071    0.240    0.312    1.940
  262.632 2301.240   30.227    0.239    0.331    1.934
  262.882 2266.570   29.744    0.259    0.329    1.871
  263.132 2272.020   27.720    0.256    0.327    1.851
  263.382 2244.320   27.377    0.272    0.320    1.836
  263.632 2267.930   29.406    0.259    0.312    1.860
  263.882 2251.180   35.773    0.268    0.305    1.956
  264.132 2272.930   44.658    0.256    0.320    2.057
  264.382 2298.600   52.301    0.241    0.370    2.187
  264.632 2307.470   55.556    0.235    0.352    2.374
  264.882 2329.990   62.261    0.222    0.383    2.551
  265.132 2337.000   64.713    0.218    0.396    2.755
  265.382 2327.650   62.022    0.224    0.387    2.878
  265.632 2337.810   59.809    0.218    0.379    2.949
  265.882 2338.520   56.236    0.217    0.381    2.919
  266.132 2311.970   54.456    0.233    0.393    2.822
  266.382 2328.900   50.062    0.223    0.387    2.608
  266.632 2328.820   42.856    0.223    0.380    2.369
  266.882 2320.120   37.186    0.228    0.369    2.059
  267.132 2288.180   31.702    0.247    0.354    1.920
  267.382 2277.530   29.616    0.253    0.344    1.761
  267.632 2255.350   30.043    0.266    0.351    1.695
  267.882 2226.230   31.576    0.283    0.339    1.669
  268.132 2243.860   30.837    0.273    0.327    1.633
  268.382 2248.750   28.227    0.270    0.328    1.636
  268.632 2272.900   27.542    0.256    0.333    1.680
  268.882 2254.210   29.146    0.267    0.332    1.661
  269.132 2229.300   29.495    0.281    0.327    1.665
  269.382 2238.030   29.569    0.276    0.326    1.666
  269.632 2259.450   28.874    0.263    0.329    1.670
  269.882 2251.930   28.954    0.268    0.333    1.696
  270.132 2263.310   29.021    0.261    0.336    1.695
  270.382 2258.890   28.357    0.264    0.338    1.694
  270.632 2256.800   27.923    0.265    0.337    1.691
  270.882 2245.190   27.896    0.272    0.334    1.729
  271.132 2261.950   27.235    0.262    0.325    1.690
  271.382 2260.980   27.910    0.263    0.326    1.662
  271.632 2266.770   28.003    0.259    0.332    1.620
  271.882 2265.950   29.067    0.260    0.346    1.572
  272.132 2256.290   29.356    0.265    0.357    1.525
  272.382 2240.190   31.205    0.275    0.386    1.480
  272.632 2208.150   33.209    0.293    0.409    1.436
  272.882 2189.790   32.488    0.304    0.424    1.393
  273.132 2170.580   29.564    0.315    0.418    1.351
  273.382 2190.340   31.784    0.304    0.411    1.330
  273.632 2217.080   33.079    0.288    0.416    1.330
  273.882 2194.520   32.700    0.301    0.396    1.330
  274.132 2161.520   30.183    0.321    0.387    1.329
  274.382 2151.090   30.086    0.327    0.401    1.318
  274.632 2148.090   30.441    0.329    0.409    1.355
  274.882 2160.520   29.479    0.321    0.403    1.409
  275.132 2145.290   28.639    0.330    0.395    1.370
  275.382 2157.150   28.713    0.323    0.395    1.329
  275.632 2180.340   29.098    0.310    0.412    1.330
  275.882 2194.590   29.435    0.301    0.437    1.296
  276.132 2182.790   29.971    0.308    0.413    1.281
  276.382 2165.710   30.001    0.318    0.407    1.255
  276.632 2176.470   30.101    0.312    0.428    1.230
  276.882 2166.910   32.018    0.318    0.440    1.253
  277.132 2161.950   36.823    0.320    0.440    1.281
  277.382 2149.430   44.095    0.328    0.433    1.380
  277.632 2136.730   49.792    0.335    0.438    1.528
  277.882 2170.830   52.861    0.315    0.418    1.769
  278.132 2248.260   61.681    0.270    0.408    2.016
  278.382 2311.850   72.402    0.233    0.466    2.195
  278.632 2340.100   85.550    0.216    0.465    2.516
  278.882 2373.250   86.315    0.197    0.451    2.694
  279.132 2335.870   82.729    0.219    0.456    2.810
  279.382 2348.910   80.209    0.211    0.450    2.792
  279.632 2347.800   73.877    0.212    0.453    2.618
  279.882 2291.360   73.767    0.245    0.449    2.426
  280.132 2327.410   68.768    0.224    0.439    2.236
  280.382 2292.860   53.352    0.244    0.434    1.980
  280.632 2174.420   40.673    0.313    0.414    1.731
  280.882 2159.660   37.446    0.322    0.411    1.556
  281.132 2196.800   42.208    0.300    0.423    1.551
  281.382 2232.450   52.937    0.279    0.414    1.665
  281.632 2280.310   61.843    0.251    0.438    1.827
  281.882 2287.900   64.118    0.247    0.444    2.019
  282.132 2304.820   61.018    0.237    0.453    2.123
  282.382 2304.450   58.848    0.237    0.479    2.056
  282.632 2247.170   50.593    0.271    0.468    1.806
  282.882 2108.650   38.646    0.352    0.455    1.661
  283.132 2132.540   36.752    0.338    0.452    1.557
  283.382 2149.390   39.849    0.328    0.445    1.513
  283.632 2182.560   39.901    0.308    0.437    1.468
  283.882 2177.550   36.598    0.311    0.431    1.444
  284.132 2171.710   36.480    0.315    0.438    1.413
  284.382 2135.970   32.904    0.336    0.445    1.416
  284.632 2132.960   29.626    0.337    0.432    1.391
  284.882 2179.090   33.505    0.310    0.438    1.362
  285.132 2147.190   36.536    0.329    0.464    1.364
  285.382 2120.160   32.756    0.345    0.466    1.348
  285.632 2151.610   29.947    0.327    0.425    1.368
  285.882 2203.810   34.293    0.296    0.384    1.431
