~VERSION INFORMATION
 VERS.                 2.0:   CWLS LOG ASCII STANDARD -VERSION 2.0
 WRAP.                  NO:   ONE LINE PER DEPTH STEP
~WELL INFORMATION BLOCK
#MNEM.UNIT           DATA                    DESCRIPTION OF MNEMONIC
#---------    -------------------            -------------------------------
# Generated from Intellog Unique Number	CX_WELLS/WELL/2955
WELL.         ATCOR HANGINGSTONE             : Well_name    - WELL
LOC .         00/12-07-082-10W4/0            : Location     - LOCATION
UWI .         00/12-07-082-10W400            : Uwi          - UNIQUE WELL ID
ENTR.         T                              : Entered      - ENTERED BY
SRVC.         SCHLUMBERGER                   : Scn          - SERVICE COMPANY
STRT.M        260                            : top_depth    - START DEPTH
STOP.M        480                            : bot_depth    - STOP DEPTH
STEP.M        0.25                           : increment    - STEP LENGTH
 NULL. -999.2500:NULL Value
~CURVE INFORMATION BLOCK
#MNEM UNIT       ERCB CURVE CODE    CURVE DESCRIPTION
#-----------   ------------------   ----------------------------------
DEPT.M        00 001 00 00         : DEPTH        - DEPTH
GR  .API      00 310 00 00         : GR           - GAMMA RAY
NPHI.V/V      00 330 00 00         : PHIN         - NEUTRON POROSITY (SANDSTONE)
DPHI.V/V      00 890 00 00         : PHID         - DENSITY POROSITY (SANDSTONE)
ILD .OHMM     00 120 00 00         : RESD         - DEEP RESISTIVITY (OTHER)
~PARAMETER INFORMATION
#MNEM.UNIT           DATA             DESCRIPTION OF MNEMONIC
#---------         -----------     ------------------------------
GL  .M        702                  : gl           - GROUND LEVEL ELEVATION
EREF.M        706                  : kb           - ELEVATION OF DEPTH REFERENCE
DATM.M        706                  : datum        - DATUM ELEVATION
TDD .M        490                  : tdd          - TOTAL DEPTH DRILLER
RUN .         ONE                  : Run          - RUN NUMBER
ENG .         BILL                 : Engineer     - RECORDING ENGINEER
WIT .         JIM                  : Witness      - WITNESSED BY
MUD .         GEL                  : Mud_type     - MUD TYPE
MATR.         SANDSTONE            : Logunit      - NEUTRON MATRIX
TMAX.C        24                   : BHT          - MAXIMUM RECORDED TEMPERATURE
BHTD.M        490                  : BHTDEP       - MAXIMUM RECORDED TEMPERATURE
MATR.         1                    : LOGUNIT      - NEUTRON MATRIX
RMT .C        24                   : MDTP         - TEMPERATURE OF MUD
NEUT.         1                    : NEUTRON      - NEUTRON TYPE
RESI.         7                    : RESIST       - RESISTIVITY TYPE
RMC .OHMM     8.6                  : RMC          - RESISTIVITY OF MUD CAKE
RMF .OHMM     8.6                  : RMF          - RESISTIVITY OF MUD FILTRATE
SUFT.C        4                    : SUFT         - SURFACE TEMPERATURE
~A  DEPTH       GR     PHIN     PHID     RESD
# ...
  347.000   76.882    0.447    0.271    9.629
  347.250   76.934    0.450    0.282    8.042
  347.500   76.955    0.461    0.293    6.598
  347.750   77.007    0.493    0.296    6.486
  348.000   77.048    0.525    0.288    6.263
  348.250   78.826    0.541    0.279    6.271
  348.500   79.422    0.467    0.264    6.511
  348.750   80.635    0.447    0.254    6.764
  349.000   81.817    0.450    0.258    6.892
  349.250   84.170    0.452    0.270    6.777
  349.500   85.362    0.461    0.275    6.311
  349.750   87.715    0.469    0.263    5.879
  350.000   90.048    0.476    0.255    5.575
  350.250   92.380    0.486    0.250    5.480
  350.500   95.905    0.484    0.245    5.293
  350.750   97.076    0.482    0.244    5.298
  351.000   98.268    0.476    0.244    5.211
  351.250   98.906    0.470    0.244    5.124
  351.500   98.937    0.467    0.244    4.949
  351.750  100.129    0.473    0.246    4.868
  352.000  100.746    0.483    0.253    4.871
  352.250   98.486    0.496    0.262    4.707
  352.500   96.227    0.509    0.264    4.626
  352.750   94.542    0.502    0.257    4.548
  353.000   96.310    0.500    0.253    4.235
  353.250   97.502    0.504    0.256    3.944
  353.500   97.543    0.517    0.258    3.355
  353.750   96.434    0.535    0.257    3.067
  354.000   95.911    0.531    0.255    2.755
  354.250   96.528    0.536    0.254    2.660
  354.500   95.994    0.543    0.252    2.616
  354.750   95.450    0.540    0.252    2.619
  355.000   94.926    0.552    0.256    2.720
  355.250   94.382    0.556    0.263    2.875
  355.500   92.718    0.544    0.270    3.095
  355.750   92.164    0.538    0.279    3.583
  356.000   89.904    0.549    0.285    4.225
  356.250   87.069    0.518    0.293    4.717
  356.500   84.244    0.492    0.299    5.078
  356.750   82.560    0.481    0.304    5.271
  357.000   81.451    0.469    0.306    5.472
  357.250   80.927    0.463    0.306    5.479
  357.500   81.534    0.469    0.306    5.389
  357.750   82.726    0.474    0.302    5.299
  358.000   84.483    0.475    0.297    5.120
  358.250   86.250    0.474    0.292    5.032
  358.500   83.425    0.462    0.286    4.947
  358.750   81.731    0.450    0.297    5.138
  359.000   79.492    0.438    0.296    5.432
  359.250   78.958    0.446    0.288    5.745
  359.500   78.424    0.459    0.273    6.072
  359.750   77.890    0.442    0.263    6.657
  360.000   76.781    0.440    0.273    7.706
  360.250   75.086    0.443    0.283    8.605
  360.500   72.837    0.448    0.295    9.434
  360.750   70.567    0.448    0.306   10.160
  361.000   68.882    0.442    0.311   10.352
  361.250   66.622    0.433    0.314   10.748
  361.500   65.513    0.428    0.317   11.367
  361.750   64.415    0.426    0.317   12.021
  362.000   63.881    0.426    0.317   12.257
  362.250   62.772    0.427    0.316   12.269
  362.500   63.964    0.429    0.318   12.284
  362.750   63.440    0.432    0.320   12.300
  363.000   62.896    0.435    0.322   12.319
  363.250   62.352    0.438    0.325   12.331
  363.500   63.544    0.441    0.327   12.351
  363.750   65.322    0.446    0.328   12.370
  364.000   65.374    0.451    0.329   12.378
  364.250   63.689    0.451    0.332   12.398
  364.500   63.176    0.447    0.332   12.414
  364.750   63.187    0.446    0.333   12.438
  365.000   63.228    0.443    0.333   12.445
  365.250   63.855    0.443    0.333   12.469
  365.500   64.462    0.444    0.332   12.481
  365.750   65.079    0.448    0.331   12.501
  366.000   65.706    0.450    0.330   12.509
  366.250   65.172    0.449    0.327   12.758
  366.500   62.912    0.448    0.320   13.488
  366.750   59.512    0.444    0.313   14.521
  367.000   58.382    0.421    0.297   15.634
  367.250   55.547    0.290    0.129   17.139
  367.500   52.137    0.227    0.087   16.852
  367.750   48.151    0.180    0.040   15.416
  368.000   51.069    0.192    0.058   14.614
  368.250   57.439    0.212    0.137   13.609
  368.500   61.519    0.274    0.217   12.909
  368.750   63.286    0.418    0.281   12.689
  369.000   63.903    0.467    0.298   12.481
  369.250   63.903    0.470    0.324   12.958
  369.500   66.318    0.468    0.359   14.206
  369.750   60.586    0.466    0.354   15.859
  370.000   57.740    0.453    0.323   18.028
  370.250   51.453    0.330    0.117   19.764
  370.500   49.204    0.216    0.072   20.533
  370.750   50.386    0.180    0.047   20.177
  371.000   55.040    0.186    0.062   18.131
  371.250   57.948    0.228    0.117   17.188
  371.500   59.150    0.379    0.189   16.000
  371.750   59.202    0.403    0.236   13.862
  372.000   59.809    0.428    0.283   12.677
  372.250   61.022    0.427    0.313   11.805
  372.500   61.042    0.432    0.357   11.604
  372.750   61.659    0.436    0.352   11.007
  373.000   62.286    0.424    0.347   10.819
  373.250   61.188    0.428    0.340   10.454
  373.500   60.068    0.432    0.339   10.273
  373.750   59.534    0.437    0.340   10.480
  374.000   58.425    0.441    0.342   10.491
  374.250   58.456    0.439    0.343   10.501
  374.500   60.224    0.438    0.341   10.514
  374.750   61.991    0.441    0.340   10.530
  375.000   63.769    0.443    0.340   10.351
  375.250   64.396    0.442    0.347    9.822
  375.500   64.438    0.440    0.351    9.481
  375.750   65.641    0.440    0.349    8.991
  376.000   66.237    0.439    0.346    8.372
  376.250   68.014    0.440    0.339    7.939
  376.500   70.933    0.441    0.328    7.393
  376.750   73.840    0.441    0.309    7.010
  377.000   78.495    0.439    0.295    6.411
  377.250   82.574    0.439    0.269    5.865
  377.500   83.756    0.439    0.269    5.361
  377.750   82.647    0.441    0.268    5.084
  378.000   82.113    0.447    0.267    4.824
  378.250   83.891    0.460    0.264    4.827
  378.500   85.072    0.474    0.266    4.746
  378.750   88.011    0.488    0.270    4.841
  379.000   88.618    0.499    0.272    4.934
  379.250   89.235    0.479    0.279    5.217
  379.500   87.550    0.462    0.284    5.721
  379.750   85.876    0.439    0.294    6.274
  380.000   84.757    0.413    0.291    6.880
  380.250   83.072    0.407    0.282    7.139
  380.500   82.559    0.420    0.260    7.281
  380.750   82.580    0.429    0.255    7.290
  381.000   82.642    0.434    0.250    7.297
  381.250   82.098    0.441    0.244    7.306
  381.500   82.129    0.446    0.240    7.318
  381.750   82.746    0.448    0.243    7.327
  382.000   83.363    0.447    0.249    7.205
  382.250   85.151    0.440    0.253    7.211
  382.500   85.747    0.432    0.256    7.221
  382.750   86.385    0.430    0.256    7.102
  383.000   87.001    0.436    0.256    6.737
  383.250   87.618    0.442    0.256    6.503
  383.500   87.660    0.450    0.255    6.167
  383.750   87.136    0.457    0.255    5.639
  384.000   87.157    0.462    0.257    5.159
  384.250   88.925    0.469    0.259    4.890
  384.500   91.267    0.479    0.264    4.472
  384.750   92.460    0.505    0.267    4.241
  385.000   91.936    0.537    0.271    4.021
  385.250   91.392    0.546    0.274    3.884
  385.500   90.868    0.525    0.278    3.890
  385.750   90.910    0.520    0.285    3.893
  386.000   88.096    0.516    0.292    4.044
  386.250   86.966    0.504    0.298    4.274
  386.500   84.727    0.494    0.268    4.602
  386.750   84.183    0.484    0.252    4.864
  387.000   87.090    0.470    0.246    5.431
  387.250   91.734    0.456    0.250    6.063
  387.500   94.653    0.450    0.252    6.771
  387.750   92.989    0.448    0.254    7.028
  388.000   91.869    0.448    0.257    7.850
  388.250   90.760    0.446    0.257    7.999
  388.500   90.216    0.443    0.258    8.772
  388.750   89.703    0.440    0.262    9.271
  389.000   90.885    0.434    0.265   10.357
  389.250   93.824    0.419    0.262   10.946
  389.500   94.995    0.399    0.259   11.785
  389.750   94.461    0.367    0.236   13.896
  390.000   88.760    0.328    0.131   14.687
  390.250   86.490    0.292    0.078   13.435
