~VERSION INFORMATION
 VERS.                 2.0:   CWLS LOG ASCII STANDARD -VERSION 2.0
 WRAP.                  NO:   ONE LINE PER DEPTH STEP
~WELL INFORMATION BLOCK
#MNEM.UNIT           DATA                    DESCRIPTION OF MNEMONIC
#---------    -------------------            -------------------------------
# Generated from Intellog Unique Number	CS_71_72/WELL/929
WELL.         AEC ET AL FOSTER CREEK         : Well_name    - WELL
LOC .         00/16-36-072-01W4/0            : Location     - LOCATION
UWI .         00/16-36-072-01W4/0            : Uwi          - UNIQUE WELL ID
ENTR.         SP                             : Entered      - ENTERED BY
SRVC.         SCHLUMBERGER                   : Scn          - SERVICE COMPANY
STRT.M        315                            : top_depth    - START DEPTH
STOP.M        585                            : bot_depth    - STOP DEPTH
STEP.M        0.25                           : increment    - STEP LENGTH
 NULL. -999.2500:NULL Value
~CURVE INFORMATION BLOCK
#MNEM UNIT       ERCB CURVE CODE    CURVE DESCRIPTION
#-----------   ------------------   ----------------------------------
DEPT.M        00 001 00 00         : DEPTH        - DEPTH
ILD .OHMM     00 120 00 00         : RESD         - DEEP RESISTIVITY (DIL)
DPHI.V/V      00 890 00 00         : PHID         - DENSITY POROSITY (LIMESTONE)
NPHI.V/V      00 330 00 00         : PHIN         - NEUTRON POROSITY (LIMESTONE)
GR  .API      00 310 00 00         : GR           - GAMMA RAY
~PARAMETER INFORMATION
#MNEM.UNIT           DATA             DESCRIPTION OF MNEMONIC
#---------         -----------     ------------------------------
GL  .M        676                  : gl           - GROUND LEVEL ELEVATION
EREF.M        680.3                : kb           - ELEVATION OF DEPTH REFERENCE
DATM.M        676                  : datum        - DATUM ELEVATION
TDD .M        775                  : tdd          - TOTAL DEPTH DRILLER
RUN .         ONE                  : Run          - RUN NUMBER
ENG .         BILL                 : Engineer     - RECORDING ENGINEER
WIT .         JIM                  : Witness      - WITNESSED BY
MUD .         GEL                  : Mud_type     - MUD TYPE
MATR.         LIMESTONE            : Logunit      - NEUTRON MATRIX
TMAX.C        19                   : BHT          - MAXIMUM RECORDED TEMPERATURE
BHTD.M        775                  : BHTDEP       - MAXIMUM RECORDED TEMPERATURE
MATR.         1                    : LOGUNIT      - NEUTRON MATRIX
RMT .C        25                   : MDTP         - TEMPERATURE OF MUD
NEUT.         1                    : NEUTRON      - NEUTRON TYPE
RESI.         0                    : RESIST       - RESISTIVITY TYPE
RMC .OHMM     0.25                 : RMC          - RESISTIVITY OF MUD CAKE
RMF .OHMM     0.25                 : RMF          - RESISTIVITY OF MUD FILTRATE
SUFT.C        15                   : SUFT         - SURFACE TEMPERATURE
~A  DEPTH     RESD     PHID     PHIN       GR
# ...
  358.500   20.603    0.345    0.385   31.548
  358.750   18.760    0.348    0.398   33.377
  359.000   17.735    0.359    0.399   46.153
  359.250   15.553    0.365    0.393   54.065
  359.500   14.665    0.354    0.425   61.978
  359.750   12.894    0.324    0.494   72.318
  360.000   11.522    0.297    0.468   83.875
  360.250   10.690    0.269    0.459   87.533
  360.500   10.692    0.262    0.449   85.734
  360.750   11.102    0.265    0.454   81.503
  361.000   11.314    0.265    0.445   78.482
  361.250   11.530    0.263    0.463   77.280
  361.500   11.317    0.259    0.478   74.264
  361.750   11.318    0.265    0.473   75.493
  362.000   11.320    0.270    0.460   77.329
  362.250   11.321    0.253    0.457   79.776
  362.500   11.537    0.245    0.451   77.973
  362.750   11.539    0.237    0.440   75.562
  363.000   11.540    0.230    0.436   78.007
  363.250   11.116    0.225    0.435   81.676
  363.500   10.708    0.230    0.433   83.517
  363.750   10.709    0.243    0.451   83.529
  364.000   10.512    0.246    0.462   83.540
  364.250   10.712    0.250    0.457   81.736
  364.500   11.549    0.255    0.450   80.541
  364.750   12.219    0.260    0.442   79.946
  365.000   12.689    0.276    0.436   75.713
  365.250   12.690    0.287    0.443   70.265
  365.500   12.224    0.274    0.448   75.148
  365.750   11.998    0.266    0.436   76.373
  366.000   11.777    0.246    0.437   75.783
  366.250   11.344    0.239    0.426   73.370
  366.500   10.928    0.229    0.424   72.171
  366.750   10.331    0.237    0.427   78.270
  367.000   10.332    0.260    0.444   80.105
  367.250   10.141    0.272    0.454   80.727
  367.500   10.142    0.277    0.436   77.110
  367.750   10.336    0.281    0.437   75.906
  368.000   10.337    0.292    0.484   75.921
  368.250   10.338    0.295    0.476   78.978
  368.500   10.147    0.281    0.468   80.204
  368.750    9.960    0.267    0.478   81.443
  369.000   10.150    0.292    0.485   80.853
  369.250   10.539    0.298    0.465   79.651
  369.500   10.944    0.285    0.454   77.853
  369.750   11.364    0.284    0.456   77.257
  370.000   11.581    0.298    0.435   76.663
  370.250   11.802    0.311    0.420   75.468
  370.500   11.804    0.317    0.438   73.060
  370.750   11.805    0.303    0.456   68.225
  371.000   11.807    0.300    0.440   66.413
  371.250   11.589    0.306    0.434   65.820
  371.500   11.374    0.300    0.441   72.525
  371.750   11.164    0.283    0.451   75.574
  372.000   11.377    0.277    0.458   68.302
  372.250   11.594    0.293    0.471   59.215
  372.500   12.268    0.307    0.467   55.580
  372.750   12.738    0.297    0.456   49.524
  373.000   13.479    0.292    0.442   44.080
  373.250   13.735    0.303    0.437   42.270
  373.500   14.263    0.321    0.446   41.072
  373.750   14.534    0.327    0.432   45.949
  374.000   14.537    0.332    0.426   47.788
  374.250   14.539    0.332    0.418   44.771
  374.500   14.269    0.317    0.414   55.114
  374.750   13.489    0.288    0.409   64.239
  375.000   12.515    0.265    0.441   76.400
  375.250   12.056    0.243    0.486   73.387
  375.500   11.833    0.218    0.459   61.863
  375.750   12.059    0.204    0.444   55.199
  376.000   12.289    0.235    0.437   56.429
  376.250   12.524    0.274    0.447   66.162
  376.500   12.292    0.269    0.453   73.467
  376.750   12.065    0.262    0.454   63.169
  377.000   11.843    0.269    0.451   58.325
  377.250   12.069    0.307    0.449   55.306
  377.500   12.069    0.331    0.429   53.495
  377.750   12.534    0.323    0.414   55.339
  378.000   12.773    0.319    0.403   57.176
  378.250   12.774    0.318    0.400   59.620
  378.500   13.017    0.308    0.400   61.458
  378.750   13.267    0.303    0.407   60.264
  379.000   13.519    0.314    0.416   55.427
  379.250   13.521    0.303    0.423   52.402
  379.500   13.779    0.294    0.429   45.143
  379.750   13.780    0.283    0.429   41.513
  380.000   13.782    0.315    0.442   39.093
  380.250   13.528    0.333    0.459   34.858
  380.500   13.529    0.343    0.434   31.838
  380.750   13.033    0.344    0.413   48.864
  381.000   12.553    0.328    0.394   55.559
  381.250   11.868    0.305    0.385   61.650
  381.500   11.649    0.286    0.429   67.742
  381.750   11.221    0.267    0.430   70.185
  382.000   11.014    0.254    0.419   67.782
  382.250   10.810    0.270    0.415   65.373
  382.500   11.017    0.284    0.406   64.169
  382.750   11.018    0.279    0.400   62.966
  383.000   11.228    0.291    0.393   61.770
  383.250   11.659    0.290    0.431   63.615
  383.500   11.661    0.271    0.430   64.234
  383.750   11.662    0.269    0.453   60.000
  384.000   11.663    0.295    0.459   57.586
  384.250   11.665    0.308    0.439   57.618
  384.500   11.450    0.296    0.431   58.236
  384.750   11.238    0.286    0.420   60.674
  385.000   11.239    0.280    0.400   64.334
  385.250   11.454    0.292    0.426   63.748
  385.500   11.242    0.302    0.447   63.161
  385.750   11.243    0.310    0.453   66.816
  386.000   10.832    0.292    0.453   72.305
  386.250   10.631    0.273    0.449   74.746
  386.500   10.434    0.263    0.463   79.632
  386.750    9.501    0.250    0.480   80.249
  387.000    8.981    0.269    0.491   76.622
  387.250    8.178    0.274    0.469   77.245
  387.500    7.587    0.271    0.463   85.165
  387.750    7.173    0.262    0.445   86.388
  388.000    6.909    0.237    0.455   83.369
  388.250    7.041    0.220    0.445   80.956
  388.500    7.450    0.209    0.423   87.660
  388.750    7.736    0.220    0.414   90.100
  389.000    8.341    0.235    0.422   95.596
  389.250    8.500    0.238    0.441   96.209
  389.500    8.500    0.239    0.452   95.010
  389.750    8.663    0.232    0.436   93.215
  390.000    8.664    0.230    0.423   93.834
  390.250    8.665    0.233    0.431   94.455
  390.500    8.505    0.242    0.437   92.046
  390.750    8.193    0.255    0.419   86.600
  391.000    8.194    0.249    0.414   84.182
  391.250    8.194    0.239    0.427   81.776
  391.500    8.196    0.234    0.433   81.189
  391.750    8.045    0.248    0.447   81.805
  392.000    7.896    0.272    0.478   83.037
  392.250    7.606    0.291    0.493   76.372
  392.500    7.465    0.301    0.469   69.103
  392.750    7.466    0.307    0.428   62.438
  393.000    7.609    0.311    0.422   58.812
  393.250    8.051    0.315    0.442   55.193
  393.500    8.204    0.324    0.433   52.774
  393.750    8.519    0.332    0.392   47.335
  394.000    8.681    0.318    0.382   44.919
  394.250    8.683    0.310    0.414   43.715
  394.500    8.848    0.304    0.433   42.520
  394.750    8.849    0.307    0.431   45.577
  395.000    8.686    0.298    0.424   49.240
  395.250    8.526    0.294    0.440   51.684
  395.500    8.527    0.301    0.447   53.519
  395.750    8.369    0.307    0.455   58.409
  396.000    8.370    0.309    0.436   60.245
  396.250    8.371    0.315    0.421   61.474
  396.500    8.372    0.322    0.404   63.312
  396.750    8.373    0.304    0.438   63.935
  397.000    8.374    0.283    0.438   64.552
  397.250    8.376    0.271    0.433   66.999
  397.500    8.376    0.278    0.444   70.660
  397.750    8.222    0.301    0.452   74.932
  398.000    8.223    0.316    0.450   73.736
  398.250    8.224    0.323    0.437   70.107
  398.500    8.072    0.329    0.443   65.871
  398.750    8.073    0.327    0.443   61.636
  399.000    8.227    0.311    0.436   56.196
  399.250    8.228    0.291    0.431   57.419
  399.500    8.229    0.296    0.430   59.869
  399.750    8.077    0.304    0.430   60.492
  400.000    8.078    0.312    0.427   61.725
  400.250    7.782    0.322    0.426   67.821
  400.500    7.637    0.318    0.431   70.869
  400.750    7.220    0.300    0.437   77.575
  401.000    6.955    0.280    0.442   81.233
  401.250    6.453    0.268    0.466   83.672
  401.500    6.100    0.266    0.467   88.548
  401.750    5.876    0.264    0.454   84.933
