~VERSION INFORMATION
 VERS.                 2.0:   CWLS LOG ASCII STANDARD -VERSION 2.0
 WRAP.                  NO:   ONE LINE PER DEPTH STEP
~WELL INFORMATION BLOCK
#MNEM.UNIT           DATA                    DESCRIPTION OF MNEMONIC
#---------    -------------------            -------------------------------
# Generated from Intellog Unique Number	CW_76_78/WELL/879
WELL.         NORTHSTAR ET AL MARTEN HILLS 1 : Well_name    - WELL
LOC .         00/10-18-076-03W5/0            : Location     - LOCATION
UWI .         00/10-18-076-03W5/0            : Uwi          - UNIQUE WELL ID
ENTR.         JAYE                           : Entered      - ENTERED BY
SRVC.         COMPUTALOG                     : Scn          - SERVICE COMPANY
DATE.         13 MAR 81                      : Date         - LOG DATE
STRT.M        575                            : top_depth    - START DEPTH
STOP.M        790                            : bot_depth    - STOP DEPTH
STEP.M        0.25                           : increment    - STEP LENGTH
 NULL. -999.2500:NULL Value
~CURVE INFORMATION BLOCK
#MNEM UNIT       ERCB CURVE CODE    CURVE DESCRIPTION
#-----------   ------------------   ----------------------------------
DEPT.M        00 001 00 00         : DEPTH        - DEPTH
ILD .OHMM     00 120 00 00         : RESD         - DEEP RESISTIVITY (DIL)
NPHI.V/V      00 330 00 00         : PHIN         - NEUTRON POROSITY (SANDSTONE)
DPHI.V/V      00 890 00 00         : PHID         - DENSITY POROSITY (SANDSTONE)
GR  .API      00 310 00 00         : GR           - GAMMA RAY
CALI.MM       00 280 01 00         : CAL          - CALIPER
~PARAMETER INFORMATION
#MNEM.UNIT           DATA             DESCRIPTION OF MNEMONIC
#---------         -----------     ------------------------------
GL  .M        861                  : gl           - GROUND LEVEL ELEVATION
EREF.M        865.1                : kb           - ELEVATION OF DEPTH REFERENCE
DATM.M        861                  : datum        - DATUM ELEVATION
TDD .M        798                  : tdd          - TOTAL DEPTH DRILLER
RUN .         ONE                  : Run          - RUN NUMBER
ENG .         GUNDERSON            : Engineer     - RECORDING ENGINEER
WIT .         FITZSIMMONS          : Witness      - WITNESSED BY
BASE.         EDM                  : Branch       - HOME BASE OF LOGGING UNIT
MUD .         GEL CHEM             : Mud_type     - MUD TYPE
MATR.         SANDSTONE            : Logunit      - NEUTRON MATRIX
TMAX.C        27                   : BHT          - MAXIMUM RECORDED TEMPERATURE
BHTD.M        799.6                : BHTDEP       - MAXIMUM RECORDED TEMPERATURE
RMT .C        16                   : MDTP         - TEMPERATURE OF MUD
MUDD.KG/M     1140                 : MWT          - MUD DENSITY
NEUT.         1                    : NEUTRON      - NEUTRON TYPE
RESI.         0                    : RESIST       - RESISTIVITY TYPE
RM  .OHMM     3.8                  : RM           - RESISTIVITY OF MUD
RMC .OHMM     3                    : RMC          - RESISTIVITY OF MUD CAKE
RMF .OHMM     0                    : RMF          - RESISTIVITY OF MUD FILTRATE
SUFT.C        0                    : SUFT         - SURFACE TEMPERATURE
~A  DEPTH     RESD     PHIN     PHID       GR      CAL
# ...
  684.500   13.651    0.242    0.233   68.961  198.595
  684.750   12.563    0.221    0.218   66.566  201.427
  685.000   11.352    0.208    0.251   68.077  206.217
  685.250   10.436    0.378    0.277   64.505  201.504
  685.500    9.471    0.442    0.293   64.156  197.513
  685.750   10.451    0.452    0.292   67.839  196.106
  686.000   11.710    0.399    0.280   64.080  194.598
  686.250   13.125    0.302    0.249   66.151  194.642
  686.500   14.351    0.246    0.215   67.479  195.812
  686.750   15.274    0.226    0.110   72.897  198.952
  687.000   15.466    0.214    0.072   75.649  203.127
  687.250   12.778    0.206    0.098   67.611  205.133
  687.500   11.173    0.250    0.130   59.202  202.485
  687.750    9.379    0.348    0.199   57.552  197.462
  688.000    8.348    0.382    0.227   62.474  196.061
  688.250    7.834    0.410    0.257   71.305  196.197
  688.500    7.280    0.434    0.264   76.166  197.374
  688.750    6.947    0.435    0.259   74.081  198.037
  689.000    6.679    0.436    0.249   77.330  198.691
  689.250    6.634    0.446    0.249   82.126  199.354
  689.500    6.571    0.442    0.247   83.826  199.808
  689.750    6.649    0.439    0.237   80.813  200.362
  690.000    6.816    0.422    0.221   80.091  201.024
  690.250    7.000    0.400    0.213   82.410  202.305
  690.500    7.250    0.385    0.204   88.697  203.791
  690.750    7.672    0.392    0.198   93.680  205.071
  691.000    7.585    0.405    0.192   94.882  206.041
  691.250    7.269    0.418    0.186   86.971  207.111
  691.500    6.976    0.420    0.208   81.598  204.775
  691.750    6.570    0.409    0.212   82.367  201.406
  692.000    6.220    0.396    0.210   86.236  199.587
  692.250    5.895    0.384    0.209   88.243  200.254
  692.500    5.833    0.379    0.209   85.352  200.809
  692.750    6.099    0.413    0.213   80.044  201.360
  693.000    6.422    0.456    0.213   80.749  202.331
  693.250    6.467    0.462    0.203   84.928  203.096
  693.500    6.265    0.444    0.181   92.456  203.544
  693.750    6.039    0.427    0.159  100.480  203.482
  694.000    5.780    0.419    0.156  104.162  203.220
  694.250    5.512    0.398    0.169  104.310  203.251
  694.500    5.392    0.418    0.186   96.458  202.980
  694.750    5.404    0.451    0.194   88.855  203.234
  695.000    5.621    0.441    0.193   87.080  203.576
  695.250    5.739    0.426    0.199   88.902  204.455
  695.500    5.735    0.411    0.198   91.593  205.105
  695.750    5.631    0.402    0.187   96.702  205.349
  696.000    5.471    0.389    0.180  100.694  205.390
  696.250    5.343    0.380    0.176  103.945  204.715
  696.500    5.371    0.397    0.170  109.859  204.437
  696.750    5.415    0.397    0.172  102.999  203.650
  697.000    5.485    0.398    0.175   99.056  202.761
  697.250    5.463    0.399    0.177   96.600  201.870
  697.500    5.352    0.387    0.174   97.617  199.739
  697.750    5.158    0.384    0.164   98.693  198.436
  698.000    5.022    0.396    0.161   98.777  199.407
  698.250    5.017    0.421    0.180   99.485  203.889
  698.500    5.259    0.448    0.192  102.731  209.718
  698.750    5.648    0.450    0.201   98.725  210.482
  699.000    6.004    0.439    0.208   95.276  209.592
  699.250    6.434    0.420    0.203   92.634  208.289
  699.500    6.906    0.429    0.198   89.682  206.777
  699.750    7.262    0.452    0.191   91.940  205.783
  700.000    7.684    0.479    0.184   94.504  205.307
  700.250    7.950    0.472    0.178   97.132  205.349
  700.500    8.200    0.459    0.170   91.017  205.693
  700.750    8.457    0.451    0.163   85.523  205.739
  701.000    8.797    0.437    0.150   80.400  206.187
  701.250    8.136    0.419    0.154   80.489  206.850
  701.500    7.475    0.433    0.155   81.626  208.031
  701.750    6.772    0.409    0.150   84.998  209.310
  702.000    6.095    0.388    0.146   91.347  210.279
  702.250    5.712    0.388    0.148  101.541  210.937
  702.500    5.355    0.406    0.149  110.247  211.084
  702.750    5.457    0.427    0.144  107.357  211.331
  703.000    5.583    0.439    0.148  101.612  211.367
  703.250    5.636    0.427    0.156  102.196  211.717
  703.500    5.714    0.418    0.159  107.055  212.171
  703.750    5.741    0.403    0.149  113.590  212.519
  704.000    5.712    0.395    0.139  112.127  212.457
  704.250    5.601    0.466    0.134  108.057  212.079
  704.500    5.513    0.477    0.155  109.383  211.500
  704.750    5.443    0.465    0.166  107.671  207.516
  705.000    5.389    0.434    0.168  106.517  205.068
  705.250    5.294    0.417    0.154  105.114  203.771
  705.500    5.191    0.408    0.143  104.891  204.531
  705.750    5.055    0.389    0.153  108.944  206.534
  706.000    5.050    0.380    0.161  109.839  207.191
  706.250    5.365    0.397    0.169  107.010  205.792
  706.500    5.803    0.405    0.178  105.730  204.586
  706.750    5.897    0.421    0.185  103.521  205.037
  707.000    5.556    0.441    0.189   99.825  208.592
  707.250    5.092    0.473    0.169   94.951  209.769
  707.500    4.701    0.471    0.147   94.790  207.847
  707.750    4.434    0.458    0.142   97.170  206.437
  708.000    4.265    0.468    0.147  100.355  209.164
  708.250    4.186    0.452    0.150  101.619  212.618
  708.500    4.378    0.410    0.136  103.937  213.171
  708.750    4.759    0.413    0.140  105.264  213.318
  709.000    5.337    0.429    0.167   97.970  213.357
  709.250    6.186    0.436    0.183   93.343  213.087
  709.500    7.125    0.413    0.201   99.569  212.093
  709.750    8.598    0.404    0.224  103.685  210.786
  710.000   10.915    0.402    0.239   94.966  206.385
  710.250   12.749    0.402    0.220   86.309  202.909
  710.500   14.681    0.421    0.191   80.194  201.298
  710.750   16.852    0.302    0.169   75.815  200.513
  711.000   18.455    0.241    0.144   71.435  200.242
  711.250   19.961    0.212    0.100   67.924  200.383
  711.500   20.407    0.191    0.038   62.865  201.151
  711.750   20.501    0.169    0.012   57.740  201.706
  712.000   20.562    0.176    0.026   53.115  202.982
  712.250   20.533    0.195    0.063   53.449  204.680
  712.500   20.462    0.212    0.089   55.766  204.405
  712.750   20.260    0.226    0.112   61.993  202.482
  713.000   17.580    0.294    0.128   68.774  199.938
  713.250   14.850    0.353    0.144   78.659  197.807
  713.500   12.917    0.376    0.158   86.309  196.917
  713.750   11.779    0.388    0.172   92.658  196.548
  714.000   11.011    0.391    0.178   93.987  196.790
  714.250   10.416    0.371    0.178   93.947  197.348
  714.500    9.927    0.373    0.174   93.971  198.006
  714.750    9.585    0.396    0.180   97.840  198.464
  715.000    9.351    0.424    0.190   98.172  198.604
  715.250    9.207    0.442    0.194   95.903  198.746
  715.500    9.267    0.467    0.186   95.491  198.992
  715.750    9.394    0.478    0.176   97.748  199.866
  716.000    9.693    0.445    0.169   99.757  200.525
  716.250   10.074    0.399    0.177   99.719  201.698
  716.500   10.677    0.382    0.188   99.124  202.774
  716.750   11.484    0.373    0.196   97.782  203.431
  717.000   11.882    0.359    0.200   94.767  204.203
  717.250   11.442    0.362    0.199   92.001  204.548
  717.500   11.347    0.399    0.196   94.133  204.585
  717.750   11.433    0.420    0.192   97.071  204.831
  718.000   11.510    0.430    0.182   92.941  204.869
  718.250   11.710    0.430    0.176   91.355  205.223
  718.500   12.033    0.393    0.176   92.928  205.267
  718.750   11.536    0.382    0.171   96.177  205.308
  719.000   10.826    0.369    0.156   96.943  205.349
  719.250   10.173    0.359    0.170   95.664  205.381
  719.500    9.569    0.385    0.188   96.186  205.428
  719.750    9.425    0.413    0.198   99.619  205.153
  720.000    9.584    0.432    0.192  103.737  204.994
  720.250    9.800    0.441    0.174  107.233  205.028
  720.500    9.911    0.414    0.154  106.326  205.371
  720.750    9.619    0.396    0.138   96.677  205.625
