~VERSION INFORMATION
 VERS.                 2.0:   CWLS LOG ASCII STANDARD -VERSION 2.0
 WRAP.                  NO:   ONE LINE PER DEPTH STEP
~WELL INFORMATION BLOCK
#MNEM.UNIT           DATA                    DESCRIPTION OF MNEMONIC
#---------    -------------------            -------------------------------
# Generated from Intellog Unique Number	CC_80_83/WELL/2334
NULL.         -999.25                        : NULL_VALUE
WELL.         PEX HOUSE                      : Well_name    - WELL              
LOC .         10-05-080-15W4                 : Location     - LOCATION          
UWI .         00/10-05-080-15W4/0            : Uwi          - UNIQUE WELL ID    
ENTR.         RJA                            : Entered      - ENTERED BY        
SRVC.         SCHLUMBERGER                   : Scn          - SERVICE COMPANY   
DATE.         05 FEB 82                      : Date         - LOG DATE
STRT.M        170                            : top_depth    - START DEPTH       
STOP.M        402.795                        : bot_depth    - STOP DEPTH        
STEP.M        0.3                            : increment    - STEP LENGTH       
~CURVE INFORMATION BLOCK
#MNEM UNIT       ERCB CURVE CODE    CURVE DESCRIPTION
#-----------   ------------------   ----------------------------------
DEPT.M        00 001 00 00         : DEPTH        - DEPTH                       
DPHI.V/V      00 890 00 00         : PHID         - DENSITY POROSITY (LIMESTONE)
NPHI.V/V      00 330 00 00         : PHIN         - NEUTRON POROSITY (LIMESTONE)
GR  .API      00 310 00 00         : GR           - GAMMA RAY                   
DELT.US/F     00 520 00 00         : DELT         - SONIC TRAVEL TIME           
ILD .OHMM     00 120 00 00         : RESD         - DEEP RESISTIVITY (DIL)      
~PARAMETER INFORMATION       
#MNEM.UNIT           DATA             DESCRIPTION OF MNEMONIC
#---------         -----------     ------------------------------
GL  .M        561.82               : gl           - GROUND LEVEL ELEVATION      
EREF.M        565.57               : kb           - ELEVATION OF DEPTH REFERENCE
DATM.M        565.57               : datum        - DATUM ELEVATION             
TDD .M        411                  : tdd          - TOTAL DEPTH DRILLER         
RUN .         ONE                  : Run          - RUN NUMBER                  
ENG .         BILL                 : Engineer     - RECORDING ENGINEER          
WIT .         JIM                  : Witness      - WITNESSED BY                
MUD .         GEL                  : Mud_type     - MUD TYPE                    
MATR.         LIMESTONE            : Logunit      - NEUTRON MATRIX              
TMAX.C        23.8                 : BHT          - MAXIMUM RECORDED TEMPERATURE
BHTD.M        411                  : BHTDEP       - MAXIMUM RECORDED TEMPERATURE
MATR.         1                    : LOGUNIT      - NEUTRON MATRIX              
RMT .C        25                   : MDTP         - TEMPERATURE OF MUD          
NEUT.         1                    : NEUTRON      - NEUTRON TYPE                
RESI.         0                    : RESIST       - RESISTIVITY TYPE            
RMC .OHMM     0.25                 : RMC          - RESISTIVITY OF MUD CAKE     
RMF .OHMM     0.25                 : RMF          - RESISTIVITY OF MUD FILTRATE 
SUFT.C        15                   : SUFT         - SURFACE TEMPERATURE         
~A  DEPTH     PHID     PHIN       GR     DELT     RESD
# ...
  213.800    0.239    0.437  105.013  430.199    8.886
  214.100    0.208    0.424  104.339  429.502    7.602
  214.400    0.138    0.437  112.266  433.275    6.491
  214.700    0.164    0.457  110.229  437.929    6.466
  215.000    0.243    0.456  106.710  442.117    7.835
  215.300    0.239    0.426  105.230  439.770   10.127
  215.600    0.255    0.427  101.028  435.853   11.701
  215.900    0.265    0.448   99.550  430.876   11.902
  216.200    0.268    0.475  102.217  425.904   11.788
  216.500    0.262    0.473   99.624  423.558   11.455
  216.800    0.239    0.457   95.360  426.244   11.174
  217.100    0.256    0.446   92.458  428.512   11.068
  217.400    0.271    0.427  106.327  428.975   10.962
  217.700    0.252    0.430  111.159  422.014   11.023
  218.000    0.229    0.431  108.198  422.161   11.065
  218.300    0.234    0.436  103.935  424.841   11.063
  218.600    0.219    0.442  101.775  426.871   10.833
  218.900    0.220    0.404   97.510  424.848   10.689
  219.201    0.236    0.363   80.992  404.457   10.447
  219.501    0.220    0.367   77.657  399.553   10.113
  219.801    0.220    0.399   81.067  407.608    9.828
  220.101    0.222    0.386   81.507  415.815    9.605
  220.401    0.229    0.406   79.223  419.406    9.370
  220.701    0.205    0.397   77.992  408.246    9.174
  221.001    0.224    0.392   77.874  406.810    9.139
  221.301    0.236    0.394   76.209  409.413    9.173
  221.601    0.224    0.424   72.132  412.519    9.189
  221.901    0.227    0.456   67.375  414.216    9.119
  222.201    0.247    0.431   67.999  414.839    8.997
  222.501    0.254    0.419   73.019  415.961    8.911
  222.801    0.254    0.434   75.933  418.656    8.843
  223.101    0.249    0.431   75.939  420.939    8.809
  223.401    0.240    0.443   77.555  422.230    8.791
  223.701    0.246    0.440   79.974  423.354    8.641
  224.001    0.254    0.415   79.237  424.210    8.526
  224.301    0.246    0.411   77.883  422.698    8.396
  224.601    0.248    0.434   77.331  419.439    8.237
  224.901    0.247    0.438   74.986  418.090    8.159
  225.201    0.245    0.436   71.405  420.777    8.220
  225.501    0.252    0.433   67.882  423.879    8.018
  225.801    0.258    0.463   74.448  421.707    7.957
  226.101    0.265    0.438   78.601  421.829    7.956
  226.401    0.268    0.436   73.471  426.250    8.032
  226.701    0.273    0.440   66.855  427.867    8.866
  227.001    0.286    0.446   62.035  426.686   11.352
  227.301    0.290    0.444   56.410  422.607   13.939
  227.601    0.288    0.432   57.902  417.218   15.564
  227.901    0.274    0.429   66.201  419.077   15.444
  228.201    0.297    0.478   64.289  429.352   13.187
  228.501    0.323    0.489   62.316  437.069   11.196
  228.801    0.286    0.469   66.281  422.937   10.655
  229.101    0.274    0.403   73.156  422.421   10.295
  229.401    0.270    0.393   89.192  435.015    9.343
  229.701    0.241    0.483   95.942  444.065    7.947
  230.001    0.235    0.492  104.055  447.465    6.458
  230.301    0.231    0.475  103.876  445.114    5.718
  230.601    0.232    0.458   98.870  427.768    6.053
  230.901    0.258    0.442   70.719  412.065    7.114
  231.201    0.279    0.457   56.184  422.838    9.589
  231.501    0.306    0.457   54.395  433.118   14.269
  231.801    0.332    0.448   55.144  430.438   19.640
  232.101    0.338    0.449   56.079  423.565   23.843
  232.401    0.316    0.430   56.149  423.197   26.469
  232.701    0.320    0.433   55.041  419.949   28.396
  233.001    0.328    0.444   52.818  415.144   32.008
  233.301    0.325    0.437   47.068  412.986   39.454
  233.601    0.321    0.414   44.042  413.582   49.472
  233.901    0.326    0.424   44.235  421.632   58.036
  234.201    0.325    0.451   46.717  418.214   65.668
  234.501    0.325    0.440   49.014  412.584   70.182
  234.801    0.335    0.429   50.568  417.006   70.175
  235.101    0.334    0.438   51.501  420.341   69.903
  235.401    0.324    0.441   52.868  419.162   75.277
  235.701    0.319    0.440   54.237  418.556   83.410
  236.001    0.317    0.450   53.624  417.730   90.509
  236.301    0.319    0.440   54.125  418.155   93.299
  236.601    0.321    0.433   55.492  417.871   93.646
  236.901    0.322    0.461   55.315  410.011   95.616
  237.201    0.321    0.465   54.268  411.972   98.002
  237.501    0.322    0.429   54.336  413.573   98.367
  237.801    0.323    0.426   53.104  416.343   97.243
  238.101    0.326    0.427   51.563  418.287   94.857
  238.401    0.335    0.438   50.951  419.488   92.006
  238.701    0.346    0.455   49.101  419.960   87.724
  239.001    0.351    0.480   51.707  420.014   80.673
  239.301    0.344    0.487   49.175  418.414   76.191
  239.601    0.337    0.479   48.006  415.316   73.201
  239.901    0.337    0.467   49.559  414.127   71.268
  240.201    0.340    0.454   52.971  417.485   69.127
  240.501    0.342    0.461   56.318  420.249   64.791
  240.801    0.334    0.468   56.076  416.182   59.245
  241.101    0.326    0.469   53.050  415.313   54.899
  241.401    0.325    0.464   50.706  426.006   50.294
  241.701    0.331    0.468   50.774  439.159   46.428
  242.001    0.335    0.468   49.233  445.895   42.452
  242.301    0.335    0.461   46.516  441.421   38.743
  242.601    0.332    0.471   45.842  427.765   37.652
  242.901    0.272    0.483   46.776  397.718   33.333
  243.201    0.216    0.470   47.278  394.628   29.175
  243.501    0.296    0.474   47.160  406.147   24.770
  243.801    0.331    0.494   47.971  424.578   21.928
  244.101    0.343    0.503   47.977  437.742   19.598
  244.401    0.337    0.444   45.508  433.419   17.717
  244.701    0.336    0.452   44.216  425.309   16.077
  245.001    0.338    0.470   44.223  420.918   16.046
  245.301    0.336    0.464   45.281  420.383   15.504
  245.601    0.324    0.458   46.834  419.688   14.924
  245.901    0.321    0.455   48.201  418.997   14.614
  246.201    0.322    0.456   43.567  419.467   14.309
  246.501    0.331    0.461   41.902  420.908   14.118
  246.801    0.338    0.455   42.280  423.024   14.064
  247.101    0.338    0.451   44.513  422.409   14.143
  247.401    0.333    0.446   47.861  418.739   14.034
  247.701    0.330    0.420   46.878  415.172   13.979
  248.001    0.330    0.437   44.161  412.504   14.031
  248.301    0.330    0.453   44.416  413.449   14.057
  248.601    0.333    0.433   46.715  418.055   14.135
  248.901    0.322    0.434   47.521  414.786   14.216
  249.201    0.310    0.467   50.499  407.905   14.241
  249.501    0.311    0.451   50.134  404.163   14.540
  249.801    0.316    0.453   50.140  403.969   14.734
  250.101    0.322    0.466   50.333  405.517   14.789
  250.401    0.316    0.459   50.711  404.229   14.873
  250.701    0.310    0.453   53.191  399.331   14.928
  251.001    0.304    0.437   54.621  393.776   14.813
  251.301    0.303    0.412   51.718  391.929   14.811
  251.601    0.305    0.420   48.879  393.213   14.894
  251.901    0.311    0.445   57.672  395.328   14.979
  252.201    0.315    0.428   56.937  395.623   15.034
  252.501    0.306    0.423   52.610  394.022   14.976
  252.801    0.303    0.423   55.834  390.523   14.832
  253.101    0.296    0.444   57.017  388.100   14.831
  253.401    0.282    0.470   56.590  387.743   14.745
  253.701    0.283    0.441   55.731  387.046   14.857
  254.001    0.292    0.431   55.118  385.964   14.997
  254.301    0.291    0.423   54.196  385.824   15.109
  254.601    0.293    0.425   52.964  385.876   15.109
  254.901    0.294    0.439   53.342  384.971   15.050
  255.201    0.286    0.439   54.217  384.906   14.963
  255.501    0.290    0.459   54.160  386.104   14.735
  255.801    0.294    0.464   54.104  391.016   14.594
  256.101    0.294    0.439   54.234  396.013   14.649
  256.401    0.281    0.437   51.950  383.860   15.596
  256.701    0.180    0.422   47.686  303.835   23.032
  257.001    0.047    0.184   49.116  226.125   24.151
  257.301    0.176    0.253   57.292  280.515   23.291
