~VERSION INFORMATION
 VERS.                 2.0:   CWLS LOG ASCII STANDARD -VERSION 2.0
 WRAP.                  NO:   ONE LINE PER DEPTH STEP
~WELL INFORMATION BLOCK
#MNEM.UNIT           DATA                    DESCRIPTION OF MNEMONIC
#---------    -------------------            -------------------------------
# Generated from Intellog Unique Number	CW_73_75/WELL/1038
WELL.         CDN SUP ET AL FRANCIS 11-13    : Well_name    - WELL
LOC .         00/11-13-075-20W4/0            : Location     - LOCATION
UWI .         00/11-13-075-20W4/0            : Uwi          - UNIQUE WELL ID
ENTR.         JAYE                           : Entered      - ENTERED BY
SRVC.         SCHLUMBERGER                   : Scn          - SERVICE COMPANY
DATE.         2 FEB 77                       : Date         - LOG DATE
STRT.M        292.608                        : top_depth    - START DEPTH
STOP.M        496.858                        : bot_depth    - STOP DEPTH
STEP.M        0.25                           : increment    - STEP LENGTH
 NULL. -999.2500:NULL Value
~CURVE INFORMATION BLOCK
#MNEM UNIT       ERCB CURVE CODE    CURVE DESCRIPTION
#-----------   ------------------   ----------------------------------
DEPT.M        00 001 00 00         : DEPTH        - DEPTH
ILD .OHMM     00 120 00 00         : RESD         - DEEP RESISTIVITY (DIL)
NPHI.V/V      00 330 00 00         : PHIN         - NEUTRON POROSITY (SANDSTONE)
DPHI.V/V      00 890 00 00         : PHID         - DENSITY POROSITY (SANDSTONE)
GR  .API      00 310 00 00         : GR           - GAMMA RAY
CALI.MM       00 280 01 00         : CAL          - CALIPER
~PARAMETER INFORMATION
#MNEM.UNIT           DATA             DESCRIPTION OF MNEMONIC
#---------         -----------     ------------------------------
GL  .M        611.734              : gl           - GROUND LEVEL ELEVATION
EREF.M        616.001              : kb           - ELEVATION OF DEPTH REFERENCE
DATM.M        611.734              : datum        - DATUM ELEVATION
TDD .M        548.64               : tdd          - TOTAL DEPTH DRILLER
RUN .         ONE                  : Run          - RUN NUMBER
ENG .         LEDUC                : Engineer     - RECORDING ENGINEER
WIT .         KELLY                : Witness      - WITNESSED BY
BASE.         EDM                  : Branch       - HOME BASE OF LOGGING UNIT
MUD .         GEL CHEM             : Mud_type     - MUD TYPE
MATR.         SANDSTONE            : Logunit      - NEUTRON MATRIX
TMAX.C        100082               : BHT          - MAXIMUM RECORDED TEMPERATURE
BHTD.M        548.945              : BHTDEP       - MAXIMUM RECORDED TEMPERATURE
RMT .C        16.1111              : MDTP         - TEMPERATURE OF MUD
MUDD.KG/M     0                    : MWT          - MUD DENSITY
NEUT.         1                    : NEUTRON      - NEUTRON TYPE
RESI.         0                    : RESIST       - RESISTIVITY TYPE
RM  .OHMM     4                    : RM           - RESISTIVITY OF MUD
RMC .OHMM     0                    : RMC          - RESISTIVITY OF MUD CAKE
RMF .OHMM     4.32                 : RMF          - RESISTIVITY OF MUD FILTRATE
SUFT.C        -17.7778             : SUFT         - SURFACE TEMPERATURE
~A  DEPTH     RESD     PHIN     PHID       GR      CAL
  292.608    2.008    0.477    0.198   95.931  193.271
  292.858    2.994    0.477    0.209  120.759  192.375
  293.108    3.000    0.485    0.204  121.915  191.979
  293.358    3.073    0.481    0.176  121.564  191.286
  293.608    3.160    0.488    0.180  121.094  190.061
  293.858    3.160    0.533    0.181  119.954  189.054
  294.108    3.149    0.540    0.182  118.454  188.877
  294.358    3.143    0.528    0.183  116.834  188.995
  294.608    3.202    0.510    0.188  112.975  190.145
  294.858    3.293    0.479    0.189  111.106  190.679
  295.108    3.468    0.477    0.188  109.484  192.128
  295.358    3.791    0.466    0.195  106.172  192.770
  295.608    4.158    0.454    0.187  101.826  190.421
  295.858    4.795    0.471    0.161   96.697  188.400
  296.108    5.540    0.484    0.176   84.244  185.960
  296.358    6.066    0.384    0.179   67.075  180.653
  296.608    6.306    0.375    0.130   62.066  168.583
  296.858    6.307    0.398    0.199   67.340  163.270
  297.108    6.319    0.416    0.266   75.999  161.756
  297.358    6.332    0.414    0.252   79.883  161.769
  297.608    6.274    0.415    0.258   83.707  161.674
  297.858    6.217    0.417    0.264   86.259  161.090
  298.108    6.195    0.400    0.261   87.542  160.392
  298.358    6.127    0.406    0.252   87.311  159.802
  298.608    6.049    0.422    0.249   86.651  159.408
  298.858    5.928    0.425    0.254   88.118  159.126
  299.108    5.777    0.415    0.255   92.726  159.045
  299.358    5.641    0.384    0.225   96.671  161.211
  299.608    5.518    0.417    0.197  100.069  166.867
  299.858    5.357    0.448    0.195  101.528  172.828
  300.108    5.097    0.455    0.218   98.458  180.935
  300.358    4.904    0.441    0.222   97.801  181.463
  300.608    4.717    0.425    0.222  104.533  172.778
  300.858    4.563    0.410    0.209  117.973  166.244
  301.108    4.455    0.438    0.207  126.393  168.816
  301.358    4.522    0.465    0.189  121.924  170.892
  301.608    4.834    0.451    0.176  115.224  172.951
  301.858    5.392    0.453    0.197  103.984  172.467
  302.108    6.070    0.449    0.226   88.326  170.320
  302.358    6.745    0.423    0.240   78.235  167.384
  302.608    7.291    0.393    0.144   78.785  163.818
  302.858    7.401    0.342    0.099   84.245  162.173
  303.108    7.279    0.353    0.116   92.904  161.909
  303.358    6.926    0.376    0.240   99.932  162.132
  303.608    6.577    0.382    0.255  105.876  162.665
  303.858    6.386    0.387    0.237  110.728  163.173
  304.108    6.132    0.392    0.204  112.009  163.200
  304.358    5.622    0.401    0.232  111.233  162.186
  304.608    5.164    0.415    0.219  112.568  161.921
  304.858    4.718    0.428    0.200  115.001  162.350
  305.108    4.683    0.448    0.179  117.982  166.359
  305.358    5.090    0.455    0.201  119.627  172.011
  305.608    5.492    0.443    0.192  116.791  174.586
  305.858    5.849    0.429    0.188  112.996  174.305
  306.108    6.218    0.409    0.225  104.840  173.200
  306.358    6.573    0.400    0.235   96.502  170.553
  306.608    6.537    0.396    0.226   94.451  166.067
  306.858    6.254    0.392    0.219   95.919  162.802
  307.108    5.983    0.387    0.210   99.557  161.906
  307.358    5.714    0.396    0.200  103.928  161.915
  307.608    5.517    0.418    0.196  109.142  162.451
  307.858    5.357    0.435    0.218  112.481  163.382
  308.108    5.338    0.441    0.223  110.915  165.562
  308.358    5.438    0.434    0.227  106.938  170.190
  308.608    5.685    0.422    0.244  105.435  173.693
  308.858    6.111    0.423    0.232  108.108  174.126
  309.108    6.581    0.420    0.264  107.999  168.713
  309.358    6.983    0.401    0.233  110.065  163.705
  309.608    7.260    0.378    0.213  111.583  162.502
  309.858    7.356    0.361    0.217  112.207  162.003
  310.108    7.370    0.363    0.216  111.914  161.818
  310.358    7.371    0.372    0.207  109.447  161.532
  310.608    7.331    0.388    0.198  103.107  160.934
  310.858    7.251    0.387    0.211   95.433  161.156
  311.108    7.132    0.376    0.222   86.735  160.766
  311.358    6.823    0.365    0.234   77.004  160.691
  311.608    6.528    0.353    0.256   69.636  160.607
  311.858    6.086    0.348    0.273   62.145  160.116
  312.108    5.652    0.371    0.281   60.704  159.598
  312.358    5.468    0.378    0.289   58.477  159.426
  312.608    5.398    0.383    0.275   60.120  159.651
  312.858    5.369    0.388    0.271   66.364  160.072
  313.108    5.340    0.404    0.256   69.642  160.194
  313.358    5.360    0.387    0.258   70.318  160.525
  313.608    5.431    0.379    0.259   72.144  160.635
  313.858    5.553    0.376    0.258   75.544  160.644
  314.108    5.668    0.370    0.255   84.204  160.979
  314.358    5.796    0.362    0.199   94.380  161.637
  314.608    5.927    0.380    0.177   98.809  162.784
  314.858    6.117    0.391    0.190  100.332  163.725
  315.108    6.254    0.386    0.197   98.705  164.234
  315.358    6.384    0.383    0.214  101.804  164.061
  315.608    6.444    0.375    0.229  105.981  163.980
  315.858    6.480    0.367    0.217  109.268  163.490
  316.108    6.398    0.379    0.214  112.125  163.393
  316.358    6.121    0.384    0.219  114.367  163.734
  316.608    5.633    0.382    0.220  116.988  164.870
  316.858    4.823    0.393    0.204  121.293  165.606
  317.108    4.145    0.408    0.186  128.019  167.068
  317.358    3.490    0.450    0.172  133.718  172.820
  317.608    3.056    0.486    0.154  131.732  177.245
  317.858    2.913    0.508    0.121  132.640  177.678
  318.108    2.833    0.529    0.146  133.810  180.157
  318.358    2.777    0.544    0.164  134.367  187.238
  318.608    2.736    0.546    0.162  130.082  194.739
  318.858    2.941    0.525    0.111  127.491  204.178
  319.108    3.179    0.518    0.109  131.671  196.618
  319.358    3.474    0.531    0.167  135.078  185.156
  319.608    3.804    0.530    0.162  140.109  180.062
  319.858    4.419    0.504    0.188  133.038  187.866
  320.108    5.172    0.483    0.210  130.633  188.289
  320.358    5.570    0.439    0.212  127.015  181.864
  320.608    5.888    0.426    0.192  124.660  174.713
  320.858    5.998    0.438    0.158  123.953  173.602
  321.108    6.100    0.450    0.170  119.667  179.047
  321.358    6.330    0.458    0.189  116.110  183.370
  321.608    6.631    0.447    0.218  103.718  180.305
  321.858    6.830    0.398    0.251   96.046  174.494
  322.108    7.128    0.374    0.246   87.408  168.677
  322.358    7.452    0.384    0.214   87.902  163.884
  322.608    7.550    0.401    0.214   92.088  161.327
  322.858    7.692    0.418    0.230   96.572  160.540
  323.108    7.779    0.433    0.248  101.184  160.254
  323.358    7.866    0.459    0.260   96.901  160.266
  323.608    7.882    0.477    0.269   93.342  160.687
  323.858    7.883    0.478    0.275   89.967  160.803
  324.108    7.913    0.447    0.271   86.405  161.017
  324.358    7.726    0.438    0.262   84.120  161.133
  324.608    7.460    0.432    0.258   82.801  161.468
  324.858    6.993    0.425    0.256   84.865  161.512
  325.108    6.678    0.407    0.253   90.083  162.029
  325.358    6.472    0.386    0.245   95.662  162.974
  325.608    6.366    0.402    0.232  100.571  164.637
  325.858    6.250    0.443    0.219  104.698  166.604
  326.108    6.193    0.466    0.203  102.771  169.394
  326.358    6.103    0.473    0.228   97.821  172.986
  326.608    6.003    0.462    0.268   94.203  170.763
  326.858    5.883    0.440    0.269   97.241  163.917
  327.108    5.808    0.448    0.276  107.414  160.863
  327.358    5.819    0.462    0.272  118.982  160.877
  327.608    5.951    0.449    0.239  126.734  162.838
  327.858    6.326    0.436    0.200  130.196  164.699
  328.108    6.901    0.442    0.208  119.016  165.855
  328.358    7.570    0.456    0.221  103.418  165.768
  328.608    8.713    0.479    0.250   93.267  164.452
  328.858    9.754    0.507    0.314   78.390  162.619
