~VERSION INFORMATION
 VERS.                 2.0:   CWLS LOG ASCII STANDARD -VERSION 2.0
 WRAP.                  NO:   ONE LINE PER DEPTH STEP
~WELL INFORMATION BLOCK
#MNEM.UNIT           DATA                    DESCRIPTION OF MNEMONIC
#---------    -------------------            -------------------------------
# Generated from Intellog Unique Number	CS_77_79/WELL/973
WELL.         FRANCANA LEISMERE              : Well_name    - WELL
LOC .         00/10-27-078-07W4/0            : Location     - LOCATION
UWI .         00/10-27-078-07W4/0            : Uwi          - UNIQUE WELL ID
ENTR.         JHS                            : Entered      - ENTERED BY
SRVC.         SCHLUMBERGER                   : Scn          - SERVICE COMPANY
STRT.M        110                            : top_depth    - START DEPTH
STOP.M        345                            : bot_depth    - STOP DEPTH
STEP.M        0.25                           : increment    - STEP LENGTH
 NULL. -999.2500:NULL Value
~CURVE INFORMATION BLOCK
#MNEM UNIT       ERCB CURVE CODE    CURVE DESCRIPTION
#-----------   ------------------   ----------------------------------
DEPT.M        00 001 00 00         : DEPTH        - DEPTH
DPHI.V/V      00 890 00 00         : PHID         - DENSITY POROSITY (LIMESTONE)
NPHI.V/V      00 330 00 00         : PHIN         - NEUTRON POROSITY (LIMESTONE)
GR  .API      00 310 00 00         : GR           - GAMMA RAY
ILD .OHMM     00 120 00 00         : RESD         - DEEP RESISTIVITY (DIL)
~PARAMETER INFORMATION
#MNEM.UNIT           DATA             DESCRIPTION OF MNEMONIC
#---------         -----------     ------------------------------
GL  .M        548.21               : gl           - GROUND LEVEL ELEVATION
EREF.M        555.72               : kb           - ELEVATION OF DEPTH REFERENCE
DATM.M        555.72               : datum        - DATUM ELEVATION
TDD .M        351                  : tdd          - TOTAL DEPTH DRILLER
RUN .         ONE                  : Run          - RUN NUMBER
ENG .         BILL                 : Engineer     - RECORDING ENGINEER
WIT .         JIM                  : Witness      - WITNESSED BY
MUD .         GEL                  : Mud_type     - MUD TYPE
MATR.         LIMESTONE            : Logunit      - NEUTRON MATRIX
TMAX.C        13                   : BHT          - MAXIMUM RECORDED TEMPERATURE
BHTD.M        351                  : BHTDEP       - MAXIMUM RECORDED TEMPERATURE
MATR.         1                    : LOGUNIT      - NEUTRON MATRIX
RMT .C        25                   : MDTP         - TEMPERATURE OF MUD
NEUT.         1                    : NEUTRON      - NEUTRON TYPE
RESI.         0                    : RESIST       - RESISTIVITY TYPE
RMC .OHMM     0.25                 : RMC          - RESISTIVITY OF MUD CAKE
RMF .OHMM     0.25                 : RMF          - RESISTIVITY OF MUD FILTRATE
SUFT.C        15                   : SUFT         - SURFACE TEMPERATURE
~A  DEPTH     PHID     PHIN       GR     RESD
# ...
  240.500    0.234    0.524   89.358    3.892
  240.750    0.245    0.516   90.000    4.367
  241.000    0.258    0.506   88.800    5.090
  241.250    0.248    0.490   90.054    6.286
  241.500    0.254    0.475   89.464    6.921
  241.750    0.262    0.464   85.202    7.766
  242.000    0.275    0.428   83.403    8.715
  242.250    0.277    0.384   84.641    9.594
  242.500    0.259    0.372   85.279   10.974
  242.750    0.220    0.378   76.123   12.554
  243.000    0.229    0.404   71.250   13.308
  243.250    0.286    0.374   74.336   13.843
  243.500    0.300    0.324   77.426   14.131
  243.750    0.288    0.319   76.844   13.891
  244.000    0.300    0.325   76.251   13.909
  244.250    0.285    0.341   76.897   14.199
  244.500    0.268    0.362   74.470   15.054
  244.750    0.246    0.363   72.048   16.271
  245.000    0.231    0.363   72.068   16.607
  245.250    0.204    0.353   72.706   16.319
  245.500    0.117    0.327   67.836   15.435
  245.750    0.129    0.300   64.802   13.798
  246.000    0.153    0.315   69.723   12.101
  246.250    0.286    0.428   75.264   10.816
  246.500    0.271    0.444   77.738   10.432
  246.750    0.263    0.438   75.316   10.646
  247.000    0.264    0.437   72.889   11.949
  247.250    0.232    0.422   72.300   12.909
  247.500    0.160    0.301   71.103   13.687
  247.750    0.041    0.251   66.230   13.454
  248.000    0.012    0.227   63.198   12.728
  248.250    0.035    0.247   67.510   12.038
  248.500    0.099    0.324   72.439   10.967
  248.750    0.283    0.445   76.131    9.989
  249.000    0.293    0.460   78.602    9.273
  249.250    0.294    0.445   79.860    8.612
  249.500    0.283    0.427   81.102    8.305
  249.750    0.271    0.427   84.812    8.009
  250.000    0.253    0.451   86.668    7.724
  250.250    0.248    0.473   87.310    7.586
  250.500    0.264    0.487   84.880    7.314
  250.750    0.248    0.473   84.906    7.188
  251.000    0.236    0.486   86.155    7.201
  251.250    0.231    0.499   88.631    7.496
  251.500    0.253    0.474   88.656    7.502
  251.750    0.247    0.464   86.232    7.658
  252.000    0.236    0.449   88.096    7.817
  252.250    0.231    0.437   88.732    7.978
  252.500    0.238    0.437   87.539    8.302
  252.750    0.237    0.450   86.336    8.319
  253.000    0.244    0.471   85.144    8.325
  253.250    0.264    0.485   82.717    8.184
  253.500    0.286    0.471   79.683    8.045
  253.750    0.292    0.466   76.645    7.903
  254.000    0.282    0.469   77.281    7.620
  254.250    0.270    0.487   82.208    7.346
  254.500    0.264    0.503   84.684    6.823
  254.750    0.266    0.470   85.931    6.582
  255.000    0.271    0.461   87.796    6.341
  255.250    0.265    0.478   90.272    6.232
  255.500    0.261    0.505   91.517    6.009
  255.750    0.258    0.477   88.487    5.688
  256.000    0.247    0.466   86.059    5.381
  256.250    0.242    0.487   87.318    5.288
  256.500    0.250    0.510   86.724    5.298
  256.750    0.251    0.516   83.694    5.403
  257.000    0.273    0.521   81.267    5.730
  257.250    0.280    0.520   79.454    6.074
  257.500    0.300    0.516   73.360    6.566
  257.750    0.318    0.502   69.104    6.830
  258.000    0.320    0.483   67.291    6.971
  258.250    0.316    0.468   67.930    6.982
  258.500    0.318    0.454   69.789    7.126
  258.750    0.312    0.448   68.587    7.557
  259.000    0.302    0.434   67.400    7.857
  259.250    0.295    0.446   68.639    8.179
  259.500    0.295    0.460   68.056    8.187
  259.750    0.302    0.461   71.147    7.604
  260.000    0.288    0.466   74.842    7.192
  260.250    0.281    0.480   76.092    6.554
  260.500    0.267    0.476   76.730    5.969
  260.750    0.266    0.470   79.204    5.438
  261.000    0.262    0.478   81.678    5.446
  261.250    0.254    0.494   84.152    5.557
  261.500    0.251    0.471   84.794    5.892
  261.750    0.262    0.466   83.589    6.246
  262.000    0.281    0.467   81.783    6.624
  262.250    0.300    0.462   81.192    6.633
  262.500    0.280    0.472   81.842    6.519
  262.750    0.266    0.491   82.472    6.914
  263.000    0.258    0.496   84.333    7.053
  263.250    0.248    0.481   84.970    7.774
  263.500    0.249    0.467   81.320    7.929
  263.750    0.267    0.448   72.166    8.735
  264.000    0.285    0.437   67.907    9.258
  264.250    0.238    0.424   66.095    9.815
  264.500    0.218    0.422   67.957   10.017
  264.750    0.184    0.416   66.152    9.476
  265.000    0.158    0.440   65.560    8.316
  265.250    0.277    0.476   66.198    7.719
  265.500    0.287    0.459   69.900    7.031
  265.750    0.272    0.454   69.924    6.403
  266.000    0.274    0.477   74.239    5.616
  266.250    0.270    0.494   79.159    4.833
  266.500    0.246    0.506   84.694    4.238
  266.750    0.236    0.518   89.008    3.789
  267.000    0.265    0.518   90.869    3.722
  267.250    0.251    0.521   92.114    3.873
  267.500    0.247    0.502   91.528    4.185
  267.750    0.242    0.488   89.107    4.521
  268.000    0.226    0.488   84.851    4.794
  268.250    0.247    0.479   84.262    4.986
  268.500    0.251    0.475   84.897    5.089
  268.750    0.257    0.491   88.598    5.606
  269.000    0.242    0.493   94.134    6.056
  269.250    0.241    0.459   97.221    6.420
  269.500    0.230    0.441   95.416    6.678
  269.750    0.226    0.437   92.987    6.563
  270.000    0.231    0.448   91.178    5.757
  270.250    0.226    0.441   90.597    5.048
  270.500    0.229    0.436   90.613    4.346
  270.750    0.242    0.454   90.028    3.739
  271.000    0.248    0.475   90.053    2.870
  271.250    0.260    0.495   87.629    2.518
  271.500    0.288    0.535   83.989    2.383
  271.750    0.290    0.577   83.397    2.342
  272.000    0.280    0.593   82.813    2.345
  272.250    0.285    0.577   79.779    2.394
  272.500    0.282    0.560   78.576    2.443
  272.750    0.273    0.564   77.988    2.493
  273.000    0.276    0.563   79.857    2.546
  273.250    0.278    0.546   79.878    2.502
  273.500    0.273    0.539   78.065    2.507
  273.750    0.266    0.526   78.092    2.557
  274.000    0.268    0.537   83.631    2.764
  274.250    0.258    0.556   86.109    2.929
  274.500    0.243    0.553   87.351    3.351
  274.750    0.224    0.524   87.996    3.621
  275.000    0.216    0.494   85.568    3.911
  275.250    0.235    0.499   84.376    4.474
  275.500    0.235    0.519   85.005    5.022
  275.750    0.230    0.475   85.658    5.529
  276.000    0.221    0.441   84.451    6.089
  276.250    0.195    0.423   84.472    6.336
  276.500    0.181    0.415   82.050    5.995
  276.750    0.170    0.416   78.403    5.563
  277.000    0.174    0.427   78.431    4.972
  277.250    0.234    0.452   80.288    4.530
  277.500    0.234    0.475   82.154    4.128
  277.750    0.223    0.495   86.468    3.980
  278.000    0.223    0.514   88.325    3.838
  278.250    0.213    0.520   87.741    3.773
  278.500    0.215    0.515   87.157    3.776
  278.750    0.225    0.502   87.179    3.782
  279.000    0.236    0.496   89.661    3.788
  279.250    0.229    0.508   91.516    3.725
  279.500    0.234    0.546   93.380    3.658
  279.750    0.224    0.530   93.404    3.529
  280.000    0.216    0.527   90.984    3.401
  280.250    0.210    0.553   90.393    3.279
  280.500    0.227    0.537   92.256    3.286
  280.750    0.238    0.524   91.057    3.417
  281.000    0.243    0.524   90.472    3.623
  281.250    0.247    0.514   91.723    4.067
  281.500    0.244    0.493   91.747    4.393
  281.750    0.253    0.470   89.329    4.838
  282.000    0.227    0.455   88.135    5.329
  282.250    0.216    0.464   86.326    5.438
  282.500    0.200    0.479   85.732    5.768
  282.750    0.192    0.453   84.529    6.113
  283.000    0.176    0.424   80.881    6.862
  283.250    0.143    0.386   74.179    7.411
  283.500    0.095    0.369   67.467    8.011
  283.750    0.096    0.369   66.879    8.174
