~VERSION INFORMATION
 VERS.                 2.0:   CWLS LOG ASCII STANDARD -VERSION 2.0
 WRAP.                  NO:   ONE LINE PER DEPTH STEP
~WELL INFORMATION BLOCK
#MNEM.UNIT           DATA                    DESCRIPTION OF MNEMONIC
#---------    -------------------            -------------------------------
# Generated from Intellog Unique Number	CS_71_72/WELL/900
WELL.         SULPETRO ET AL IPIATIK         : Well_name    - WELL
LOC .         00/11-17-072-10W4/0            : Location     - LOCATION
UWI .         00/11-17-072-10W4/0            : Uwi          - UNIQUE WELL ID
ENTR.         SP                             : Entered      - ENTERED BY
SRVC.         SCHLUMBERGER                   : Scn          - SERVICE COMPANY
STRT.M        300                            : top_depth    - START DEPTH
STOP.M        520                            : bot_depth    - STOP DEPTH
STEP.M        0.25                           : increment    - STEP LENGTH
 NULL. -999.2500:NULL Value
~CURVE INFORMATION BLOCK
#MNEM UNIT       ERCB CURVE CODE    CURVE DESCRIPTION
#-----------   ------------------   ----------------------------------
DEPT.M        00 001 00 00         : DEPTH        - DEPTH
ILD .OHMM     00 120 00 00         : RESD         - DEEP RESISTIVITY (DIL)
DPHI.V/V      00 890 00 00         : PHID         - DENSITY POROSITY (LIMESTONE)
NPHI.V/V      00 330 00 00         : PHIN         - NEUTRON POROSITY (LIMESTONE)
GR  .API      00 310 00 00         : GR           - GAMMA RAY
~PARAMETER INFORMATION
#MNEM.UNIT           DATA             DESCRIPTION OF MNEMONIC
#---------         -----------     ------------------------------
GL  .M        651.83               : gl           - GROUND LEVEL ELEVATION
EREF.M        655.44               : kb           - ELEVATION OF DEPTH REFERENCE
DATM.M        651.83               : datum        - DATUM ELEVATION
TDD .M        524                  : tdd          - TOTAL DEPTH DRILLER
RUN .         ONE                  : Run          - RUN NUMBER
ENG .         BILL                 : Engineer     - RECORDING ENGINEER
WIT .         JIM                  : Witness      - WITNESSED BY
MUD .         GEL                  : Mud_type     - MUD TYPE
MATR.         LIMESTONE            : Logunit      - NEUTRON MATRIX
TMAX.C        30                   : BHT          - MAXIMUM RECORDED TEMPERATURE
BHTD.M        524                  : BHTDEP       - MAXIMUM RECORDED TEMPERATURE
MATR.         1                    : LOGUNIT      - NEUTRON MATRIX
RMT .C        25                   : MDTP         - TEMPERATURE OF MUD
NEUT.         1                    : NEUTRON      - NEUTRON TYPE
RESI.         0                    : RESIST       - RESISTIVITY TYPE
RMC .OHMM     0.25                 : RMC          - RESISTIVITY OF MUD CAKE
RMF .OHMM     0.25                 : RMF          - RESISTIVITY OF MUD FILTRATE
SUFT.C        15                   : SUFT         - SURFACE TEMPERATURE
~A  DEPTH     RESD     PHID     PHIN       GR
# ...
  474.000    3.854    0.278    0.351   77.660
  474.250    4.001    0.255    0.359   94.110
  474.500    4.077    0.227    0.352   97.759
  474.750    4.395    0.208    0.339   94.085
  475.000    4.563    0.193    0.341   92.249
  475.250    4.477    0.181    0.350   90.409
  475.500    4.393    0.198    0.346   87.958
  475.750    4.475    0.205    0.333   85.506
  476.000    4.559    0.219    0.341   84.275
  476.250    4.734    0.224    0.358   88.533
  476.500    5.103    0.216    0.363   94.621
  476.750    5.501    0.208    0.368   98.879
  477.000    5.711    0.204    0.355  100.697
  477.250    6.042    0.203    0.336   97.635
  477.500    6.272    0.209    0.330   94.574
  477.750    6.511    0.214    0.349   92.738
  478.000    6.889    0.232    0.354   86.627
  478.250    6.888    0.256    0.360   82.959
  478.500    6.887    0.268    0.379   78.681
  478.750    6.886    0.250    0.385   74.401
  479.000    7.149    0.234    0.371   86.584
  479.250    7.852    0.222    0.356  101.816
  479.500    8.152    0.211    0.351  109.123
  479.750    8.463    0.211    0.340   99.354
  480.000    8.462    0.228    0.334   83.490
  480.250    8.622    0.218    0.331   74.334
  480.500    8.459    0.216    0.330   72.495
  480.750    8.145    0.231    0.338   79.800
  481.000    8.144    0.236    0.345   80.396
  481.250    8.143    0.224    0.356   86.478
  481.500    8.141    0.213    0.331   87.692
  481.750    8.613    0.201    0.318   89.511
  482.000    8.942    0.195    0.322   90.718
  482.250    9.460    0.194    0.322   88.270
  482.500    9.820    0.188    0.319   84.600
  482.750   10.006    0.183    0.318   88.248
  483.000   10.194    0.190    0.321   85.795
  483.250    9.816    0.216    0.326   83.348
  483.500    9.102    0.202    0.317   89.429
  483.750    8.764    0.185    0.313   91.248
  484.000    8.763    0.178    0.312   91.849
  484.250    9.270    0.215    0.307   90.621
  484.500    9.445    0.235    0.316   72.318
  484.750    9.623    0.253    0.322   66.819
  485.000    9.442    0.253    0.321   64.370
  485.250    9.264    0.255    0.329   69.846
  485.500    9.090    0.255    0.337   68.613
  485.750    8.919    0.215    0.344   70.433
  486.000    8.751    0.176    0.332   80.175
  486.250    7.670    0.139    0.342   87.481
  486.500    6.353    0.171    0.370   94.786
  486.750    5.568    0.141    0.454  100.875
  487.000    5.361    0.086    0.478  109.400
  487.250    5.672    0.237    0.430   74.023
  487.500    6.348    0.265    0.391   61.208
  487.750    6.844    0.296    0.350   46.566
  488.000    7.105    0.315    0.352   41.067
  488.250    7.239    0.327    0.355   44.102
  488.500    6.712    0.311    0.355   50.190
  488.750    6.463    0.293    0.346   60.544
  489.000    6.341    0.226    0.341   75.166
  489.250    6.461    0.192    0.338   87.348
  489.500    6.583    0.176    0.341   94.655
  489.750    6.582    0.182    0.345   97.692
  490.000    6.338    0.199    0.343   97.073
  490.250    4.961    0.232    0.336   87.305
  490.500    4.267    0.252    0.332   72.049
  490.750    3.811    0.278    0.342   61.067
  491.000    3.340    0.301    0.350   51.298
  491.250    3.156    0.323    0.351   46.411
  491.500    3.039    0.322    0.342   42.129
  491.750    3.038    0.322    0.334   40.900
  492.000    3.095    0.324    0.337   42.717
  492.250    3.213    0.322    0.347   43.318
  492.500    3.336    0.294    0.341   43.304
  492.750    3.464    0.284    0.337   54.270
  493.000    3.596    0.285    0.352   59.138
  493.250    3.804    0.294    0.364   62.781
  493.500    3.875    0.302    0.355   63.994
  493.750    4.023    0.306    0.345   65.809
  494.000    4.099    0.305    0.345   67.020
  494.250    4.098    0.295    0.344   68.224
  494.500    4.176    0.277    0.343   69.433
  494.750    4.254    0.267    0.345   71.253
  495.000    4.417    0.266    0.334   75.511
  495.250    4.852    0.269    0.328   79.156
  495.500    5.133    0.254    0.334   79.144
  495.750    5.430    0.230    0.339   81.574
  496.000    5.854    0.212    0.332   90.708
  496.250    6.193    0.192    0.323   96.187
  496.500    6.676    0.181    0.320  100.441
  496.750    6.931    0.174    0.328  107.746
  497.000    7.332    0.178    0.316  117.492
  497.250    7.470    0.184    0.314  122.356
  497.500    7.610    0.183    0.325  123.568
  497.750    7.468    0.183    0.334  121.726
  498.000    7.466    0.192    0.332  115.621
  498.250    7.326    0.215    0.331   99.752
  498.500    7.188    0.250    0.320   86.332
  498.750    6.792    0.237    0.312   68.639
  499.000    6.418    0.228    0.304   76.553
  499.250    6.180    0.230    0.315   80.201
  499.500    5.951    0.220    0.322   82.625
  499.750    5.730    0.217    0.327   83.227
  500.000    5.517    0.233    0.330   83.215
  500.250    5.516    0.235    0.325   85.033
  500.500    5.836    0.232    0.315   85.631
  500.750    6.410    0.140    0.298   81.960
  501.000    6.782    0.097    0.283   80.734
  501.250    7.175    0.069    0.275   83.155
  501.500    7.590    0.094    0.265   87.416
  501.750    7.589    0.105    0.285   94.719
  502.000    7.171    0.129    0.308   97.760
  502.250    6.775    0.160    0.316  100.799
  502.500    6.524    0.153    0.323  105.660
  502.750    6.402    0.157    0.310  106.872
  503.000    6.401    0.154    0.325  109.301
  503.250    6.400    0.150    0.328  107.461
  503.500    6.398    0.142    0.324  108.667
  503.750    6.397    0.157    0.325  108.046
  504.000    6.396    0.168    0.330  106.819
  504.250    6.517    0.164    0.333  111.682
  504.500    6.516    0.158    0.335  113.504
  504.750    6.514    0.146    0.335  113.488
  505.000    6.513    0.150    0.335  112.261
  505.250    6.512    0.161    0.324  107.981
  505.500    6.389    0.153    0.319  109.800
  505.750    6.388    0.152    0.318  111.618
  506.000    6.269    0.160    0.331  110.386
  506.250    6.267    0.166    0.330  107.935
  506.500    6.150    0.180    0.328  106.098
  506.750    6.034    0.183    0.322  102.427
  507.000    5.920    0.173    0.313  101.807
  507.250    5.809    0.177    0.311  105.456
  507.500    5.808    0.183    0.308  106.050
  507.750    5.699    0.188    0.322  101.161
  508.000    5.592    0.196    0.337   98.715
  508.250    5.486    0.189    0.354   96.266
  508.500    5.382    0.174    0.348  104.177
  508.750    5.382    0.183    0.339  106.609
  509.000    5.381    0.187    0.334  110.861
  509.250    5.380    0.193    0.333  110.855
  509.500    5.279    0.192    0.332  101.695
  509.750    5.180    0.179    0.328  101.687
  510.000    5.179    0.172    0.326  100.455
  510.250    5.081    0.169    0.338   95.566
  510.500    5.081    0.166    0.319   91.288
  510.750    5.080    0.176    0.315   92.496
  511.000    4.984    0.175    0.317   96.144
  511.250    4.983    0.182    0.327  102.225
  511.500    4.982    0.184    0.332  103.439
  511.750    4.981    0.175    0.335  105.254
  512.000    4.980    0.169    0.336  105.850
  512.250    4.980    0.160    0.339  105.842
  512.500    5.074    0.158    0.339  106.441
  512.750    5.169    0.180    0.336  107.651
  513.000    5.366    0.191    0.333  109.464
  513.250    5.365    0.196    0.340  109.455
  513.500    5.466    0.174    0.336  109.447
  513.750    5.893    0.177    0.330  110.045
  514.000    5.892    0.174    0.330  110.034
  514.250    5.673    0.175    0.332  107.584
  514.500    5.567    0.192    0.329  101.476
  514.750    5.360    0.198    0.327  101.462
  515.000    5.565    0.203    0.330  100.233
  515.250    5.777    0.206    0.331   93.515
  515.500    6.112    0.207    0.306   87.409
  515.750    6.714    0.079    0.297   75.202
  516.000    8.103   -0.005    0.279   66.656
  516.250    9.070    0.014    0.243   48.352
  516.500   12.967    0.030    0.192   39.193
  516.750   27.013    0.035    0.173   33.697
  517.000   32.602    0.020    0.166   26.367
  517.250   31.391    0.001    0.148   22.088
