~VERSION INFORMATION
 VERS.                 2.0:   CWLS LOG ASCII STANDARD -VERSION 2.0
 WRAP.                  NO:   ONE LINE PER DEPTH STEP
~WELL INFORMATION BLOCK
#MNEM.UNIT           DATA                    DESCRIPTION OF MNEMONIC
#---------    -------------------            -------------------------------
# Generated from Intellog Unique Number	CS_67_68/WELL/2196
WELL.         10-28-067-03W4                 : Well_name    - WELL
LOC .         00/10-28-067-03W4/0            : Location     - LOCATION
UWI .         00/10-28-067-03W4/0            : Uwi          - UNIQUE WELL ID
ENTR.         SP                             : Entered      - ENTERED BY
SRVC.         SCHLUMBERGER                   : Scn          - SERVICE COMPANY
STRT.M        335                            : top_depth    - START DEPTH
STOP.M        560                            : bot_depth    - STOP DEPTH
STEP.M        0.25                           : increment    - STEP LENGTH
 NULL. -999.2500:NULL Value
~CURVE INFORMATION BLOCK
#MNEM UNIT       ERCB CURVE CODE    CURVE DESCRIPTION
#-----------   ------------------   ----------------------------------
DEPT.M        00 001 00 00         : DEPTH        - DEPTH
ILD .OHMM     00 120 00 00         : RESD         - DEEP RESISTIVITY (DIL)
DPHI.V/V      00 890 00 00         : PHID         - DENSITY POROSITY (LIMESTONE)
NPHI.V/V      00 330 00 00         : PHIN         - NEUTRON POROSITY (LIMESTONE)
GR  .API      00 310 00 00         : GR           - GAMMA RAY
CALI.MM       00 280 01 00         : CAL          - CALIPER
~PARAMETER INFORMATION
#MNEM.UNIT           DATA             DESCRIPTION OF MNEMONIC
#---------         -----------     ------------------------------
GL  .M        678.88               : gl           - GROUND LEVEL ELEVATION
EREF.M        682.54               : kb           - ELEVATION OF DEPTH REFERENCE
DATM.M        682.54               : datum        - DATUM ELEVATION
TDD .M        573                  : tdd          - TOTAL DEPTH DRILLER
RUN .         ONE                  : Run          - RUN NUMBER
ENG .         BILL                 : Engineer     - RECORDING ENGINEER
WIT .         JIM                  : Witness      - WITNESSED BY
MUD .         GEL                  : Mud_type     - MUD TYPE
MATR.         LIMESTONE            : Logunit      - NEUTRON MATRIX
TMAX.C        18                   : BHT          - MAXIMUM RECORDED TEMPERATURE
BHTD.M        572.4                : BHTDEP       - MAXIMUM RECORDED TEMPERATURE
MATR.         1                    : LOGUNIT      - NEUTRON MATRIX
RMT .C        25                   : MDTP         - TEMPERATURE OF MUD
NEUT.         1                    : NEUTRON      - NEUTRON TYPE
RESI.         0                    : RESIST       - RESISTIVITY TYPE
RMC .OHMM     0.25                 : RMC          - RESISTIVITY OF MUD CAKE
RMF .OHMM     0.25                 : RMF          - RESISTIVITY OF MUD FILTRATE
SUFT.C        15                   : SUFT         - SURFACE TEMPERATURE
~A  DEPTH     RESD     PHID     PHIN       GR      CAL
# ...
  408.000   17.181    0.347    0.458   64.895  199.345
  408.250   15.846    0.346    0.457   65.632  199.460
  408.500   14.587    0.346    0.467   62.654  199.570
  408.750   13.735    0.345    0.475   60.893  199.681
  409.000   12.957    0.344    0.457   60.107  200.098
  409.250   12.714    0.339    0.445   61.575  200.719
  409.500   12.501    0.336    0.447   62.800  201.236
  409.750   12.453    0.335    0.467   62.685  201.651
  410.000   12.243    0.340    0.481   62.448  202.173
  410.250   12.082    0.336    0.464   62.453  202.282
  410.500   11.857    0.341    0.470   61.850  202.601
  410.750   11.723    0.344    0.483   60.761  202.914
  411.000   11.635    0.337    0.473   62.473  203.126
  411.250   11.375    0.333    0.465   62.723  203.443
  411.500   10.872    0.332    0.456   60.779  203.756
  411.750   10.629    0.333    0.450   64.259  204.175
  412.000   10.629    0.332    0.462   66.824  204.894
  412.250   11.393    0.335    0.476   67.195  205.210
  412.500   11.986    0.337    0.486   65.191  205.422
  412.750   12.776    0.329    0.463   63.674  205.738
  413.000   13.340    0.333    0.437   64.046  205.952
  413.250   13.772    0.329    0.454   66.916  206.369
  413.500   13.540    0.311    0.463   65.582  206.582
  413.750   12.279    0.297    0.460   65.284  206.796
  414.000   10.544    0.286    0.453   67.118  206.807
  414.250    9.243    0.291    0.443   69.013  207.121
  414.500    7.804    0.299    0.427   68.714  207.334
  414.750    6.868    0.306    0.443   65.430  207.548
  415.000    6.370    0.296    0.453   62.634  207.660
  415.250    6.204    0.290    0.457   63.554  207.671
  415.500    6.169    0.294    0.465   69.470  207.681
  415.750    6.122    0.296    0.454   75.021  207.287
  416.000    6.087    0.291    0.429   77.708  206.788
  416.250    6.076    0.290    0.411   75.095  205.988
  416.500    6.041    0.290    0.435   73.516  205.388
  416.750    5.917    0.292    0.442   72.244  204.891
  417.000    5.763    0.289    0.438   74.626  204.698
  417.250    5.561    0.286    0.440   76.765  204.710
  417.500    5.529    0.283    0.430   77.807  204.718
  417.750    5.570    0.291    0.431   77.082  204.730
  418.000    5.581    0.299    0.435   74.468  204.436
  418.250    5.665    0.300    0.441   71.184  204.346
  418.500    5.740    0.300    0.449   69.486  204.253
  418.750    5.761    0.303    0.457   68.760  204.060
  419.000    5.804    0.310    0.453   69.193  203.766
  419.250    5.836    0.316    0.440   71.149  203.574
  419.500    5.869    0.306    0.440   73.165  203.383
  419.750    5.902    0.302    0.455   72.320  203.391
  420.000    5.857    0.297    0.466   71.960  203.098
  420.250    5.780    0.299    0.457   72.027  203.008
  420.500    5.630    0.300    0.457   73.252  202.814
  420.750    5.473    0.305    0.464   74.782  202.621
  421.000    5.411    0.312    0.475   75.336  202.428
  421.250    5.330    0.306    0.491   75.829  202.035
  421.500    5.320    0.299    0.482   76.689  201.739
  421.750    5.411    0.293    0.476   75.172  201.444
  422.000    5.420    0.294    0.470   74.752  201.354
  422.250    5.441    0.296    0.466   74.575  201.162
  422.500    5.410    0.297    0.455   74.277  200.969
  422.750    5.379    0.296    0.448   72.761  201.080
  423.000    5.379    0.295    0.442   70.512  200.990
  423.250    5.419    0.296    0.450   68.020  201.304
  423.500    5.480    0.297    0.455   65.163  201.519
  423.750    5.500    0.302    0.458   66.266  201.833
  424.000    5.459    0.312    0.461   71.086  202.149
  424.250    5.438    0.309    0.455   72.798  202.463
  424.500    5.377    0.300    0.444   74.022  202.575
  424.750    5.256    0.291    0.438   75.917  202.891
  425.000    5.024    0.299    0.464   77.203  203.206
  425.250    4.678    0.283    0.470   77.880  203.319
  425.500    4.388    0.267    0.463   81.177  203.330
  425.750    4.155    0.262    0.474   86.849  203.643
  426.000    3.927    0.275    0.492   95.080  203.755
  426.250    3.690    0.282    0.503   96.427  203.968
  426.500    3.429    0.276    0.508   95.093  204.082
  426.750    3.259    0.269    0.500   94.550  204.396
  427.000    3.127    0.267    0.494   93.704  204.407
  427.250    3.098    0.279    0.496   91.882  204.622
  427.500    3.133    0.293    0.487   89.451  204.529
  427.750    3.371    0.318    0.499   83.670  204.541
  428.000    3.648    0.346    0.516   78.010  204.651
  428.250    4.029    0.356    0.508   72.959  204.662
  428.500    4.311    0.366    0.494   65.959  204.572
  428.750    4.604    0.374    0.493   60.969  204.481
  429.000    4.871    0.368    0.495   59.940  204.186
  429.250    5.163    0.361    0.478   58.789  203.791
  429.500    5.370    0.356    0.461   57.820  203.496
  429.750    5.503    0.354    0.448   56.853  203.304
  430.000    5.565    0.358    0.455   56.249  203.213
  430.250    5.607    0.357    0.468   56.012  203.527
  430.500    5.627    0.351    0.450   56.019  203.439
  430.750    5.680    0.348    0.448   56.694  203.549
  431.000    5.953    0.346    0.461   59.016  203.559
  431.250    6.334    0.350    0.470   59.997  203.670
  431.500    6.638    0.347    0.457   59.455  203.684
  431.750    6.853    0.342    0.443   58.120  203.693
  432.000    6.905    0.341    0.441   58.309  203.803
  432.250    6.904    0.343    0.452   61.058  204.017
  432.500    7.128    0.343    0.460   60.821  204.334
  432.750    7.331    0.341    0.465   58.999  204.546
  433.000    7.456    0.336    0.469   57.299  204.657
  433.250    7.442    0.334    0.473   55.478  204.670
  433.500    7.344    0.333    0.476   57.007  204.780
  433.750    7.207    0.329    0.478   59.816  204.994
  434.000    7.112    0.335    0.475   62.076  205.107
  434.250    7.138    0.339    0.463   56.600  205.014
  434.500    7.205    0.336    0.458   59.408  204.722
  434.750    7.300    0.334    0.469   63.131  204.527
  435.000    7.452    0.335    0.479   64.356  204.437
  435.250    7.651    0.331    0.475   64.057  204.246
  435.500    7.752    0.329    0.458   65.952  204.154
  435.750    7.824    0.334    0.457   65.959  203.760
  436.000    7.839    0.339    0.476   63.772  203.566
  436.250    7.868    0.341    0.491   64.265  203.271
  436.500    8.032    0.341    0.491   63.114  203.079
  436.750    8.184    0.340    0.480   59.953  203.293
  437.000    8.307    0.339    0.474   63.006  203.404
  437.250    8.369    0.334    0.477   65.753  203.820
  437.500    8.369    0.329    0.468   67.769  204.136
  437.750    8.259    0.335    0.465   65.765  204.148
  438.000    8.014    0.336    0.464   63.944  204.259
  438.250    7.761    0.329    0.457   61.391  204.167
  438.500    7.588    0.325    0.454   57.620  204.076
  438.750    7.516    0.330    0.452   62.317  203.884
  439.000    7.446    0.330    0.456   66.528  203.691
  439.250    7.375    0.334    0.472   66.656  203.803
  439.500    7.347    0.338    0.481   63.861  203.712
  439.750    7.292    0.338    0.473   62.892  203.927
  440.000    7.251    0.338    0.449   62.898  204.242
  440.250    7.236    0.339    0.430   63.208  204.352
  440.500    7.236    0.342    0.470   63.093  204.667
  440.750    7.263    0.340    0.489   62.673  205.085
  441.000    7.276    0.338    0.494   62.922  205.399
  441.250    7.303    0.339    0.480   63.051  206.122
  441.500    7.316    0.343    0.464   62.143  206.435
  441.750    7.330    0.332    0.451   60.078  206.751
  442.000    7.302    0.320    0.442   61.485  206.862
  442.250    7.288    0.329    0.437   64.965  206.670
  442.500    7.206    0.336    0.454   67.834  206.782
  442.750    7.044    0.330    0.474   68.450  206.591
  443.000    6.874    0.324    0.485   68.273  206.499
  443.250    6.720    0.333    0.492   69.620  206.305
  443.500    6.607    0.332    0.480   71.637  206.116
  443.750    6.533    0.304    0.467   71.643  205.821
  444.000    6.471    0.280    0.455   69.883  205.830
  444.250    6.410    0.281    0.462   69.036  205.739
