~VERSION INFORMATION
 VERS.                 2.0:   CWLS LOG ASCII STANDARD -VERSION 2.0
 WRAP.                  NO:   ONE LINE PER DEPTH STEP
~WELL INFORMATION BLOCK
#MNEM.UNIT           DATA                    DESCRIPTION OF MNEMONIC
#---------    -------------------            -------------------------------
# Generated from Intellog Unique Number	CS_67_68/WELL/855
WELL.         FISHER CREEK                   : Well_name    - WELL
LOC .         00/14-05-068-07W4/0            : Location     - LOCATION
UWI .         00/14-05-068-07W4/0            : Uwi          - UNIQUE WELL ID
ENTR.         S608.1                         : Entered      - ENTERED BY
SRVC.         SCHLUMBERGER                   : Scn          - SERVICE COMPANY
STRT.M        280                            : top_depth    - START DEPTH
STOP.M        510                            : bot_depth    - STOP DEPTH
STEP.M        0.25                           : increment    - STEP LENGTH
 NULL. -999.2500:NULL Value
~CURVE INFORMATION BLOCK
#MNEM UNIT       ERCB CURVE CODE    CURVE DESCRIPTION
#-----------   ------------------   ----------------------------------
DEPT.M        00 001 00 00         : DEPTH        - DEPTH
ILD .OHMM     00 120 00 00         : RESD         - DEEP RESISTIVITY (DIL)
DPHI.V/V      00 890 00 00         : PHID         - DENSITY POROSITY (LIMESTONE)
NPHI.V/V      00 330 00 00         : PHIN         - NEUTRON POROSITY (LIMESTONE)
GR  .API      00 310 00 00         : GR           - GAMMA RAY
~PARAMETER INFORMATION
#MNEM.UNIT           DATA             DESCRIPTION OF MNEMONIC
#---------         -----------     ------------------------------
GL  .M        608.1                : gl           - GROUND LEVEL ELEVATION
EREF.M        611.71               : kb           - ELEVATION OF DEPTH REFERENCE
DATM.M        608.1                : datum        - DATUM ELEVATION
TDD .M        519.5                : tdd          - TOTAL DEPTH DRILLER
RUN .         ONE                  : Run          - RUN NUMBER
ENG .         BILL                 : Engineer     - RECORDING ENGINEER
WIT .         JIM                  : Witness      - WITNESSED BY
MUD .         GEL                  : Mud_type     - MUD TYPE
MATR.         LIMESTONE            : Logunit      - NEUTRON MATRIX
TMAX.C        25                   : BHT          - MAXIMUM RECORDED TEMPERATURE
BHTD.M        519.5                : BHTDEP       - MAXIMUM RECORDED TEMPERATURE
MATR.         1                    : LOGUNIT      - NEUTRON MATRIX
RMT .C        25                   : MDTP         - TEMPERATURE OF MUD
NEUT.         1                    : NEUTRON      - NEUTRON TYPE
RESI.         0                    : RESIST       - RESISTIVITY TYPE
RMC .OHMM     0.25                 : RMC          - RESISTIVITY OF MUD CAKE
RMF .OHMM     0.25                 : RMF          - RESISTIVITY OF MUD FILTRATE
SUFT.C        15                   : SUFT         - SURFACE TEMPERATURE
~A  DEPTH     RESD     PHID     PHIN       GR
# ...
  323.500    4.726    0.297    0.410  105.708
  323.750    4.764    0.295    0.411  100.150
  324.000    4.867    0.298    0.419   97.772
  324.250    4.972    0.290    0.404   99.863
  324.500    5.079    0.285    0.388   98.954
  324.750    5.188    0.280    0.385   96.026
  325.000    5.310    0.279    0.395   96.647
  325.250    5.477    0.278    0.403  100.023
  325.500    5.595    0.273    0.405   98.319
  325.750    5.672    0.288    0.398   94.290
  326.000    5.708    0.300    0.402   95.707
  326.250    5.723    0.295    0.412   92.717
  326.500    5.747    0.290    0.418   86.484
  326.750    5.762    0.294    0.424   87.719
  327.000    5.776    0.284    0.437   89.747
  327.250    5.802    0.274    0.443   90.797
  327.500    5.773    0.261    0.437   88.237
  327.750    5.776    0.262    0.438   84.148
  328.000    5.768    0.289    0.434   81.278
  328.250    5.752    0.315    0.427   74.128
  328.500    5.744    0.336    0.412   64.897
  328.750    5.714    0.353    0.398   61.112
  329.000    5.655    0.357    0.382   61.243
  329.250    5.594    0.356    0.373   62.294
  329.500    5.503    0.355    0.390   63.772
  329.750    5.444    0.353    0.404   67.760
  330.000    5.397    0.351    0.410   69.482
  330.250    5.369    0.346    0.411   68.696
  330.500    5.362    0.343    0.409   65.402
  330.750    5.386    0.344    0.393   62.414
  331.000    5.400    0.345    0.387   61.503
  331.250    5.413    0.343    0.398   61.268
  331.500    5.437    0.340    0.408   67.215
  331.750    5.492    0.340    0.413   73.467
  332.000    5.495    0.342    0.401   75.985
  332.250    5.499    0.345    0.396   76.852
  332.500    5.471    0.344    0.403   82.308
  332.750    5.475    0.328    0.408   85.868
  333.000    5.458    0.325    0.398   87.223
  333.250    5.450    0.339    0.394   75.606
  333.500    5.443    0.346    0.404   69.924
  333.750    5.436    0.347    0.418   66.445
  334.000    5.440    0.344    0.404   63.822
  334.250    5.454    0.342    0.388   58.630
  334.500    5.478    0.336    0.374   56.313
  334.750    5.523    0.330    0.365   63.730
  335.000    5.547    0.324    0.362   67.103
  335.250    5.593    0.321    0.376   71.154
  335.500    5.639    0.320    0.388   70.427
  335.750    5.641    0.320    0.406   68.235
  336.000    5.635    0.325    0.421   72.773
  336.250    5.607    0.329    0.429   75.230
  336.500    5.588    0.326    0.421   70.221
  336.750    5.561    0.327    0.402   64.539
  337.000    5.543    0.334    0.396   68.098
  337.250    5.525    0.336    0.400   71.902
  337.500    5.498    0.335    0.403   69.403
  337.750    5.492    0.332    0.402   64.946
  338.000    5.494    0.327    0.388   67.647
  338.250    5.508    0.322    0.400   70.717
  338.500    5.522    0.319    0.412   69.196
  338.750    5.525    0.320    0.421   66.148
  339.000    5.518    0.332    0.412   64.013
  339.250    5.522    0.335    0.392   61.453
  339.500    5.524    0.311    0.383   59.198
  339.750    5.559    0.293    0.403   65.634
  340.000    5.573    0.286    0.420   74.946
  340.250    5.598    0.283    0.429   81.442
  340.500    5.622    0.291    0.433   86.471
  340.750    5.626    0.308    0.415   85.380
  341.000    5.651    0.320    0.409   88.020
  341.250    5.665    0.311    0.413   94.149
  341.500    5.669    0.305    0.398   97.096
  341.750    5.704    0.300    0.393   96.250
  342.000    5.783    0.296    0.392   93.628
  342.250    5.931    0.293    0.393   93.147
  342.500    6.093    0.294    0.397   94.870
  342.750    6.283    0.297    0.405   94.513
  343.000    6.516    0.308    0.409   93.237
  343.250    6.656    0.327    0.412   97.838
  343.500    6.762    0.345    0.411  104.395
  343.750    6.844    0.360    0.408  109.545
  344.000    6.873    0.360    0.410  106.005
  344.250    6.903    0.332    0.419  106.627
  344.500    6.920    0.320    0.427  105.780
  344.750    6.938    0.309    0.429  101.260
  345.000    6.931    0.296    0.400   95.823
  345.250    6.909    0.282    0.389   91.549
  345.500    6.911    0.275    0.389   94.191
  345.750    6.904    0.273    0.391   98.424
  346.000    6.870    0.275    0.393  100.574
  346.250    6.835    0.285    0.406   93.117
  346.500    6.787    0.305    0.416   84.314
  346.750    6.727    0.307    0.378   80.161
  347.000    6.631    0.277    0.360   90.637
  347.250    6.548    0.264    0.371   95.543
  347.500    6.441    0.258    0.371   92.308
  347.750    6.325    0.266    0.368   97.765
  348.000    6.142    0.283    0.374   96.489
  348.250    6.042    0.298    0.370   94.846
  348.500    5.888    0.291    0.365  121.171
  348.750    5.739    0.279    0.366  148.109
  349.000    5.614    0.272    0.373  145.977
  349.250    5.543    0.288    0.380  130.502
  349.500    5.463    0.312    0.362  109.399
  349.750    5.396    0.327    0.350   98.147
  350.000    5.338    0.326    0.344   90.384
  350.250    5.311    0.316    0.362   95.779
  350.500    5.285    0.322    0.383  106.132
  350.750    5.268    0.332    0.392   87.904
  351.000    5.231    0.328    0.371   73.838
  351.250    5.206    0.320    0.370   60.994
  351.500    5.219    0.319    0.380   75.814
  351.750    5.231    0.306    0.359   83.046
  352.000    5.247    0.278    0.353   84.586
  352.250    5.259    0.264    0.366   93.532
  352.500    5.292    0.258    0.376   97.949
  352.750    5.304    0.257    0.387  100.160
  353.000    5.377    0.254    0.401  102.435
  353.250    5.452    0.250    0.387  105.198
  353.500    5.539    0.244    0.370  108.082
  353.750    5.637    0.239    0.363  105.216
  354.000    5.727    0.235    0.363  107.367
  354.250    5.818    0.242    0.371  108.662
  354.500    5.932    0.272    0.380  103.837
  354.750    6.015    0.288    0.373   95.768
  355.000    6.076    0.279    0.364   88.372
  355.250    6.102    0.273    0.359   88.076
  355.500    6.152    0.268    0.361   90.412
  355.750    6.190    0.274    0.371   89.136
  356.000    6.240    0.290    0.378   87.249
  356.250    6.244    0.284    0.383   86.768
  356.500    6.224    0.276    0.395   85.799
  356.750    6.170    0.274    0.401   84.463
  357.000    6.093    0.288    0.409   82.941
  357.250    6.028    0.293    0.416   80.626
  357.500    5.976    0.290    0.423   78.676
  357.750    5.935    0.290    0.434   78.687
  358.000    5.906    0.289    0.415   79.675
  358.250    5.866    0.280    0.396   86.477
  358.500    5.793    0.272    0.387   90.894
  358.750    5.224    0.273    0.397   89.434
  359.000    5.139    0.274    0.414   83.569
  359.250    5.028    0.272    0.428   87.066
  359.500    4.973    0.269    0.439   92.400
  359.750    4.766    0.264    0.426   97.674
  360.000    4.627    0.260    0.423  102.151
  360.250    4.334    0.266    0.425  105.344
  360.500    4.114    0.274    0.426  105.047
  360.750    3.971    0.271    0.421  106.219
  361.000    3.981    0.266    0.421  108.064
  361.250    4.083    0.267    0.420  108.196
  361.500    4.163    0.272    0.418  101.229
  361.750    4.166    0.278    0.410   95.058
  362.000    4.138    0.282    0.408   90.661
  362.250    4.093    0.288    0.417   87.059
  362.500    3.959    0.299    0.426   82.663
  362.750    3.660    0.298    0.432   80.347
  363.000    3.284    0.289    0.432   82.254
  363.250    3.134    0.285    0.434   88.751
  363.500    2.865    0.284    0.440   95.309
  363.750    2.699    0.293    0.447   99.846
  364.000    2.448    0.304    0.461  104.507
  364.250    2.289    0.320    0.473  106.965
  364.500    2.214    0.347    0.474  100.609
  364.750    2.138    0.365    0.464   94.318
  365.000    2.087    0.372    0.477   97.569
  365.250    2.045    0.370    0.517  104.374
  365.500    2.039    0.358    0.498  107.380
  365.750    2.151    0.367    0.469  109.409
  366.000    2.316    0.386    0.452  103.911
  366.250    2.528    0.355    0.457   97.188
  366.500    2.870    0.308    0.448   89.488
  366.750    3.228    0.300    0.418   83.866
