~VERSION INFORMATION
 VERS.                 2.0:   CWLS LOG ASCII STANDARD -VERSION 2.0
 WRAP.                  NO:   ONE LINE PER DEPTH STEP
~WELL INFORMATION BLOCK
#MNEM.UNIT           DATA                    DESCRIPTION OF MNEMONIC
#---------    -------------------            -------------------------------
# Generated from Intellog Unique Number	CS_73_76/WELL/854
WELL.         HOUSTON OILS LIMITED           : Well_name    - WELL
LOC .         00/11-35-073-15W4/0            : Location     - LOCATION
UWI .         00/11-35-073-15W4/0            : Uwi          - UNIQUE WELL ID
ENTR.         SP                             : Entered      - ENTERED BY
SRVC.         SCHLUMBERGER                   : Scn          - SERVICE COMPANY
STRT.M        320.04                         : top_depth    - START DEPTH
STOP.M        536.29                         : bot_depth    - STOP DEPTH
STEP.M        0.25                           : increment    - STEP LENGTH
 NULL. -999.2500:NULL Value
~CURVE INFORMATION BLOCK
#MNEM UNIT       ERCB CURVE CODE    CURVE DESCRIPTION
#-----------   ------------------   ----------------------------------
DEPT.M        00 001 00 00         : DEPTH        - DEPTH
GR  .API      00 310 00 00         : GR           - GAMMA RAY
DPHI.V/V      00 890 00 00         : PHID         - DENSITY POROSITY (SANDSTONE)
NPHI.V/V      00 330 00 00         : PHIN         - NEUTRON POROSITY (SANDSTONE)
ILD .OHMM     00 120 00 00         : RESD         - DEEP RESISTIVITY (DIL)
~PARAMETER INFORMATION
#MNEM.UNIT           DATA             DESCRIPTION OF MNEMONIC
#---------         -----------     ------------------------------
GL  .M        657.758              : gl           - GROUND LEVEL ELEVATION
EREF.M        660.806              : kb           - ELEVATION OF DEPTH REFERENCE
DATM.M        657.758              : datum        - DATUM ELEVATION
TDD .M        539.496              : tdd          - TOTAL DEPTH DRILLER
RUN .         ONE                  : Run          - RUN NUMBER
ENG .         BILL                 : Engineer     - RECORDING ENGINEER
WIT .         JIM                  : Witness      - WITNESSED BY
MUD .         GEL                  : Mud_type     - MUD TYPE
MATR.         SANDSTONE            : Logunit      - NEUTRON MATRIX
TMAX.C        23.8889              : BHT          - MAXIMUM RECORDED TEMPERATURE
BHTD.M        539.496              : BHTDEP       - MAXIMUM RECORDED TEMPERATURE
MATR.         1                    : LOGUNIT      - NEUTRON MATRIX
RMT .C        25                   : MDTP         - TEMPERATURE OF MUD
NEUT.         1                    : NEUTRON      - NEUTRON TYPE
RESI.         0                    : RESIST       - RESISTIVITY TYPE
RMC .OHMM     0.25                 : RMC          - RESISTIVITY OF MUD CAKE
RMF .OHMM     0.25                 : RMF          - RESISTIVITY OF MUD FILTRATE
SUFT.C        15                   : SUFT         - SURFACE TEMPERATURE
~A  DEPTH       GR     PHID     PHIN     RESD
# ...
  494.040   57.503    0.254    0.401   25.641
  494.290   59.380    0.255    0.398   26.605
  494.540   60.951    0.241    0.390   26.614
  494.790   62.538    0.231    0.390   25.828
  495.040   64.286    0.227    0.406   25.061
  495.290   66.841    0.228    0.415   24.740
  495.540   68.957    0.218    0.412   24.760
  495.790   69.426    0.233    0.401   24.822
  496.040   68.929    0.215    0.389   25.186
  496.290   69.076    0.188    0.390   25.683
  496.540   70.096    0.185    0.384   26.177
  496.790   71.075    0.194    0.395   26.146
  497.040   71.874    0.225    0.417   26.156
  497.290   68.172    0.228    0.410   26.160
  497.540   63.547    0.264    0.399   26.133
  497.790   60.350    0.286    0.402   26.912
  498.040   56.828    0.292    0.392   28.607
  498.290   59.478    0.272    0.392   30.630
  498.540   66.600    0.257    0.417   34.503
  498.790   69.473    0.274    0.415   38.785
  499.040   66.915    0.281    0.410   43.625
  499.290   65.866    0.268    0.419   49.098
  499.540   67.329    0.259    0.411   53.064
  499.790   69.961    0.241    0.393   50.900
  500.040   73.260    0.226    0.381   43.976
  500.290   77.140    0.209    0.374   30.555
  500.540   81.899    0.197    0.375   26.125
  500.790   84.527    0.205    0.388   22.253
  501.040   86.220    0.198    0.407   20.144
  501.290   86.329    0.187    0.408   19.004
  501.540   86.863    0.176    0.427   18.259
  501.790   88.415    0.170    0.449   17.029
  502.040   90.760    0.155    0.444   16.207
  502.290   95.673    0.180    0.433   15.033
  502.540  103.532    0.191    0.450   14.161
  502.790  109.042    0.193    0.448   13.065
  503.040  111.423    0.202    0.431   12.718
  503.290  110.910    0.193    0.416   12.408
  503.540  110.367    0.190    0.435   12.427
  503.790   99.822    0.189    0.414   12.813
  504.040   95.777    0.200    0.419   13.204
  504.290   93.075    0.228    0.410   13.592
  504.540   92.098    0.235    0.405   14.129
  504.790   91.186    0.224    0.406   14.394
  505.040   90.744    0.209    0.408   14.624
  505.290   89.106    0.216    0.396   14.780
  505.540   86.552    0.200    0.383   14.914
  505.790   82.965    0.185    0.371   14.922
  506.040   79.418    0.194    0.358   14.926
  506.290   75.470    0.201    0.352   14.930
  506.540   76.614    0.184    0.368   14.566
  506.790   82.722    0.173    0.376   13.701
  507.040   92.420    0.174    0.391   12.906
  507.290   98.717    0.171    0.395   12.284
  507.540   97.591    0.163    0.386   11.930
  507.790   94.347    0.155    0.372   11.771
  508.040   93.061    0.150    0.363   12.028
  508.290   96.380    0.151    0.382   12.047
  508.540   98.867    0.172    0.394   12.178
  508.790   98.806    0.174    0.383   13.668
  509.040   91.471    0.175    0.370   15.071
  509.290   83.275    0.171    0.351   17.628
  509.540   76.605    0.159    0.338   18.906
  509.790   71.257    0.141    0.320   19.295
  510.040   70.611    0.088    0.304   19.703
  510.290   72.070    0.040    0.280   19.140
  510.540   72.473    0.008    0.250   17.340
  510.790   78.225    0.118    0.311   16.334
  511.040   80.607    0.190    0.358   15.370
  511.290   81.538    0.187    0.376   13.469
  511.540   83.317    0.178    0.387   13.781
  511.790   87.454    0.185    0.384   12.590
  512.040   93.422    0.175    0.371   11.349
  512.290   97.551    0.154    0.363   10.131
  512.540   99.842    0.140    0.358    9.283
  512.790  103.938    0.129    0.371    8.634
  513.040  112.552    0.132    0.402    8.112
  513.290  117.207    0.133    0.418    7.487
  513.540  113.125    0.143    0.441    7.182
  513.790  115.596    0.158    0.461    6.899
  514.040  113.684    0.156    0.463    6.600
  514.290  113.716    0.155    0.444    6.411
  514.540  118.179    0.165    0.424    6.240
  514.790  120.286    0.160    0.409    6.152
  515.040  117.560    0.154    0.414    5.964
  515.290  117.821    0.157    0.436    5.775
  515.540  117.592    0.123    0.434    6.226
  515.790  113.164    0.117    0.454    6.297
  516.040  105.604    0.093    0.440    6.247
  516.290  100.399    0.071    0.399    6.333
  516.540  108.087    0.041    0.396    6.389
  516.790  111.770    0.010    0.415    6.598
  517.040  114.444    0.168    0.425    6.878
  517.290  115.401    0.146    0.422    7.129
  517.540  115.787    0.140    0.419    7.357
  517.790  110.390    0.148    0.409    7.360
  518.040  113.224    0.154    0.415    7.348
  518.290  111.771    0.165    0.424    7.241
  518.540  110.694    0.152    0.409    7.091
  518.790  113.130    0.131    0.393    7.106
  519.040  113.657    0.118    0.395    7.097
  519.290  113.309    0.126    0.401    7.290
  519.540  114.887    0.134    0.417    7.509
  519.790  112.476    0.136    0.434    7.846
  520.040  104.296    0.155    0.428    8.212
  520.290   95.276    0.167    0.407    9.311
  520.540   88.575    0.156    0.391   10.316
  520.790   84.695    0.120    0.374   11.102
  521.040   78.407    0.103    0.350   11.610
  521.290   80.683    0.102    0.342   11.954
  521.540   87.978    0.131    0.371   12.303
  521.790   94.719    0.165    0.398   12.301
  522.040   94.137    0.167    0.415   12.465
  522.290   86.234    0.181    0.406   13.003
  522.540   79.172    0.197    0.392   13.992
  522.790   79.120    0.211    0.387   15.381
  523.040   80.577    0.209    0.390   17.365
  523.290   77.942    0.227    0.393   18.531
  523.540   74.021    0.239    0.393   19.882
  523.790   71.624    0.230    0.392   21.167
  524.040   70.307    0.214    0.381   22.098
  524.290   69.081    0.195    0.367   22.438
  524.540   70.088    0.174    0.362   22.462
  524.790   71.784    0.208    0.378   22.502
  525.040   74.171    0.209    0.403   22.043
  525.290   77.166    0.219    0.409   21.747
  525.540   79.209    0.241    0.413   21.559
  525.790   77.531    0.250    0.420   20.880
  526.040   75.546    0.219    0.412   20.267
  526.290   78.193    0.217    0.403   19.672
  526.540   80.572    0.221    0.389   19.098
  526.790   83.945    0.229    0.396   18.763
  527.040   87.727    0.227    0.405   17.880
  527.290   90.784    0.221    0.391   17.405
  527.540   90.505    0.214    0.376   17.313
  527.790   91.924    0.209    0.372   16.429
  528.040  104.678    0.220    0.362   16.016
  528.290  111.568    0.222    0.341   14.722
  528.540  114.447    0.208    0.331   12.910
  528.790  115.066    0.149    0.328   11.165
  529.040  113.142    0.152    0.337    9.835
  529.290  117.930    0.154    0.353    9.217
  529.540  124.365    0.118    0.363    8.777
  529.790  127.930    0.098    0.384    8.562
  530.040  127.131    0.081    0.391    8.423
  530.290  123.288    0.059    0.384    8.418
  530.540  116.591    0.124    0.383    8.415
  530.790  124.170    0.109    0.391    8.415
  531.040  127.608    0.102    0.391    8.417
  531.290  127.104    0.115    0.381    8.421
  531.540  121.032    0.125    0.392    8.294
  531.790  116.015    0.116    0.401    8.212
  532.040  113.767    0.126    0.407    8.116
  532.290  111.964    0.141    0.404    7.989
  532.540  110.497    0.121    0.416    7.633
  532.790  108.460    0.116    0.431    7.291
  533.040  105.749    0.115    0.444    7.147
  533.290  104.530    0.130    0.443    7.172
  533.540  103.028    0.146    0.398    7.390
  533.790  101.747    0.168    0.353    7.768
  534.040  100.474    0.186    0.348    8.182
  534.290   99.969    0.192    0.349    8.522
  534.540  100.252    0.191    0.353    9.087
  534.790  100.630    0.160    0.367    9.427
  535.040  102.619    0.143    0.373    9.696
  535.290  105.396    0.141    0.359    9.948
  535.540  109.027    0.166    0.350    9.935
  535.790  109.969    0.149    0.356    9.957
  536.040  110.882    0.136    0.357    9.755
  536.290  110.839    0.155    0.357    9.444
