~VERSION INFORMATION
 VERS.                 2.0:   CWLS LOG ASCII STANDARD -VERSION 2.0
 WRAP.                  NO:   ONE LINE PER DEPTH STEP
~WELL INFORMATION BLOCK
#MNEM.UNIT           DATA                    DESCRIPTION OF MNEMONIC
#---------    -------------------            -------------------------------
# Generated from Intellog Unique Number	CS_69_70/WELL/896
WELL.         JOFFRE OIL LTD.                : Well_name    - WELL
LOC .         00/11-26-070-18W4/0            : Location     - LOCATION
UWI .         00/11-26-070-18W4/0            : Uwi          - UNIQUE WELL ID
ENTR.         SP                             : Entered      - ENTERED BY
SRVC.         SCHLUMBERGER                   : Scn          - SERVICE COMPANY
STRT.M        290                            : top_depth    - START DEPTH
STOP.M        485                            : bot_depth    - STOP DEPTH
STEP.M        0.25                           : increment    - STEP LENGTH
 NULL. -999.2500:NULL Value
~CURVE INFORMATION BLOCK
#MNEM UNIT       ERCB CURVE CODE    CURVE DESCRIPTION
#-----------   ------------------   ----------------------------------
DEPT.M        00 001 00 00         : DEPTH        - DEPTH
DPHI.V/V      00 890 00 00         : PHID         - DENSITY POROSITY (LIMESTONE)
NPHI.V/V      00 330 00 00         : PHIN         - NEUTRON POROSITY (LIMESTONE)
GR  .API      00 310 00 00         : GR           - GAMMA RAY
ILD .OHMM     00 120 00 00         : RESD         - DEEP RESISTIVITY (DIL)
~PARAMETER INFORMATION
#MNEM.UNIT           DATA             DESCRIPTION OF MNEMONIC
#---------         -----------     ------------------------------
GL  .M        565.34               : gl           - GROUND LEVEL ELEVATION
EREF.M        568.32               : kb           - ELEVATION OF DEPTH REFERENCE
DATM.M        565.34               : datum        - DATUM ELEVATION
TDD .M        586                  : tdd          - TOTAL DEPTH DRILLER
RUN .         ONE                  : Run          - RUN NUMBER
ENG .         BILL                 : Engineer     - RECORDING ENGINEER
WIT .         JIM                  : Witness      - WITNESSED BY
MUD .         GEL                  : Mud_type     - MUD TYPE
MATR.         LIMESTONE            : Logunit      - NEUTRON MATRIX
TMAX.C        6.9                  : BHT          - MAXIMUM RECORDED TEMPERATURE
BHTD.M        586                  : BHTDEP       - MAXIMUM RECORDED TEMPERATURE
MATR.         1                    : LOGUNIT      - NEUTRON MATRIX
RMT .C        25                   : MDTP         - TEMPERATURE OF MUD
NEUT.         1                    : NEUTRON      - NEUTRON TYPE
RESI.         0                    : RESIST       - RESISTIVITY TYPE
RMC .OHMM     0.25                 : RMC          - RESISTIVITY OF MUD CAKE
RMF .OHMM     0.25                 : RMF          - RESISTIVITY OF MUD FILTRATE
SUFT.C        15                   : SUFT         - SURFACE TEMPERATURE
~A  DEPTH     PHID     PHIN       GR     RESD
# ...
  333.500    0.199    0.408   71.460    5.565
  333.750    0.109    0.303   69.401    6.786
  334.000    0.062    0.236   64.126    8.415
  334.250    0.155    0.214   61.277   10.416
  334.500    0.206    0.245   59.886   11.989
  334.750    0.243    0.342   62.563   13.468
  335.000    0.263    0.395   65.785   13.207
  335.250    0.273    0.421   69.372   11.798
  335.500    0.278    0.429   70.349    5.894
  335.750    0.276    0.437   70.414    5.315
  336.000    0.267    0.442   69.266    4.966
  336.250    0.259    0.444   67.451    4.779
  336.500    0.253    0.444   66.303    4.670
  336.750    0.248    0.439   65.884    4.682
  337.000    0.251    0.448   66.859    4.711
  337.250    0.236    0.451   76.031    4.798
  337.500    0.247    0.435   81.500    4.829
  337.750    0.245    0.424   87.090    4.840
  338.000    0.228    0.430   93.227    4.856
  338.250    0.207    0.443   98.513    4.860
  338.500    0.203    0.435  100.947    4.884
  338.750    0.213    0.429   99.920    4.897
  339.000    0.226    0.436   93.187    4.908
  339.250    0.237    0.434   90.643    4.903
  339.500    0.221    0.432   93.137    4.908
  339.750    0.197    0.443   95.449    4.921
  340.000    0.187    0.450   96.304    4.934
  340.250    0.201    0.443   96.249    4.938
  340.500    0.204    0.439   95.587    4.954
  340.750    0.211    0.448   93.831    4.968
  341.000    0.236    0.448   88.980    4.992
  341.250    0.249    0.432   84.736    5.024
  341.500    0.259    0.429   80.007    5.044
  341.750    0.272    0.421   77.765    5.115
  342.000    0.262    0.409   83.053    5.247
  342.250    0.248    0.402   86.517    5.309
  342.500    0.241    0.414   89.558    5.444
  342.750    0.249    0.416   91.323    5.512
  343.000    0.224    0.424   92.179    5.433
  343.250    0.215    0.437   94.187    5.181
  343.500    0.228    0.446   99.049    4.867
  343.750    0.215    0.481  103.061    4.564
  344.000    0.223    0.518  103.674    4.296
  344.250    0.231    0.539  101.130    4.067
  344.500    0.211    0.549   99.374    3.936
  344.750    0.201    0.508   98.044    4.150
  345.000    0.211    0.472   97.624    4.458
  345.250    0.221    0.471   96.172    4.853
  345.500    0.218    0.457   91.807    5.175
  345.750    0.207    0.446   86.166    5.477
  346.000    0.199    0.445   85.443    5.941
  346.250    0.227    0.449   87.634    6.113
  346.500    0.279    0.478   85.879    6.435
  346.750    0.390    0.506   71.800    6.699
  347.000    0.449    0.529   61.971    6.728
  347.250    0.292    0.501   62.765    6.487
  347.500    0.266    0.428   64.713    5.970
  347.750    0.256    0.404   64.779    5.547
  348.000    0.270    0.398   63.934    5.379
  348.250    0.269    0.393   64.911    5.206
  348.500    0.262    0.386   66.010    5.086
  348.750    0.264    0.385   65.226    4.860
  349.000    0.278    0.387   64.502    4.712
  349.250    0.310    0.394   64.447    4.603
  349.500    0.328    0.400   64.877    4.488
  349.750    0.338    0.407   66.280    4.409
  350.000    0.338    0.418   67.256    4.315
  350.250    0.330    0.427   67.383    4.170
  350.500    0.322    0.433   67.326    4.066
  350.750    0.317    0.444   67.089    3.995
  351.000    0.329    0.441   67.095    3.969
  351.250    0.340    0.433   66.979    3.936
  351.500    0.332    0.428   67.107    3.933
  351.750    0.332    0.438   67.231    3.928
  352.000    0.337    0.449   67.663    3.801
  352.250    0.324    0.439   67.424    3.776
  352.500    0.312    0.428   65.122    3.737
  352.750    0.326    0.420   63.671    3.694
  353.000    0.329    0.416   62.826    3.675
  353.250    0.319    0.417   62.528    3.644
  353.500    0.316    0.409   62.715    3.641
  353.750    0.309    0.398   63.995    3.644
  354.000    0.300    0.391   65.093    3.633
  354.250    0.296    0.392   66.313    3.636
  354.500    0.306    0.401   66.621    3.667
  354.750    0.323    0.410   66.020    3.691
  355.000    0.320    0.419   65.479    3.715
  355.250    0.314    0.428   64.088    3.705
  355.500    0.314    0.422   62.333    3.695
  355.750    0.316    0.426   62.216    3.712
  356.000    0.314    0.435   63.800    3.765
  356.250    0.307    0.431   63.198    3.802
  356.500    0.302    0.421   65.510    3.906
  356.750    0.296    0.424   66.730    4.044
  357.000    0.294    0.430   64.428    4.107
  357.250    0.302    0.436   61.762    4.188
  357.500    0.310    0.444   62.010    4.246
  357.750    0.301    0.453   63.594    4.282
  358.000    0.296    0.458   65.360    4.295
  358.250    0.303    0.460   66.033    4.274
  358.500    0.311    0.451   66.161    4.209
  358.750    0.322    0.444   65.863    4.195
  359.000    0.321    0.439   65.442    4.199
  359.250    0.313    0.437   65.872    4.211
  359.500    0.304    0.439   67.759    4.215
  359.750    0.299    0.442   69.039    4.220
  360.000    0.292    0.444   68.255    4.215
  360.250    0.297    0.436   66.379    4.209
  360.500    0.308    0.426   66.324    4.192
  360.750    0.306    0.424   65.904    4.203
  361.000    0.302    0.431   64.028    4.221
  361.250    0.306    0.442   63.486    4.273
  361.500    0.301    0.451   64.948    4.308
  361.750    0.296    0.445   64.832    4.437
  362.000    0.300    0.431   65.384    4.482
  362.250    0.296    0.422   67.878    4.500
  362.500    0.277    0.410   70.797    4.513
  362.750    0.248    0.404   74.384    4.544
  363.000    0.217    0.407   76.757    4.564
  363.250    0.180    0.412   79.191    4.655
  363.500    0.190    0.422   82.171    4.747
  363.750    0.224    0.433   85.211    4.838
  364.000    0.227    0.437   86.794    4.951
  364.250    0.221    0.423   84.554    4.919
  364.500    0.233    0.416   71.143    4.656
  364.750    0.258    0.415   63.074    4.317
  365.000    0.281    0.419   57.252    4.079
  365.250    0.307    0.426   56.832    3.941
  365.500    0.320    0.421   58.233    3.866
  365.750    0.322    0.416   60.851    3.861
  366.000    0.320    0.413   62.858    3.872
  366.250    0.307    0.413   66.567    4.357
  366.500    0.307    0.420   69.062    4.831
  366.750    0.311    0.432   70.098    5.239
  367.000    0.303    0.449   68.342    5.638
  367.250    0.298    0.441   63.735    6.024
  367.500    0.273    0.407   61.979    6.189
  367.750    0.153    0.381   61.013    5.913
  368.000    0.131    0.362   61.686    5.565
  368.250    0.167    0.337   67.215    5.287
  368.500    0.219    0.345   70.560    5.155
  368.750    0.261    0.397   72.143    5.064
  369.000    0.281    0.420   70.814    5.079
  369.250    0.269    0.432   71.061    5.113
  369.500    0.272    0.422   73.252    5.135
  369.750    0.274    0.412   77.143    5.169
  370.000    0.267    0.405   80.001    5.192
  370.250    0.255    0.411   82.981    5.197
  370.500    0.247    0.413   83.654    5.096
  370.750    0.242    0.407   82.566    4.868
  371.000    0.251    0.406   82.572    4.557
  371.250    0.234    0.421   83.609    4.403
  371.500    0.233    0.433   82.279    4.270
  371.750    0.249    0.442   78.338    4.194
  372.000    0.266    0.445   75.005    4.143
  372.250    0.293    0.440   73.796    4.108
  372.500    0.308    0.433   73.861    4.097
  372.750    0.316    0.434   74.292    4.117
  373.000    0.318    0.445   75.087    4.153
  373.250    0.326    0.436   76.187    4.164
  373.500    0.315    0.429   76.615    4.165
  373.750    0.304    0.427   76.802    4.163
  374.000    0.311    0.432   74.136    4.112
  374.250    0.295    0.448   78.998    4.031
  374.500    0.252    0.445   86.835    3.801
  374.750    0.227    0.441   92.971    3.564
  375.000    0.199    0.467   98.743    3.418
  375.250    0.216    0.487  101.237    3.408
  375.500    0.233    0.480   98.511    3.560
  375.750    0.241    0.456   94.328    3.825
  376.000    0.232    0.443   90.751    4.148
  376.250    0.223    0.442   87.297    4.490
  376.500    0.218    0.439   85.905    4.726
  376.750    0.244    0.425   85.061    4.956
