~VERSION INFORMATION
 VERS.                 2.0:   CWLS LOG ASCII STANDARD -VERSION 2.0
 WRAP.                  NO:   ONE LINE PER DEPTH STEP
~WELL INFORMATION BLOCK
#MNEM.UNIT           DATA                    DESCRIPTION OF MNEMONIC
#---------    -------------------            -------------------------------
# Generated from Intellog Unique Number	CS_67_68/WELL/2214
WELL.         GEOG et al HYLO                : Well_name    - WELL
LOC .         00/13-18-067-14W4/0            : Location     - LOCATION
UWI .         00/13-18-067-14W4/0            : Uwi          - UNIQUE WELL ID
ENTR.         SP                             : Entered      - ENTERED BY
SRVC.         SCHLUMBERGER                   : Scn          - SERVICE COMPANY
STRT.M        300                            : top_depth    - START DEPTH
STOP.M        491                            : bot_depth    - STOP DEPTH
STEP.M        0.25                           : increment    - STEP LENGTH
 NULL. -999.2500:NULL Value
~CURVE INFORMATION BLOCK
#MNEM UNIT       ERCB CURVE CODE    CURVE DESCRIPTION
#-----------   ------------------   ----------------------------------
DEPT.M        00 001 00 00         : DEPTH        - DEPTH
ILD .OHMM     00 120 00 00         : RESD         - DEEP RESISTIVITY (DIL)
DPHI.V/V      00 890 00 00         : PHID         - DENSITY POROSITY (LIMESTONE)
NPHI.V/V      00 330 00 00         : PHIN         - NEUTRON POROSITY (LIMESTONE)
GR  .API      00 310 00 00         : GR           - GAMMA RAY
CALI.MM       00 280 01 00         : CAL          - CALIPER
~PARAMETER INFORMATION
#MNEM.UNIT           DATA             DESCRIPTION OF MNEMONIC
#---------         -----------     ------------------------------
GL  .M        563                  : gl           - GROUND LEVEL ELEVATION
EREF.M        565.7                : kb           - ELEVATION OF DEPTH REFERENCE
DATM.M        563                  : datum        - DATUM ELEVATION
TDD .M        493                  : tdd          - TOTAL DEPTH DRILLER
RUN .         ONE                  : Run          - RUN NUMBER
ENG .         BILL                 : Engineer     - RECORDING ENGINEER
WIT .         JIM                  : Witness      - WITNESSED BY
MUD .         GEL                  : Mud_type     - MUD TYPE
MATR.         LIMESTONE            : Logunit      - NEUTRON MATRIX
TMAX.C        30                   : BHT          - MAXIMUM RECORDED TEMPERATURE
BHTD.M        490                  : BHTDEP       - MAXIMUM RECORDED TEMPERATURE
MATR.         1                    : LOGUNIT      - NEUTRON MATRIX
RMT .C        25                   : MDTP         - TEMPERATURE OF MUD
NEUT.         1                    : NEUTRON      - NEUTRON TYPE
RESI.         0                    : RESIST       - RESISTIVITY TYPE
RMC .OHMM     0.25                 : RMC          - RESISTIVITY OF MUD CAKE
RMF .OHMM     0.25                 : RMF          - RESISTIVITY OF MUD FILTRATE
SUFT.C        15                   : SUFT         - SURFACE TEMPERATURE
~A  DEPTH     RESD     PHID     PHIN       GR      CAL
# ...
  409.500    1.896    0.229    0.428   64.943  163.363
  409.750    1.697    0.280    0.427   64.713  165.103
  410.000    1.622    0.298    0.413   64.722  167.356
  410.250    1.568    0.303    0.406   64.736  168.898
  410.500    1.556    0.315    0.404   64.868  168.716
  410.750    1.595    0.325    0.409   60.803  166.812
  411.000    1.622    0.327    0.423   59.538  165.613
  411.250    1.643    0.318    0.434   60.525  165.431
  411.500    1.694    0.312    0.428   61.936  165.959
  411.750    1.765    0.311    0.413   64.626  166.382
  412.000    1.885    0.314    0.406   66.585  166.100
  412.250    2.083    0.316    0.403   68.301  165.310
  412.500    2.263    0.323    0.407   68.741  165.126
  412.750    2.533    0.323    0.404   68.326  165.046
  413.000    2.615    0.311    0.399   67.608  165.066
  413.250    2.528    0.281    0.390   67.315  164.683
  413.500    2.246    0.242    0.429   69.153  164.396
  413.750    2.032    0.257    0.447   69.470  162.692
  414.000    1.914    0.304    0.437   67.900  162.510
  414.250    1.892    0.320    0.436   67.000  162.328
  414.500    2.002    0.325    0.438   68.411  161.946
  414.750    2.079    0.310    0.437   71.222  160.949
  415.000    2.224    0.297    0.441   72.574  158.231
  415.250    2.362    0.286    0.444   71.978  154.601
  415.500    2.444    0.286    0.430   70.773  151.984
  415.750    2.412    0.283    0.419   68.716  151.396
  416.000    2.288    0.269    0.417   65.198  152.836
  416.250    2.187    0.275    0.428   66.552  156.206
  416.500    2.106    0.291    0.426   68.084  159.573
  416.750    2.102    0.286    0.419   69.252  161.417
  417.000    2.142    0.272    0.420   67.865  161.437
  417.250    2.183    0.243    0.387   66.172  161.156
  417.500    2.212    0.202    0.333   65.212  160.667
  417.750    2.203    0.167    0.352   65.346  160.078
  418.000    2.126    0.241    0.431   66.940  159.492
  418.250    2.040    0.274    0.451   68.412  156.164
  418.500    2.024    0.289    0.456   69.277  153.954
  418.750    2.021    0.279    0.439   70.505  154.279
  419.000    2.024    0.273    0.421   72.649  155.516
  419.250    2.028    0.268    0.419   74.546  157.871
  419.500    2.032    0.259    0.432   75.167  160.120
  419.750    2.051    0.269    0.441   72.381  161.662
  420.000    2.110    0.277    0.444   69.960  162.392
  420.250    2.199    0.284    0.448   69.302  161.703
  420.500    2.241    0.288    0.447   69.923  157.769
  420.750    2.270    0.282    0.440   71.760  158.600
  421.000    2.279    0.280    0.446   75.486  160.243
  421.250    2.270    0.290    0.455   76.470  163.205
  421.500    2.309    0.303    0.439   74.170  166.169
  421.750    2.429    0.281    0.430   72.844  167.101
  422.000    2.624    0.257    0.421   79.610  166.814
  422.250    2.845    0.236    0.413   93.801  165.823
  422.500    3.143    0.212    0.419  101.540  164.732
  422.750    3.453    0.183    0.438  106.786  164.341
  423.000    3.695    0.168    0.437  108.745  163.861
  423.250    3.947    0.165    0.427  111.374  163.881
  423.500    4.067    0.163    0.415  109.986  163.997
  423.750    4.144    0.156    0.409  112.374  164.323
  424.000    4.144    0.164    0.408  114.637  164.953
  424.250    4.075    0.175    0.419  116.291  165.884
  424.500    3.961    0.184    0.430  113.990  166.616
  424.750    3.786    0.193    0.445  110.901  166.940
  425.000    3.512    0.200    0.475  109.817  167.161
  425.250    3.221    0.190    0.475  110.498  171.036
  425.500    2.948    0.185    0.497  110.938  175.620
  425.750    2.740    0.198    0.537  110.888  175.844
  426.000    2.653    0.216    0.548  111.387  172.719
  426.250    2.594    0.232    0.529  113.164  178.826
  426.500    2.536    0.247    0.512  111.108  183.511
  426.750    2.447    0.248    0.540  110.998  178.056
  427.000    2.374    0.271    0.570  111.742  178.891
  427.250    2.433    0.272    0.587  111.814  183.473
  427.500    2.522    0.259    0.580  111.219  191.301
  427.750    2.688    0.280    0.559  110.438  194.668
  428.000    2.786    0.284    0.543  108.930  188.197
  428.250    2.909    0.240    0.527  106.873  179.192
  428.500    3.043    0.224    0.514  106.093  172.621
  428.750    3.238    0.188    0.510  109.514  172.237
  429.000    3.639    0.159    0.521  112.632  173.779
  429.250    4.612    0.189    0.526  113.919  171.465
  429.500    5.567    0.195    0.441  105.353  166.418
  429.750    6.326    0.183    0.420   98.489  162.582
  430.000    6.924    0.149    0.415   88.947  159.559
  430.250    7.298    0.114    0.278   81.780  160.291
  430.500    7.564    0.084    0.261   78.444  161.526
  430.750    7.029    0.045    0.405   76.023  162.567
  431.000    6.220    0.075    0.441   85.955  162.892
  431.250    5.351    0.128    0.463   91.626  162.907
  431.500    4.779    0.155    0.471   96.201  162.825
  431.750    4.416    0.173    0.468   95.544  162.237
  432.000    4.190    0.180    0.440   94.887  162.161
  432.250    4.073    0.172    0.419   98.306  162.277
  432.500    4.012    0.163    0.418  102.337  162.200
  432.750    4.020    0.153    0.429  102.651  162.827
  433.000    4.058    0.155    0.443  103.030  163.049
  433.250    4.237    0.159    0.446  104.440  162.765
  433.500    5.320    0.155    0.430  101.228  163.191
  433.750    6.482    0.142    0.421   92.173  163.618
  434.000    7.436    0.122    0.416   75.878  164.247
  434.250    8.017    0.074    0.260   69.380  164.470
  434.500    8.277    0.020    0.236   74.260  164.592
  434.750    6.935    0.021    0.226   89.667  164.611
  435.000    5.779    0.090    0.391   97.103  164.735
  435.250    4.906    0.135    0.408  100.279  164.657
  435.500    4.424    0.165    0.418   98.344  164.672
  435.750    4.165    0.181    0.423   97.626  164.493
  436.000    3.974    0.166    0.420  100.985  164.613
  436.250    3.834    0.157    0.421  104.407  164.230
  436.500    3.885    0.156    0.429  105.999  163.944
  436.750    3.959    0.162    0.440  103.943  163.356
  437.000    4.011    0.162    0.432  102.738  162.770
  437.250    4.072    0.152    0.421  103.604  162.687
  437.500    4.142    0.137    0.413  104.527  162.303
  437.750    4.188    0.118    0.407  105.514  162.323
  438.000    4.181    0.110    0.398  105.768  162.345
  438.250    4.126    0.127    0.384  108.093  162.465
  438.500    4.041    0.159    0.409  109.627  162.386
  438.750    3.996    0.175    0.414  109.213  162.101
  439.000    3.988    0.170    0.414  107.582  161.612
  439.250    4.072    0.163    0.416  106.317  161.229
  439.500    4.149    0.172    0.424  105.903  161.248
  439.750    4.236    0.178    0.431  105.854  161.471
  440.000    4.349    0.178    0.431  104.044  161.694
  440.250    4.558    0.172    0.429  101.926  162.022
  440.500    4.979    0.163    0.436   97.737  162.244
  440.750    5.170    0.150    0.425   91.482  162.366
  441.000    5.017    0.136    0.384   85.470  162.589
  441.250    4.905    0.120    0.358   86.395  162.811
  441.500    4.840    0.099    0.387   94.074  163.441
  441.750    4.759    0.167    0.414  101.632  163.764
  442.000    4.653    0.188    0.443  107.304  163.481
  442.250    4.540    0.177    0.440  107.924  163.299
  442.500    4.489    0.182    0.423  108.303  163.318
  442.750    4.389    0.179    0.414  107.766  163.648
  443.000    4.332    0.173    0.416  102.546  163.867
  443.250    4.243    0.170    0.428   97.750  163.888
  443.500    4.235    0.169    0.437   95.695  163.909
  443.750    4.405    0.157    0.427   98.140  163.827
  444.000    4.617    0.144    0.413   98.275  163.947
  444.250    4.714    0.129    0.405   95.610  164.073
  444.500    4.723    0.105    0.391   94.284  164.398
  444.750    4.652    0.097    0.416   94.173  164.720
  445.000    3.847    0.199    0.449   96.133  164.438
  445.250    3.110    0.245    0.466   97.909  165.470
  445.500    2.606    0.282    0.477   99.747  170.257
  445.750    2.263    0.309    0.498  100.794  180.216
