~VERSION INFORMATION
 VERS.                 2.0:   CWLS LOG ASCII STANDARD -VERSION 2.0
 WRAP.                  NO:   ONE LINE PER DEPTH STEP
~WELL INFORMATION BLOCK
#MNEM.UNIT           DATA                    DESCRIPTION OF MNEMONIC
#---------    -------------------            -------------------------------
# Generated from Intellog Unique Number	CW_82_90/WELL/3082
WELL.         NORTHSTAR ET AL WOODEN         : Well_name    - WELL
LOC .         00/14-20-087-21W4/0            : Location     - LOCATION
UWI .         00/14-20-087-21W4/0            : Uwi          - UNIQUE WELL ID
ENTR.         MAX                            : Entered      - ENTERED BY
SRVC.         WESTERN ATLAS                  : Scn          - SERVICE COMPANY
STRT.M        210                            : top_depth    - START DEPTH
STOP.M        310                            : bot_depth    - STOP DEPTH
STEP.M        0.25                           : increment    - STEP LENGTH
 NULL. -999.2500:NULL Value
~CURVE INFORMATION BLOCK
#MNEM UNIT       ERCB CURVE CODE    CURVE DESCRIPTION
#-----------   ------------------   ----------------------------------
DEPT.M        00 001 00 00         : DEPTH        - DEPTH
ILD .OHMM     00 120 00 00         : RESD         - DEEP RESISTIVITY (DIL)
NPHI.V/V      00 330 00 00         : PHIN         - NEUTRON POROSITY (SANDSTONE)
DPHI.V/V      00 890 00 00         : PHID         - DENSITY POROSITY (SANDSTONE)
CALI.MM       00 280 01 00         : CAL          - CALIPER
GR  .API      00 310 00 00         : GR           - GAMMA RAY
~PARAMETER INFORMATION
#MNEM.UNIT           DATA             DESCRIPTION OF MNEMONIC
#---------         -----------     ------------------------------
GL  .M        546.6                : gl           - GROUND LEVEL ELEVATION
EREF.M        550.55               : kb           - ELEVATION OF DEPTH REFERENCE
DATM.M        546.6                : datum        - DATUM ELEVATION
TDD .M        311                  : tdd          - TOTAL DEPTH DRILLER
RUN .         ONE                  : Run          - RUN NUMBER
ENG .         BILL                 : Engineer     - RECORDING ENGINEER
WIT .         JIM                  : Witness      - WITNESSED BY
MUD .         GEL                  : Mud_type     - MUD TYPE
MATR.         SANDSTONE            : Logunit      - NEUTRON MATRIX
TMAX.C        24                   : BHT          - MAXIMUM RECORDED TEMPERATURE
BHTD.M        311                  : BHTDEP       - MAXIMUM RECORDED TEMPERATURE
MATR.         1                    : LOGUNIT      - NEUTRON MATRIX
RMT .C        17                   : MDTP         - TEMPERATURE OF MUD
NEUT.         1                    : NEUTRON      - NEUTRON TYPE
RESI.         0                    : RESIST       - RESISTIVITY TYPE
RMC .OHMM     3.1                  : RMC          - RESISTIVITY OF MUD CAKE
RMF .OHMM     2.9                  : RMF          - RESISTIVITY OF MUD FILTRATE
SUFT.C        -15                  : SUFT         - SURFACE TEMPERATURE
~A  DEPTH     RESD     PHIN     PHID      CAL       GR
  210.000   14.111    0.386    0.336  163.460   64.142
  210.250   12.542    0.377    0.318  163.468   64.733
  210.500   10.177    0.379    0.290  162.988   65.909
  210.750    8.109    0.406    0.261  162.021   72.358
  211.000    7.077    0.440    0.277  162.519   82.908
  211.250    6.176    0.448    0.280  162.527   82.034
  211.500    5.151    0.445    0.281  162.048   77.939
  211.750    4.791    0.423    0.279  162.057   82.044
  212.000    4.925    0.424    0.277  162.066   88.200
  212.250    5.251    0.432    0.269  163.051   92.306
  212.500    5.546    0.428    0.253  165.011   83.817
  212.750    6.359    0.412    0.160  168.437   74.158
  213.000    7.700    0.379    0.114  169.421   76.798
  213.250    9.669    0.358    0.180  168.455   84.419
  213.500   12.706    0.369    0.198  168.951   83.838
  213.750   13.794    0.324    0.171  169.937   68.614
  214.000   13.674    0.295    0.073  170.922   68.619
  214.250   12.718    0.311    0.171  171.905   74.481
  214.500   11.201    0.368    0.219  171.914   81.516
  214.750   10.418    0.406    0.239  172.412   87.380
  215.000    9.778    0.411    0.239  172.908   87.093
  215.250    9.518    0.407    0.234  172.429   89.439
  215.500    9.520    0.402    0.226  171.950   90.324
  215.750    9.787    0.405    0.199  170.981   87.107
  216.000    9.791    0.397    0.187  171.479   83.891
  216.250    9.704    0.392    0.182  172.465   81.846
  216.500    9.447    0.400    0.195  172.472   81.558
  216.750    9.195    0.415    0.207  172.482   86.249
  217.000    8.868    0.431    0.211  172.002   92.991
  217.250    8.555    0.427    0.205  171.521   90.069
  217.500    8.327    0.434    0.198  172.021   92.416
  217.750    8.254    0.431    0.198  173.005   95.057
  218.000    8.562    0.409    0.201  173.012   95.062
  218.250    8.964    0.392    0.206  173.022   93.603
  218.500    9.470    0.382    0.208  172.542   95.951
  218.750   10.095    0.376    0.201  171.575   98.007
  219.000   11.365    0.384    0.198  171.585   93.326
  219.250   13.637    0.386    0.198  171.104   78.687
  219.500   17.439    0.367    0.160  170.136   67.855
  219.750   23.551    0.238    0.015  169.656   57.902
  220.000   24.880    0.231    0.047  169.666   63.766
  220.250   22.723    0.254    0.155  169.186   75.486
  220.500   19.651    0.299    0.312  169.685   84.571
  220.750   16.537    0.364    0.331  171.158   74.910
  221.000   12.142    0.402    0.331  173.606   67.008
  221.250    9.853    0.414    0.310  177.520   69.064
  221.500    8.292    0.419    0.275  179.483   80.199
  221.750    7.437    0.421    0.249  179.977   87.819
  222.000    6.670    0.423    0.227  180.474   94.267
  222.250    6.260    0.422    0.213  180.972   97.495
  222.500    6.094    0.412    0.216  178.540   96.036
  222.750    6.208    0.416    0.217  174.644   91.061
  223.000    6.557    0.416    0.180  169.282   90.481
  223.250    7.519    0.416    0.218  165.875   83.163
  223.500    9.021    0.420    0.311  170.275   70.575
  223.750   12.406    0.416    0.327  168.820   61.501
  224.000   15.161    0.408    0.304  168.830   57.992
  224.250   15.727    0.407    0.255  168.838   57.997
  224.500   16.166    0.407    0.245  168.847   59.759
  224.750   17.392    0.409    0.302  168.856   63.572
  225.000   17.397    0.411    0.314  168.864   62.407
  225.250   17.563    0.405    0.326  168.387   58.604
  225.500   17.728    0.407    0.337  168.395   57.145
  225.750   17.733    0.409    0.335  168.402   58.321
  226.000   16.951    0.409    0.330  168.411   58.620
  226.250   15.766    0.402    0.313  168.419   60.677
  226.500   14.797    0.392    0.295  168.428   63.023
  226.750   13.888    0.383    0.227  168.437   68.886
  227.000   14.148    0.393    0.204  168.447   77.677
  227.250   15.642    0.391    0.244  168.944   78.269
  227.500   16.374    0.377    0.292  168.951   71.537
  227.750   17.141    0.370    0.289  169.448   65.979
  228.000   18.108    0.363    0.246  169.458   64.519
  228.250   18.785    0.361    0.222  169.954   61.302
  228.500   19.666    0.366    0.283  169.963   57.501
  228.750   19.850    0.374    0.296  169.483   58.091
  229.000   18.803    0.384    0.294  169.491   59.855
  229.250   17.971    0.373    0.209  169.500   63.081
  229.500   16.415    0.373    0.171  170.974   78.023
  229.750   14.992    0.372    0.187  172.446   90.915
  230.000   13.818    0.377    0.227  173.919   92.678
  230.250   13.207    0.391    0.226  173.929   93.562
  230.500   12.855    0.402    0.228  173.938   95.325
  230.750   12.513    0.416    0.233  173.460   94.157
  231.000   12.071    0.416    0.244  173.466   92.991
  231.250   11.856    0.412    0.242  173.963   96.805
  231.500   11.752    0.407    0.234  174.948   97.395
  231.750   12.192    0.404    0.228  175.445   96.814
  232.000   12.419    0.398    0.218  175.942   95.648
  232.250   12.537    0.388    0.186  175.950   91.553
  232.500   12.315    0.393    0.148  174.983   88.922
  232.750   12.318    0.400    0.172  174.992   93.907
  233.000   12.321    0.405    0.220  175.490   99.184
  233.250   12.782    0.401    0.192  173.545  100.361
  233.500   13.503    0.386    0.214  172.089   99.195
  233.750   14.266    0.374    0.225  170.146   98.028
  234.000   14.798    0.372    0.254  168.690   97.154
  234.250   15.212    0.381    0.280  167.233   92.181
  234.500   16.070    0.392    0.284  165.779   88.379
  234.750   16.671    0.380    0.267  165.299   89.263
  235.000   17.612    0.359    0.239  164.819   88.389
  235.250   18.605    0.350    0.196  164.829   86.052
  235.500   18.442    0.356    0.191  164.837   86.056
  235.750   18.114    0.360    0.263  165.335   86.355
  236.000   17.793    0.367    0.265  165.832   88.117
  236.250   17.007    0.373    0.257  165.839   89.587
  236.500   15.820    0.376    0.256  166.336   89.007
  236.750   15.398    0.377    0.255  166.344   90.183
  237.000   14.718    0.375    0.251  166.354   93.118
  237.250   14.326    0.376    0.247  166.365   94.880
  237.500   14.072    0.379    0.238  168.813   94.300
  237.750   14.076    0.379    0.233  171.262   96.648
  238.000   13.953    0.378    0.227  170.782   97.239
  238.250   13.706    0.371    0.226  168.351   95.780
  238.500   13.585    0.372    0.230  167.386   94.027
  238.750   13.840    0.376    0.240  167.392   90.517
  239.000   13.971    0.382    0.255  167.399   89.644
  239.250   13.974    0.386    0.260  168.873   89.358
  239.500   13.479    0.394    0.254  170.834   90.240
  239.750   12.424    0.402    0.247  172.307   94.932
  240.000   11.347    0.404    0.242  173.292  101.381
  240.250   10.269    0.401    0.250  173.301   98.456
  240.500   10.088    0.391    0.234  172.333   92.312
  240.750   10.560    0.370    0.159  170.878   84.702
  241.000   10.757    0.357    0.122  169.910   76.507
  241.250    9.388    0.386    0.212  170.408   89.106
  241.500    6.830    0.414    0.258  171.392   95.847
  241.750    5.248    0.426    0.257  171.888  100.539
  242.000    4.069    0.437    0.259  170.921  104.351
  242.250    3.617    0.444    0.238  170.444  101.135
  242.500    3.618    0.425    0.237  171.428   91.767
  242.750    3.928    0.422    0.252  177.293   88.259
  243.000    4.264    0.426    0.257  182.185   90.021
  243.250    4.587    0.424    0.249  182.192   91.784
  243.500    4.980    0.424    0.248  180.737   91.496
  243.750    5.166    0.426    0.252  179.282   92.380
  244.000    5.408    0.436    0.250  177.825   92.093
  244.250    5.925    0.435    0.242  173.441   89.169
  244.500    6.551    0.418    0.216  169.057   85.074
  244.750    8.004    0.410    0.183  166.136   83.614
  245.000    9.346    0.385    0.159  165.659   86.256
  245.250   10.054    0.405    0.133  165.665   86.261
  245.500   10.242    0.408    0.114  166.162   86.558
  245.750   10.245    0.401    0.183  166.171   90.664
  246.000   10.248    0.411    0.229  166.667   96.527
  246.250   10.158    0.415    0.252  166.188  102.976
