~VERSION INFORMATION
 VERS.                 2.0:   CWLS LOG ASCII STANDARD -VERSION 2.0
 WRAP.                  NO:   ONE LINE PER DEPTH STEP
~WELL INFORMATION BLOCK
#MNEM.UNIT           DATA                    DESCRIPTION OF MNEMONIC
#---------    -------------------            -------------------------------
# Generated from Intellog Unique Number	CX_WELLS/WELL/3051
WELL.         MLC ET AL MCADAMS              : Well_name    - WELL
LOC .         00/10-16-082-14W4/0            : Location     - LOCATION
UWI .         00/10-16-082-14W400            : Uwi          - UNIQUE WELL ID
ENTR.         TIM                            : Entered      - ENTERED BY
SRVC.         SCHLUMBERGER                   : Scn          - SERVICE COMPANY
STRT.M        135                            : top_depth    - START DEPTH
STOP.M        350                            : bot_depth    - STOP DEPTH
STEP.M        0.25                           : increment    - STEP LENGTH
 NULL. -999.2500:NULL Value
~CURVE INFORMATION BLOCK
#MNEM UNIT       ERCB CURVE CODE    CURVE DESCRIPTION
#-----------   ------------------   ----------------------------------
DEPT.M        00 001 00 00         : DEPTH        - DEPTH
GR  .API      00 310 00 00         : GR           - GAMMA RAY
NPHI.V/V      00 330 00 00         : PHIN         - NEUTRON POROSITY (SANDSTONE)
DPHI.V/V      00 890 00 00         : PHID         - DENSITY POROSITY (SANDSTONE)
ILD .OHMM     00 120 00 00         : RESD         - DEEP RESISTIVITY (OTHER)
~PARAMETER INFORMATION
#MNEM.UNIT           DATA             DESCRIPTION OF MNEMONIC
#---------         -----------     ------------------------------
GL  .M        581                  : gl           - GROUND LEVEL ELEVATION
EREF.M        584.4                : kb           - ELEVATION OF DEPTH REFERENCE
DATM.M        584.4                : datum        - DATUM ELEVATION
TDD .M        254                  : tdd          - TOTAL DEPTH DRILLER
RUN .         ONE                  : Run          - RUN NUMBER
ENG .         BILL                 : Engineer     - RECORDING ENGINEER
WIT .         JIM                  : Witness      - WITNESSED BY
MUD .         GEL                  : Mud_type     - MUD TYPE
MATR.         SANDSTONE            : Logunit      - NEUTRON MATRIX
TMAX.C        25                   : BHT          - MAXIMUM RECORDED TEMPERATURE
BHTD.M        254                  : BHTDEP       - MAXIMUM RECORDED TEMPERATURE
MATR.         1                    : LOGUNIT      - NEUTRON MATRIX
RMT .C        21                   : MDTP         - TEMPERATURE OF MUD
NEUT.         1                    : NEUTRON      - NEUTRON TYPE
RESI.         4                    : RESIST       - RESISTIVITY TYPE
RMC .OHMM     3.2                  : RMC          - RESISTIVITY OF MUD CAKE
RMF .OHMM     5                    : RMF          - RESISTIVITY OF MUD FILTRATE
SUFT.C        2                    : SUFT         - SURFACE TEMPERATURE
~A  DEPTH       GR     PHIN     PHID     RESD
# ...
  265.500   80.298    0.401    0.087    9.224
  265.750   80.908    0.394    0.059    9.579
  266.000   80.893    0.363    0.043   10.938
  266.250   80.264    0.326    0.047   12.025
  266.500   77.785    0.285    0.075   13.732
  266.750   74.077    0.306    0.105   15.385
  267.000   69.746    0.327    0.164   14.253
  267.250   74.049    0.363    0.219   13.459
  267.500   78.969    0.390    0.254   11.555
  267.750   83.269    0.409    0.264   10.502
  268.000   85.109    0.429    0.268   10.498
  268.250   86.943    0.437    0.267   10.295
  268.500   87.547    0.442    0.264   10.293
  268.750   87.532    0.439    0.264   10.096
  269.000   88.142    0.431    0.269    9.903
  269.250   88.130    0.430    0.274    9.713
  269.500   88.728    0.430    0.271    9.347
  269.750   88.719    0.432    0.266    8.824
  270.000   89.320    0.434    0.263    8.656
  270.250   89.921    0.437    0.257    8.330
  270.500   89.911    0.445    0.250    7.715
  270.750   91.132    0.454    0.241    7.425
  271.000   91.739    0.462    0.234    7.145
  271.250   92.343    0.462    0.236    6.877
  271.500   92.944    0.461    0.239    6.618
  271.750   92.935    0.463    0.242    6.369
  272.000   92.916    0.467    0.247    6.247
  272.250   92.291    0.467    0.250    6.486
  272.500   92.278    0.456    0.251    6.735
  272.750   92.263    0.444    0.252    7.265
  273.000   92.870    0.436    0.255    7.835
  273.250   93.474    0.430    0.260    8.136
  273.500   94.695    0.430    0.261    8.449
  273.750   97.145    0.441    0.252    8.446
  274.000   98.366    0.451    0.238    8.127
  274.250   98.970    0.456    0.230    7.387
  274.500   99.574    0.465    0.234    6.844
  274.750   99.562    0.470    0.234    6.462
  275.000   99.549    0.472    0.233    6.218
  275.250  100.154    0.474    0.231    6.216
  275.500  101.371    0.475    0.232    6.214
  275.750  102.595    0.472    0.230    6.212
  276.000  104.429    0.451    0.230    6.328
  276.250  106.266    0.439    0.229    6.697
  276.500  108.103    0.432    0.228    6.955
  276.750  108.091    0.426    0.223    7.361
  277.000  106.226    0.418    0.217    8.246
  277.250  104.984    0.407    0.192    9.065
  277.500  104.352    0.397    0.159    9.413
  277.750  103.106    0.389    0.133   10.154
  278.000  100.631    0.381    0.116   10.344
  278.250   95.683    0.379    0.114   10.342
  278.500   94.441    0.384    0.182   10.338
  278.750   95.039    0.395    0.193    9.396
  279.000   96.263    0.406    0.206    8.380
  279.250   97.487    0.417    0.214    7.763
  279.500   99.937    0.431    0.224    7.056
  279.750  101.158    0.434    0.224    6.921
  280.000  101.765    0.433    0.222    6.661
  280.250  102.363    0.430    0.221    6.659
  280.500  102.354    0.430    0.221    6.783
  280.750  101.105    0.432    0.224    7.457
  281.000  100.476    0.430    0.233    7.893
  281.250   99.847    0.415    0.242    8.843
  281.500   97.986    0.404    0.250    9.907
  281.750   96.743    0.396    0.257    9.902
  282.000   94.265    0.401    0.255    9.714
  282.250   93.636    0.411    0.232    9.528
  282.500   93.618    0.419    0.225    9.169
  282.750   94.222    0.427    0.225    9.165
  283.000   94.212    0.429    0.227    9.162
  283.250   92.967    0.417    0.233    9.696
  283.500   89.249    0.394    0.237   10.069
  283.750   86.774    0.384    0.243   11.068
  284.000   84.299    0.377    0.177   11.714
  284.250   81.204    0.354    0.127   13.123
  284.500   74.404    0.258    0.051   13.627
  284.750   73.778    0.257    0.056   12.865
  285.000   79.314    0.266    0.104   12.149
  285.250   86.083    0.294    0.198   11.692
  285.500   87.914    0.327    0.261   10.627
  285.750   87.292    0.366    0.276   10.227
  286.000   86.043    0.410    0.278    9.841
  286.250   85.417    0.408    0.251    9.837
  286.500   86.018    0.410    0.241    9.650
  286.750   87.852    0.416    0.234    9.647
  287.000   88.460    0.419    0.231    9.642
  287.250   89.677    0.413    0.229    9.457
  287.500   89.662    0.410    0.227    9.453
  287.750   89.656    0.405    0.230    9.271
  288.000   90.257    0.402    0.234    9.269
  288.250   90.244    0.405    0.237    9.265
  288.500   90.229    0.409    0.245    9.262
  288.750   89.606    0.412    0.249    9.436
  289.000   88.361    0.412    0.254    9.614
  289.250   87.112    0.410    0.236    9.983
  289.500   85.870    0.403    0.203   10.366
  289.750   84.621    0.394    0.187   10.970
  290.000   82.757    0.387    0.212   11.176
  290.250   80.278    0.391    0.223   10.963
  290.500   80.266    0.397    0.239   10.350
  290.750   83.956    0.416    0.246    9.774
  291.000   84.556    0.420    0.259    9.405
  291.250   83.314    0.425    0.264    8.549
  291.500   80.836    0.433    0.267    8.072
  291.750   80.207    0.439    0.270    7.477
  292.000   83.271    0.447    0.271    7.334
  292.250   84.492    0.453    0.271    6.925
  292.500   84.476    0.456    0.271    6.664
  292.750   83.853    0.459    0.271    6.292
  293.000   84.451    0.460    0.270    6.172
  293.250   85.678    0.461    0.265    5.827
  293.500   89.362    0.463    0.259    5.502
  293.750   92.435    0.465    0.244    5.001
  294.000   97.971    0.466    0.235    4.813
  294.250  102.274    0.464    0.230    4.459
  294.500  107.191    0.457    0.222    4.543
  294.750  110.261    0.448    0.218    5.187
  295.000  110.248    0.422    0.221    5.812
  295.250   97.906    0.396    0.223    6.389
  295.500   94.811    0.381    0.229    7.024
  295.750   88.634    0.379    0.227    7.870
  296.000   84.303    0.386    0.222    8.489
  296.250   84.290    0.396    0.217    8.984
  296.500   84.898    0.406    0.220    9.152
  296.750   85.502    0.414    0.227    8.977
  297.000   87.333    0.422    0.231    8.640
  297.250   88.550    0.427    0.231    8.156
  297.500   88.544    0.432    0.227    8.155
  297.750   88.522    0.438    0.221    8.307
  298.000   88.513    0.437    0.213    8.304
  298.250   88.507    0.428    0.192    8.301
  298.500   89.108    0.431    0.190    8.298
  298.750   89.096    0.437    0.199    8.295
  299.000   90.316    0.445    0.207    8.292
  299.250   90.920    0.447    0.205    8.290
  299.500   91.525    0.447    0.195    8.129
  299.750   90.896    0.445    0.181    8.127
  300.000   90.880    0.430    0.184    7.971
  300.250   91.484    0.403    0.191    7.968
  300.500   93.322    0.385    0.198    7.814
  300.750   95.162    0.380    0.207    7.379
  301.000   98.848    0.379    0.212    7.101
  301.250  102.532    0.389    0.210    6.579
  301.500  106.222    0.403    0.209    5.867
  301.750  106.209    0.410    0.215    5.333
  302.000  103.731    0.418    0.222    4.667
  302.250   98.167    0.426    0.226    4.242
  302.500   91.990    0.441    0.237    4.160
  302.750   85.812    0.453    0.252    4.239
  303.000   79.018    0.439    0.248    4.486
  303.250   75.307    0.424    0.240    5.026
  303.500   72.829    0.410    0.236    5.740
  303.750   69.117    0.398    0.234    6.809
  304.000   69.715    0.394    0.231    7.629
  304.250   72.169    0.403    0.224    7.482
  304.500   74.625    0.426    0.220    6.673
  304.750   78.312    0.433    0.225    5.952
  305.000   82.612    0.436    0.235    5.208
  305.250   85.066    0.440    0.241    4.645
  305.500   86.289    0.450    0.242    4.303
  305.750   88.740    0.462    0.240    3.986
  306.000   91.194    0.464    0.230    3.985
  306.250   91.798    0.453    0.220    4.298
  306.500   91.172    0.445    0.219    4.635
  306.750   90.543    0.434    0.219    4.813
  307.000   92.990    0.401    0.219    4.999
  307.250   95.444    0.396    0.219    4.810
  307.500   97.901    0.403    0.220    4.629
  307.750  100.971    0.413    0.220    4.288
  308.000  104.038    0.421    0.217    4.127
  308.250  105.878    0.432    0.208    3.896
  308.500  107.096    0.439    0.188    3.895
  308.750  105.847    0.451    0.172    3.893
