~VERSION INFORMATION
 VERS.                 2.0:   CWLS LOG ASCII STANDARD -VERSION 2.0
 WRAP.                  NO:   ONE LINE PER DEPTH STEP
~WELL INFORMATION BLOCK
#MNEM.UNIT           DATA                    DESCRIPTION OF MNEMONIC
#---------    -------------------            -------------------------------
# Generated from Intellog Unique Number	CN_94_101/WELL/2789
WELL.         NORTHSTAR ENERGYN CORP.        : Well_name    - WELL
LOC .         00/11-35-094-16W4/0            : Location     - LOCATION
UWI .         00/11-35-094-16W400            : Uwi          - UNIQUE WELL ID
ENTR.         JOETTE                         : Entered      - ENTERED BY
SRVC.         SCHLUMBERGER                   : Scn          - SERVICE COMPANY
DATE.         07/06/92                       : Date         - LOG DATE
STRT.M        150                            : top_depth    - START DEPTH
STOP.M        290                            : bot_depth    - STOP DEPTH
STEP.M        0.25                           : increment    - STEP LENGTH
 NULL. -999.2500:NULL Value
~CURVE INFORMATION BLOCK
#MNEM UNIT       ERCB CURVE CODE    CURVE DESCRIPTION
#-----------   ------------------   ----------------------------------
DEPT.M        00 001 00 00         : DEPTH        - DEPTH
GR  .API      00 310 00 00         : GR           - GAMMA RAY
NPHI.V/V      00 330 00 00         : PHIN         - NEUTRON POROSITY (SANDSTONE)
DPHI.V/V      00 890 00 00         : PHID         - DENSITY POROSITY (SANDSTONE)
ILD .OHMM     00 120 00 00         : RESD         - DEEP RESISTIVITY (DIL)
~PARAMETER INFORMATION
#MNEM.UNIT           DATA             DESCRIPTION OF MNEMONIC
#---------         -----------     ------------------------------
GL  .M        538.7                : gl           - GROUND LEVEL ELEVATION
EREF.M        542.3                : kb           - ELEVATION OF DEPTH REFERENCE
DATM.M        542.3                : datum        - DATUM ELEVATION
TDD .M        300                  : tdd          - TOTAL DEPTH DRILLER
RUN .         ONE                  : Run          - RUN NUMBER
ENG .         BILL                 : Engineer     - RECORDING ENGINEER
WIT .         JIM                  : Witness      - WITNESSED BY
MUD .         GEL                  : Mud_type     - MUD TYPE
MATR.         SANDSTONE            : Logunit      - NEUTRON MATRIX
TMAX.C        15                   : BHT          - MAXIMUM RECORDED TEMPERATURE
BHTD.M        300                  : BHTDEP       - MAXIMUM RECORDED TEMPERATURE
RMT .C        15                   : MDTP         - TEMPERATURE OF MUD
MUDD.KG/M     1055                 : MWT          - MUD DENSITY
NEUT.         1                    : NEUTRON      - NEUTRON TYPE
RESI.         0                    : RESIST       - RESISTIVITY TYPE
RM  .OHMM     0.25                 : RM           - RESISTIVITY OF MUD
RMC .OHMM     0.25                 : RMC          - RESISTIVITY OF MUD CAKE
RMF .OHMM     0.25                 : RMF          - RESISTIVITY OF MUD FILTRATE
SUFT.C        4                    : SUFT         - SURFACE TEMPERATURE
~A  DEPTH       GR     PHIN     PHID     RESD
# ...
  237.000   55.646    0.290    0.373   85.951
  237.250   54.542    0.325    0.361   84.684
  237.500   54.636    0.335    0.346   79.030
  237.750   60.017    0.363    0.348   74.924
  238.000   55.412    0.377    0.358   63.784
  238.250   49.633    0.385    0.361   59.473
  238.500   45.052    0.392    0.357   55.454
  238.750   45.757    0.398    0.353   53.642
  239.000   46.392    0.408    0.350   52.851
  239.250   43.549    0.429    0.348   56.093
  239.500   38.357    0.438    0.350   57.234
  239.750   40.214    0.450    0.355   60.691
  240.000   44.443    0.443    0.355   65.608
  240.250   47.475    0.432    0.361   67.001
  240.500   50.483    0.423    0.358   68.484
  240.750   53.561    0.427    0.347   65.040
  241.000   50.108    0.430    0.338   60.645
  241.250   46.067    0.426    0.333   58.663
  241.500   42.049    0.430    0.333   63.416
  241.750   38.056    0.440    0.341   68.493
  242.000   40.500    0.430    0.350   71.433
  242.250   41.792    0.419    0.361   69.038
  242.500   40.101    0.418    0.368   30.226
  242.750   36.648    0.421    0.362   28.706
  243.000   35.027    0.431    0.346   27.792
  243.250   35.074    0.402    0.322   27.841
  243.500   36.931    0.382    0.248   27.964
  243.750   38.224    0.364    0.225   27.552
  244.000   38.905    0.361    0.213   27.673
  244.250   40.175    0.376    0.255   27.722
  244.500   39.681    0.391    0.278   31.090
  244.750   36.228    0.393    0.303   34.836
  245.000   30.472    0.388    0.315   41.318
  245.250   31.718    0.382    0.328   44.627
  245.500   33.574    0.375    0.335   44.784
  245.750   30.145    0.370    0.343   44.124
  246.000   27.913    0.368    0.339   42.644
  246.250   30.944    0.369    0.340   38.361
  246.500   33.365    0.375    0.341   34.448
  246.750   37.007    0.388    0.351   31.507
  247.000   39.474    0.396    0.356   26.799
  247.250   40.744    0.395    0.356   24.087
  247.500   42.624    0.390    0.348   22.069
  247.750   45.044    0.393    0.327   21.706
  248.000   47.464    0.394    0.319   21.386
  248.250   45.797    0.384    0.324   22.677
  248.500   41.192    0.381    0.349   25.927
  248.750   36.000    0.386    0.354   27.978
  249.000   38.468    0.398    0.361   31.377
  249.250   42.086    0.416    0.364   33.889
  249.500   44.530    0.415    0.358   35.968
  249.750   45.799    0.424    0.353   36.796
  250.000   46.481    0.428    0.344   33.042
  250.250   45.988    0.426    0.355   29.645
  250.500   43.757    0.425    0.357   27.139
  250.750   43.240    0.425    0.358   24.413
  251.000   43.334    0.424    0.356   23.165
  251.250   44.040    0.423    0.357   20.838
  251.500   44.698    0.413    0.356   19.756
  251.750   47.142    0.411    0.349   17.115
  252.000   49.586    0.415    0.343   14.828
  252.250   57.363    0.428    0.334   20.354
  252.500   57.458    0.444    0.331   21.583
  252.750   55.767    0.435    0.329   23.311
  253.000   56.472    0.430    0.333   25.644
  253.250   57.130    0.421    0.300   27.698
  253.500   60.185    0.409    0.299   27.795
  253.750   63.216    0.407    0.313   25.490
  254.000   66.248    0.415    0.313   25.535
  254.250   63.992    0.410    0.285   25.648
  254.500   63.499    0.386    0.260   25.738
  254.750   64.769    0.370    0.238   24.897
  255.000   66.038    0.386    0.263   23.194
  255.250   69.093    0.405    0.302   19.016
  255.500   66.227    0.385    0.322   19.100
  255.750   58.661    0.384    0.341   20.236
  256.000   47.596    0.394    0.349   23.115
  256.250   35.942    0.429    0.347   27.876
  256.500   37.188    0.436    0.341   33.617
  256.750   37.893    0.435    0.331   40.576
  257.000   37.400    0.429    0.327   47.209
  257.250   36.884    0.411    0.334   47.417
  257.500   30.541    0.390    0.346   43.331
  257.750   30.611    0.393    0.352   38.945
  258.000   31.317    0.407    0.359   39.807
  258.250   33.197    0.420    0.363   45.471
  258.500   34.419    0.433    0.359   51.895
  258.750   36.276    0.436    0.352   56.049
  259.000   38.156    0.430    0.342   54.266
  259.250   36.511    0.421    0.334   39.777
  259.500   35.408    0.412    0.327   32.641
  259.750   36.677    0.411    0.332   33.983
  260.000   37.382    0.410    0.339   38.044
  260.250   35.151    0.412    0.350   45.879
  260.500   32.872    0.419    0.349   56.403
  260.750   33.554    0.425    0.343   63.255
  261.000   33.672    0.426    0.338   64.656
  261.250   32.544    0.422    0.338   64.884
  261.500   30.313    0.418    0.344   68.803
  261.750   32.169    0.417    0.347   75.689
  262.000   34.613    0.417    0.347   80.332
  262.250   35.271    0.419    0.347   80.544
  262.500   34.778    0.424    0.344   77.912
  262.750   36.682    0.431    0.337   72.711
  263.000   38.491    0.438    0.324   72.968
  263.250   39.761    0.441    0.319   71.829
  263.500   36.354    0.438    0.328   58.891
  263.750   34.687    0.432    0.335   52.977
  264.000   33.630    0.426    0.336   54.054
  264.250   33.701    0.423    0.331   57.319
  264.500   33.184    0.417    0.327   63.167
  264.750   33.302    0.416    0.327   59.991
  265.000   33.984    0.417    0.329   55.936
  265.250   36.428    0.421    0.335   53.077
  265.500   40.070    0.424    0.337   52.248
  265.750   39.577    0.422    0.338   53.452
  266.000   37.886    0.423    0.344   56.780
  266.250   37.393    0.428    0.348   59.062
  266.500   39.837    0.434    0.346   60.316
  266.750   41.717    0.441    0.340   59.427
  267.000   40.613    0.439    0.337   56.438
  267.250   38.945    0.432    0.337   51.712
  267.500   39.627    0.428    0.338   50.949
  267.750   42.658    0.427    0.334   52.123
  268.000   45.126    0.430    0.334   52.215
  268.250   41.672    0.437    0.336   52.399
  268.500   40.028    0.442    0.348   50.687
  268.750   40.123    0.444    0.343   43.075
  269.000   40.217    0.438    0.342   40.945
  269.250   41.486    0.433    0.347   41.851
  269.500   43.343    0.437    0.344   43.609
  269.750   46.985    0.448    0.342   43.686
  270.000   45.294    0.466    0.347   44.654
  270.250   39.514    0.472    0.350   47.392
  270.500   39.021    0.467    0.349   49.340
  270.750   39.116    0.463    0.346   49.558
  271.000   38.035    0.453    0.347   48.870
  271.250   36.955    0.440    0.348   48.065
  271.500   33.501    0.424    0.349   43.200
  271.750   28.897    0.413    0.344   28.385
  272.000   30.753    0.408    0.337   20.446
  272.250   40.269    0.392    0.327   17.713
  272.500   50.373    0.369    0.299   16.516
  272.750   59.278    0.373    0.214   16.574
  273.000   71.144    0.403    0.212   17.901
  273.250   77.159    0.420    0.262   18.983
  273.500   81.365    0.416    0.260   19.403
  273.750   83.222    0.409    0.252   17.439
  274.000   86.230    0.401    0.243   14.025
  274.250   91.657    0.420    0.241   13.077
  274.500   90.553    0.424    0.240   12.884
  274.750   90.648    0.417    0.243   13.426
  275.000   94.290    0.410    0.245   13.977
  275.250   87.900    0.407    0.257   14.822
  275.500   83.272    0.412    0.266   15.431
  275.750   78.691    0.419    0.282   16.666
  276.000   76.412    0.426    0.291   18.001
  276.250   75.355    0.420    0.280   19.820
  276.500   74.838    0.412    0.260   21.017
  276.750   73.758    0.405    0.247   22.720
  277.000   79.726    0.404    0.234   23.223
  277.250   81.630    0.406    0.255   22.424
  277.500   78.153    0.416    0.286   18.385
  277.750   67.675    0.411    0.306   16.860
  278.000   60.109    0.406    0.296   16.890
  278.250   56.092    0.405    0.266   16.367
  278.500   57.949    0.408    0.240   16.396
  278.750   47.470    0.402    0.280   16.154
  279.000   38.143    0.374    0.310   14.814
  279.250   37.063    0.357    0.312   14.044
  279.500   43.618    0.332    0.276   13.095
  279.750   55.484    0.345    0.232   12.667
  280.000   70.286    0.398    0.201   12.948
  280.250   75.691    0.406    0.186   12.993
