~VERSION INFORMATION
 VERS.                 2.0:   CWLS LOG ASCII STANDARD -VERSION 2.0
 WRAP.                  NO:   ONE LINE PER DEPTH STEP
~WELL INFORMATION BLOCK
#MNEM.UNIT           DATA                    DESCRIPTION OF MNEMONIC
#---------    -------------------            -------------------------------
# Generated from Intellog Unique Number	CS_73_76/WELL/2187
WELL.         PEX MARGIE                     : Well_name    - WELL
LOC .         00/10-11-074-09W4/0            : Location     - LOCATION
UWI .         00/10-11-074-09W4/0            : Uwi          - UNIQUE WELL ID
ENTR.         SP                             : Entered      - ENTERED BY
SRVC.         SCHLUMBERGER                   : Scn          - SERVICE COMPANY
STRT.M        285                            : top_depth    - START DEPTH
STOP.M        500                            : bot_depth    - STOP DEPTH
STEP.M        0.25                           : increment    - STEP LENGTH
 NULL. -999.2500:NULL Value
~CURVE INFORMATION BLOCK
#MNEM UNIT       ERCB CURVE CODE    CURVE DESCRIPTION
#-----------   ------------------   ----------------------------------
DEPT.M        00 001 00 00         : DEPTH        - DEPTH
ILD .OHMM     00 120 00 00         : RESD         - DEEP RESISTIVITY (DIL)
DPHI.V/V      00 890 00 00         : PHID         - DENSITY POROSITY (LIMESTONE)
NPHI.V/V      00 330 00 00         : PHIN         - NEUTRON POROSITY (LIMESTONE)
GR  .API      00 310 00 00         : GR           - GAMMA RAY
~PARAMETER INFORMATION
#MNEM.UNIT           DATA             DESCRIPTION OF MNEMONIC
#---------         -----------     ------------------------------
GL  .M        659.5                : gl           - GROUND LEVEL ELEVATION
EREF.M        663.3                : kb           - ELEVATION OF DEPTH REFERENCE
DATM.M        659.5                : datum        - DATUM ELEVATION
TDD .M        609                  : tdd          - TOTAL DEPTH DRILLER
RUN .         ONE                  : Run          - RUN NUMBER
ENG .         BILL                 : Engineer     - RECORDING ENGINEER
WIT .         JIM                  : Witness      - WITNESSED BY
MUD .         GEL                  : Mud_type     - MUD TYPE
MATR.         LIMESTONE            : Logunit      - NEUTRON MATRIX
TMAX.C        22.5                 : BHT          - MAXIMUM RECORDED TEMPERATURE
BHTD.M        609                  : BHTDEP       - MAXIMUM RECORDED TEMPERATURE
MATR.         1                    : LOGUNIT      - NEUTRON MATRIX
RMT .C        25                   : MDTP         - TEMPERATURE OF MUD
NEUT.         1                    : NEUTRON      - NEUTRON TYPE
RESI.         0                    : RESIST       - RESISTIVITY TYPE
RMC .OHMM     0.25                 : RMC          - RESISTIVITY OF MUD CAKE
RMF .OHMM     0.25                 : RMF          - RESISTIVITY OF MUD FILTRATE
SUFT.C        15                   : SUFT         - SURFACE TEMPERATURE
~A  DEPTH     RESD     PHID     PHIN       GR
# ...
  415.500    6.448    0.244    0.427   76.648
  415.750    6.446    0.240    0.423   75.434
  416.000    6.565    0.232    0.429   73.614
  416.250    6.562    0.237    0.438   70.579
  416.500    6.560    0.252    0.432   72.402
  416.750    6.557    0.238    0.421   76.047
  417.000    6.432    0.220    0.422   77.871
  417.250    6.430    0.198    0.425   77.264
  417.500    6.071    0.175    0.405   75.444
  417.750    5.734    0.178    0.391   73.624
  418.000    5.314    0.205    0.412   73.625
  418.250    4.832    0.237    0.438   74.234
  418.500    4.312    0.252    0.420   74.843
  418.750    3.634    0.252    0.401   75.451
  419.000    3.243    0.263    0.443   74.845
  419.250    2.894    0.261    0.498   70.595
  419.500    2.733    0.259    0.525   71.204
  419.750    2.533    0.259    0.519   74.243
  420.000    2.438    0.261    0.504   75.458
  420.250    2.391    0.269    0.498   77.889
  420.500    2.389    0.258    0.519   80.320
  420.750    2.434    0.247    0.537   81.535
  421.000    2.528    0.237    0.541   83.359
  421.250    2.674    0.238    0.523   81.538
  421.500    2.776    0.250    0.531   72.430
  421.750    3.108    0.236    0.546   70.002
  422.000    3.289    0.210    0.509   72.433
  422.250    3.824    0.223    0.437   74.256
  422.500    4.203    0.231    0.431   74.258
  422.750    4.447    0.213    0.443   72.437
  423.000    4.704    0.201    0.450   70.617
  423.250    4.977    0.204    0.452   68.189
  423.500    5.573    0.211    0.438   63.939
  423.750    6.860    0.245    0.372   58.475
  424.000   10.597    0.288    0.291   54.225
  424.250   15.177    0.319    0.255   49.976
  424.500   22.149    0.362    0.240   51.192
  424.750   24.337    0.347    0.302   53.016
  425.000   24.792    0.333    0.334   53.017
  425.250   22.545    0.317    0.362   52.410
  425.500   19.736    0.310    0.383   53.626
  425.750   18.291    0.310    0.389   56.664
  426.000   16.947    0.315    0.380   58.488
  426.250   16.625    0.315    0.372   59.704
  426.500   17.256    0.314    0.369   60.312
  426.750   17.580    0.314    0.372   58.492
  427.000   18.251    0.319    0.366   57.279
  427.250   18.949    0.325    0.358   56.673
  427.500   19.303    0.324    0.357   56.067
  427.750   20.042    0.318    0.367   57.283
  428.000   20.414    0.314    0.367   59.107
  428.250   20.797    0.315    0.367   60.322
  428.500   21.184    0.318    0.378   57.895
  428.750   21.990    0.302    0.396   54.860
  429.000   23.269    0.118    0.402   51.824
  429.250   28.639    0.054    0.388   50.004
  429.500   37.312    0.028    0.142   48.184
  429.750   51.455    0.010    0.129   45.149
  430.000   85.734    0.000    0.121   40.899
  430.250   92.434    0.000    0.126   40.900
  430.500   69.559    0.015    0.147   43.938
  430.750   47.623    0.045    0.169   50.013
  431.000   34.507    0.145    0.227   55.480
  431.250   24.075    0.194    0.331   57.303
  431.500   18.815    0.238    0.418   59.126
  431.750   17.438    0.243    0.416   53.663
  432.000   17.425    0.234    0.411   51.842
  432.250   18.089    0.237    0.440   48.807
  432.500   19.139    0.265    0.449   47.593
  432.750   19.499    0.274    0.452   46.987
  433.000   20.246    0.280    0.450   46.382
  433.250   21.416    0.285    0.445   46.383
  433.500   22.235    0.283    0.447   45.777
  433.750   22.227    0.277    0.443   46.993
  434.000   22.641    0.274    0.433   48.209
  434.250   22.209    0.271    0.426   50.033
  434.500   21.373    0.264    0.416   51.248
  434.750   21.365    0.267    0.415   52.464
  435.000   21.351    0.264    0.434   53.073
  435.250   21.750    0.265    0.448   53.075
  435.500   21.744    0.288    0.452   52.469
  435.750   22.153    0.302    0.440   54.292
  436.000   22.991    0.298    0.440   55.508
  436.250   23.421    0.297    0.453   54.294
  436.500   23.860    0.296    0.461   48.223
  436.750   23.850    0.296    0.469   49.439
  437.000   23.843    0.293    0.456   51.263
  437.250   23.836    0.291    0.455   51.264
  437.500   23.374    0.297    0.470   48.836
  437.750   23.367    0.308    0.470   48.837
  438.000   22.922    0.310    0.455   51.268
  438.250   21.643    0.293    0.440   53.091
  438.500   20.834    0.249    0.428   54.307
  438.750   15.383    0.229    0.415   56.131
  439.000   12.970    0.229    0.393   57.347
  439.250   10.136    0.220    0.373   57.955
  439.500    9.942    0.189    0.387   59.171
  439.750   11.345    0.152    0.390   57.958
  440.000   12.233    0.114    0.367   56.138
  440.250   12.942    0.114    0.335   56.139
  440.500   12.695    0.193    0.297   58.570
  440.750   11.765    0.236    0.353   60.393
  441.000   10.697    0.243    0.371   59.787
  441.250    9.544    0.248    0.380   57.359
  441.500    9.186    0.248    0.368   55.539
  441.750    8.676    0.254    0.379   54.933
  442.000    8.673    0.267    0.379   55.541
  442.250    9.348    0.261    0.384   58.579
  442.500    9.891    0.265    0.434   64.654
  442.750   10.667    0.283    0.410   68.299
  443.000   12.642    0.292    0.379   62.227
  443.250   16.785    0.287    0.352   59.800
  443.500   21.057    0.292    0.348   63.445
  443.750   20.653    0.283    0.350   67.090
  444.000   14.965    0.255    0.333   70.128
  444.250   12.616    0.213    0.310   70.129
  444.500   11.257    0.179    0.301   65.879
  444.750   11.042    0.195    0.315   59.808
  445.000   12.132    0.204    0.331   60.417
  445.250   13.845    0.201    0.336   60.418
  445.500   15.799    0.205    0.331   59.812
  445.750   17.360    0.228    0.346   57.992
  446.000   19.076    0.244    0.336   54.349
  446.250   21.360    0.256    0.333   50.100
  446.500   19.422    0.254    0.345   48.886
  446.750   17.006    0.265    0.348   49.495
  447.000   13.803    0.269    0.363   53.748
  447.250   12.086    0.258    0.383   63.466
  447.500   10.991    0.238    0.391   68.326
  447.750    9.993    0.225    0.388   68.327
  448.000    9.436    0.240    0.366   65.292
  448.250    9.081    0.258    0.351   69.544
  448.500    8.908    0.259    0.337   73.797
  448.750    8.739    0.247    0.341   75.013
  449.000    8.412    0.233    0.366   77.444
  449.250    7.944    0.229    0.383   84.125
  449.500    7.646    0.220    0.388   92.022
  449.750    7.499    0.200    0.384   96.881
  450.000    7.639    0.201    0.394   92.024
  450.250    8.082    0.199    0.410   81.702
  450.500    8.551    0.162    0.320   73.808
  450.750    9.573    0.148    0.314   63.486
  451.000    9.940    0.187    0.320   59.236
  451.250   11.129    0.205    0.308   58.630
  451.500   11.999    0.206    0.313   54.380
  451.750   12.695    0.220    0.325   48.916
  452.000   13.180    0.237    0.334   47.703
  452.250   13.427    0.232    0.304   55.599
  452.500   13.679    0.213    0.294   61.066
  452.750   13.673    0.201    0.309   68.355
  453.000   12.670    0.196    0.321   71.394
  453.250   13.921    0.177    0.320   73.216
  453.500   16.189    0.153    0.304   68.967
  453.750   17.789    0.215    0.304   56.822
  454.000   18.470    0.247    0.335   48.322
  454.250   18.460    0.276    0.360   48.323
  454.500   16.164    0.282    0.377   61.685
  454.750   13.887    0.269    0.350   72.618
  455.000   12.628    0.250    0.341   76.263
  455.250   13.361    0.220    0.319   76.871
  455.500   14.957    0.204    0.335   71.407
  455.750   16.128    0.221    0.368   62.299
  456.000   17.064    0.244    0.371   55.620
  456.250   18.054    0.267    0.358   55.622
  456.500   19.102    0.238    0.340   57.445
  456.750   19.830    0.237    0.340   53.803
  457.000   20.585    0.247    0.348   52.590
  457.250   22.192    0.234    0.353   55.627
  457.500   22.606    0.216    0.351   58.058
  457.750   23.028    0.226    0.355   58.667
  458.000   23.905    0.239    0.361   58.668
  458.250   24.353    0.240    0.351   56.848
  458.500   24.346    0.218    0.345   55.635
  458.750   24.798    0.232    0.347   61.102
