~VERSION INFORMATION
 VERS.                 2.0:   CWLS LOG ASCII STANDARD -VERSION 2.0
 WRAP.                  NO:   ONE LINE PER DEPTH STEP
~WELL INFORMATION BLOCK
#MNEM.UNIT           DATA                    DESCRIPTION OF MNEMONIC
#---------    -------------------            -------------------------------
# Generated from Intellog Unique Number	CS_77_79/WELL/1002
WELL.         MAYNARD ET AL THORNBURY        : Well_name    - WELL
LOC .         00/11-29-079-11W4/0            : Location     - LOCATION
UWI .         00/11-29-079-11W4/0            : Uwi          - UNIQUE WELL ID
ENTR.         JHS                            : Entered      - ENTERED BY
SRVC.         SCHLUMBERGER                   : Scn          - SERVICE COMPANY
STRT.M        250                            : top_depth    - START DEPTH
STOP.M        495                            : bot_depth    - STOP DEPTH
STEP.M        0.25                           : increment    - STEP LENGTH
 NULL. -999.2500:NULL Value
~CURVE INFORMATION BLOCK
#MNEM UNIT       ERCB CURVE CODE    CURVE DESCRIPTION
#-----------   ------------------   ----------------------------------
DEPT.M        00 001 00 00         : DEPTH        - DEPTH
DPHI.V/V      00 890 00 00         : PHID         - DENSITY POROSITY (LIMESTONE)
NPHI.V/V      00 330 00 00         : PHIN         - NEUTRON POROSITY (LIMESTONE)
GR  .API      00 310 00 00         : GR           - GAMMA RAY
ILD .OHMM     00 120 00 00         : RESD         - DEEP RESISTIVITY (DIL)
RHOB.KG/M3    00 350 00 00         : DENS         - BULK DENSITY
~PARAMETER INFORMATION
#MNEM.UNIT           DATA             DESCRIPTION OF MNEMONIC
#---------         -----------     ------------------------------
GL  .M        690.19               : gl           - GROUND LEVEL ELEVATION
EREF.M        693.39               : kb           - ELEVATION OF DEPTH REFERENCE
DATM.M        693.39               : datum        - DATUM ELEVATION
TDD .M        500                  : tdd          - TOTAL DEPTH DRILLER
RUN .         ONE                  : Run          - RUN NUMBER
ENG .         BILL                 : Engineer     - RECORDING ENGINEER
WIT .         JIM                  : Witness      - WITNESSED BY
MUD .         GEL                  : Mud_type     - MUD TYPE
MATR.         LIMESTONE            : Logunit      - NEUTRON MATRIX
TMAX.C        22                   : BHT          - MAXIMUM RECORDED TEMPERATURE
BHTD.M        500                  : BHTDEP       - MAXIMUM RECORDED TEMPERATURE
MATR.         1                    : LOGUNIT      - NEUTRON MATRIX
RMT .C        25                   : MDTP         - TEMPERATURE OF MUD
NEUT.         1                    : NEUTRON      - NEUTRON TYPE
RESI.         0                    : RESIST       - RESISTIVITY TYPE
RMC .OHMM     0.25                 : RMC          - RESISTIVITY OF MUD CAKE
RMF .OHMM     0.25                 : RMF          - RESISTIVITY OF MUD FILTRATE
SUFT.C        15                   : SUFT         - SURFACE TEMPERATURE
~A  DEPTH     PHID     PHIN       GR     RESD     DENS
# ...
  286.500    0.192    0.613  129.966    3.727    0.000
  286.750    0.197    0.604  130.608    3.979    0.000
  287.000    0.173    0.584  125.745    4.146    0.000
  287.250    0.176    0.555  127.001    4.810    0.000
  287.500    0.208    0.526  124.585    6.378    0.000
  287.750    0.230    0.489  122.166    8.440    0.000
  288.000    0.266    0.464  120.967   11.489    0.000
  288.250    0.286    0.453  111.822   13.469    0.000
  288.500    0.289    0.457  110.010   14.543    0.000
  288.750    0.297    0.467  102.084   14.960    0.000
  289.000    0.296    0.475  101.502   14.882    0.000
  289.250    0.301    0.460   97.860   14.311    0.000
  289.500    0.295    0.453   97.277   13.492    0.000
  289.750    0.290    0.450   94.859   12.181    0.000
  290.000    0.283    0.440   89.990    9.963    0.000
  290.250    0.267    0.447   93.081    7.910    0.000
  290.500    0.253    0.467  101.688    7.174    0.000
  290.750    0.231    0.462  102.950    6.686    0.000
  291.000    0.173    0.464  106.644    6.773    0.000
  291.250    0.151    0.479  113.409    7.025    0.000
  291.500    0.146    0.468  115.278    8.016    0.000
  291.750    0.152    0.467  120.817   10.079    0.000
  292.000    0.202    0.473  120.844   10.905    0.000
  292.250    0.242    0.462  115.368   11.733    0.000
  292.500    0.258    0.453  111.726   12.643    0.000
  292.750    0.279    0.459  108.699   13.471    0.000
  293.000    0.293    0.456  105.660   13.804    0.000
  293.250    0.299    0.456  100.182   13.645    0.000
  293.500    0.281    0.464   92.870   13.320    0.000
  293.750    0.273    0.459   90.449   12.914    0.000
  294.000    0.265    0.447   95.990   12.754    0.000
  294.250    0.270    0.433  102.141   12.841    0.000
  294.500    0.296    0.421  102.177   13.091    0.000
  294.750    0.315    0.412   96.082   13.674    0.000
  295.000    0.337    0.404   72.847   14.253    0.000
  295.250    0.335    0.401   76.551   15.658    0.000
  295.500    0.326    0.412   78.422   16.567    0.000
  295.750    0.313    0.426   80.287   17.559    0.000
  296.000    0.304    0.430   79.091   22.222    0.000
  296.250    0.288    0.434   74.227   21.399    0.000
  296.500    0.284    0.435   73.653   21.399    0.000
  296.750    0.292    0.435   72.454   21.399    0.000
  297.000    0.290    0.425   71.871   23.045    0.000
  297.250    0.290    0.396   76.189   25.514    0.000
  297.500    0.267    0.360   77.440   27.983    0.000
  297.750    0.217    0.311   73.797   27.983    0.000
  298.000    0.158    0.274   66.483   27.160    0.000
  298.250    0.084    0.265   65.905   23.868    0.000
  298.500    0.069    0.268   70.826   21.399    0.000
  298.750    0.070    0.306   77.591   17.862    0.000
  299.000    0.175    0.338   86.195   15.315    0.000
  299.250    0.253    0.376   91.743   13.591    0.000
  299.500    0.277    0.468   91.774   12.856    0.000
  299.750    0.279    0.475   89.961   12.697    0.000
  300.000    0.280    0.482   86.934   12.783    0.000
  300.250    0.282    0.485   86.352   12.789    0.000
  300.500    0.287    0.494   87.607   12.546    0.000
  300.750    0.288    0.507   91.920   12.304    0.000
  301.000    0.289    0.520   97.460   12.143    0.000
  301.250    0.282    0.525   95.040   12.067    0.000
  301.500    0.281    0.526   96.905   12.154    0.000
  301.750    0.287    0.521   93.267   12.158    0.000
  302.000    0.294    0.487   88.398   12.080    0.000
  302.250    0.301    0.485   85.377   11.838    0.000
  302.500    0.291    0.490   84.788   11.678    0.000
  302.750    0.282    0.491   85.427   11.435    0.000
  303.000    0.293    0.501   86.684   10.865    0.000
  303.250    0.289    0.497   88.548   10.457    0.000
  303.500    0.280    0.500   91.640    9.804    0.000
  303.750    0.268    0.503   97.188    9.232    0.000
  304.000    0.246    0.490   96.617    8.496    0.000
  304.250    0.238    0.470   96.640    8.089    0.000
  304.500    0.254    0.465   98.499    7.847    0.000
  304.750    0.258    0.453   99.754    7.851    0.000
  305.000    0.277    0.441   99.172    8.185    0.000
  305.250    0.280    0.431   99.202    8.684    0.000
  305.500    0.286    0.428   96.171    9.347    0.000
  305.750    0.302    0.427   94.976   10.257    0.000
  306.000    0.304    0.419   96.849   11.414    0.000
  306.250    0.311    0.410   98.099   12.571    0.000
  306.500    0.299    0.405   89.558   13.481    0.000
  306.750    0.310    0.400   73.675   14.637    0.000
  307.000    0.315    0.401   66.359   20.587    0.000
  307.250    0.320    0.404   53.531   23.097    0.000
  307.500    0.338    0.415   51.113   23.962    0.000
  307.750    0.348    0.426   56.043   24.006    0.000
  308.000    0.360    0.430   58.522   24.063    0.000
  308.250    0.377    0.429   58.549   24.092    0.000
  308.500    0.382    0.424   61.650   24.140    0.000
  308.750    0.370    0.427   61.672   24.197    0.000
  309.000    0.362    0.440   61.709   24.234    0.000
  309.250    0.357    0.453   64.794   24.282    0.000
  309.500    0.351    0.466   63.604   24.329    0.000
  309.750    0.345    0.471   63.023   24.367    0.000
  310.000    0.344    0.467   60.602   24.409    0.000
  310.250    0.342    0.455   54.517   24.454    0.000
  310.500    0.336    0.442   53.316   24.519    0.000
  310.750    0.337    0.430   53.349   23.740    0.000
  311.000    0.332    0.427   55.829   23.764    0.000
  311.250    0.338    0.413   57.697   23.818    0.000
  311.500    0.351    0.412   57.731   23.869    0.000
  311.750    0.364    0.416   58.366   23.916    0.000
  312.000    0.363    0.417   55.950   23.957    0.000
  312.250    0.369    0.419   55.374   23.170    0.000
  312.500    0.365    0.428   54.786   22.388    0.000
  312.750    0.358    0.436   52.983   21.616    0.000
  313.000    0.360    0.453   54.233   21.666    0.000
  313.250    0.350    0.456   53.041   22.530    0.000
  313.500    0.340    0.437   53.686   24.226    0.000
  313.750    0.343    0.409   53.718   25.092    0.000
  314.000    0.329    0.395   50.688   26.784    0.000
  314.250    0.330    0.381   47.041   27.650    0.000
  314.500    0.342    0.377   44.010   28.518    0.000
  314.750    0.319    0.388   42.815   28.559    0.000
  315.000    0.324    0.407   41.628   28.599    0.000
  315.250    0.329    0.421   43.492   27.829    0.000
  315.500    0.323    0.424   45.969   27.880    0.000
  315.750    0.335    0.419   46.613   27.915    0.000
  316.000    0.341    0.408   46.649   27.139    0.000
  316.250    0.331    0.401   48.519   27.180    0.000
  316.500    0.335    0.402   49.769   25.582    0.000
  316.750    0.343    0.412   49.804   23.977    0.000
  317.000    0.357    0.423   51.050   23.203    0.000
  317.250    0.358    0.434   52.306   22.427    0.000
  317.500    0.359    0.445   52.947   22.468    0.000
  317.750    0.369    0.445   52.368   22.517    0.000
  318.000    0.359    0.436   50.565   23.386    0.000
  318.250    0.359    0.434   49.375   24.246    0.000
  318.500    0.354    0.435   49.402   24.297    0.000
  318.750    0.340    0.444   50.658   24.335    0.000
  319.000    0.338    0.454   53.746   24.384    0.000
  319.250    0.347    0.452   54.387   23.616    0.000
  319.500    0.365    0.433   53.199   23.652    0.000
  319.750    0.366    0.426   50.776   23.706    0.000
  320.000    0.364    0.418   48.970   22.917    0.000
  320.250    0.366    0.407   49.621   22.963    0.000
  320.500    0.355    0.408   50.869   23.008    0.000
  320.750    0.358    0.423   55.186   23.047    0.000
  321.000    0.356    0.430   58.277   23.101    0.000
  321.250    0.358    0.433   59.532   23.137    0.000
  321.500    0.354    0.418   57.725   23.198    0.000
  321.750    0.341    0.402   54.697   23.244    0.000
  322.000    0.334    0.397   53.499   23.285    0.000
  322.250    0.331    0.397   52.920   23.320    0.000
  322.500    0.333    0.394   49.891   23.375    0.000
  322.750    0.350    0.402   47.467   23.411    0.000
