~VERSION INFORMATION
 VERS.                 2.0:   CWLS LOG ASCII STANDARD -VERSION 2.0
 WRAP.                  NO:   ONE LINE PER DEPTH STEP
~WELL INFORMATION BLOCK
#MNEM.UNIT           DATA                    DESCRIPTION OF MNEMONIC
#---------    -------------------            -------------------------------
# Generated from Intellog Unique Number	CW_82_90/WELL/3452
WELL.         COSEKA RES.                    : Well_name    - WELL
LOC .         00/11-22-090-20W4/0            : Location     - LOCATION
UWI .         00/11-22-090-20W4/0            : Uwi          - UNIQUE WELL ID
ENTR.         MAX                            : Entered      - ENTERED BY
SRVC.         SCHLUMBERGER                   : Scn          - SERVICE COMPANY
STRT.M        100                            : top_depth    - START DEPTH
STOP.M        240                            : bot_depth    - STOP DEPTH
STEP.M        0.25                           : increment    - STEP LENGTH
 NULL. -999.2500:NULL Value
~CURVE INFORMATION BLOCK
#MNEM UNIT       ERCB CURVE CODE    CURVE DESCRIPTION
#-----------   ------------------   ----------------------------------
DEPT.M        00 001 00 00         : DEPTH        - DEPTH
ILD .OHMM     00 120 00 00         : RESD         - DEEP RESISTIVITY (DIL)
NPHI.V/V      00 330 00 00         : PHIN         - NEUTRON POROSITY (SANDSTONE)
DPHI.V/V      00 890 00 00         : PHID         - DENSITY POROSITY (SANDSTONE)
CALI.MM       00 280 01 00         : CAL          - CALIPER
GR  .API      00 310 00 00         : GR           - GAMMA RAY
~PARAMETER INFORMATION
#MNEM.UNIT           DATA             DESCRIPTION OF MNEMONIC
#---------         -----------     ------------------------------
GL  .M        517.8                : gl           - GROUND LEVEL ELEVATION
EREF.M        520.7                : kb           - ELEVATION OF DEPTH REFERENCE
DATM.M        517.8                : datum        - DATUM ELEVATION
TDD .M        243                  : tdd          - TOTAL DEPTH DRILLER
RUN .         ONE                  : Run          - RUN NUMBER
ENG .         BILL                 : Engineer     - RECORDING ENGINEER
WIT .         JIM                  : Witness      - WITNESSED BY
MUD .         GEL                  : Mud_type     - MUD TYPE
MATR.         SANDSTONE            : Logunit      - NEUTRON MATRIX
TMAX.C        23.1                 : BHT          - MAXIMUM RECORDED TEMPERATURE
BHTD.M        243                  : BHTDEP       - MAXIMUM RECORDED TEMPERATURE
MATR.         1                    : LOGUNIT      - NEUTRON MATRIX
RMT .C        20                   : MDTP         - TEMPERATURE OF MUD
NEUT.         1                    : NEUTRON      - NEUTRON TYPE
RESI.         0                    : RESIST       - RESISTIVITY TYPE
RMC .OHMM     3.22                 : RMC          - RESISTIVITY OF MUD CAKE
RMF .OHMM     3.22                 : RMF          - RESISTIVITY OF MUD FILTRATE
SUFT.C        -10                  : SUFT         - SURFACE TEMPERATURE
~A  DEPTH     RESD     PHIN     PHID      CAL       GR
  100.000   10.884    0.459    0.415  181.510   62.460
  100.250    8.792    0.463    0.374  176.962   68.063
  100.500    8.799    0.469    0.326  169.419   73.064
  100.750    8.807    0.485    0.271  170.333   80.444
  101.000    8.652    0.481    0.261  173.207   90.208
  101.250    8.579    0.462    0.253  176.103   88.371
  101.500    8.668    0.455    0.247  175.012   83.542
  101.750    8.675    0.460    0.247  171.951   83.793
  102.000    8.133    0.467    0.258  165.928   84.341
  102.250    7.842    0.480    0.270  164.837   83.680
  102.500    7.564    0.485    0.273  167.227   84.235
  102.750    7.569    0.491    0.266  170.123   84.176
  103.000    7.865    0.490    0.257  173.998   82.933
  103.250    8.095    0.466    0.252  176.388   83.184
  103.500    8.178    0.459    0.249  176.784   82.834
  103.750    8.338    0.463    0.266  175.705   82.174
  104.000    8.581    0.467    0.260  172.632   82.418
  104.250    8.430    0.475    0.250  166.114   82.662
  104.500    8.282    0.478    0.240  164.539   81.427
  104.750    8.525    0.477    0.234  170.386   80.773
  105.000    8.612    0.468    0.241  174.262   80.422
  105.250    8.383    0.458    0.246  175.175   80.957
  105.500    8.312    0.467    0.250  174.096   81.215
  105.750    8.318    0.468    0.254  170.528   81.162
  106.000    8.806    0.459    0.262  165.970   78.116
  106.250    9.147    0.460    0.255  163.415   76.887
  106.500    9.415    0.467    0.238  161.829   73.861
  106.750    9.600    0.449    0.211  161.752   72.018
  107.000    9.975    0.445    0.187  162.159   71.972
  107.250   10.172    0.472    0.185  162.071   73.696
  107.500   10.568    0.483    0.219  162.963   76.021
  107.750   11.290    0.482    0.239  164.361   76.860
  108.000   11.950    0.474    0.240  167.741   74.125
  108.250    9.742    0.464    0.235  172.619   74.667
  108.500    7.510    0.467    0.222  174.513   83.546
  108.750    6.597    0.510    0.216  170.934   92.419
  109.000    6.243    0.537    0.249  170.857   94.143
  109.250    6.547    0.539    0.250  171.275   89.333
  109.500    6.553    0.532    0.241  174.656   87.794
  109.750    6.808    0.523    0.226  171.077   82.984
  110.000    7.480    0.507    0.212  169.018   78.161
  110.250    7.348    0.489    0.195  169.425   80.791
  110.500    6.700    0.492    0.183  170.317   85.501
  110.750    5.995    0.503    0.201  170.239   94.367
  111.000    5.466    0.542    0.240  170.625   99.355
  111.250    5.271    0.540    0.242  171.054   97.822
  111.500    5.178    0.524    0.256  171.935   93.317
  111.750    5.280    0.505    0.275  172.353   88.203
  112.000    5.910    0.540    0.286  171.769   82.501
  112.250    7.400    0.542    0.280  171.185   74.117
  112.500    9.264    0.524    0.259  170.613   66.030
  112.750   11.172    0.494    0.244  168.509   56.166
  113.000   13.105    0.482    0.250  166.450   49.262
  113.250   14.670    0.474    0.179  163.389   46.243
  113.500   16.419    0.463    0.174  161.330   42.913
  113.750   19.621    0.451    0.239  159.248   38.995
  114.000   23.663    0.439    0.336  158.665   34.483
  114.250   27.239    0.437    0.350  160.052   32.045
  114.500   28.302    0.432    0.351  162.948   31.694
  114.750   28.327    0.420    0.352  167.815   32.236
  115.000   28.348    0.420    0.352  169.719   33.075
  115.250   26.583    0.428    0.353  171.107   34.205
  115.500   22.704    0.431    0.353  171.030   35.942
  115.750   16.093    0.433    0.348  168.882   42.139
  116.000   12.406    0.442    0.340  169.851   46.249
  116.250   10.596    0.467    0.315  170.258   54.520
  116.500    9.482    0.476    0.256  169.664   63.988
  116.750    9.316    0.474    0.244  170.060   72.860
  117.000   10.724    0.472    0.241  170.489   71.605
  117.250   13.177    0.483    0.248  170.401   62.639
  117.500   17.446    0.477    0.278  171.304   46.519
  117.750   24.888    0.435    0.309  170.709   38.736
  118.000   30.297    0.430    0.327  170.621   34.508
  118.250   32.072    0.429    0.327  171.524   34.752
  118.500   31.802    0.419    0.333  173.913   34.693
  118.750   32.131    0.417    0.335  176.313   34.356
  119.000   32.761    0.414    0.335  177.216   33.708
  119.250   33.100    0.414    0.332  177.117   33.351
  119.500   33.753    0.419    0.327  175.520   32.406
  119.750   34.418    0.427    0.322  174.463   32.657
  120.000   35.096    0.430    0.312  173.879   32.895
  120.250   35.452    0.421    0.300  173.295   34.031
  120.500   35.483    0.415    0.291  172.205   34.573
  120.750   35.184    0.418    0.296  171.632   34.520
  121.000   34.896    0.413    0.310  170.058   34.461
  121.250   34.602    0.413    0.309  170.465   34.117
  121.500   34.303    0.425    0.303  172.843   32.571
  121.750   34.018    0.440    0.301  174.737   31.031
  122.000   33.732    0.441    0.305  175.640   31.276
  122.250   33.141    0.430    0.327  174.560   31.527
  122.500   32.866    0.432    0.338  174.461   31.467
  122.750   32.887    0.432    0.332  174.384   31.712
  123.000   32.308    0.427    0.323  174.791   31.348
  123.250   32.039    0.421    0.322  175.694   31.011
  123.500   32.367    0.419    0.317  175.077   31.255
  123.750   32.699    0.419    0.306  173.525   32.385
  124.000   32.420    0.432    0.280  171.950   32.927
  124.250   31.849    0.464    0.262  170.882   32.867
  124.500   31.288    0.461    0.266  170.793   32.821
  124.750   31.612    0.447    0.324  171.696   32.173
  125.000   31.051    0.440    0.329  171.597   31.229
  125.250   30.790    0.432    0.323  170.507   31.480
  125.500   30.823    0.427    0.311  170.418   32.021
  125.750   30.850    0.427    0.282  171.321   30.462
  126.000   30.874    0.429    0.276  171.729   30.416
  126.250   30.330    0.433    0.302  172.136   29.768
  126.500   29.799    0.426    0.318  172.532   29.722
  126.750   29.270    0.414    0.315  172.455   31.149
  127.000   27.705    0.411    0.310  172.367   32.589
  127.250   26.961    0.414    0.309  173.280   33.718
  127.500   25.519    0.408    0.309  173.170   34.557
  127.750   24.606    0.405    0.311  172.597   35.687
  128.000   22.858    0.430    0.316  172.003   36.817
  128.250   21.036    0.430    0.298  171.914   37.669
  128.500   19.358    0.423    0.269  171.826   39.393
  128.750   17.486    0.420    0.238  171.231   41.725
  129.000   15.505    0.431    0.185  170.670   44.652
  129.250   13.366    0.445    0.224  170.075   49.660
  129.500   11.631    0.466    0.281  168.500   61.209
  129.750    9.571    0.485    0.260  166.926   72.453
  130.000    7.730    0.496    0.226  165.846   83.704
  130.250    6.603    0.513    0.200  166.254   91.091
  130.500    5.536    0.528    0.261  166.672  102.335
  130.750    5.000    0.544    0.292  165.582  104.661
  131.000    4.689    0.542    0.285  164.007  105.202
  131.250    4.871    0.533    0.233  163.908  104.257
  131.500    5.061    0.532    0.221  164.810  105.096
  131.750    5.160    0.537    0.226  166.715  105.044
  132.000    5.165    0.529    0.244  167.607  102.315
  132.250    5.074    0.500    0.245  164.535  102.262
  132.500    5.079    0.496    0.242  162.982  105.770
  132.750    5.082    0.509    0.230  163.378  106.913
  133.000    5.233    0.527    0.229  164.766  103.292
  133.250    5.335    0.541    0.226  165.690  100.260
  133.500    5.491    0.533    0.222  166.098   99.308
  133.750    5.759    0.523    0.213  165.503   95.397
  134.000    5.983    0.508    0.191  162.409   92.067
  134.250    6.100    0.489    0.172  160.867   89.338
  134.500    6.162    0.483    0.198  160.261   88.982
  134.750    6.054    0.494    0.235  160.195   89.821
  135.000    5.947    0.490    0.240  161.098   92.153
  135.250    5.843    0.499    0.229  162.485   93.884
  135.500    5.903    0.511    0.219  162.892   93.527
  135.750    6.308    0.511    0.241  163.795   93.771
  136.000    6.738    0.490    0.238  164.202   94.907
  136.250    7.613    0.484    0.224  165.094   94.260
