~VERSION INFORMATION
 VERS.                 2.0:   CWLS LOG ASCII STANDARD -VERSION 2.0
 WRAP.                  NO:   ONE LINE PER DEPTH STEP
~WELL INFORMATION BLOCK
#MNEM.UNIT           DATA                    DESCRIPTION OF MNEMONIC
#---------    -------------------            -------------------------------
# Generated from Intellog Unique Number	CW_73_75/WELL/2996
WELL.         G & W ET AL SPUR               : Well_name    - WELL
LOC .         00/10-08-073-01W5/0            : Location     - LOCATION
UWI .         00/10-08-073-01W5/0            : Uwi          - UNIQUE WELL ID
ENTR.         CAMPBELL                       : Entered      - ENTERED BY
SRVC.         SCHLUMBERGER                   : Scn          - SERVICE COMPANY
DATE.         14 DEC 1988                    : Date         - LOG DATE
STRT.M        487                            : top_depth    - START DEPTH
STOP.M        635                            : bot_depth    - STOP DEPTH
STEP.M        0.25                           : increment    - STEP LENGTH
 NULL. -999.2500:NULL Value
~CURVE INFORMATION BLOCK
#MNEM UNIT       ERCB CURVE CODE    CURVE DESCRIPTION
#-----------   ------------------   ----------------------------------
DEPT.M        00 001 00 00         : DEPTH        - DEPTH
ILD .OHMM     00 120 00 00         : RESD         - DEEP RESISTIVITY (DIL)
DELT.US/F     00 520 00 00         : DELT         - SONIC TRAVEL TIME
NPHI.V/V      00 330 00 00         : PHIN         - NEUTRON POROSITY (SANDSTONE)
GR  .API      00 310 00 00         : GR           - GAMMA RAY
~PARAMETER INFORMATION
#MNEM.UNIT           DATA             DESCRIPTION OF MNEMONIC
#---------         -----------     ------------------------------
GL  .M        604.8                : gl           - GROUND LEVEL ELEVATION
EREF.M        608.2                : kb           - ELEVATION OF DEPTH REFERENCE
DATM.M        608.2                : datum        - DATUM ELEVATION
TDD .M        636                  : tdd          - TOTAL DEPTH DRILLER
RUN .         ONE                  : Run          - RUN NUMBER
ENG .         CARROLL              : Engineer     - RECORDING ENGINEER
WIT .         AMDREWS              : Witness      - WITNESSED BY
MUD .         GEL                  : Mud_type     - MUD TYPE
MATR.         SANDSTONE            : Logunit      - NEUTRON MATRIX
TMAX.C        29                   : BHT          - MAXIMUM RECORDED TEMPERATURE
BHTD.M        636                  : BHTDEP       - MAXIMUM RECORDED TEMPERATURE
RMT .C        17                   : MDTP         - TEMPERATURE OF MUD
MUDD.KG/M     1120                 : MWT          - MUD DENSITY
NEUT.         1                    : NEUTRON      - NEUTRON TYPE
RESI.         0                    : RESIST       - RESISTIVITY TYPE
RM  .OHMM     3.14                 : RM           - RESISTIVITY OF MUD
RMC .OHMM     0                    : RMC          - RESISTIVITY OF MUD CAKE
RMF .OHMM     2.78                 : RMF          - RESISTIVITY OF MUD FILTRATE
SUFT.C        -20                  : SUFT         - SURFACE TEMPERATURE
~A  DEPTH     RESD     DELT     PHIN       GR
  487.000    3.530  362.505    0.362   64.075
  487.250    3.348  371.155    0.354   66.394
  487.500    3.291  376.275    0.364   67.841
  487.750    3.325  380.616    0.372   68.125
  488.000    3.359  382.215    0.366   68.988
  488.250    3.426  379.107    0.361   70.145
  488.500    3.493  372.081    0.364   70.427
  488.750    3.627  363.101    0.342   69.252
  489.000    3.766  353.729    0.324   67.786
  489.250    3.840  356.500    0.330   70.106
  489.500    3.916  364.757    0.339   73.010
  489.750    3.886  366.356    0.350   72.708
  490.000    3.855  363.643    0.350   73.282
  490.250    3.860  364.843    0.338   76.769
  490.500    3.865  366.830    0.345   81.129
  490.750    3.835  367.254    0.343   84.613
  491.000    3.840  368.063    0.353   83.729
  491.250    3.845  368.091    0.362   77.314
  491.500    3.920  364.994    0.353   68.858
  491.750    4.034  360.710    0.336   62.151
  492.000    4.151  356.822    0.339   61.266
  492.250    4.270  354.888    0.334   60.092
  492.500    4.315  353.354    0.331   59.208
  492.750    4.322  350.644    0.326   60.948
  493.000    4.326  349.886    0.323   61.520
  493.250    4.332  349.918    0.330   58.308
  493.500    4.377  349.559    0.338   57.134
  493.750    4.503  348.013    0.341   53.338
  494.000    4.677  346.867    0.335   51.872
  494.250    4.812  345.329    0.330   53.901
  494.500    4.997  340.657    0.324   56.513
  494.750    5.236  334.810    0.310   58.542
  495.000    5.587  329.747    0.283   58.824
  495.250    5.748  324.292    0.261   57.651
  495.500    5.450  316.487    0.297   57.350
  495.750    4.762  343.546    0.328   56.758
  496.000    3.976  378.047    0.352   55.583
  496.250    3.635  393.355    0.365   58.486
  496.500    3.264  390.642    0.373   60.808
  496.750    3.123  389.499    0.380   62.255
  497.000    3.156  391.479    0.382   59.915
  497.250    3.277  390.724    0.365   63.693
  497.500    3.402  384.094    0.352   68.926
  497.750    3.565  377.464    0.336   74.450
  498.000    3.805  368.875    0.329   79.684
  498.250    3.950  361.853    0.340   84.333
  498.500    4.028  364.236    0.348   86.943
  498.750    4.032  362.302    0.345   89.266
  499.000    3.965  363.118    0.355   89.257
  499.250    4.007  371.764    0.366   83.714
  499.500    4.048  381.976    0.374   83.122
  499.750    4.053  387.101    0.387   84.568
  500.000    4.096  388.700    0.408   84.850
  500.250    4.177  386.766    0.406   81.345
  500.500    4.220  382.486    0.396   76.967
  500.750    4.225  375.860    0.386   73.463
  501.000    4.231  370.793    0.374   69.960
  501.250    4.236  366.121    0.350   69.076
  501.500    4.319  361.841    0.315   73.728
  501.750    4.365  358.736    0.324   81.000
  502.000    4.292  357.202    0.330   87.105
  502.250    4.258  358.014    0.340   82.437
  502.500    4.302  358.826    0.350   75.436
  502.750    4.468  358.071    0.351   77.176
  503.000    4.555  356.529    0.340   81.825
  503.250    4.645  354.208    0.334   87.060
  503.500    4.693  351.502    0.332   85.012
  503.750    4.699  349.568    0.325   81.798
  504.000    4.662  347.638    0.321   80.041
  504.250    4.543  346.495    0.328   78.282
  504.500    4.427  346.129    0.335   77.983
  504.750    4.392  347.724    0.344   81.177
  505.000    4.438  351.282    0.351   85.829
  505.250    4.485  355.227    0.357   89.606
  505.500    4.531  356.819    0.363   76.199
  505.750    4.620  356.848    0.347   79.683
  506.000    4.755  354.145    0.327   84.626
  506.250    4.848  351.432    0.323   88.695
  506.500    4.853  349.495    0.339   88.103
  506.750    4.861  347.565    0.344   84.599
  507.000    4.779  346.419    0.337   80.804
  507.250    4.613  346.059    0.328   77.881
  507.500    4.454  347.263    0.314   77.579
  507.750    4.301  349.645    0.327   77.862
  508.000    4.193  351.237    0.338   75.523
  508.250    4.159  352.833    0.330   72.019
  508.500    4.165  354.036    0.338   73.756
  508.750    4.170  354.069    0.328   75.203
  509.000    4.137  351.355    0.320   76.067
  509.250    4.067  349.034    0.325   77.222
  509.500    3.964  350.238    0.341   77.213
  509.750    3.862  351.833    0.364   79.242
  510.000    3.868  354.600    0.383   81.565
  510.250    3.943  355.412    0.392   86.798
  510.500    4.058  356.619    0.380   92.323
  510.750    4.136  357.826    0.350   95.517
  511.000    4.577  356.676    0.326   89.683
  511.250    4.929  350.438    0.338   88.216
  511.500    4.802  341.461    0.332   83.256
  511.750    4.810  343.053    0.325   80.626
  512.000    4.903  340.732    0.331   78.287
  512.250    4.734  333.710    0.339   77.986
  512.500    4.741  327.080    0.334   82.053
  512.750    4.746  334.550    0.332   81.170
  513.000    4.668  345.938    0.330   79.121
  513.250    4.674  354.196    0.332   77.948
  513.500    4.637  351.878    0.343   77.648
  513.750    4.728  348.381    0.346   74.726
  514.000    4.821  344.493    0.333   73.842
  514.250    4.827  348.043    0.329   75.871
  514.500    4.790  348.855    0.335   77.027
  514.750    5.205  348.884    0.362   73.232
  515.000    5.603  352.829    0.364   66.524
  515.250    6.089  354.428    0.326   66.805
  515.500    6.097  335.261    0.292   66.504
  515.750    5.781  311.788    0.302   66.204
  516.000    5.431  313.383    0.317   65.321
  516.250    5.011  316.545    0.311   63.856
  516.500    4.223  308.740    0.287   65.302
  516.750    4.004  304.460    0.315   69.370
  517.000    3.937  347.970    0.361   73.438
  517.250    3.871  362.103    0.367   73.720
  517.500    3.841  367.224    0.347   73.130
  517.750    3.845  366.864    0.350   73.120
  518.000    3.850  363.760    0.353   76.024
  518.250    3.856  359.871    0.355   78.635
  518.500    3.861  358.333    0.347   79.208
  518.750    3.831  356.795    0.337   75.995
  519.000    3.836  354.473    0.320   71.616
  519.250    3.840  354.499    0.322   73.064
  519.500    3.880  354.531    0.333   77.133
  519.750    3.885  353.776    0.345   79.454
  520.000    3.926  353.021    0.354   76.821
  520.250    3.932  352.267    0.355   74.774
  520.500    3.972  352.295    0.349   73.600
  520.750    3.978  353.499    0.347   76.212
  521.000    3.983  355.878    0.356   82.610
  521.250    3.987  358.256    0.364   86.678
  521.500    3.993  361.419    0.347   80.844
  521.750    3.998  361.842    0.329   81.708
  522.000    4.003  360.700    0.348   81.990
  522.250    4.045  359.161    0.362   81.981
  522.500    4.088  357.620    0.364   81.680
  522.750    4.129  356.085    0.362   82.544
  523.000    4.173  355.719    0.356   84.864
  523.250    4.215  356.922    0.337   88.934
  523.500    4.221  358.126    0.340   92.711
  523.750    4.265  358.155    0.343   92.702
  524.000    4.310  359.362    0.335   85.993
  524.250    4.355  360.174    0.347   87.730
  524.500    4.440  360.206    0.348   88.594
  524.750    4.570  360.231    0.351   89.168
  525.000    4.616  362.610    0.361   89.160
  525.250    4.665  364.989    0.385   81.286
  525.500    4.713  358.359    0.359   80.113
  525.750    4.763  350.557    0.328   80.976
  526.000    4.812  348.624    0.331   86.501
  526.250    4.862  347.086    0.336   89.986
  526.500    4.869  349.471    0.344   89.103
  526.750    4.875  350.672    0.337   86.764
  527.000    4.881  349.133    0.319   88.794
  527.250    4.977  346.424    0.319   95.191
  527.500    5.029  345.669    0.328   92.561
  527.750    5.081  349.227    0.343   89.930
  528.000    5.181  349.647    0.347   88.754
  528.250    5.235  349.668    0.342   87.873
  528.500    5.241  349.697    0.338   86.406
  528.750    5.345  349.726    0.337   87.271
  529.000    5.449  349.758    0.329   89.884
  529.250    5.558  349.790    0.326   91.913
  529.500    5.564  350.207    0.362   88.700
  529.750    5.522  351.410    0.384   83.739
  530.000    5.330  352.222    0.366   81.691
  530.250    5.054  352.251    0.343   86.925
