~VERSION INFORMATION
 VERS.                 2.0:   CWLS LOG ASCII STANDARD -VERSION 2.0
 WRAP.                  NO:   ONE LINE PER DEPTH STEP
~WELL INFORMATION BLOCK
#MNEM.UNIT           DATA                    DESCRIPTION OF MNEMONIC
#---------    -------------------            -------------------------------
# Generated from Intellog Unique Number	CS_71_72/WELL/2058
WELL.         MIC MAC LAC LA BICHE           : Well_name    - WELL
LOC .         00/10-21-071-14W4/0            : Location     - LOCATION
UWI .         00/10-21-071-14W4/0            : Uwi          - UNIQUE WELL ID
ENTR.         T                              : Entered      - ENTERED BY
SRVC.         SCHLUMBERGER                   : Scn          - SERVICE COMPANY
STRT.M        344.424                        : top_depth    - START DEPTH
STOP.M        548.674                        : bot_depth    - STOP DEPTH
STEP.M        0.25                           : increment    - STEP LENGTH
 NULL. -999.2500:NULL Value
~CURVE INFORMATION BLOCK
#MNEM UNIT       ERCB CURVE CODE    CURVE DESCRIPTION
#-----------   ------------------   ----------------------------------
DEPT.M        00 001 00 00         : DEPTH        - DEPTH
ILD .OHMM     00 120 00 00         : RESD         - DEEP RESISTIVITY (DIL)
GR  .API      00 310 00 00         : GR           - GAMMA RAY
DELT.US/F     00 520 00 00         : DELT         - SONIC TRAVEL TIME
~PARAMETER INFORMATION
#MNEM.UNIT           DATA             DESCRIPTION OF MNEMONIC
#---------         -----------     ------------------------------
GL  .M        654.832              : gl           - GROUND LEVEL ELEVATION
EREF.M        658.002              : kb           - ELEVATION OF DEPTH REFERENCE
DATM.M        658.002              : datum        - DATUM ELEVATION
TDD .M        573.024              : tdd          - TOTAL DEPTH DRILLER
RUN .         ONE                  : Run          - RUN NUMBER
ENG .         BILL                 : Engineer     - RECORDING ENGINEER
WIT .         JIM                  : Witness      - WITNESSED BY
MUD .         GEL                  : Mud_type     - MUD TYPE
MATR.         SANDSTONE            : Logunit      - NEUTRON MATRIX
TMAX.C        25.5556              : BHT          - MAXIMUM RECORDED TEMPERATURE
BHTD.M        573.024              : BHTDEP       - MAXIMUM RECORDED TEMPERATURE
RMT .C        25                   : MDTP         - TEMPERATURE OF MUD
MUDD.KG/M     9841.66              : MWT          - MUD DENSITY
NEUT.         1                    : NEUTRON      - NEUTRON TYPE
RESI.         0                    : RESIST       - RESISTIVITY TYPE
RM  .OHMM     3.4                  : RM           - RESISTIVITY OF MUD
RMC .OHMM     2.45                 : RMC          - RESISTIVITY OF MUD CAKE
RMF .OHMM     3.3                  : RMF          - RESISTIVITY OF MUD FILTRATE
SUFT.C        4                    : SUFT         - SURFACE TEMPERATURE
~A  DEPTH     RESD       GR     DELT
# ...
  507.174   19.401   58.052  383.731
  507.424   19.907   56.597  387.011
  507.674   19.910   55.156  392.971
  507.924   19.917   54.215  395.563
  508.174   20.009   53.751  392.811
  508.424   20.097   53.801  384.716
  508.674   20.269   53.863  357.822
  508.924   20.443   54.402  345.001
  509.174   20.615   54.452  337.558
  509.424   20.455   55.003  328.105
  509.674   18.977   55.053  316.624
  509.924   17.250   56.106  325.935
  510.174   15.110   59.151  331.913
  510.424   12.969   65.218  336.533
  510.674   11.161   68.777  347.185
  510.924    9.682   71.835  367.888
  511.174    8.945   81.424  374.536
  511.424    7.879   83.993  361.733
  511.674    7.143   85.534  357.641
  511.924    6.574   89.106  383.706
  512.174    6.249   91.149  386.333
  512.424    6.256   92.716  392.294
  512.674    6.511   93.781  400.952
  512.924    6.933   93.831  392.822
  513.174    7.433   93.392  386.720
  513.424    8.431   92.414  377.937
  513.674   10.420   90.458  358.414
  513.924   14.803   85.983  350.301
  514.174   17.536   75.504  346.192
  514.424   18.535   72.032  343.440
  514.674   18.377   69.074  347.408
  514.924   17.970   62.104  363.385
  515.174   17.234   61.653  360.669
  515.424   16.333   62.718  353.209
  515.674   14.690   64.272  349.805
  515.924   13.539   65.337  347.053
  516.174   12.389   66.364  339.593
  516.424   11.241   68.420  335.501
  516.674   10.092   72.481  330.722
  516.924    9.357   77.055  329.328
  517.174    8.869   77.105  331.232
  517.424    8.546   78.170  333.207
  517.674    8.140   79.223  338.497
  517.924    8.063   80.275  343.805
  518.174    7.987   80.814  348.425
  518.424    8.079   83.396  351.035
  518.674    8.249   84.424  354.297
  518.924    8.920   88.998  356.237
  519.174    9.503   87.030  355.496
  519.424   10.088   78.055  351.422
  519.674   11.085   76.601  330.558
  519.924   11.918   73.630  327.137
  520.174   12.589   69.669  305.603
  520.424   12.348   62.198  303.522
  520.674   11.941   59.240  318.212
  520.924   11.700   64.303  326.853
  521.174   11.625   61.345  332.126
  521.424   11.467   59.402  340.114
  521.674   11.059   59.941  347.432
  521.924   10.571   64.001  347.344
  522.174   10.166   65.568  334.540
  522.424    9.182   68.112  330.448
  522.674    8.529   78.202  354.520
  522.924    7.792   79.756  367.870
  523.174    6.726   64.251  373.830
  523.424    5.990   78.853  346.266
  523.674    5.419   87.928  346.865
  523.924    5.261   92.490  370.919
  524.174    5.269   66.456  377.568
  524.424    5.523   59.486  365.434
  524.674    6.273   55.525  337.870
  524.924    8.345   54.059  331.062
  525.174    9.178   54.108  335.029
  525.424    9.762   54.158  336.316
  525.674    9.852   57.229  336.228
  525.924    9.863   62.794  335.504
  526.174    9.949   64.849  334.076
  526.424    9.708   64.410  332.664
  526.674    9.306   63.946  333.916
  526.924    8.981   63.996  339.242
  527.174    8.657   64.547  351.216
  527.424    8.253   65.098  335.079
  527.674    8.010   79.701  332.998
  527.924    7.607   80.264  332.927
  528.174    7.285   75.789  336.206
  528.424    7.126   73.834  342.167
  528.674    7.048   72.881  348.127
  528.924    6.971   74.422  347.333
  529.174    6.813   81.516  345.287
  529.424    6.738   83.584  335.852
  529.674    6.664   84.612  335.111
  529.924    6.754   88.673  336.362
  530.174    7.177   85.714  341.670
  530.424    7.593   75.724  344.950
  530.674    8.095   66.749  343.539
  530.924    8.680   61.785  340.117
  531.174    9.267   54.816  335.338
  531.424    9.191   50.842  335.937
  531.674    9.114   50.391  339.869
  531.924    8.874   51.468  340.504
  532.174    8.551   52.496  337.734
  532.424    8.227   63.087  335.653
  532.674    8.154   69.154  336.940
  532.924    8.159   73.227  340.872
  533.174    8.084   76.273  354.910
  533.424    7.513   75.320  356.162
  533.674    6.942   68.852  344.681
  533.924    6.207   56.367  341.929
  534.174    5.718   51.905  339.865
  534.424    5.643   49.435  341.135
  534.674    5.652   46.477  345.737
  534.924    5.655   46.038  349.017
  535.174    5.745   48.093  360.356
  535.424    6.000   51.151  375.028
  535.674    6.504   56.202  374.975
  535.924    7.171   70.805  360.831
  536.174    7.923   75.367  358.080
  536.424    7.765   83.451  353.318
  536.674    7.443   89.016  349.226
  536.924    7.282   88.564  343.776
  537.174    6.959   85.606  340.337
  537.424    6.718   82.648  337.585
  537.674    6.643   81.695  337.514
  537.924    6.820   82.246  337.461
  538.174    6.906   84.803  337.390
  538.424    7.079   92.887  336.649
  538.674    7.251   93.438  333.880
  538.924    7.339   93.488  330.476
  539.174    7.428   91.019  323.704
  539.424    7.270   86.556  317.584
  539.674    7.030   82.094  315.485
  539.924    6.872   77.117  328.164
  540.174    6.798   77.669  341.496
  540.424    6.888   81.240  344.794
  540.674    6.979   85.301  347.403
  540.924    7.149   94.877  346.662
  541.174    7.322   95.930  342.571
  541.424    7.494   86.454  336.468
  541.674    7.833   74.959  332.377
  541.924    8.001   69.996  330.965
  542.174    8.507   69.043  328.866
  542.424    8.676   73.103  338.177
  542.674    9.095   81.702  334.103
  542.924    9.434   79.734  328.671
  543.174    9.689   75.259  322.569
  543.424    9.779   70.808  325.849
  543.674    9.538   69.342  340.539
  543.924    9.134   68.389  354.523
  544.174    8.811   68.953  355.793
  544.424    8.650   69.993  355.034
  544.674    8.162   71.559  354.328
  544.924    7.510   75.608  352.247
  545.174    7.103   86.211  349.495
  545.424    6.862   81.736  346.074
  545.674    7.034   76.258  341.964
  545.924   13.895   55.251  297.646
  546.174   19.186   40.748  280.116
  546.424   21.341   29.755  271.351
  546.674   22.093   18.775  192.820
  546.924   22.263   17.822  194.741
  547.174   22.437   17.370  196.663
  547.424   22.611   16.418  197.298
  547.674   22.697   15.954  199.237
  547.924   22.869   15.001  199.166
  548.174   23.206   14.549  197.085
  548.424   23.463   14.110  195.656
  548.674   23.551   14.148  195.585
