~VERSION INFORMATION
 VERS.                 2.0:   CWLS LOG ASCII STANDARD -VERSION 2.0
 WRAP.                  NO:   ONE LINE PER DEPTH STEP
~WELL INFORMATION BLOCK
#MNEM.UNIT           DATA                    DESCRIPTION OF MNEMONIC
#---------    -------------------            -------------------------------
# Generated from Intellog Unique Number	CW_70_72/WELL/3025
NULL.         -999.25                        : NULL_VALUE
WELL.         BRASCAN AMOCO MEYER 11-02      : Well_name    - WELL              
LOC .         12-02-070-25W4                 : Location     - LOCATION          
UWI .         00/12-02-070-25W4/0            : Uwi          - UNIQUE WELL ID    
ENTR.         J                              : Entered      - ENTERED BY        
SRVC.         SCHLUMBERGER                   : Scn          - SERVICE COMPANY   
DATE.         30 JULY 73                     : Date         - LOG DATE          
STRT.M        466.344                        : top_depth    - START DEPTH       
STOP.M        682.844                        : bot_depth    - STOP DEPTH        
STEP.M        0.25                           : increment    - STEP LENGTH       
~CURVE INFORMATION BLOCK
#MNEM UNIT       ERCB CURVE CODE    CURVE DESCRIPTION
#-----------   ------------------   ----------------------------------
DEPT.M        00 001 00 00         : DEPTH        - DEPTH                       
ILD .OHMM     00 120 00 00         : RESD         - DEEP RESISTIVITY (DIL)      
CALI.MM       00 280 01 00         : CAL          - CALIPER                     
GR  .API      00 310 00 00         : GR           - GAMMA RAY                   
NPHI.V/V      00 330 00 00         : PHIN         - NEUTRON POROSITY (SANDSTONE)
DPHI.V/V      00 890 00 00         : PHID         - DENSITY POROSITY (SANDSTONE)
~PARAMETER INFORMATION       
#MNEM.UNIT           DATA             DESCRIPTION OF MNEMONIC
#---------         -----------     ------------------------------
GL  .M        656.844              : gl           - GROUND LEVEL ELEVATION      
EREF.M        659.587              : kb           - ELEVATION OF DEPTH REFERENCE
DATM.M        656.844              : datum        - DATUM ELEVATION             
TDD .M        684.581              : tdd          - TOTAL DEPTH DRILLER         
RUN .         ONE                  : Run          - RUN NUMBER                  
BASE.         EDM                  : Branch       - HOME BASE OF LOGGING UNIT   
MUD .         GEL CHEM             : Mud_type     - MUD TYPE                    
MATR.         SANDSTONE            : Logunit      - NEUTRON MATRIX              
TMAX.C        36.1111              : BHT          - MAXIMUM RECORDED TEMPERATURE
BHTD.M        684.581              : BHTDEP       - MAXIMUM RECORDED TEMPERATURE
RMT .C        24.4444              : MDTP         - TEMPERATURE OF MUD          
MUDD.KG/M     1140                 : MWT          - MUD DENSITY                 
NEUT.         1                    : NEUTRON      - NEUTRON TYPE                
RESI.         0                    : RESIST       - RESISTIVITY TYPE            
RM  .OHMM     2.46                 : RM           - RESISTIVITY OF MUD          
RMC .OHMM     0.25                 : RMC          - RESISTIVITY OF MUD CAKE     
RMF .OHMM     3.29                 : RMF          - RESISTIVITY OF MUD FILTRATE 
SUFT.C        10                   : SUFT         - SURFACE TEMPERATURE         
~A  DEPTH     RESD      CAL       GR     PHIN     PHID
# ...
  648.844    1.833  159.844  103.518    0.412    0.105
  649.094    1.919  158.429  105.529    0.405    0.117
  649.344    1.798  158.760  107.482    0.388    0.088
  649.594    1.543  160.631  106.465    0.384    0.086
  649.844    1.171  163.013  100.845    0.395    0.094
  650.094    0.943  166.524   97.582    0.392    0.096
  650.344    0.825  169.109   91.778    0.380    0.070
  650.594    0.829  169.853   86.216    0.354    0.060
  650.844    1.057  168.950   87.442    0.305    0.039
  651.094    1.802  168.461   88.787    0.286    0.003
  651.344    3.186  168.282   83.407    0.311    0.012
  651.594    4.123  167.684   79.966    0.343    0.044
  651.844    4.852  167.402   83.009    0.325    0.057
  652.094    5.366  166.908   85.568    0.337    0.068
  652.344    5.968  164.266   86.189    0.371    0.111
  652.594    6.271  161.104   85.475    0.354    0.102
  652.844    6.482  163.594   81.792    0.349    0.111
  653.094    6.195  165.356   76.956    0.323    0.092
  653.344    5.404  166.201   82.241    0.243    0.046
  653.594    4.740  166.435   90.800    0.264    0.034
  653.844    4.052  166.556   95.966    0.315    0.078
  654.094    3.706  166.889  100.524    0.347    0.102
  654.344    3.366  166.906  106.842    0.353    0.107
  654.594    3.181  166.932  111.523    0.362    0.102
  654.844    3.041  166.652  114.685    0.377    0.100
  655.094    2.992  166.871  117.305    0.393    0.097
  655.344    2.993  167.517  119.015    0.408    0.105
  655.594    3.032  167.946  121.454    0.392    0.106
  655.844    3.158  168.072  122.375    0.385    0.086
  656.094    3.270  167.886  119.119    0.406    0.106
  656.344    3.455  167.399  113.678    0.417    0.119
  656.594    3.800  167.217  107.687    0.407    0.094
  656.844    4.180  167.755   98.125    0.375    0.063
  657.094    4.507  167.568   93.654    0.342    0.074
  657.344    4.701  166.768   91.910    0.342    0.088
  657.594    4.677  162.998   94.347    0.356    0.068
  657.844    4.470  160.247   98.907    0.331    0.055
  658.094    4.044  158.422  102.980    0.325    0.065
  658.344    3.632  157.624  107.541    0.342    0.079
  658.594    3.298  157.752  108.887    0.373    0.102
  658.844    3.146  158.901  109.505    0.415    0.111
  659.094    3.113  163.336  107.398    0.460    0.083
  659.344    3.125  162.232  103.896    0.440    0.101
  659.594    3.189  160.403  103.370    0.400    0.087
  659.844    3.249  159.511  104.049    0.385    0.071
  660.094    3.310  159.733  104.238    0.378    0.096
  660.344    3.354  159.967  104.676    0.375    0.069
  660.594    3.343  160.596  105.419    0.376    0.052
  660.844    3.356  160.934  108.461    0.385    0.055
  661.094    3.431  161.258  111.020    0.406    0.098
  661.344    3.560  161.694  106.850    0.405    0.100
  661.594    3.721  162.131  110.320    0.376    0.109
  661.844    3.889  162.457  112.456    0.358    0.085
  662.094    4.057  162.169  112.226    0.366    0.076
  662.344    4.240  161.886  110.176    0.370    0.073
  662.594    4.447  161.909  105.826    0.374    0.076
  662.844    4.742  162.340  109.900    0.381    0.079
  663.094    4.947  163.188  105.189    0.377    0.080
  663.344    5.256  163.925  100.473    0.358    0.089
  663.594    5.646  164.767  101.820    0.340    0.066
  663.844    5.900  165.919  100.258    0.327    0.053
  664.094    6.235  165.635   97.119    0.324    0.070
  664.344    6.492  166.273   93.557    0.321    0.070
  664.594    6.663  166.397   90.904    0.313    0.080
  664.844    6.750  167.040   91.523    0.319    0.083
  665.094    6.839  167.377   92.687    0.331    0.076
  665.344    6.916  167.594   90.399    0.327    0.088
  665.594    6.944  167.924   92.775    0.315    0.070
  665.844    6.933  167.744   95.819    0.304    0.076
  666.094    6.699  167.559   97.225    0.301    0.086
  666.344    6.379  167.894   92.390    0.313    0.094
  666.594    6.242  168.020   94.101    0.322    0.105
  666.844    6.031  167.730   95.691    0.307    0.104
  667.094    5.838  167.754   93.401    0.303    0.096
  667.344    5.840  166.963   95.717    0.318    0.090
  667.594    5.928  166.674   97.913    0.341    0.108
  667.844    6.298  165.978   93.625    0.363    0.126
  668.094    6.915  164.871   87.758    0.389    0.143
  668.344    7.482  163.865   79.952    0.356    0.143
  668.594    7.993  162.760   71.905    0.340    0.137
  668.844    8.247  161.960   74.527    0.312    0.125
  669.094    7.925  161.987   77.570    0.292    0.098
  669.344    7.588  162.929   82.612    0.268    0.097
  669.594    7.858  165.724   87.171    0.283    0.121
  669.844    8.739  167.285   88.882    0.340    0.148
  670.094    9.735  167.614   77.683    0.353    0.114
  670.344   10.515  167.123   69.089    0.271    0.080
  670.594    9.867  164.789   64.072    0.204    0.035
  670.844    8.813  162.451   71.419    0.191    0.039
  671.094    6.941  160.522   82.222    0.206    0.076
  671.344    5.062  160.135   88.598    0.333    0.120
  671.594    4.776  162.212   94.066    0.376    0.114
  671.844    4.409  165.619   95.230    0.402    0.099
  672.094    4.213  167.078   91.850    0.409    0.122
  672.344    4.034  160.227   95.864    0.398    0.156
  672.594    3.991  160.656  102.968    0.385    0.172
  672.844    3.971  162.732  104.680    0.375    0.148
  673.094    4.016  167.477   97.299    0.426    0.133
  673.344    4.251  166.987   92.583    0.443    0.149
  673.594    4.484  163.728   88.779    0.412    0.169
  673.844    4.584  160.667   90.186    0.343    0.149
  674.094    4.247  155.354   89.775    0.326    0.133
  674.344    3.949  153.118   82.030    0.297    0.109
  674.594    3.795  150.782   73.985    0.343    0.134
  674.844    3.640  150.396   78.121    0.354    0.136
  675.094    3.595  155.342   82.375    0.342    0.161
  675.344    3.622  162.755   87.417    0.372    0.144
  675.594    3.710  157.133   93.430    0.352    0.132
  675.844    3.787  159.412   89.565    0.331    0.120
  676.094    3.830  165.078   77.882    0.330    0.109
  676.344    3.817  163.460   66.078    0.336    0.099
  676.594    3.543  161.942   60.031    0.354    0.121
  676.844    3.404  161.454   55.498    0.355    0.113
  677.094    3.295  158.601   48.602    0.327    0.092
  677.344    3.272  156.986   42.190    0.333    0.092
  677.594    3.274  156.491   36.386    0.375    0.115
  677.844    3.274  157.440   39.673    0.348    0.164
  678.094    3.317  157.664   41.685    0.320    0.163
  678.344    3.442  157.692   35.155    0.309    0.159
  678.594    3.507  156.890   28.742    0.323    0.136
  678.844    3.533  155.169   25.786    0.419    0.130
  679.094    3.541  153.761   30.529    0.440    0.126
  679.344    3.555  153.776   36.784    0.347    0.104
  679.594    3.562  154.110   41.826    0.317    0.025
  679.844    3.590  154.029   46.932    0.247    0.018
  680.094    3.624  154.563   42.459    0.241    0.136
  680.344    3.612  157.769   38.412    0.257    0.123
  680.594    3.560  160.052   38.607    0.293    0.108
  680.844    3.516  152.786   34.136    0.281    0.095
  681.094    3.460  152.192   35.970    0.256    0.201
  681.344    3.405  157.658   38.713    0.235    0.200
  681.594    3.314  161.677   40.844    0.217    0.159
  681.844    3.243  167.241   42.552    0.207    0.086
  682.094    3.173  160.388   44.144    0.239    0.093
  682.344    3.072  153.949   44.882    0.251    0.109
  682.594    3.006  153.353   44.959    0.255    0.134
  682.844    3.018  153.580   44.001    0.257    0.138
