~VERSION INFORMATION
 VERS.                 2.0:   CWLS LOG ASCII STANDARD -VERSION 2.0
 WRAP.                  NO:   ONE LINE PER DEPTH STEP
~WELL INFORMATION BLOCK
#MNEM.UNIT           DATA                    DESCRIPTION OF MNEMONIC
#---------    -------------------            -------------------------------
# Generated from Intellog Unique Number	CC_88_90/WELL/2303
WELL.         JOLI FOU MINK                  : Well_name    - WELL
LOC .         00/11-11-090-12W4/0            : Location     - LOCATION
UWI .         00/11-11-090-12W400            : Uwi          - UNIQUE WELL ID
ENTR.         DW                             : Entered      - ENTERED BY
SRVC.         SCHLUMBERGER                   : Scn          - SERVICE COMPANY
STRT.M        100                            : top_depth    - START DEPTH
STOP.M        274.75                         : bot_depth    - STOP DEPTH
STEP.M        0.25                           : increment    - STEP LENGTH
 NULL. -999.2500:NULL Value
~CURVE INFORMATION BLOCK
#MNEM UNIT       ERCB CURVE CODE    CURVE DESCRIPTION
#-----------   ------------------   ----------------------------------
DEPT.M        00 001 00 00         : DEPTH        - DEPTH
GR  .API      00 310 00 00         : GR           - GAMMA RAY
DPHI.V/V      00 890 00 00         : PHID         - DENSITY POROSITY (SANDSTONE)
NPHI.V/V      00 330 00 00         : PHIN         - NEUTRON POROSITY (SANDSTONE)
ILD .OHMM     00 120 00 00         : RESD         - DEEP RESISTIVITY (DIL)
~PARAMETER INFORMATION
#MNEM.UNIT           DATA             DESCRIPTION OF MNEMONIC
#---------         -----------     ------------------------------
GL  .M        528.5                : gl           - GROUND LEVEL ELEVATION
EREF.M        530                  : kb           - ELEVATION OF DEPTH REFERENCE
DATM.M        530                  : datum        - DATUM ELEVATION
TDD .M        275                  : tdd          - TOTAL DEPTH DRILLER
RUN .         ONE                  : Run          - RUN NUMBER
ENG .         BILL                 : Engineer     - RECORDING ENGINEER
WIT .         JIM                  : Witness      - WITNESSED BY
MUD .         GEL                  : Mud_type     - MUD TYPE
MATR.         SANDSTONE            : Logunit      - NEUTRON MATRIX
TMAX.C        24                   : BHT          - MAXIMUM RECORDED TEMPERATURE
BHTD.M        275                  : BHTDEP       - MAXIMUM RECORDED TEMPERATURE
MATR.         1                    : LOGUNIT      - NEUTRON MATRIX
RMT .C        25                   : MDTP         - TEMPERATURE OF MUD
NEUT.         1                    : NEUTRON      - NEUTRON TYPE
RESI.         0                    : RESIST       - RESISTIVITY TYPE
RMC .OHMM     0.25                 : RMC          - RESISTIVITY OF MUD CAKE
RMF .OHMM     0.25                 : RMF          - RESISTIVITY OF MUD FILTRATE
SUFT.C        4                    : SUFT         - SURFACE TEMPERATURE
~A  DEPTH       GR     PHID     PHIN     RESD
# ...
  143.500   96.862    0.266    0.605    5.245
  143.750   99.617    0.248    0.615    4.315
  144.000  100.499    0.220    0.592    3.907
  144.250  102.986    0.204    0.575    3.758
  144.500  106.739    0.207    0.584    3.227
  144.750  109.507    0.214    0.586    2.458
  145.000  110.814    0.221    0.565    2.098
  145.250  109.604    0.227    0.571    2.161
  145.500  111.172    0.223    0.594    2.573
  145.750  114.898    0.221    0.603    3.320
  146.000  119.257    0.217    0.596    4.319
  146.250  117.851    0.214    0.585    5.222
  146.500  107.599    0.225    0.579    5.679
  146.750  105.951    0.223    0.589    5.866
  147.000  107.621    0.218    0.587    5.967
  147.250  106.213    0.215    0.580    6.011
  147.500  105.238    0.208    0.578    5.942
  147.750  106.232    0.209    0.582    5.858
  148.000  104.996    0.224    0.589    5.856
  148.250  104.962    0.216    0.609    5.671
  148.500  104.368    0.204    0.627    5.489
  148.750  102.422    0.220    0.609    5.255
  149.000  100.716    0.242    0.601    5.039
  149.250   99.733    0.244    0.623    5.013
  149.500   95.683    0.242    0.620    5.090
  149.750   85.917    0.228    0.621    5.082
  150.000   85.043    0.212    0.577    5.100
  150.250   95.113    0.228    0.537    4.949
  150.500  102.610    0.257    0.564    4.706
  150.750  100.173    0.261    0.627    4.584
  151.000   94.911    0.253    0.655    4.509
  151.250   89.860    0.259    0.657    4.484
  151.500   83.567    0.231    0.627    4.723
  151.750   76.663    0.221    0.576    5.396
  152.000   71.904    0.242    0.539    6.080
  152.250   70.930    0.243    0.515    7.115
  152.500   72.644    0.233    0.488    9.358
  152.750   74.765    0.269    0.487   11.316
  153.000   76.030    0.277    0.495   11.532
  153.250   79.162    0.266    0.498   10.905
  153.500   83.046    0.257    0.516   10.563
  153.750   82.174    0.240    0.553   10.359
  154.000   75.606    0.215    0.566    9.842
  154.250   71.079    0.217    0.534    9.510
  154.500   70.471    0.254    0.544    9.300
  154.750   73.281    0.292    0.541    9.316
  155.000   79.688    0.292    0.516    9.524
  155.250   85.108    0.272    0.519    9.871
  155.500   83.417    0.266    0.544   10.335
  155.750   79.841    0.236    0.544   10.505
  156.000   76.484    0.223    0.525   10.613
  156.250   76.921    0.232    0.509   10.901
  156.500   82.060    0.235    0.506   11.192
  156.750   86.867    0.232    0.509   11.312
  157.000   87.541    0.241    0.509   11.279
  157.250   88.766    0.249    0.511   10.912
  157.500   87.099    0.258    0.510   10.565
  157.750   86.285    0.257    0.507    9.328
  158.000   90.130    0.249    0.523    7.773
  158.250   94.678    0.245    0.546    7.014
  158.500   92.940    0.240    0.538    6.715
  158.750   85.656    0.237    0.520    6.674
  159.000   81.230    0.233    0.508    6.980
  159.250   80.189    0.233    0.495    7.676
  159.500   81.216    0.238    0.508    8.212
  159.750   80.404    0.251    0.551    8.186
  160.000   78.031    0.265    0.569    7.904
  160.250   87.868    0.256    0.552    7.541
  160.500   91.133    0.234    0.535    7.080
  160.750   86.383    0.232    0.554    6.711
  161.000   79.215    0.156    0.576    6.987
  161.250   70.644    0.064    0.587    7.889
  161.500   62.593    0.154    0.585    8.621
  161.750   60.102    0.218    0.477    8.925
  162.000   66.344    0.251    0.481    8.885
  162.250   74.273    0.268    0.513    8.460
  162.500   81.361    0.258    0.505    7.906
  162.750   86.054    0.244    0.507    7.397
  163.000   85.109    0.259    0.519    6.950
  163.250   83.301    0.256    0.537    7.192
  163.500   68.108    0.191    0.546    8.203
  163.750   60.260    0.175    0.513    9.388
  164.000   63.665    0.231    0.489   10.616
  164.250   67.673    0.273    0.506   11.656
  164.500   73.296    0.262    0.509   11.944
  164.750   74.355    0.236    0.508   11.815
  165.000   76.720    0.247    0.525   10.759
  165.250   82.709    0.268    0.552    8.017
  165.500   90.337    0.282    0.576    5.814
  165.750   94.044    0.291    0.598    5.049
  166.000   91.564    0.283    0.619    3.670
  166.250   92.750    0.274    0.632    3.122
  166.500   95.483    0.265    0.632    2.989
  166.750   94.671    0.253    0.611    3.005
  167.000   90.012    0.227    0.565    3.596
  167.250   88.091    0.211    0.519    4.696
  167.500   92.613    0.227    0.512    5.727
  167.750   93.980    0.225    0.525    6.863
  168.000   92.682    0.217    0.543    7.474
  168.250   90.965    0.211    0.551    7.751
  168.500   89.566    0.193    0.544    8.301
  168.750   87.761    0.155    0.510    9.118
  169.000   85.134    0.136    0.463    9.844
  169.250   83.504    0.179    0.469   10.924
  169.500   82.324    0.217    0.491   12.562
  169.750   81.980    0.232    0.488   13.207
  170.000   84.949    0.240    0.471   12.901
  170.250   90.179    0.246    0.460   12.360
  170.500   92.943    0.247    0.459   11.168
  170.750   92.885    0.240    0.482    9.827
  171.000   88.108    0.232    0.514    8.796
  171.250   82.219    0.221    0.501    8.368
  171.500   79.286    0.231    0.480    8.829
  171.750   78.536    0.255    0.487    9.938
  172.000   76.255    0.262    0.479   10.864
  172.250   71.318    0.282    0.474   11.363
  172.500   65.238    0.289    0.476   12.140
  172.750   61.640    0.278    0.471   12.437
  173.000   60.343    0.179    0.455   12.979
  173.250   57.463    0.048    0.455   14.317
  173.500   52.194    0.042    0.447   14.888
  173.750   50.099    0.070    0.329   14.434
  174.000   52.867    0.201    0.351   13.946
  174.250   56.748    0.284    0.433   13.388
  174.500   60.279    0.284    0.479   12.740
  174.750   62.672    0.242    0.477   12.481
  175.000   63.059    0.153    0.414   12.695
  175.250   66.364    0.172    0.405   12.719
  175.500   70.983    0.234    0.436   12.398
  175.750   72.731    0.267    0.471   11.812
  176.000   73.187    0.266    0.498   11.367
  176.250   75.934    0.253    0.505   10.916
  176.500   80.679    0.242    0.488   10.042
  176.750   85.964    0.237    0.476    9.676
  177.000   88.424    0.251    0.474    9.635
  177.250   85.521    0.271    0.480    9.666
  177.500   76.246    0.274    0.485   10.016
  177.750   69.283    0.263    0.481   10.690
  178.000   73.173    0.257    0.481   11.378
  178.250   74.087    0.261    0.496   12.338
  178.500   72.256    0.274    0.497   12.743
  178.750   72.589    0.276    0.500   12.542
  179.000   75.596    0.264    0.510   11.951
  179.250   73.455    0.261    0.505   11.865
  179.500   62.048    0.225    0.494   13.385
  179.750   55.704    0.040    0.491   16.020
  180.000   54.947    0.009    0.320   20.344
  180.250   55.545    0.076    0.252   22.961
  180.500   59.156    0.152    0.313   22.867
  180.750   66.299    0.224    0.360   20.718
  181.000   72.258    0.241    0.438   16.087
  181.250   77.812    0.249    0.475   11.335
  181.500   83.674    0.242    0.502    8.625
  181.750   87.871    0.227    0.503    7.674
  182.000   90.131    0.218    0.499    7.435
  182.250   90.286    0.216    0.515    7.323
  182.500   87.474    0.210    0.515    7.334
  182.750   85.151    0.200    0.496    7.898
  183.000   85.657    0.207    0.489    8.576
  183.250   89.060    0.235    0.505    8.509
  183.500   90.082    0.253    0.525    7.995
  183.750   88.580    0.243    0.530    7.424
  184.000   90.370    0.229    0.532    6.625
  184.250   90.616    0.227    0.540    6.455
  184.500   88.160    0.188    0.563    6.727
  184.750   81.681    0.180    0.565    7.026
  185.000   77.189    0.214    0.532    7.475
  185.250   78.297    0.233    0.506    8.290
  185.500   79.799    0.234    0.509    9.067
  185.750   81.799    0.236    0.511    9.222
  186.000   84.008    0.229    0.508    9.334
  186.250   87.664    0.223    0.499    9.453
  186.500   89.745    0.225    0.483    9.684
  186.750   86.723    0.240    0.469    9.923
