~VERSION INFORMATION
 VERS.                 2.0:   CWLS LOG ASCII STANDARD -VERSION 2.0
 WRAP.                  NO:   ONE LINE PER DEPTH STEP
~WELL INFORMATION BLOCK
#MNEM.UNIT           DATA                    DESCRIPTION OF MNEMONIC
#---------    -------------------            -------------------------------
# Generated from Intellog Unique Number	CW_82_90/WELL/3441
WELL.         CDN SUP CHIP                   : Well_name    - WELL
LOC .         00/10-23-090-24W4/0            : Location     - LOCATION
UWI .         00/10-23-090-24W4/0            : Uwi          - UNIQUE WELL ID
ENTR.         MAX                            : Entered      - ENTERED BY
SRVC.         SCHLUMBERGER                   : Scn          - SERVICE COMPANY
STRT.M        165                            : top_depth    - START DEPTH
STOP.M        256                            : bot_depth    - STOP DEPTH
STEP.M        0.25                           : increment    - STEP LENGTH
 NULL. -999.2500:NULL Value
~CURVE INFORMATION BLOCK
#MNEM UNIT       ERCB CURVE CODE    CURVE DESCRIPTION
#-----------   ------------------   ----------------------------------
DEPT.M        00 001 00 00         : DEPTH        - DEPTH
CALI.MM       00 280 01 00         : CAL          - CALIPER
GR  .API      00 310 00 00         : GR           - GAMMA RAY
ILD .OHMM     00 120 00 00         : RESD         - DEEP RESISTIVITY (DIL)
NPHI.V/V      00 330 00 00         : PHIN         - NEUTRON POROSITY (SANDSTONE)
DPHI.V/V      00 890 00 00         : PHID         - DENSITY POROSITY (SANDSTONE)
~PARAMETER INFORMATION
#MNEM.UNIT           DATA             DESCRIPTION OF MNEMONIC
#---------         -----------     ------------------------------
GL  .M        505.6                : gl           - GROUND LEVEL ELEVATION
EREF.M        509                  : kb           - ELEVATION OF DEPTH REFERENCE
DATM.M        509                  : datum        - DATUM ELEVATION
TDD .M        255.6                : tdd          - TOTAL DEPTH DRILLER
RUN .         ONE                  : Run          - RUN NUMBER
ENG .         BILL                 : Engineer     - RECORDING ENGINEER
WIT .         JIM                  : Witness      - WITNESSED BY
MUD .         GEL                  : Mud_type     - MUD TYPE
MATR.         SANDSTONE            : Logunit      - NEUTRON MATRIX
TMAX.C        18                   : BHT          - MAXIMUM RECORDED TEMPERATURE
BHTD.M        255.6                : BHTDEP       - MAXIMUM RECORDED TEMPERATURE
MATR.         1                    : LOGUNIT      - NEUTRON MATRIX
RMT .C        4                    : MDTP         - TEMPERATURE OF MUD
NEUT.         1                    : NEUTRON      - NEUTRON TYPE
RESI.         0                    : RESIST       - RESISTIVITY TYPE
RMC .OHMM     5                    : RMC          - RESISTIVITY OF MUD CAKE
RMF .OHMM     5                    : RMF          - RESISTIVITY OF MUD FILTRATE
SUFT.C        -15                  : SUFT         - SURFACE TEMPERATURE
~A  DEPTH      CAL       GR     RESD     PHIN     PHID
# ...
  238.000  232.650   91.937    9.646    0.487    0.174
  238.250  233.590   94.244    9.386    0.442    0.143
  238.500  234.038   95.394    9.216    0.434    0.137
  238.750  234.494   93.920    9.212    0.449    0.172
  239.000  234.468   92.154    9.208    0.473    0.186
  239.250  234.923   93.882    9.205    0.475    0.188
  239.500  235.375   96.194    9.201    0.463    0.173
  239.750  234.857   97.338    9.197    0.449    0.156
  240.000  234.346   96.741    9.276    0.454    0.168
  240.250  233.343   96.723    9.273    0.470    0.187
  240.500  232.829   97.869    9.607    0.467    0.184
  240.750  232.803   99.013    9.777    0.451    0.181
  241.000  232.777   94.924   10.313    0.444    0.173
  241.250  232.744   94.031   11.075    0.437    0.174
  241.500  232.714   94.887   11.894    0.459    0.167
  241.750  232.689   93.121   13.004    0.470    0.151
  242.000  232.652   92.524   13.595    0.445    0.069
  242.250  233.107   91.920   13.835    0.387    0.077
  242.500  233.077   91.031   14.079    0.363    0.107
  242.750  232.563   89.561   14.328    0.407    0.149
  243.000  232.049  101.180   14.581    0.443    0.192
  243.250  232.019  107.563   14.577    0.432    0.171
  243.500  231.993  106.091   14.441    0.418    0.166
  243.750  232.445  104.909   14.051    0.457    0.211
  244.000  234.355  104.310   12.169    0.498    0.207
  244.250  236.261  105.454    8.809    0.512    0.197
  244.500  236.724  107.181    7.426    0.505    0.195
  244.750  235.721  112.402    7.357    0.494    0.203
  245.000  234.233  115.292    7.831    0.480    0.188
  245.250  232.753  111.785    8.410    0.435    0.167
  245.500  232.235  105.947    9.112    0.426    0.183
  245.750  233.178  101.563    9.442    0.456    0.199
  246.000  235.570   99.800    9.870    0.460    0.204
  246.250  235.544   98.328   10.226    0.467    0.204
  246.500  235.026  100.055   10.314    0.457    0.192
  246.750  234.515  102.656   10.310    0.456    0.179
  247.000  233.997  104.677   10.306    0.460    0.124
  247.250  234.456  103.786   10.028    0.427   -0.001
  247.500  234.419   99.694    9.846    0.349    0.015
  247.750  234.389   89.784    9.754    0.386    0.154
  248.000  233.879   76.966    9.751    0.415    0.184
  248.250  233.842   68.219    9.659    0.443    0.205
  248.500  233.816   68.783    9.400    0.450    0.203
  248.750  233.786   74.584    9.064    0.448    0.205
  249.000  234.238   76.893    8.742    0.441    0.207
  249.250  234.697   78.039    8.133    0.438    0.207
  249.500  234.668   82.676    7.844    0.457    0.209
  249.750  234.150   82.074    7.633    0.468    0.209
  250.000  233.639   78.568    7.630    0.478    0.202
  250.250  233.121   76.223    8.193    0.482    0.204
  250.500  231.155   74.751    8.721    0.487    0.200
  250.750  231.611   72.694    9.116    0.487    0.210
  251.000  232.062   72.094    9.196    0.490    0.203
  251.250  231.548   72.947    9.027    0.493    0.192
  251.500  230.549   73.511    8.944    0.500    0.198
  251.750  229.553   74.657    8.861    0.511    0.215
  252.000  229.524   74.931    8.857    0.532    0.243
  252.250  229.975   72.876    8.854    0.552    0.301
  252.500  230.431   69.659    8.930    0.551    0.293
  252.750  230.401   67.607    9.007    0.535    0.303
  253.000  227.947   70.498    8.843    0.523    0.325
  253.250  228.887   82.990    8.840    0.530    0.346
  253.500  229.343   92.573    8.757    0.433    0.318
  253.750  229.313  101.280    8.832    0.390    0.280
  254.000  228.799  105.338    8.988    0.381    0.262
  254.250  228.769  107.938    9.065    0.357    0.246
  254.500  229.221  109.955    8.981    0.324    0.232
  254.750  230.646  110.521    7.305    0.311    0.229
  255.000  232.556  107.594    5.995    0.334    0.280
  255.250  232.042  102.631    6.156    0.372    0.306
  255.500  231.527   97.665    5.884    0.403    0.281
  255.750  230.528   92.411    5.881    0.469    0.252
  256.000  230.980   82.211    6.430    0.508    0.203
