~Version Information
VERS.                2.00:
WRAP.                  NO:
~Well Information Block
#MNEM.UNIT       Data Type    Information
#---------    -------------   -------------------
FLD.   :FIELD
FLD.   :FIELD
FLD.   :FIELD
FLD.   :FIELD
STRT.M          1950.0000:
STOP.M          4060.0000:
STEP.M             0.8202:
NULL.           -999.2500:
COMP.  MUTUAL EXPLORATION FUNDS:COMPANY
WELL.  MUTES IOE SEAFORTH:WELL
FLD.   :FIELD
LOC.   15-20-095-20W4:LOCATION
CTRY.  CANADA:COUNTRY
PROV.  ALBERTA:PROVINCE
SRVC.  SCHLUMBERGER:SERVICE COMPANY
DATE.  01 MAR 69:LOG DATE
UWI.   00/15-20-095-20W4/0:UNIQUE WELL ID
~Curve Information Block
#MNEM.UNIT        API CODE    Curve Description
#---------    ------------    -----
DEPT.M                    :   DEPTH
CALI.in                   :   CALI
GR  .API                  :   GR
SNP .V/V                  :   SNP
~A  Depth           CALI          GR         SNP
# ...
2084.5128         9.6009     62.0532      0.2469
2085.3330         9.5999     65.0697      0.2567
2086.1532         9.6388     64.4254      0.2666
2086.9734        10.2699     62.9816      0.2730
2087.7936        10.7992     61.4327      0.2794
2088.6138        10.7280     58.5645      0.2844
2089.4340        10.3953     57.0718      0.2894
2090.2542        10.2742     56.5044      0.2944
2091.0744        10.5387     57.4303      0.2942
2091.8946        10.6928     55.9690      0.2973
2092.7148        10.5250     55.0661      0.2981
2093.5350        10.3260     53.6252      0.2988
2094.3552        10.0536     52.8840      0.2995
2095.1754         9.8554     55.6105      0.2997
2095.9956         9.7718     57.8461      0.2999
2096.8158         9.8091     59.6308      0.3000
2097.6360         9.8142     61.7147      0.3105
2098.4562         9.8178     63.4598      0.3457
2099.2764         9.8607     62.1797      0.4042
2100.0966         9.8651     65.1280      0.4379
2100.9168         9.7899     66.9098      0.4040
2101.7370         9.7598     68.2870      0.3791
2102.5572         9.7242     66.3195      0.3732
2103.3774         9.6874     62.1829      0.3658
2104.1976         9.6503     43.8052      0.2794
2105.0178         9.6033     32.9828      0.2172
2105.8380         9.5739     25.5761      0.1308
2106.6582         9.5701     18.8525      0.1093
2107.4784         9.5321     13.7252      0.0913
2108.2986         9.5345     16.1717      0.0619
2109.1188         9.4982     16.8498      0.0579
2109.9390         9.5009     18.0636      0.0603
2110.7592         9.5043     22.5137      0.0568
2111.5794         9.5078     30.3276      0.0572
2112.3996         9.5113     39.2449      0.0557
2113.2198         9.5148     47.9818      0.0540
2114.0400         9.5513     55.4024      0.0618
2114.8602         9.5943     60.8717      0.0749
2115.6804         9.6050     61.8977      0.1768
2116.5006         9.6098     62.3556      0.2204
2117.3208         9.6135     62.3954      0.2327
2118.1410         9.6171     61.6268      0.2291
2118.9612         9.6206     55.3289      0.2211
2119.7814         9.5902     47.1111      0.2110
2120.6016         9.5880     43.4774      0.1993
2121.4218         9.5907     40.6372      0.1865
2122.2420         9.5940     39.8514      0.1618
2123.0622         9.5974     39.0774      0.1338
2123.8824         9.6009     37.9114      0.1240
2124.7026         9.6044     37.1275      0.1162
2125.5228         9.6079     37.1374      0.1110
2126.3430         9.6114     37.9756      0.1090
2127.1632         9.5798     38.4256      0.1069
2127.9834         9.6138     38.7887      0.1047
2128.8036         9.6213     39.8880      0.1043
2129.6238         9.6253     40.3620      0.1055
2130.4440         9.6288     41.2459      0.1090
2131.2642         9.6685     42.4599      0.1223
2132.0844         9.6753     43.7294      0.1274
2132.9046         9.6799     43.9301      0.1273
2133.7248         9.6835     43.9828      0.1257
2134.5450         9.6570     44.3823      0.1279
2135.3652         9.6526     44.4606      0.1287
2136.1854         9.6536     43.7838      0.1271
2137.0056         9.6267     42.6698      0.1270
2137.8258         9.6206     41.1596      0.1316
2138.6460         9.5861     39.2631      0.1293
2139.4662         9.5863     36.9862      0.1279
2140.2864         9.5522     34.3345      0.1256
2141.1066         9.5526     30.1928      0.1231
2141.9268         9.5184     27.4294      0.1178
2142.7470         9.5189     25.7982      0.1053
2143.5672         9.5222     26.8753      0.0907
2144.3874         9.5257     29.3609      0.0775
2145.2076         9.5291     31.7519      0.0637
2146.0278         9.5326     33.5625      0.0646
2146.8480         9.5361     35.3062      0.0682
2147.6682         9.5396     36.6562      0.0747
2148.4884         9.5431     36.5164      0.0796
2149.3086         9.5466     36.5277      0.0850
2150.1288         9.5501     35.9812      0.0918
2150.9490         9.5536     35.4610      0.0934
2151.7692         9.5571     35.7753      0.0934
2152.5894         9.5606     35.8459      0.0927
2153.4096         9.5641     35.1757      0.0972
2154.2298         9.5676     34.7662      0.1027
2155.0500         9.5711     35.1019      0.1020
2155.8702         9.6018     35.8987      0.0987
2156.6904         9.6143     36.0161      0.0940
2157.5106         9.6204     35.6953      0.0924
2158.3308         9.6254     35.6931      0.0980
2159.1510         9.6625     35.3585      0.0996
2159.9712         9.6710     34.6282      0.1012
2160.7914         9.6764     33.5015      0.1102
2161.6116         9.6803     32.3344      0.1079
2162.4318         9.6838     30.8151      0.1005
2163.2520         9.6873     29.2547      0.0943
2164.0722         9.7192     27.0206      0.0891
2164.8924         9.7300     25.6787      0.0840
2165.7126         9.7365     26.1637      0.0790
2166.5328         9.7411     28.0282      0.0754
2167.3530         9.7453     31.2470      0.0721
2168.1732         9.7489     35.0645      0.0875
2168.9934         9.7524     38.5243      0.1075
2169.8136         9.7559     41.6207      0.1272
2170.6338         9.7594     44.2805      0.1404
2171.4540         9.7988     47.2272      0.1534
2172.2742         9.8065     50.2205      0.1657
2173.0944         9.8105     53.2199      0.1918
2173.9146         9.8140     57.4820      0.2226
2174.7348         9.8542     60.2216      0.2357
2175.5550         9.8613     61.0609      0.2307
2176.3752         9.8651     61.5713      0.2250
2177.1954         9.8686     61.3375      0.2184
2178.0156         9.9097     54.8983      0.2311
2178.8358         9.9161     47.5270      0.2448
2179.6560         9.8821     38.3534      0.2631
2180.4762         9.8078     31.2746      0.2601
2181.2964         9.6938     27.2837      0.2065
2182.1166         9.5769     27.7281      0.1410
2182.9368         9.4958     34.0936      0.1185
2183.7570         9.5530     40.7023      0.1055
2184.5772         9.6490     46.9507      0.0851
2185.3974         9.6973     52.2738      0.1080
2186.2176         9.7656     57.5294      0.1311
2187.0378         9.7842     62.7849      0.1575
2187.8580         9.8227     58.7569      0.1779
2188.6782         9.8359     57.1822      0.1810
2189.4984         9.8397     53.3408      0.1779
2190.3186         9.8832     53.6588      0.1775
2191.1388         9.8874     56.1842      0.1730
2191.9590         9.8909     56.9283      0.1650
2192.7792         9.8944     57.0594      0.1643
2193.5994         9.8979     55.7125      0.1810
2194.4196         9.9014     55.2020      0.1918
2195.2398         9.9049     56.0462      0.1902
2196.0600         9.9084     57.0825      0.1864
2196.8802         9.9119     58.4146      0.1872
2197.7004         9.8822     57.8929      0.1851
2198.5206         9.8796     58.1119      0.1883
2199.3408         9.8819     57.7969      0.1857
2200.1610         9.8852     55.2952      0.1890
2200.9812         9.8887     51.5983      0.1879
2201.8014         9.8922     47.7687      0.1756
2202.6216         9.8957     42.2382      0.1582
2203.4418         9.8992     37.9759      0.1444
2204.2620         9.9027     39.5915      0.1240
2205.0822         9.9407     40.8888      0.1077
2205.9024         9.9494     40.1837      0.1169
2206.7226         9.9537     39.4125      0.1240
2207.5428         9.9572     41.4151      0.1273
2208.3630         9.9608     44.1437      0.1326
2209.1832         9.9643     45.0010      0.1388
2210.0034         9.9678     45.5180      0.1478
2210.8236         9.9713     46.3209      0.1596
2211.6438         9.9747     47.8818      0.1574
2212.4640         9.9782     50.6790      0.1347
2213.2842         9.9458     51.7451      0.1327
2214.1044         9.9451     49.3600      0.1430
2214.9246         9.9187     48.3987      0.1516
2215.7448         9.8845     49.7724      0.1608
2216.5650         9.8753     50.3124      0.1592
2217.3852         9.8412     47.8807      0.1470
2218.2054         9.8406     46.9136      0.1443
