~VERSION INFORMATION
 VERS.                 2.0:   CWLS LOG ASCII STANDARD -VERSION 2.0
 WRAP.                  NO:   ONE LINE PER DEPTH STEP
~WELL INFORMATION BLOCK
#MNEM.UNIT           DATA                    DESCRIPTION OF MNEMONIC
#---------    -------------------            -------------------------------
# Generated from Intellog Unique Number	CW_70_72/WELL/1065
NULL.         -999.25                        : NULL_VALUE
WELL.         GAO ET AL CALL 11-36           : Well_name    - WELL              
LOC .         11-36-072-19W4                 : Location     - LOCATION          
UWI .         00/11-36-072-19W4/0            : Uwi          - UNIQUE WELL ID    
ENTR.         JAYE                           : Entered      - ENTERED BY        
SRVC.         SCHLUMBERGER                   : Scn          - SERVICE COMPANY   
DATE.         16 FEB 76                      : Date         - LOG DATE          
STRT.M        344.424                        : top_depth    - START DEPTH       
STOP.M        554.674                        : bot_depth    - STOP DEPTH        
STEP.M        0.25                           : increment    - STEP LENGTH       
~CURVE INFORMATION BLOCK
#MNEM UNIT       ERCB CURVE CODE    CURVE DESCRIPTION
#-----------   ------------------   ----------------------------------
DEPT.M        00 001 00 00         : DEPTH        - DEPTH                       
DPHI.V/V      00 890 00 00         : PHID         - DENSITY POROSITY (SANDSTONE)
NPHI.V/V      00 330 00 00         : PHIN         - NEUTRON POROSITY (SANDSTONE)
GR  .API      00 310 00 00         : GR           - GAMMA RAY                   
CALI.MM       00 280 01 00         : CAL          - CALIPER                     
ILD .OHMM     00 120 00 00         : RESD         - DEEP RESISTIVITY (DLL)      
~PARAMETER INFORMATION       
#MNEM.UNIT           DATA             DESCRIPTION OF MNEMONIC
#---------         -----------     ------------------------------
GL  .M        644.256              : gl           - GROUND LEVEL ELEVATION      
EREF.M        647.395              : kb           - ELEVATION OF DEPTH REFERENCE
DATM.M        644.256              : datum        - DATUM ELEVATION             
TDD .M        571.195              : tdd          - TOTAL DEPTH DRILLER         
RUN .         ONE                  : Run          - RUN NUMBER                  
BASE.         EDM                  : Branch       - HOME BASE OF LOGGING UNIT   
MATR.         SANDSTONE            : Logunit      - NEUTRON MATRIX              
TMAX.C        28.3333              : BHT          - MAXIMUM RECORDED TEMPERATURE
BHTD.M        569.366              : BHTDEP       - MAXIMUM RECORDED TEMPERATURE
RMT .C        16.1111              : MDTP         - TEMPERATURE OF MUD          
MUDD.KG/M     0                    : MWT          - MUD DENSITY                 
NEUT.         1                    : NEUTRON      - NEUTRON TYPE                
RESI.         1                    : RESIST       - RESISTIVITY TYPE            
RM  .OHMM     3.57                 : RM           - RESISTIVITY OF MUD          
RMC .OHMM     0                    : RMC          - RESISTIVITY OF MUD CAKE     
RMF .OHMM     2.89                 : RMF          - RESISTIVITY OF MUD FILTRATE 
SUFT.C        -17.7778             : SUFT         - SURFACE TEMPERATURE         
~A  DEPTH     PHID     PHIN       GR      CAL     RESD
# ...
  417.424    0.326    0.465   64.894  159.530    5.432
  417.674    0.321    0.446   65.869  159.733    5.427
  417.924    0.322    0.445   67.332  159.936    5.442
  418.174    0.320    0.448   67.697  160.138    5.480
  418.424    0.317    0.460   68.610  160.340    5.526
  418.674    0.317    0.464   69.097  160.337    5.541
  418.924    0.314    0.450   68.606  160.436    5.577
  419.174    0.308    0.442   65.733  160.638    5.583
  419.424    0.304    0.450   64.509  160.945    5.588
  419.674    0.312    0.458   66.155  161.458    5.615
  419.924    0.323    0.466   67.741  161.764    5.631
  420.174    0.329    0.471   66.456  161.863    5.880
  420.424    0.320    0.457   66.942  161.859    6.452
  420.674    0.306    0.441   69.627  161.855    7.015
  420.924    0.292    0.433   74.511  161.851    7.448
  421.174    0.279    0.449   77.990  161.848    7.455
  421.424    0.245    0.457   76.033  161.740    7.367
  421.674    0.212    0.434   70.106  161.840    6.942
  421.924    0.149    0.334   73.585  162.042    6.457
  422.174    0.214    0.333   77.003  162.142    5.832
  422.424    0.264    0.380   76.939  161.620    5.577
  422.674    0.290    0.460   72.906  160.686    5.492
  422.924    0.304    0.465   73.637  159.957    5.487
  423.174    0.298    0.451   76.138  159.954    5.534
  423.424    0.271    0.447   78.823  160.260    5.612
  423.674    0.249    0.443   83.462  161.911    5.679
  423.924    0.235    0.438   89.079  163.665    5.822
  424.174    0.227    0.454   92.558  165.005    5.969
  424.424    0.243    0.457   91.028  166.242    5.953
  424.674    0.254    0.447   85.957  162.205    5.829
  424.924    0.236    0.443   90.046  161.580    5.677
  425.174    0.228    0.471   89.799  163.024    5.488
  425.424    0.214    0.468   90.408  164.674    5.315
  425.674    0.211    0.452   91.505  165.911    5.167
  425.924    0.216    0.449   91.808  166.321    5.098
  426.174    0.213    0.454   92.355  166.317    5.131
  426.424    0.208    0.464   93.208  166.209    5.270
  426.674    0.209    0.472   94.610  166.205    5.275
  426.924    0.205    0.461   95.402  166.305    5.100
  427.174    0.194    0.446   94.117  166.611    4.744
  427.424    0.190    0.429   93.870  166.710    4.301
  427.674    0.198    0.438   95.578  166.707    3.849
  427.924    0.201    0.450   93.377  166.703    3.660
  428.174    0.208    0.438   94.474  166.905    3.671
  428.424    0.205    0.458   89.952  166.901    3.890
  428.674    0.218    0.482   84.880  167.311    4.077
  428.924    0.239    0.513   78.832  169.686    4.257
  429.174    0.280    0.531   72.416  166.372    4.437
  429.424    0.315    0.500   64.474  159.129    4.574
  429.674    0.344    0.437   61.418  159.435    4.724
  429.924    0.338    0.468   61.965  159.741    4.852
  430.174    0.328    0.461   62.452  159.219    4.920
  430.424    0.325    0.438   60.739  158.802    4.943
  430.674    0.328    0.436   57.561  158.074    4.940
  430.924    0.324    0.434   57.131  157.345    4.945
  431.174    0.314    0.427   55.418  157.238    4.914
  431.424    0.329    0.426   55.233  157.235    4.919
  431.674    0.341    0.441   56.391  156.817    4.906
  431.924    0.343    0.434   57.488  156.192    4.920
  432.174    0.342    0.419   58.035  155.568    4.926
  432.424    0.332    0.414   58.704  155.355    4.912
  432.674    0.329    0.416   59.496  155.559    4.919
  432.924    0.332    0.412   59.738  156.278    4.924
  433.174    0.337    0.423   60.285  156.896    4.903
  433.424    0.343    0.431   62.176  157.615    4.870
  433.674    0.340    0.423   59.181  157.817    4.849
  433.924    0.328    0.432   59.606  157.814    4.845
  434.174    0.330    0.453   61.314  158.017    4.824
  434.424    0.332    0.458   63.876  158.220    4.820
  434.674    0.344    0.412   64.546  158.318    4.824
  434.924    0.354    0.410   64.483  158.315    4.856
  435.174    0.351    0.421   64.908  158.208    4.888
  435.424    0.341    0.427   69.120  158.204    4.903
  435.674    0.331    0.436   70.338  157.889    4.907
  435.924    0.322    0.443   65.878  157.782    4.894
  436.174    0.320    0.440   60.806  157.881    4.900
  436.424    0.324    0.429   62.575  157.877    4.905
  436.674    0.329    0.423   65.260  157.976    4.892
  436.924    0.335    0.430   65.868  157.972    4.861
  437.174    0.342    0.436   67.332  157.762    4.814
  437.424    0.342    0.431   66.902  157.861    4.792
  437.674    0.334    0.447   66.899  157.959    4.779
  437.924    0.321    0.434   70.317  158.060    4.740
  438.174    0.313    0.446   69.154  158.263    4.720
  438.424    0.315    0.447   65.854  158.361    4.707
  438.674    0.336    0.447   63.103  158.770    4.720
  438.924    0.337    0.448   61.329  158.974    4.760
  439.174    0.331    0.435   60.655  159.280    4.809
  439.424    0.319    0.433   61.141  159.276    4.806
  439.674    0.309    0.445   62.666  159.375    4.784
  439.924    0.295    0.453   65.351  159.268    4.772
  440.174    0.328    0.443   66.692  159.368    4.759
  440.424    0.330    0.446   68.705  159.364    4.764
  440.674    0.327    0.449   72.978  157.911    4.984
  440.924    0.325    0.442   72.548  157.184    5.300
  441.174    0.318    0.435   71.385  157.179    5.881
  441.424    0.327    0.432   70.161  157.486    6.608
  441.674    0.321    0.439   67.533  157.482    7.385
  441.924    0.290    0.429   63.133  157.478    7.655
  442.174    0.261    0.410   59.588  157.577    7.456
  442.424    0.215    0.363   60.074  158.090    7.011
  442.674    0.287    0.335   66.362  158.603    6.060
  442.924    0.323    0.383   68.620  159.944    5.335
  443.174    0.342    0.451   70.450  159.526    4.740
  443.424    0.340    0.463   71.852  160.763    4.508
  443.674    0.331    0.470   72.155  161.483    4.664
  443.924    0.340    0.469   74.596  162.410    5.146
  444.174    0.339    0.464   71.540  163.129    5.677
  444.424    0.306    0.458   65.979  163.643    6.380
  444.674    0.237    0.437   61.396  163.845    7.451
  444.924    0.192    0.394   58.340  162.600    7.910
  445.174    0.214    0.327   56.994  160.011    7.977
  445.424    0.278    0.372   58.336  158.765    6.325
  445.674    0.320    0.405   61.143  157.831    5.578
  445.924    0.313    0.433   64.072  156.689    4.893
  446.174    0.327    0.439   60.955  155.960    4.445
  446.424    0.337    0.409   61.929  156.371    4.376
  446.674    0.337    0.429   62.477  157.194    4.341
  446.924    0.329    0.432   61.497  157.810    4.369
  447.174    0.326    0.427   63.754  158.426    4.373
  447.424    0.327    0.426   64.546  158.630    4.525
  447.674    0.326    0.427   63.261  158.626    4.623
  447.924    0.325    0.427   62.709  158.518    4.765
  448.174    0.332    0.421   62.218  158.514    4.957
  448.424    0.333    0.408   63.315  158.716    5.130
  448.674    0.325    0.411   61.786  158.816    5.211
  448.924    0.318    0.415   59.585  158.915    5.226
  449.174    0.318    0.424   59.582  159.014    5.174
  449.424    0.313    0.422   61.046  158.804    5.067
  449.674    0.315    0.408   62.448  158.696    4.952
  449.924    0.313    0.405   60.186  158.692    4.762
  450.174    0.300    0.418   59.573  158.585    4.612
  450.424    0.337    0.424   58.532  158.477    4.491
  450.674    0.341    0.431   57.369  158.266    4.471
  450.924    0.320    0.435   56.328  157.539    4.782
  451.174    0.307    0.433   57.853  156.604    5.285
  451.424    0.291    0.423   56.079  156.807    6.038
  451.674    0.217    0.411   52.412  157.630    7.603
  451.924    0.101    0.400   49.295  158.453    9.486
  452.174    0.073    0.362   48.438  159.380   11.684
  452.424    0.057    0.169   48.558  161.755   12.751
  452.674    0.067    0.149   51.487  162.888   11.083
  452.924    0.084    0.222   55.210  159.058    8.739
  453.174    0.165    0.290   57.773  156.365    6.692
  453.424    0.293    0.329   63.328  156.050    5.679
  453.674    0.331    0.365   65.769  155.943    5.000
