~VERSION INFORMATION
 VERS.                 2.0:   CWLS LOG ASCII STANDARD -VERSION 2.0
 WRAP.                  NO:   ONE LINE PER DEPTH STEP
~WELL INFORMATION BLOCK
#MNEM.UNIT           DATA                    DESCRIPTION OF MNEMONIC
#---------    -------------------            -------------------------------
# Generated from Intellog Unique Number	CC_84_87/WELL/2344
NULL.         -999.25                        : NULL_VALUE
WELL.         PARA ET AL SALESKI             : Well_name    - WELL
LOC .         13-23-086-18W4                 : Location     - LOCATION          
UWI .         00/13-23-086-18W400            : Uwi          - UNIQUE WELL ID    
ENTR.         DW                             : Entered      - ENTERED BY        
SRVC.         COMPUTALOG                     : Scn          - SERVICE COMPANY   
DATE.         01 FEB 86                      : Date         - LOG DATE
STRT.M        85                             : top_depth    - START DEPTH       
STOP.M        244.902                        : bot_depth    - STOP DEPTH        
STEP.M        0.3                            : increment    - STEP LENGTH       
~CURVE INFORMATION BLOCK
#MNEM UNIT       ERCB CURVE CODE    CURVE DESCRIPTION
#-----------   ------------------   ----------------------------------
DEPT.M        00 001 00 00         : DEPTH        - DEPTH                       
DPHI.V/V      00 890 00 00         : PHID         - DENSITY POROSITY (LIMESTONE)
NPHI.V/V      00 330 00 00         : PHIN         - NEUTRON POROSITY (LIMESTONE)
GR  .API      00 310 00 00         : GR           - GAMMA RAY                   
ILD .OHMM     00 120 00 00         : RESD         - DEEP RESISTIVITY (DIL)      
~PARAMETER INFORMATION       
#MNEM.UNIT           DATA             DESCRIPTION OF MNEMONIC
#---------         -----------     ------------------------------
GL  .M        507.1                : gl           - GROUND LEVEL ELEVATION      
EREF.M        510.9                : kb           - ELEVATION OF DEPTH REFERENCE
DATM.M        510.9                : datum        - DATUM ELEVATION             
TDD .M        248                  : tdd          - TOTAL DEPTH DRILLER         
RUN .         ONE                  : Run          - RUN NUMBER                  
ENG .         BILL                 : Engineer     - RECORDING ENGINEER          
WIT .         JIM                  : Witness      - WITNESSED BY                
MUD .         GEL                  : Mud_type     - MUD TYPE                    
MATR.         LIMESTONE            : Logunit      - NEUTRON MATRIX              
TMAX.C        38                   : BHT          - MAXIMUM RECORDED TEMPERATURE
BHTD.M        2482                 : BHTDEP       - MAXIMUM RECORDED TEMPERATURE
MATR.         1                    : LOGUNIT      - NEUTRON MATRIX              
RMT .C        25                   : MDTP         - TEMPERATURE OF MUD          
NEUT.         1                    : NEUTRON      - NEUTRON TYPE                
RESI.         0                    : RESIST       - RESISTIVITY TYPE            
RMC .OHMM     0.25                 : RMC          - RESISTIVITY OF MUD CAKE     
RMF .OHMM     0.25                 : RMF          - RESISTIVITY OF MUD FILTRATE 
SUFT.C        15                   : SUFT         - SURFACE TEMPERATURE         
~A  DEPTH     PHID     PHIN       GR     RESD
# ...
  137.201    0.270    0.407   73.932    9.976
  137.501    0.259    0.407   72.027    9.418
  137.801    0.236    0.411   72.664    8.389
  138.101    0.228    0.419   82.833    7.471
  138.401    0.232    0.423   94.273    6.279
  138.701    0.235    0.428  101.900    5.927
  139.001    0.233    0.450  104.444    5.817
  139.301    0.228    0.446  104.445    6.050
  139.601    0.230    0.471   99.997    7.209
  139.901    0.240    0.480   87.289    8.104
  140.201    0.236    0.452   85.383    8.595
  140.501    0.203    0.431   89.833    8.275
  140.801    0.192    0.452   89.835    7.963
  141.101    0.212    0.432   85.388    7.970
  141.401    0.219    0.426   86.024    7.974
  141.701    0.207    0.422   91.745    7.979
  142.001    0.216    0.454   98.736    7.680
  142.301    0.236    0.467   99.373    7.250
  142.601    0.250    0.476   96.197    5.860
  142.901    0.251    0.462   89.207    4.737
  143.201    0.232    0.480   86.667    4.302
  143.501    0.184    0.485   88.574    4.305
  143.801    0.103    0.470   79.679    5.436
  144.101    0.127    0.446   70.783    9.363
  144.401    0.170    0.442   82.859   12.535
  144.701    0.202    0.431   84.131   13.819
  145.001    0.264    0.416   79.048   14.659
  145.301    0.293    0.404   80.957   14.666
  145.601    0.294    0.403   82.229   14.392
  145.901    0.283    0.422   81.594   14.130
  146.201    0.275    0.398   80.324   14.136
  146.501    0.269    0.391   75.877   14.142
  146.801    0.267    0.399   72.701   14.428
  147.101    0.276    0.419   75.879   15.605
  147.401    0.294    0.408   79.694   16.231
  147.701    0.283    0.400   80.966   15.325
  148.001    0.283    0.398   84.780   15.331
  148.301    0.283    0.418   84.146   14.758
  148.601    0.269    0.440   82.876   14.482
  148.901    0.171    0.434   90.503   12.651
  149.201    0.161    0.396   94.317   11.051
  149.501    0.204    0.386   96.861   10.433
  149.801    0.227    0.413  101.946   10.044
  150.101    0.233    0.426  100.676   10.051
  150.401    0.231    0.410  102.584   10.058
  150.701    0.213    0.386  103.856   10.061
  151.001    0.209    0.393  101.315   10.266
  151.301    0.228    0.398   99.410   10.273
  151.601    0.227    0.401   98.140   10.079
  151.901    0.228    0.403   96.235    9.705
  152.201    0.231    0.404   97.507    9.710
  152.501    0.217    0.409   98.144    9.714
  152.801    0.219    0.432   99.416   10.106
  153.101    0.260    0.436   90.521   10.718
  153.401    0.267    0.415   79.083   12.048
  153.701    0.247    0.399   71.458   12.779
  154.001    0.265    0.401   70.188   12.301
  154.301    0.314    0.404   71.460   11.613
  154.601    0.303    0.403   76.546   11.180
  154.901    0.250    0.405   86.079   11.402
  155.201    0.222    0.405   84.810   12.331
  155.501    0.248    0.389   74.643   13.597
  155.801    0.213    0.367   71.467   14.418
  156.101    0.258    0.382   77.187   14.150
  156.401    0.296    0.395   72.105   13.618
  156.701    0.290    0.394   72.106   11.670
  157.001    0.214    0.387   79.733   10.598
  157.301    0.228    0.401   79.734   10.605
  157.601    0.239    0.386   80.371   11.249
  157.901    0.234    0.391   81.008   11.697
  158.201    0.276    0.410   84.187   11.934
  158.501    0.287    0.406   86.730   11.487
  158.801    0.268    0.413   80.376   10.637
  159.101    0.163    0.427   81.649   10.044
  159.401    0.220    0.439   82.285    9.854
  159.701    0.249    0.446   84.193    8.949
  160.001    0.247    0.449   89.913    8.286
  160.301    0.256    0.425   98.811    8.133
  160.601    0.262    0.404   99.448    8.625
  160.901    0.230    0.406   86.104    9.326
  161.201    0.122    0.385   67.676   12.009
  161.501    0.000    0.228   47.977   15.464
  161.801    0.000    0.201   47.978   16.401
  162.101    0.128    0.233   58.783   15.184
  162.401    0.199    0.300   77.849   13.264
  162.701    0.232    0.348   86.112   11.148
  163.001    0.241    0.405   88.655    9.932
  163.301    0.239    0.424   90.562    9.376
  163.601    0.225    0.418   84.844    9.023
  163.901    0.208    0.423   79.126    8.518
  164.201    0.233    0.427   88.024    8.197
  164.501    0.225    0.418   96.922    8.204
  164.801    0.224    0.411   96.288    8.207
  165.101    0.229    0.419   93.112    8.374
  165.401    0.227    0.430   92.478    8.711
  165.701    0.228    0.418   93.750    9.239
  166.001    0.238    0.410   95.658    9.797
  166.301    0.214    0.396   94.388    9.805
  166.601    0.203    0.411   93.754    9.438
  166.901    0.195    0.418   93.755    9.084
  167.201    0.229    0.411   95.027    8.411
  167.501    0.240    0.416  100.112    7.942
  167.801    0.224    0.421  112.823    7.946
  168.101    0.219    0.411  113.460    8.265
  168.401    0.215    0.423  111.555    8.764
  168.701    0.208    0.424  105.201   10.443
  169.001    0.200    0.386   96.305   12.444
  169.301    0.213    0.367   90.587   13.197
  169.601    0.219    0.378   99.486   12.702
  169.901    0.200    0.377  104.570   11.536
  170.201    0.183    0.368  105.207   12.000
  170.501    0.177    0.364  100.124   12.727
  170.801    0.121    0.282   80.425   12.015
  171.101    0.101    0.259   70.894   11.124
  171.401    0.205    0.281   90.596   11.132
  171.701    0.258    0.316   88.055   11.807
  172.001    0.296    0.361   74.711   12.766
  172.301    0.306    0.394   72.805   13.806
  172.601    0.305    0.409   77.255   14.083
  172.901    0.229    0.418   82.976   13.556
  173.201    0.211    0.405   89.332   12.310
  173.501    0.249    0.409  102.679   10.757
  173.801    0.258    0.392  107.764   10.761
  174.101    0.230    0.391  103.317   11.638
  174.401    0.210    0.397   88.066   12.829
  174.701    0.206    0.386   81.713   14.991
  175.001    0.243    0.375   83.620   17.519
  175.301    0.252    0.368   83.621   21.283
  175.601    0.205    0.333   72.819   23.465
  175.901    0.031    0.263   56.933   23.030
  176.201    0.074    0.216   56.299   19.732
  176.501    0.128    0.231   75.365   16.265
  176.801    0.149    0.330   94.431   15.057
  177.101    0.154    0.382   93.797   13.411
  177.401    0.142    0.412   93.162   12.419
  177.701    0.149    0.416   95.070   12.672
  178.001    0.180    0.414   96.978   12.677
  178.301    0.192    0.404   97.614   12.936
  178.601    0.214    0.410  102.700   13.453
  178.901    0.211    0.420  105.243   13.994
  179.201    0.116    0.333   97.618   12.709
  179.501    0.140    0.317   83.638   11.999
  179.801    0.187    0.323   93.172   11.773
  180.101    0.173    0.343  103.341   11.558
  180.401    0.163    0.383  102.707   11.789
  180.701    0.121    0.414   99.531   12.029
  181.001    0.152    0.425   98.261   11.802
  181.301    0.198    0.434   95.085   10.721
  181.601    0.211    0.442  100.806   10.726
  181.901    0.201    0.445  103.984   10.947
  182.201    0.174    0.445  103.350   11.165
  182.501    0.143    0.434   96.996   11.393
  182.801    0.185    0.420   95.091   11.847
  183.101    0.210    0.406  107.802   12.322
  183.401    0.174    0.397  105.897   13.327
  183.701    0.125    0.386   95.730   13.861
  184.001    0.203    0.381   91.918   14.421
  184.301    0.230    0.388   99.546   14.430
  184.601    0.226    0.388  100.818   13.105
  184.901    0.211    0.406  102.090   12.368
  185.201    0.190    0.402  103.998   12.141
  185.501    0.187    0.397  106.541   12.384
  185.801    0.197    0.395  107.178   13.392
  186.101    0.207    0.390  107.179   14.765
  186.401    0.217    0.386  105.274   16.926
  186.701    0.222    0.372  102.098   19.777
  187.001    0.214    0.345  100.192   24.497
  187.301    0.043    0.276   90.661   30.343
  187.601    0.002    0.222   69.691   32.811
  187.901    0.062    0.206   69.057   32.199
  188.201    0.172    0.203   78.590   25.038
  188.501    0.202    0.262   93.843   18.015
  188.801    0.200    0.310  102.742   15.737
  189.101    0.202    0.341  104.649   14.572
