~VERSION INFORMATION
 VERS.                 2.0:   CWLS LOG ASCII STANDARD -VERSION 2.0
 WRAP.                  NO:   ONE LINE PER DEPTH STEP
~WELL INFORMATION BLOCK
#MNEM.UNIT           DATA                    DESCRIPTION OF MNEMONIC
#---------    -------------------            -------------------------------
# Generated from Intellog Unique Number	CW_70_72/WELL/2907
NULL.         -999.25                        : NULL_VALUE
WELL.         CHEVRON CALLING WEST           : Well_name    - WELL              
LOC .         11-27-070-21W4                 : Location     - LOCATION          
UWI .         00/11-27-070-21W4/0            : Uwi          - UNIQUE WELL ID    
ENTR.         MAX                            : Entered      - ENTERED BY        
SRVC.         SCHLUMBERGER                   : Scn          - SERVICE COMPANY   
DATE.         30 JAN 74                      : Date         - LOG DATE
STRT.M        405.384                        : top_depth    - START DEPTH       
STOP.M        573.134                        : bot_depth    - STOP DEPTH        
STEP.M        0.25                           : increment    - STEP LENGTH       
~CURVE INFORMATION BLOCK
#MNEM UNIT       ERCB CURVE CODE    CURVE DESCRIPTION
#-----------   ------------------   ----------------------------------
DEPT.M        00 001 00 00         : DEPTH        - DEPTH                       
ILD .OHMM     00 120 00 00         : RESD         - DEEP RESISTIVITY (DIL)      
NPHI.V/V      00 330 00 00         : PHIN         - NEUTRON POROSITY (SANDSTONE)
DPHI.V/V      00 890 00 00         : PHID         - DENSITY POROSITY (SANDSTONE)
CALI.MM       00 280 01 00         : CAL          - CALIPER                     
GR  .API      00 310 00 00         : GR           - GAMMA RAY                   
~PARAMETER INFORMATION       
#MNEM.UNIT           DATA             DESCRIPTION OF MNEMONIC
#---------         -----------     ------------------------------
GL  .M        649.529              : gl           - GROUND LEVEL ELEVATION      
EREF.M        652.882              : kb           - ELEVATION OF DEPTH REFERENCE
DATM.M        649.529              : datum        - DATUM ELEVATION             
TDD .M        573.634              : tdd          - TOTAL DEPTH DRILLER         
RUN .         ONE                  : Run          - RUN NUMBER                  
ENG .         BILL                 : Engineer     - RECORDING ENGINEER          
WIT .         JIM                  : Witness      - WITNESSED BY                
MUD .         GEL                  : Mud_type     - MUD TYPE                    
MATR.         SANDSTONE            : Logunit      - NEUTRON MATRIX              
TMAX.C        72                   : BHT          - MAXIMUM RECORDED TEMPERATURE
BHTD.M        573.634              : BHTDEP       - MAXIMUM RECORDED TEMPERATURE
RMT .C        12.7778              : MDTP         - TEMPERATURE OF MUD          
MUDD.KG/M     9900                 : MWT          - MUD DENSITY                 
NEUT.         1                    : NEUTRON      - NEUTRON TYPE                
RESI.         0                    : RESIST       - RESISTIVITY TYPE            
RM  .OHMM     2.9                  : RM           - RESISTIVITY OF MUD          
RMC .OHMM     0.25                 : RMC          - RESISTIVITY OF MUD CAKE     
RMF .OHMM     3.87                 : RMF          - RESISTIVITY OF MUD FILTRATE 
SUFT.C        -20.5556             : SUFT         - SURFACE TEMPERATURE         
~A  DEPTH     RESD     PHIN     PHID      CAL       GR
# ...
  478.384    2.964    0.512    0.315  197.983   66.933
  478.634    2.657    0.515    0.301  196.487   67.504
  478.884    2.609    0.545    0.320  196.471   66.619
  479.134    2.632    0.526    0.316  196.943   67.774
  479.384    2.631    0.534    0.321  197.422   70.675
  479.634    2.654    0.567    0.323  197.898   71.247
  479.884    2.653    0.568    0.300  198.867   69.199
  480.134    2.628    0.539    0.297  199.836   66.863
  480.384    2.628    0.520    0.305  199.818   64.528
  480.634    2.626    0.498    0.312  199.802   63.935
  480.884    2.602    0.480    0.315  199.293   63.633
  481.134    2.601    0.459    0.313  199.768   63.042
  481.384    2.600    0.455    0.311  200.737   63.034
  481.634    2.599    0.483    0.312  200.720   64.187
  481.884    2.646    0.495    0.320  199.719   63.886
  482.134    2.669    0.486    0.331  198.716   64.457
  482.384    2.668    0.496    0.318  197.713   62.994
  482.634    2.691    0.502    0.309  197.699   62.110
  482.884    2.790    0.502    0.309  197.683   61.809
  483.134    2.918    0.485    0.314  198.155   62.383
  483.384    2.943    0.473    0.308  198.632   62.082
  483.634    2.969    0.480    0.315  198.123   61.781
  483.884    3.022    0.491    0.319  197.120   60.318
  484.134    3.021    0.479    0.317  196.611   58.561
  484.384    2.966    0.473    0.328  195.612   59.425
  484.634    2.860    0.458    0.318  195.104   58.543
  484.884    2.707    0.448    0.317  194.098   53.877
  485.134    2.587    0.440    0.324  193.588   52.705
  485.384    2.494    0.480    0.334  193.576   53.858
  485.634    2.383    0.461    0.345  195.035   55.594
  485.884    2.297    0.434    0.344  198.465   57.328
  486.134    2.276    0.419    0.337  201.892   58.190
  486.384    2.276    0.431    0.333  204.343   60.215
  486.634    2.274    0.457    0.324  206.297   61.664
  486.884    2.294    0.469    0.315  206.769   65.144
  487.134    2.335    0.486    0.307  207.742   69.205
  487.384    2.399    0.503    0.299  211.174   74.141
  487.634    2.509    0.527    0.270  209.186   83.730
  487.884    2.624    0.546    0.246  202.763   83.425
  488.134    2.745    0.529    0.256  200.781   81.963
  488.384    2.897    0.523    0.253  200.268   80.501
  488.634    3.058    0.497    0.248  199.759   80.780
  488.884    3.169    0.513    0.229  198.268   81.933
  489.134    3.255    0.500    0.232  195.787   81.341
  489.384    3.374    0.478    0.250  193.799   80.462
  489.634    3.466    0.457    0.259  191.815   78.412
  489.884    3.560    0.465    0.262  188.839   77.533
  490.134    3.559    0.492    0.272  188.331   78.976
  490.384    3.558    0.491    0.277  189.792   81.002
  490.634    3.493    0.484    0.275  192.733   80.992
  490.884    3.460    0.491    0.264  198.133   80.689
  491.134    3.428    0.517    0.247  199.592   80.101
  491.384    3.396    0.522    0.263  199.578   77.763
  491.634    3.364    0.527    0.272  199.070   76.008
  491.884    3.363    0.541    0.283  199.542   75.418
  492.134    3.392    0.527    0.285  199.528   75.408
  492.384    3.453    0.505    0.281  199.512   75.688
  492.634    3.453    0.483    0.258  198.997   75.968
  492.884    3.450    0.468    0.247  198.493   77.123
  493.134    3.481    0.478    0.272  196.012   78.277
  493.384    3.543    0.480    0.279  194.028   77.104
  493.634    3.574    0.463    0.264  196.963   78.840
  493.884    3.705    0.476    0.261  196.949   80.865
  494.134    3.875    0.462    0.243  193.975   82.600
  494.384    3.981    0.472    0.206  192.478   84.044
  494.634    4.240    0.490    0.213  193.941   84.035
  494.884    4.515    0.497    0.200  195.897   81.989
  495.134    4.638    0.522    0.189  199.819   80.815
  495.384    4.721    0.521    0.215  199.801   81.098
  495.634    4.720    0.499    0.229  198.800   84.868
  495.884    4.675    0.480    0.234  198.293   83.403
  496.134    4.675    0.465    0.218  197.290   82.521
  496.384    4.630    0.453    0.228  196.780   83.675
  496.634    4.505    0.492    0.237  196.271   83.374
  496.884    4.383    0.484    0.230  196.255   83.364
  497.134    4.264    0.467    0.237  196.239   83.064
  497.384    4.111    0.476    0.245  197.696   82.474
  497.634    3.999    0.481    0.243  198.669   81.589
  497.884    3.962    0.495    0.256  199.634   78.380
  498.134    3.960    0.497    0.255  199.128   77.209
  498.384    3.960    0.494    0.271  198.619   77.195
  498.634    4.103    0.461    0.278  197.125   76.897
  498.884    4.450    0.424    0.264  196.615   75.723
  499.134    4.697    0.390    0.240  196.599   72.221
  499.384    4.611    0.418    0.229  196.583   71.923
  499.634    4.288    0.469    0.279  196.560   73.659
  499.884    3.880    0.528    0.286  197.039   73.357
  500.134    3.265    0.485    0.284  197.517   73.056
  500.384    3.265    0.473    0.282  197.994   73.047
  500.634    4.019    0.440    0.267  198.466   72.456
  500.884    4.280    0.403    0.243  198.943   70.699
  501.134    5.128    0.334    0.196  199.421   68.363
  501.384    6.487    0.284    0.172  199.893   66.028
  501.634    7.036    0.270    0.148  200.372   64.852
  501.884    9.656    0.274    0.121  200.846   63.390
  502.134   10.471    0.294    0.124  201.325   62.508
  502.384    9.562    0.315    0.147  201.303   58.716
  502.634    7.285    0.345    0.180  199.813   59.870
  502.884    5.914    0.379    0.235  195.853   63.058
  503.134    5.858    0.357    0.143  194.359   61.013
  503.384    6.127    0.181    0.023  196.315   54.894
  503.634    6.586    0.154   -0.001  200.732   52.850
  503.884    8.331    0.136    0.003  201.208   51.965
  504.134   10.256    0.137    0.013  201.683   52.248
  504.384   12.287    0.141    0.020  202.651   53.110
  504.634   14.326    0.148    0.034  203.618   54.263
  504.884   14.452    0.157    0.060  206.061   55.998
  505.134   13.808    0.186    0.088  206.539   58.608
  505.384   10.331    0.247    0.112  205.536   63.543
  505.634    6.627    0.419    0.159  202.074   70.514
  505.884    5.528    0.464    0.246  199.103   77.776
  506.134    4.407    0.490    0.253  198.593   75.147
  506.384    3.743    0.477    0.281  198.579   70.483
  506.634    3.448    0.453    0.291  198.068   68.437
  506.884    3.479    0.428    0.276  197.559   66.392
  507.134    3.705    0.383    0.246  198.036   64.346
  507.384    4.018    0.329    0.222  199.003   61.717
  507.634    4.858    0.298    0.189  199.972   61.419
  507.884    5.081    0.269    0.114  201.433   62.281
  508.134    5.561    0.280    0.116  202.893   64.596
  508.384    5.610    0.294    0.143  207.800   66.913
  508.634    5.076    0.358    0.197  210.246   68.357
  508.884    4.158    0.468    0.265  209.247   70.092
  509.134    3.226    0.517    0.300  202.828   71.828
  509.384    2.999    0.524    0.297  199.849   72.693
  509.634    2.945    0.521    0.299  201.316   74.427
  509.884    2.970    0.494    0.288  205.236   76.453
  510.134    3.051    0.480    0.276  206.205   77.317
  510.384    3.106    0.476    0.259  203.725   76.725
  510.634    3.133    0.467    0.262  201.246   75.552
  510.884    3.160    0.461    0.280  201.722   74.378
  511.134    3.159    0.477    0.275  204.171   74.367
  511.384    3.158    0.494    0.254  210.065   75.230
  511.634    3.157    0.541    0.277  218.912   76.965
  511.884    3.214    0.526    0.263  219.881   78.703
  512.134    3.242    0.482    0.238  213.463   79.856
  512.384    3.241    0.513    0.231  205.072   78.101
  512.634    3.269    0.537    0.250  203.087   74.891
  512.884    3.269    0.549    0.255  203.562   73.718
  513.134    3.296    0.526    0.259  203.544   74.580
  513.384    3.325    0.472    0.245  203.530   77.188
  513.634    3.355    0.483    0.248  203.507   78.922
  513.884    3.445    0.478    0.244  203.495   80.949
  514.134    3.539    0.460    0.248  203.477   80.939
  514.384    3.636    0.455    0.251  201.986   78.895
  514.634    3.768    0.471    0.247  199.993   78.013
