~VERSION INFORMATION
 VERS.                 2.0:   CWLS LOG ASCII STANDARD -VERSION 2.0
 WRAP.                  NO:   ONE LINE PER DEPTH STEP
~WELL INFORMATION BLOCK
#MNEM.UNIT           DATA                    DESCRIPTION OF MNEMONIC
#---------    -------------------            -------------------------------
# Generated from Intellog Unique Number	CS_73_76/WELL/3255
WELL.         HOME OIL COMPANY LIMITED       : Well_name    - WELL
LOC .         00/11-01-076-06W4/0            : Location     - LOCATION
UWI .         00/11-01-076-06W4/0            : Uwi          - UNIQUE WELL ID
ENTR.         SP                             : Entered      - ENTERED BY
SRVC.         SCHLUMBERGER                   : Scn          - SERVICE COMPANY
STRT.M        182                            : top_depth    - START DEPTH
STOP.M        415                            : bot_depth    - STOP DEPTH
STEP.M        0.25                           : increment    - STEP LENGTH
 NULL. -999.2500:NULL Value
~CURVE INFORMATION BLOCK
#MNEM UNIT       ERCB CURVE CODE    CURVE DESCRIPTION
#-----------   ------------------   ----------------------------------
DEPT.M        00 001 00 00         : DEPTH        - DEPTH
ILD .OHMM     00 120 00 00         : RESD         - DEEP RESISTIVITY (DIL)
DPHI.V/V      00 890 00 00         : PHID         - DENSITY POROSITY (LIMESTONE)
NPHI.V/V      00 330 00 00         : PHIN         - NEUTRON POROSITY (LIMESTONE)
GR  .API      00 310 00 00         : GR           - GAMMA RAY
~PARAMETER INFORMATION
#MNEM.UNIT           DATA             DESCRIPTION OF MNEMONIC
#---------         -----------     ------------------------------
GL  .M        595.55               : gl           - GROUND LEVEL ELEVATION
EREF.M        599.05               : kb           - ELEVATION OF DEPTH REFERENCE
DATM.M        595.55               : datum        - DATUM ELEVATION
TDD .M        423                  : tdd          - TOTAL DEPTH DRILLER
RUN .         ONE                  : Run          - RUN NUMBER
ENG .         BILL                 : Engineer     - RECORDING ENGINEER
WIT .         JIM                  : Witness      - WITNESSED BY
MUD .         GEL                  : Mud_type     - MUD TYPE
MATR.         LIMESTONE            : Logunit      - NEUTRON MATRIX
TMAX.C        20.5                 : BHT          - MAXIMUM RECORDED TEMPERATURE
BHTD.M        423                  : BHTDEP       - MAXIMUM RECORDED TEMPERATURE
MATR.         1                    : LOGUNIT      - NEUTRON MATRIX
RMT .C        25                   : MDTP         - TEMPERATURE OF MUD
NEUT.         1                    : NEUTRON      - NEUTRON TYPE
RESI.         0                    : RESIST       - RESISTIVITY TYPE
RMC .OHMM     0.25                 : RMC          - RESISTIVITY OF MUD CAKE
RMF .OHMM     0.25                 : RMF          - RESISTIVITY OF MUD FILTRATE
SUFT.C        15                   : SUFT         - SURFACE TEMPERATURE
~A  DEPTH     RESD     PHID     PHIN       GR
# ...
  225.500   11.949    0.220    0.401   99.954
  225.750   11.096    0.220    0.406  106.035
  226.000   10.306    0.225    0.418  108.473
  226.250    9.749    0.220    0.432  106.053
  226.500    9.396    0.234    0.451  102.419
  226.750    9.056    0.237    0.461   99.392
  227.000    9.059    0.234    0.475   98.187
  227.250    9.404    0.225    0.486   98.196
  227.500    9.945    0.223    0.460   98.203
  227.750   11.122    0.223    0.442   96.392
  228.000   11.544    0.233    0.442   97.615
  228.250   12.672    0.247    0.454   98.233
  228.500   13.401    0.244    0.462   97.635
  228.750   14.439    0.265    0.456   97.035
  229.000   14.988    0.279    0.450   95.221
  229.250   15.852    0.287    0.434   92.802
  229.500   15.856    0.268    0.434   91.595
  229.750   15.862    0.246    0.433   90.999
  230.000   15.573    0.251    0.429   91.006
  230.250   15.291    0.257    0.429   91.624
  230.500   14.467    0.233    0.440   92.846
  230.750   13.943    0.223    0.456   94.070
  231.000   13.438    0.238    0.468   93.471
  231.250   13.442    0.247    0.468   91.050
  231.500   13.956    0.240    0.459   85.595
  231.750   14.759    0.240    0.446   79.532
  232.000   15.608    0.260    0.429   74.682
  232.250   16.202    0.254    0.395   69.225
  232.500   17.135    0.258    0.386   69.234
  232.750   17.462    0.260    0.388   70.457
  233.000   18.129    0.252    0.403   70.466
  233.250   18.472    0.261    0.416   68.653
  233.500   19.180    0.275    0.421   65.627
  233.750   19.544    0.256    0.435   64.420
  234.000   19.914    0.238    0.449   68.077
  234.250   20.291    0.250    0.461   69.296
  234.500   20.677    0.266    0.423   71.130
  234.750   20.683    0.242    0.411   71.745
  235.000   20.688    0.245    0.405   71.754
  235.250   20.314    0.255    0.409   72.976
  235.500   19.579    0.278    0.416   71.770
  235.750   19.225    0.272    0.427   72.386
  236.000   18.529    0.253    0.437   75.433
  236.250   17.858    0.258    0.442   76.657
  236.500   16.895    0.253    0.448   75.454
  236.750   15.985    0.253    0.427   74.854
  237.000   15.696    0.272    0.432   74.861
  237.250   15.410    0.282    0.424   75.482
  237.500   15.415    0.259    0.425   75.486
  237.750   15.419    0.246    0.431   75.496
  238.000   15.711    0.227    0.423   71.861
  238.250   15.716    0.233    0.397   67.619
  238.500   15.433    0.231    0.406   67.020
  238.750   15.435    0.231    0.414   69.459
  239.000   15.440    0.236    0.415   70.683
  239.250   15.443    0.248    0.419   70.084
  239.500   16.032    0.271    0.426   68.272
  239.750   16.643    0.286    0.438   65.244
  240.000   17.278    0.304    0.434   64.038
  240.250   16.965    0.286    0.428   65.870
  240.500   15.755    0.281    0.434   67.092
  240.750   14.906    0.265    0.442   70.139
  241.000   14.366    0.253    0.442   70.148
  241.250   13.591    0.242    0.435   70.767
  241.500   13.100    0.231    0.428   70.774
  241.750   12.393    0.227    0.433   70.784
  242.000   12.168    0.270    0.440   70.790
  242.250   12.400    0.275    0.431   68.978
  242.500   12.874    0.306    0.418   59.270
  242.750   13.614    0.308    0.423   54.420
  243.000   13.872    0.317    0.419   49.575
  243.250   14.136    0.316    0.409   50.795
  243.500   14.140    0.322    0.405   53.233
  243.750   13.884    0.315    0.394   57.499
  244.000   13.382    0.294    0.398   59.328
  244.250   12.661    0.267    0.410   61.154
  244.500   12.430    0.264    0.416   64.811
  244.750   11.761    0.262    0.403   66.639
  245.000   11.548    0.246    0.401   69.077
  245.250   11.338    0.243    0.414   69.086
  245.500   11.132    0.289    0.424   63.022
  245.750   11.135    0.306    0.435   58.780
  246.000   11.138    0.325    0.432   52.720
  246.250   10.937    0.330    0.420   49.082
  246.500   10.941    0.329    0.414   46.660
  246.750   10.943    0.327    0.411   46.671
  247.000   10.945    0.338    0.420   46.073
  247.250   10.950    0.324    0.413   46.082
  247.500   10.952    0.309    0.421   46.696
  247.750   10.955    0.315    0.431   44.279
  248.000   11.164    0.320    0.439   44.285
  248.250   11.166    0.292    0.424   46.119
  248.500   10.964    0.278    0.410   47.947
  248.750   10.568    0.271    0.409   52.209
  249.000   10.375    0.292    0.418   55.862
  249.250   10.000    0.306    0.424   58.300
  249.500    9.818    0.307    0.425   57.703
  249.750    9.641    0.293    0.425   58.316
  250.000    9.293    0.283    0.427   58.932
  250.250    9.295    0.295    0.432   59.551
  250.500    9.127    0.306    0.423   58.950
  250.750    8.961    0.304    0.409   57.139
  251.000    8.478    0.300    0.421   58.364
  251.250    8.020    0.295    0.440   60.801
  251.500    7.311    0.291    0.447   62.632
  251.750    6.917    0.289    0.463   63.855
  252.000    6.919    0.304    0.477   66.293
  252.250    7.050    0.299    0.487   66.302
  252.500    7.184    0.305    0.455   63.275
  252.750    8.034    0.323    0.452   62.069
  253.000    8.496    0.332    0.457   62.077
  253.250    8.985    0.335    0.466   57.837
  253.500    9.682    0.339    0.453   57.847
  253.750   10.050    0.332    0.453   60.893
  254.000   10.053    0.323    0.477   62.722
  254.250   10.055    0.320    0.471   64.553
  254.500   10.058    0.318    0.464   62.739
  254.750   10.062    0.307    0.456   62.141
  255.000   10.253    0.305    0.444   64.581
  255.250   10.255    0.309    0.445   67.018
  255.500   10.450    0.306    0.456   68.240
  255.750   10.849    0.295    0.462   67.644
  256.000   11.473    0.277    0.450   67.044
  256.250   12.829    0.252    0.438   65.232
  256.500   14.614    0.176    0.407   64.025
  256.750   16.646    0.000    0.284   58.569
  257.000   18.963    0.000    0.185   53.720
  257.250   17.610    0.017    0.204   47.655
  257.500   14.904    0.065    0.273   48.272
  257.750   13.336    0.180    0.354   54.962
  258.000   11.714    0.200    0.404   61.651
  258.250   10.289    0.276    0.455   65.303
  258.500    9.380    0.330    0.468   64.705
  258.750    8.550    0.322    0.452   65.321
  259.000    7.510    0.320    0.445   70.191
  259.250    6.356    0.307    0.460   75.666
  259.500    5.583    0.276    0.457   80.531
  259.750    4.814    0.251    0.468   89.043
  260.000    4.470    0.239    0.485   93.910
  260.250    4.308    0.228    0.500   93.919
  260.500    4.390    0.239    0.489   93.929
  260.750    4.643    0.239    0.477   93.936
  261.000    5.003    0.228    0.473   90.912
  261.250    5.098    0.223    0.461   89.704
  261.500    5.099    0.222    0.474   93.359
  261.750    5.007    0.223    0.496   94.580
  262.000    4.916    0.233    0.491   90.946
  262.250    4.917    0.232    0.477   90.954
  262.500    4.829    0.219    0.478   91.571
  262.750    4.830    0.226    0.485   88.543
  263.000    4.742    0.232    0.479   89.160
  263.250    4.743    0.245    0.476   87.350
  263.500    4.657    0.247    0.493   86.141
  263.750    4.406    0.236    0.500   84.329
  264.000    4.168    0.242    0.499   86.162
  264.250    4.018    0.244    0.505   87.993
  264.500    3.945    0.236    0.507   88.001
  264.750    4.020    0.253    0.547   86.793
  265.000    4.251    0.244    0.564   84.980
  265.250    4.753    0.264    0.561   82.561
  265.500    5.517    0.270    0.487   79.533
  265.750    6.055    0.256    0.459   77.113
  266.000    6.646    0.258    0.459   76.516
  266.250    7.160    0.236    0.440   75.917
  266.500    6.289    0.238    0.447   76.532
  266.750    5.628    0.254    0.462   75.327
  267.000    5.130    0.269    0.475   76.551
  267.250    4.506    0.288    0.456   82.635
  267.500    4.108    0.266    0.475   85.678
  267.750    3.744    0.243    0.503   86.295
  268.000    3.542    0.246    0.527   86.912
  268.250    3.888    0.271    0.538   90.563
  268.500    4.429    0.268    0.533   88.751
  268.750    4.952    0.271    0.527   85.115
