~VERSION INFORMATION
 VERS.                 2.0:   CWLS LOG ASCII STANDARD -VERSION 2.0
 WRAP.                  NO:   ONE LINE PER DEPTH STEP
~WELL INFORMATION BLOCK
#MNEM.UNIT           DATA                    DESCRIPTION OF MNEMONIC
#---------    -------------------            -------------------------------
# Generated from Intellog Unique Number	CW_73_75/WELL/2753
WELL.         COBRA ET AL MITSUE 16-29       : Well_name    - WELL
LOC .         00/16-29-073-05W5/0            : Location     - LOCATION
UWI .         00/16-29-073-05W5/0            : Uwi          - UNIQUE WELL ID
ENTR.         JAYE                           : Entered      - ENTERED BY
SRVC.         SCHLUMBERGER                   : Scn          - SERVICE COMPANY
DATE.         6 MAR 81                       : Date         - LOG DATE
STRT.M        360                            : top_depth    - START DEPTH
STOP.M        595                            : bot_depth    - STOP DEPTH
STEP.M        0.25                           : increment    - STEP LENGTH
 NULL. -999.2500:NULL Value
~CURVE INFORMATION BLOCK
#MNEM UNIT       ERCB CURVE CODE    CURVE DESCRIPTION
#-----------   ------------------   ----------------------------------
DEPT.M        00 001 00 00         : DEPTH        - DEPTH
DPHI.V/V      00 890 00 00         : PHID         - DENSITY POROSITY (SANDSTONE)
NPHI.V/V      00 330 00 00         : PHIN         - NEUTRON POROSITY (SANDSTONE)
GR  .API      00 310 00 00         : GR           - GAMMA RAY
CALI.MM       00 280 01 00         : CAL          - CALIPER
ILD .OHMM     00 120 00 00         : RESD         - DEEP RESISTIVITY (DIL)
~PARAMETER INFORMATION
#MNEM.UNIT           DATA             DESCRIPTION OF MNEMONIC
#---------         -----------     ------------------------------
GL  .M        581.61               : gl           - GROUND LEVEL ELEVATION
EREF.M        586.26               : kb           - ELEVATION OF DEPTH REFERENCE
DATM.M        581.61               : datum        - DATUM ELEVATION
TDD .M        1686                 : tdd          - TOTAL DEPTH DRILLER
RUN .         ONE                  : Run          - RUN NUMBER
ENG .         ADLAKHA              : Engineer     - RECORDING ENGINEER
WIT .         HEATHER              : Witness      - WITNESSED BY
BASE.         EDMONTON             : Branch       - HOME BASE OF LOGGING UNIT
MUD .         GEL CHEN             : Mud_type     - MUD TYPE
MATR.         SANDSTONE            : Logunit      - NEUTRON MATRIX
TMAX.C        54                   : BHT          - MAXIMUM RECORDED TEMPERATURE
BHTD.M        1686.3               : BHTDEP       - MAXIMUM RECORDED TEMPERATURE
RMT .C        15.5                 : MDTP         - TEMPERATURE OF MUD
MUDD.KG/M     1080                 : MWT          - MUD DENSITY
NEUT.         1                    : NEUTRON      - NEUTRON TYPE
RESI.         0                    : RESIST       - RESISTIVITY TYPE
RM  .OHMM     0.85                 : RM           - RESISTIVITY OF MUD
RMC .OHMM     0                    : RMC          - RESISTIVITY OF MUD CAKE
RMF .OHMM     0.77                 : RMF          - RESISTIVITY OF MUD FILTRATE
SUFT.C        0                    : SUFT         - SURFACE TEMPERATURE
~A  DEPTH     PHID     PHIN       GR      CAL     RESD
# ...
  396.500    0.320    0.416   54.918  232.699    4.871
  396.750    0.320    0.419   54.354  231.034    4.907
  397.000    0.321    0.444   52.049  230.612    4.915
  397.250    0.329    0.460   49.495  233.091    4.878
  397.500    0.343    0.456   47.812  234.848    4.841
  397.750    0.340    0.446   47.435  237.950    4.768
  398.000    0.333    0.426   49.109  238.358    4.549
  398.250    0.342    0.435   50.038  236.485    4.283
  398.500    0.404    0.479   49.536  231.296    3.928
  398.750    0.457    0.537   50.651  236.264    3.692
  399.000    0.483    0.604   54.690  271.497    3.609
  399.250    0.416    0.602   59.785  305.176    3.796
  399.500    0.360    0.577   65.937  277.495    4.045
  399.750    0.295    0.518   62.948  254.477    4.215
  400.000    0.276    0.423   55.357  248.045    4.359
  400.250    0.297    0.410   52.741  243.373    4.449
  400.500    0.309    0.436   54.664  240.672    4.515
  400.750    0.312    0.458   53.851  239.835    4.540
  401.000    0.320    0.451   53.288  238.273    4.514
  401.250    0.328    0.444   55.274  237.747    4.479
  401.500    0.337    0.457   56.824  238.260    4.495
  401.750    0.343    0.452   54.146  239.185    4.503
  402.000    0.341    0.407   58.121  239.903    4.502
  402.250    0.336    0.415   58.366  240.102    4.485
  402.500    0.333    0.414   55.066  239.682    4.476
  402.750    0.343    0.402   53.382  239.572    4.475
  403.000    0.351    0.384   52.694  239.668    4.499
  403.250    0.356    0.412   52.877  239.661    4.549
  403.500    0.348    0.454   51.878  240.068    4.591
  403.750    0.342    0.443   50.443  240.580    4.617
  404.000    0.337    0.439   50.438  241.401    4.660
  404.250    0.330    0.454   51.429  241.809    4.659
  404.500    0.327    0.453   52.856  241.907    4.658
  404.750    0.337    0.411   53.038  241.898    4.622
  405.000    0.343    0.413   51.230  241.996    4.656
  405.250    0.345    0.427   51.350  242.196    4.682
  405.500    0.341    0.410   52.341  243.121    4.716
  405.750    0.337    0.397   51.902  243.219    4.742
  406.000    0.333    0.415   49.596  241.243    4.733
  406.250    0.329    0.431   49.841  238.644    4.732
  406.500    0.327    0.419   52.200  237.185    4.731
  406.750    0.327    0.410   56.548  236.659    4.730
  407.000    0.334    0.415   55.799  236.860    4.712
  407.250    0.339    0.428   51.939  237.372    4.702
  407.500    0.343    0.430   51.934  237.779    4.701
  407.750    0.348    0.402   54.542  238.083    4.674
  408.000    0.353    0.418   54.911  238.284    4.656
  408.250    0.355    0.429   53.911  239.417    4.646
  408.500    0.354    0.436   52.664  239.929    4.620
  408.750    0.351    0.442   51.665  239.922    4.593
  409.000    0.354    0.445   53.712  239.500    4.557
  409.250    0.356    0.446   55.201  239.182    4.548
  409.500    0.358    0.444   54.139  239.174    4.505
  409.750    0.359    0.488   53.264  239.375    4.471
  410.000    0.360    0.494   54.691  239.679    4.428
  410.250    0.356    0.463   55.806  239.981    4.403
  410.500    0.352    0.446   55.304  240.080    4.369
  410.750    0.366    0.464   53.061  240.383    4.344
  411.000    0.362    0.487   54.176  240.376    4.359
  411.250    0.355    0.464   53.799  240.058    4.424
  411.500    0.352    0.431   52.551  240.155    4.508
  411.750    0.355    0.430   51.240  240.872    4.662
  412.000    0.351    0.447   52.605  241.073    4.875
  412.250    0.349    0.435   57.078  241.376    5.157
  412.500    0.352    0.413   60.183  241.266    5.434
  412.750    0.344    0.422   56.696  241.260    6.266
  413.000    0.324    0.439   50.598  240.837    8.332
  413.250    0.234    0.458   44.188  240.416   11.059
  413.500    0.079    0.350   37.903  239.891   13.668
  413.750    0.037    0.268   35.225  237.604   15.671
  414.000    0.028    0.185   40.133  237.286   18.172
  414.250    0.021    0.150   45.104  238.108   20.993
  414.500    0.017    0.128   44.291  239.136   19.953
  414.750    0.016    0.119   42.608  239.752   17.892
  415.000    0.022    0.125   41.049  239.951   15.110
  415.250    0.124    0.151   40.174  240.256   12.337
  415.500    0.296    0.210   41.476  240.975    9.486
  415.750    0.317    0.341   44.581  241.485    7.473
  416.000    0.333    0.400   47.687  241.894    5.932
  416.250    0.343    0.414   48.615  242.508    5.010
  416.500    0.357    0.445   49.419  243.019    4.279
  416.750    0.360    0.467   49.913  243.323    4.238
  417.000    0.349    0.474   50.903  243.522    4.285
  417.250    0.324    0.431   52.765  243.518    4.390
  417.500    0.319    0.404   55.870  243.716    4.540
  417.750    0.329    0.389   55.617  244.021    4.740
  418.000    0.335    0.410   51.384  244.947    4.902
  418.250    0.335    0.422   47.773  246.288    5.022
  418.500    0.327    0.390   48.390  248.146    4.974
  418.750    0.320    0.371   49.194  249.176    4.763
  419.000    0.319    0.385   49.501  247.303    4.578
  419.250    0.322    0.378   50.990  244.291    4.484
  419.500    0.318    0.391   51.794  244.594    4.458
  419.750    0.320    0.407   52.225  246.556    4.466
  420.000    0.329    0.426   51.910  245.823    4.432
  420.250    0.338    0.436   51.408  244.469    4.381
  420.500    0.340    0.448   51.901  244.152    4.356
  420.750    0.334    0.442   54.820  243.418    4.355
  421.000    0.325    0.428   60.164  242.997    4.338
  421.250    0.319    0.450   59.227  242.470    4.305
  421.500    0.320    0.464   57.793  242.983    4.288
  421.750    0.323    0.486   57.725  243.702    4.248
  422.000    0.320    0.469   57.598  244.730    4.231
  422.250    0.319    0.440   57.096  245.760    4.270
  422.500    0.326    0.454   55.972  246.998    4.367
  422.750    0.335    0.436   53.169  249.167    4.474
  423.000    0.340    0.442   52.730  251.130    4.549
  423.250    0.338    0.443   51.606  250.811    4.447
  423.500    0.333    0.419   49.115  249.664    4.331
  423.750    0.328    0.407   47.804  247.999    4.306
  424.000    0.333    0.415   51.532  246.230    4.297
  424.250    0.334    0.409   56.627  245.498    4.281
  424.500    0.328    0.381   56.063  246.422    4.296
  424.750    0.341    0.393   51.270  247.866    4.295
  425.000    0.342    0.414   48.032  248.067    4.319
  425.250    0.335    0.411   47.468  246.298    4.326
  425.500    0.329    0.412   48.894  243.595    4.350
  425.750    0.323    0.419   50.445  242.241    4.481
  426.000    0.317    0.427   49.135  241.509    4.617
  426.250    0.313    0.427   47.763  241.605    4.757
  426.500    0.314    0.416   46.576  242.739    4.883
  426.750    0.324    0.394   46.137  244.597    4.965
  427.000    0.327    0.377   45.760  246.767    4.918
  427.250    0.311    0.387   45.631  250.285    4.835
  427.500    0.292    0.401   45.254  253.905    4.744
  427.750    0.264    0.375   44.316  246.746    4.708
  428.000    0.238    0.340   45.618  243.007    4.672
  428.250    0.291    0.362   47.977  243.000    4.671
  428.500    0.323    0.364   50.025  245.377    4.662
  428.750    0.332    0.367   50.767  248.688    4.644
  429.000    0.330    0.386   50.079  252.619    4.634
  429.250    0.327    0.403   46.654  254.062    4.633
  429.500    0.328    0.426   47.334  253.641    4.641
  429.750    0.330    0.435   49.196  249.902    4.640
  430.000    0.335    0.436   51.306  246.579    4.631
  430.250    0.339    0.414   52.545  244.189    4.656
  430.500    0.342    0.399   52.603  243.352    4.673
  430.750    0.340    0.414   50.796  242.929    4.664
  431.000    0.327    0.430   49.361  242.613    4.628
  431.250    0.317    0.424   50.539  242.605    4.601
  431.500    0.318    0.408   50.534  243.324    4.600
  431.750    0.324    0.390   48.167  244.768    4.608
  432.000    0.322    0.404   44.120  247.145    4.599
  432.250    0.318    0.419   42.748  250.662    4.572
  432.500    0.324    0.429   43.552  254.594    4.572
  432.750    0.338    0.431   44.916  256.245    4.596
