~VERSION INFORMATION
 VERS.                 2.0:   CWLS LOG ASCII STANDARD -VERSION 2.0
 WRAP.                  NO:   ONE LINE PER DEPTH STEP
~WELL INFORMATION BLOCK
#MNEM.UNIT           DATA                    DESCRIPTION OF MNEMONIC
#---------    -------------------            -------------------------------
# Generated from Intellog Unique Number	CW_73_75/WELL/1054
WELL.         HOME UNIT MARTIN HILLS 16-21   : Well_name    - WELL
LOC .         00/16-21-074-24W4/0            : Location     - LOCATION
UWI .         00/16-21-074-24W4/0            : Uwi          - UNIQUE WELL ID
ENTR.         JAYE                           : Entered      - ENTERED BY
SRVC.         SCHLUMBERGER                   : Scn          - SERVICE COMPANY
DATE.         23 NOV 77                      : Date         - LOG DATE
STRT.M        374.904                        : top_depth    - START DEPTH
STOP.M        585.154                        : bot_depth    - STOP DEPTH
STEP.M        0.25                           : increment    - STEP LENGTH
 NULL. -999.2500:NULL Value
~CURVE INFORMATION BLOCK
#MNEM UNIT       ERCB CURVE CODE    CURVE DESCRIPTION
#-----------   ------------------   ----------------------------------
DEPT.M        00 001 00 00         : DEPTH        - DEPTH
ILD .OHMM     00 120 00 00         : RESD         - DEEP RESISTIVITY (DIL)
NPHI.V/V      00 330 00 00         : PHIN         - NEUTRON POROSITY (SANDSTONE)
DPHI.V/V      00 890 00 00         : PHID         - DENSITY POROSITY (SANDSTONE)
CALI.MM       00 280 01 00         : CAL          - CALIPER
GR  .API      00 310 00 00         : GR           - GAMMA RAY
~PARAMETER INFORMATION
#MNEM.UNIT           DATA             DESCRIPTION OF MNEMONIC
#---------         -----------     ------------------------------
GL  .M        649.224              : gl           - GROUND LEVEL ELEVATION
EREF.M        653.796              : kb           - ELEVATION OF DEPTH REFERENCE
DATM.M        649.224              : datum        - DATUM ELEVATION
TDD .M        585.216              : tdd          - TOTAL DEPTH DRILLER
RUN .         ONE                  : Run          - RUN NUMBER
BASE.         EDM                  : Branch       - HOME BASE OF LOGGING UNIT
MATR.         SANDSTONE            : Logunit      - NEUTRON MATRIX
TMAX.C        28.8889              : BHT          - MAXIMUM RECORDED TEMPERATURE
BHTD.M        585.826              : BHTDEP       - MAXIMUM RECORDED TEMPERATURE
RMT .C        13.8889              : MDTP         - TEMPERATURE OF MUD
MUDD.KG/M     0                    : MWT          - MUD DENSITY
NEUT.         1                    : NEUTRON      - NEUTRON TYPE
RESI.         0                    : RESIST       - RESISTIVITY TYPE
RM  .OHMM     6.22                 : RM           - RESISTIVITY OF MUD
RMC .OHMM     0                    : RMC          - RESISTIVITY OF MUD CAKE
RMF .OHMM     6.72                 : RMF          - RESISTIVITY OF MUD FILTRATE
SUFT.C        -17.7778             : SUFT         - SURFACE TEMPERATURE
~A  DEPTH     RESD     PHIN     PHID      CAL       GR
# ...
  520.904   30.567    0.391    0.230  179.114   63.342
  521.154   31.146    0.385    0.230  179.683   65.924
  521.404   33.074    0.380    0.221  177.727   59.352
  521.654   34.989    0.371    0.212  177.565   59.318
  521.904   35.520    0.358    0.203  176.452   60.469
  522.154   35.588    0.351    0.178  176.081   59.934
  522.404   35.126    0.364    0.149  178.028   59.092
  522.654   34.346    0.380    0.142  179.654   57.873
  522.904   33.395    0.388    0.166  180.019   57.778
  523.154   32.470    0.381    0.186  177.434   62.105
  523.404   31.042    0.388    0.220  177.902   62.071
  523.654   29.236    0.400    0.218  180.167   61.103
  523.904   27.951    0.395    0.214  181.587   60.508
  524.154   26.373    0.387    0.210  179.522   59.976
  524.404   24.240    0.388    0.202  178.834   60.378
  524.654   22.197    0.391    0.203  181.727   63.086
  524.904   20.363    0.382    0.204  181.775   66.041
  525.154   19.071    0.383    0.190  178.555   68.435
  525.404   18.130    0.376    0.197  174.915   69.833
  525.654   17.203    0.375    0.187  175.595   70.048
  525.904   16.263    0.359    0.194  178.282   71.323
  526.154   15.089    0.338    0.127  181.387   72.970
  526.404   14.291    0.294    0.064  182.806   69.512
  526.654   13.714    0.297    0.059  182.641   66.737
  526.904   13.086    0.331    0.116  181.530   69.818
  527.154   12.582    0.352    0.171  181.159   73.023
  527.404   12.142    0.367    0.173  180.992   71.182
  527.654   11.783    0.382    0.182  180.938   73.453
  527.904   11.608    0.396    0.203  180.883   76.158
  528.154   11.918    0.392    0.191  180.400   71.080
  528.404   12.490    0.381    0.159  177.814   66.377
  528.654   12.920    0.381    0.125  177.128   66.279
  528.904   13.364    0.373    0.134  177.805   67.617
  529.154   13.720    0.358    0.143  179.751   64.032
  529.404   14.085    0.371    0.170  181.805   63.189
  529.654   14.192    0.379    0.179  182.799   65.648
  529.904   13.877    0.378    0.185  182.318   67.232
  530.154   13.392    0.377    0.193  181.631   67.449
  530.404   13.045    0.381    0.187  181.363   66.230
  530.654   13.095    0.368    0.152  179.619   65.140
  530.904   13.368    0.333    0.110  176.399   64.296
  531.154   13.932    0.316    0.045  176.449   62.080
  531.404   14.822    0.331    0.069  176.702   58.248
  531.654   15.246    0.305    0.014  177.598   58.091
  531.904   14.494    0.285    0.019  179.014   60.611
  532.154   13.197    0.314    0.050  181.069   65.060
  532.404   11.662    0.345    0.118  182.168   69.883
  532.654   10.598    0.361    0.144  182.536   78.942
  532.904    9.668    0.345    0.119  182.694   80.153
  533.154    8.705    0.351    0.101  182.637   82.115
  533.404    7.765    0.359    0.107  182.679   86.002
  533.654    7.299    0.364    0.174  182.519   92.134
  533.904    7.124    0.361    0.173  182.669   94.842
  534.154    6.887    0.370    0.155  182.510   96.864
  534.404    6.798    0.366    0.140  182.664   98.263
  534.654    6.760    0.355    0.163  182.714   99.846
  534.904    6.735    0.359    0.168  182.757  100.185
  535.154    6.673    0.371    0.162  183.017   99.341
  535.404    6.623    0.386    0.172  182.963  101.365
  535.654    6.686    0.386    0.153  182.796  103.136
  535.904    6.838    0.376    0.146  182.319  101.295
  536.154    7.073    0.360    0.154  181.944   97.650
  536.404    7.525    0.334    0.141  181.886   91.949
  536.654    8.066    0.315    0.110  182.254   83.446
  536.904    8.597    0.309    0.136  182.509   78.304
  537.154    8.943    0.293    0.115  182.560   74.785
  537.404    9.130    0.292    0.092  175.646   76.247
  537.654    8.927    0.307    0.097  174.112   78.517
  537.904    8.795    0.312    0.137  176.482   81.286
  538.154    8.713    0.314    0.131  179.167   84.861
  538.404    8.664    0.312    0.126  180.585   87.505
  538.654    8.552    0.306    0.135  181.376   86.914
  538.904    8.425    0.302    0.133  181.738   88.684
  539.154    8.300    0.304    0.139  182.102   92.141
  539.404    8.269    0.318    0.136  182.464   95.468
  539.654    8.521    0.341    0.103  182.623   95.059
  539.904    9.066    0.340    0.099  182.878   89.545
  540.154   10.032    0.321    0.074  183.136   82.723
  540.404   10.794    0.293    0.066  183.293   76.898
  540.654   10.514    0.275    0.062  183.026   79.731
  540.904    9.977    0.283    0.088  182.651   87.168
  541.154    9.414    0.339    0.127  181.862   91.057
  541.404    8.900    0.369    0.133  181.801   91.833
  541.654    8.556    0.382    0.131  182.382   87.504
  541.904    8.382    0.344    0.094  182.953   83.983
  542.154    8.335    0.350    0.082  183.532   85.068
  542.404    8.289    0.345    0.108  183.151   86.468
  542.654    8.212    0.348    0.106  182.249   86.745
  542.904    8.121    0.359    0.124  180.822   89.202
  543.154    8.015    0.370    0.131  179.607   91.658
  543.404    7.941    0.363    0.102  179.335   90.566
  543.654    7.837    0.354    0.049  179.700   89.413
  543.904    7.721    0.362    0.127  179.959   90.499
  544.154    7.564    0.373    0.132  180.008   91.587
  544.404    7.382    0.351    0.126  180.372   87.566
  544.654    7.300    0.343    0.110  180.317   87.411
  544.904    7.151    0.360    0.134  179.945   90.676
  545.154    7.018    0.360    0.159  179.251   89.023
  545.404    6.979    0.359    0.145  177.617   87.994
  545.654    7.045    0.359    0.141  176.816   90.389
  545.904    7.152    0.360    0.144  175.816   89.917
  546.154    7.193    0.355    0.119  175.653   88.575
  546.404    7.180    0.363    0.107  175.381   89.850
  546.654    7.140    0.370    0.150  174.803   91.001
  546.904    7.034    0.360    0.165  175.057   92.024
  547.154    6.826    0.355    0.163  175.628   92.052
  547.404    6.687    0.355    0.135  176.310   93.264
  547.654    6.514    0.355    0.139  176.887   96.160
  547.904    6.405    0.349    0.137  177.467   97.306
  548.154    6.287    0.344    0.143  177.932   98.269
  548.404    6.159    0.345    0.126  179.247   96.992
  548.654    6.124    0.340    0.120  180.880   91.039
  548.904    6.171    0.353    0.143  181.451   82.538
  549.154    6.218    0.353    0.131  178.334   80.198
  549.404    6.148    0.345    0.100  176.590   85.522
  549.654    5.967    0.340    0.139  177.695   94.642
  549.904    5.352    0.348    0.134  181.222   95.604
  550.154    4.641    0.357    0.130  182.224   98.061
  550.404    3.848    0.378    0.132  181.642   99.459
  550.654    3.190    0.462    0.126  181.262   99.737
  550.904    2.824    0.474    0.163  180.993  100.015
  551.154    2.660    0.464    0.137  180.621   99.858
  551.404    2.635    0.452    0.149  180.354   99.699
  551.654    2.772    0.442    0.189  179.981   98.234
  551.904    3.068    0.431    0.157  178.866   95.707
  552.154    3.472    0.416    0.055  178.175   89.259
  552.404    3.967    0.401    0.008  178.119   77.206
  552.654    4.390    0.351    0.006  178.381   77.484
  552.904    4.661    0.379    0.012  179.796   96.630
  553.154    4.876    0.387    0.142  182.375   96.288
  553.404    5.072    0.389    0.123  182.849   94.698
  553.654    5.346    0.369    0.127  182.368   92.172
  553.904    5.582    0.361    0.120  181.043   90.643
  554.154    5.905    0.360    0.098  180.672   91.543
  554.404    6.341    0.360    0.084  181.669   92.318
  554.654    6.810    0.352    0.087  183.197   84.749
  554.904    7.396    0.341    0.118  183.663   69.458
  555.154    8.308    0.290    0.128  183.605   57.840
  555.404    9.563    0.243    0.156  182.598   45.476
  555.654   12.295    0.177    0.160  179.272   36.104
  555.904   16.691    0.144    0.140  180.165   33.514
  556.154   29.296    0.100    0.196  182.429   31.052
  556.404   43.434    0.115    0.222  181.842   31.826
  556.654   53.186    0.143    0.247  180.204   32.918
  556.904   60.763    0.163    0.325  178.038   33.192
  557.154   65.868    0.171    0.323  175.976   33.658
