~VERSION INFORMATION
 VERS.                 2.0:   CWLS LOG ASCII STANDARD -VERSION 2.0
 WRAP.                  NO:   ONE LINE PER DEPTH STEP
~WELL INFORMATION BLOCK
#MNEM.UNIT           DATA                    DESCRIPTION OF MNEMONIC
#---------    -------------------            -------------------------------
# Generated from Intellog Unique Number	CS_73_76/WELL/3234
WELL.         10-11-076-08W4                 : Well_name    - WELL
LOC .         00/10-11-076-08W4/0            : Location     - LOCATION
UWI .         00/10-11-076-08W4/0            : Uwi          - UNIQUE WELL ID
ENTR.         SP                             : Entered      - ENTERED BY
SRVC.         SCHLUMBERGER                   : Scn          - SERVICE COMPANY
STRT.M        228.6                          : top_depth    - START DEPTH
STOP.M        460.1                          : bot_depth    - STOP DEPTH
STEP.M        0.25                           : increment    - STEP LENGTH
 NULL. -999.2500:NULL Value
~CURVE INFORMATION BLOCK
#MNEM UNIT       ERCB CURVE CODE    CURVE DESCRIPTION
#-----------   ------------------   ----------------------------------
DEPT.M        00 001 00 00         : DEPTH        - DEPTH
GR  .API      00 310 00 00         : GR           - GAMMA RAY
DPHI.V/V      00 890 00 00         : PHID         - DENSITY POROSITY (SANDSTONE)
NPHI.V/V      00 330 00 00         : PHIN         - NEUTRON POROSITY (SANDSTONE)
ILD .OHMM     00 120 00 00         : RESD         - DEEP RESISTIVITY (DIL)
~PARAMETER INFORMATION
#MNEM.UNIT           DATA             DESCRIPTION OF MNEMONIC
#---------         -----------     ------------------------------
GL  .M        637.794              : gl           - GROUND LEVEL ELEVATION
EREF.M        640.232              : kb           - ELEVATION OF DEPTH REFERENCE
DATM.M        637.794              : datum        - DATUM ELEVATION
TDD .M        466.344              : tdd          - TOTAL DEPTH DRILLER
RUN .         ONE                  : Run          - RUN NUMBER
ENG .         BILL                 : Engineer     - RECORDING ENGINEER
WIT .         JIM                  : Witness      - WITNESSED BY
MUD .         GEL                  : Mud_type     - MUD TYPE
MATR.         SANDSTONE            : Logunit      - NEUTRON MATRIX
TMAX.C        15.5556              : BHT          - MAXIMUM RECORDED TEMPERATURE
BHTD.M        466.344              : BHTDEP       - MAXIMUM RECORDED TEMPERATURE
MATR.         1                    : LOGUNIT      - NEUTRON MATRIX
RMT .C        25                   : MDTP         - TEMPERATURE OF MUD
NEUT.         1                    : NEUTRON      - NEUTRON TYPE
RESI.         0                    : RESIST       - RESISTIVITY TYPE
RMC .OHMM     0.25                 : RMC          - RESISTIVITY OF MUD CAKE
RMF .OHMM     0.25                 : RMF          - RESISTIVITY OF MUD FILTRATE
SUFT.C        15                   : SUFT         - SURFACE TEMPERATURE
~A  DEPTH       GR     PHID     PHIN     RESD
  228.600  100.616    0.246    0.574    3.114
  228.850   95.657    0.260    0.578    3.176
  229.100   92.762    0.167    0.580    3.187
  229.350   90.850    0.124    0.582    3.233
  229.600   93.260    0.190    0.585    3.239
  229.850  100.557    0.263    0.586    3.169
  230.100  104.726    0.257    0.589    3.172
  230.350  104.953    0.268    0.584    3.270
  230.600  103.560    0.257    0.579    3.298
  230.850  102.632    0.240    0.582    3.402
  231.100  102.402    0.240    0.584    3.493
  231.350  102.355    0.232    0.582    3.829
  231.600  103.450    0.227    0.577    4.286
  231.850  102.403    0.232    0.548    4.328
  232.100   99.291    0.188    0.553    4.418
  232.350   95.582    0.155    0.506    4.427
  232.600   92.697    0.149    0.525    4.335
  232.850   93.483    0.231    0.547    4.273
  233.100   96.161    0.223    0.557    4.178
  233.350   98.779    0.238    0.554    4.178
  233.600  101.941    0.249    0.566    4.044
  233.850  104.177    0.245    0.564    4.038
  234.100  107.189    0.260    0.569    4.037
  234.350  105.993    0.270    0.573    4.037
  234.600  105.902    0.271    0.579    4.033
  234.850  105.882    0.273    0.579    4.113
  235.100  105.863    0.260    0.574    4.243
  235.350  105.822    0.245    0.562    4.402
  235.600  106.434    0.227    0.537    4.838
  235.850  104.385    0.211    0.536    5.242
  236.100  101.662    0.208    0.556    6.909
  236.350   98.624    0.184    0.556    8.295
  236.600   94.808    0.160    0.529    9.978
  236.850   93.299    0.174    0.501   12.635
  237.100   92.165    0.262    0.484   15.456
  237.350   92.588    0.290    0.473   15.796
  237.600   90.884    0.289    0.459   14.832
  237.850   93.175    0.271    0.450   14.423
  238.100   98.385    0.242    0.450   13.617
  238.350  102.596    0.219    0.442   13.075
  238.600  103.910    0.239    0.443   12.795
  238.850  103.651    0.257    0.449   13.128
  239.100  100.975    0.266    0.452   13.745
  239.350   97.044    0.277    0.463   15.129
  239.600   96.330    0.282    0.468   17.452
  239.850   93.134    0.267    0.465   19.735
  240.100   88.444    0.266    0.456   20.387
  240.350   84.385    0.289    0.446   19.085
  240.600   77.781    0.303    0.433   16.932
  240.850   72.732    0.304    0.433   15.092
  241.100   74.756    0.295    0.434   13.814
  241.350   76.148    0.292    0.437   13.021
  241.600   80.262    0.258    0.444   12.289
  241.850   85.468    0.303    0.453   12.174
  242.100   90.602    0.348    0.473   12.690
  242.350   85.722    0.377    0.507   14.229
  242.600   83.393    0.411    0.535   15.995
  242.850   81.691    0.313    0.528   16.569
  243.100   80.777    0.281    0.470   15.595
  243.350   80.750    0.272    0.463   14.139
  243.600   83.094    0.272    0.471   13.919
  243.850   85.825    0.281    0.476   13.336
  244.100   87.376    0.296    0.470   12.914
  244.350   83.255    0.311    0.475   13.374
  244.600   77.114    0.336    0.499   15.436
  244.850   69.877    0.347    0.545   18.540
  245.100   59.786    0.331    0.515   22.957
  245.350   52.766    0.331    0.476   25.313
  245.600   48.200    0.327    0.470   26.123
  245.850   44.381    0.339    0.461   26.240
  246.100   41.303    0.340    0.462   25.830
  246.350   41.913    0.349    0.467   25.850
  246.600   44.283    0.357    0.469   25.863
  246.850   46.211    0.338    0.465   25.491
  247.100   48.485    0.321    0.461   25.403
  247.350   49.829    0.332    0.469   25.394
  247.600   57.057    0.341    0.477   25.395
  247.850   59.266    0.332    0.475   25.391
  248.100   59.017    0.339    0.470   25.417
  248.350   58.334    0.337    0.479   24.909
  248.600   58.549    0.327    0.490   24.155
  248.850   60.097    0.313    0.489   21.706
  249.100   62.731    0.297    0.472   18.106
  249.350   69.405    0.291    0.455   14.692
  249.600   75.362    0.279    0.444   11.746
  249.850   84.051    0.242    0.453    8.903
  250.100   93.936    0.200    0.477    7.119
  250.350  104.640    0.173    0.501    6.126
  250.600  111.066    0.157    0.505    5.511
  250.850  115.632    0.202    0.499    5.168
  251.100  119.358    0.210    0.536    4.826
  251.350  126.326    0.201    0.555    4.581
  251.600  129.643    0.203    0.566    4.315
  251.850  132.239    0.208    0.576    4.217
  252.100  121.071    0.218    0.569    4.469
  252.350  114.965    0.227    0.578    5.630
  252.600  110.594    0.239    0.578    7.426
  252.850  106.273    0.252    0.551   10.068
  253.100   91.768    0.269    0.530   14.380
  253.350   79.228    0.291    0.508   20.443
  253.600   67.819    0.294    0.476   25.571
  253.850   62.075    0.300    0.458   26.399
  254.100   59.071    0.298    0.463   26.034
  254.350   58.056    0.300    0.465   25.004
  254.600   59.729    0.293    0.475   24.211
  254.850   60.621    0.266    0.488   23.057
  255.100   59.828    0.241    0.464   20.931
  255.350   63.954    0.227    0.432   20.120
  255.600   68.939    0.223    0.411   18.905
  255.850   72.811    0.267    0.432   18.067
  256.100   77.944    0.288    0.447   16.803
  256.350   82.887    0.301    0.457   15.496
  256.600   85.993    0.306    0.462   13.422
  256.850   86.699    0.296    0.474   10.854
  257.100   88.805    0.292    0.481    9.147
  257.350   93.208    0.263    0.450    8.116
  257.600   99.274    0.218    0.465    7.397
  257.850  107.494    0.158    0.488    6.966
  258.100  114.536    0.195    0.498    6.688
  258.350  117.449    0.198    0.509    6.435
  258.600  120.070    0.207    0.514    6.354
  258.850  122.621    0.201    0.522    6.286
  259.100  125.214    0.177    0.541    6.387
  259.350  126.273    0.168    0.542    7.016
  259.600  126.622    0.180    0.527    7.817
  259.850  126.309    0.173    0.527    9.567
  260.100  126.134    0.208    0.527   11.639
  260.350  121.334    0.231    0.519   14.346
  260.600  112.326    0.255    0.506   17.027
  260.850  101.866    0.303    0.489   18.665
  261.100   93.013    0.297    0.475   17.424
  261.350   89.701    0.276    0.467   16.200
  261.600   92.840    0.268    0.472   15.116
  261.850   98.634    0.252    0.479   14.459
  262.100  102.995    0.248    0.502   14.052
  262.350  106.153    0.248    0.509   13.451
  262.600  109.148    0.267    0.489   13.216
  262.850  108.693    0.249    0.473   13.403
  263.100  100.906    0.251    0.465   14.414
  263.350   84.670    0.263    0.464   16.820
  263.600   72.068    0.277    0.461   20.416
  263.850   60.493    0.300    0.462   24.617
  264.100   56.499    0.289    0.446   28.020
  264.350   55.889    0.239    0.421   27.515
  264.600   59.681    0.233    0.420   25.727
  264.850   63.863    0.292    0.458   21.622
  265.100   66.895    0.299    0.457   19.874
  265.350   72.142    0.288    0.461   17.876
  265.600   74.338    0.273    0.446   15.768
  265.850   79.431    0.263    0.442   14.697
  266.100   82.925    0.245    0.436   13.961
  266.350   85.364    0.237    0.433   12.482
  266.600   87.750    0.220    0.432   10.699
  266.850   90.145    0.216    0.448    9.726
  267.100   94.039    0.193    0.459    8.880
  267.350   99.589    0.183    0.466    8.368
  267.600  107.709    0.182    0.467    8.624
  267.850  109.262    0.193    0.478   10.301
  268.100  109.315    0.211    0.481   11.042
  268.350  107.276    0.229    0.472   12.509
  268.600  101.201    0.239    0.459   12.558
  268.850   97.355    0.246    0.424   11.414
  269.100   97.076    0.235    0.426   10.127
  269.350  100.715    0.218    0.436    9.509
  269.600  104.919    0.218    0.441    8.868
  269.850  108.926    0.218    0.453    8.620
  270.100  116.421    0.214    0.466    8.385
  270.350  121.928    0.213    0.477    8.543
  270.600  122.685    0.212    0.476    9.029
  270.850  118.813    0.219    0.484    9.991
  271.100  113.224    0.224    0.496   10.415
  271.350  108.012    0.250    0.509   11.089
  271.600  105.149    0.254    0.522   11.533
  271.850  102.012    0.232    0.513   12.093
