~VERSION INFORMATION
 VERS.                 2.0:   CWLS LOG ASCII STANDARD -VERSION 2.0
 WRAP.                  NO:   ONE LINE PER DEPTH STEP
~WELL INFORMATION BLOCK
#MNEM.UNIT           DATA                    DESCRIPTION OF MNEMONIC
#---------    -------------------            -------------------------------
# Generated from Intellog Unique Number	CX_WELLS/WELL/2829
WELL.         BANKENO THORDARY               : Well_name    - WELL
LOC .         00/10-28-081-12W4/0            : Location     - LOCATION
UWI .         00/10-28-081-12W400            : Uwi          - UNIQUE WELL ID
ENTR.         T                              : Entered      - ENTERED BY
SRVC.         SCHLUMBERGER                   : Scn          - SERVICE COMPANY
STRT.M        300                            : top_depth    - START DEPTH
STOP.M        525                            : bot_depth    - STOP DEPTH
STEP.M        0.25                           : increment    - STEP LENGTH
 NULL. -999.2500:NULL Value
~CURVE INFORMATION BLOCK
#MNEM UNIT       ERCB CURVE CODE    CURVE DESCRIPTION
#-----------   ------------------   ----------------------------------
DEPT.M        00 001 00 00         : DEPTH        - DEPTH
GR  .API      00 310 00 00         : GR           - GAMMA RAY
NPHI.V/V      00 330 00 00         : PHIN         - NEUTRON POROSITY (SANDSTONE)
DPHI.V/V      00 890 00 00         : PHID         - DENSITY POROSITY (SANDSTONE)
ILD .OHMM     00 120 00 00         : RESD         - DEEP RESISTIVITY (OTHER)
~PARAMETER INFORMATION
#MNEM.UNIT           DATA             DESCRIPTION OF MNEMONIC
#---------         -----------     ------------------------------
GL  .M        732.4                : gl           - GROUND LEVEL ELEVATION
EREF.M        750.3                : kb           - ELEVATION OF DEPTH REFERENCE
DATM.M        750.3                : datum        - DATUM ELEVATION
TDD .M        637                  : tdd          - TOTAL DEPTH DRILLER
RUN .         ONE                  : Run          - RUN NUMBER
ENG .         BILL                 : Engineer     - RECORDING ENGINEER
WIT .         JIM                  : Witness      - WITNESSED BY
MUD .         GEL                  : Mud_type     - MUD TYPE
MATR.         SANDSTONE            : Logunit      - NEUTRON MATRIX
TMAX.C        22                   : BHT          - MAXIMUM RECORDED TEMPERATURE
BHTD.M        642                  : BHTDEP       - MAXIMUM RECORDED TEMPERATURE
MATR.         1                    : LOGUNIT      - NEUTRON MATRIX
RMT .C        22                   : MDTP         - TEMPERATURE OF MUD
NEUT.         1                    : NEUTRON      - NEUTRON TYPE
RESI.         0.3                  : RESIST       - RESISTIVITY TYPE
RMC .OHMM     0.25                 : RMC          - RESISTIVITY OF MUD CAKE
RMF .OHMM     0.25                 : RMF          - RESISTIVITY OF MUD FILTRATE
SUFT.C        4                    : SUFT         - SURFACE TEMPERATURE
~A  DEPTH       GR     PHIN     PHID     RESD
# ...
  430.500   96.746    0.456    0.233    4.392
  430.750   96.184    0.463    0.233    4.396
  431.000   96.839    0.462    0.234    4.569
  431.250   97.463    0.445    0.238    4.750
  431.500   98.107    0.439    0.241    4.844
  431.750   96.339    0.435    0.244    5.034
  432.000   93.364    0.430    0.225    5.529
  432.250   89.785    0.425    0.190    6.302
  432.500   83.201    0.275    0.158    6.422
  432.750   79.009    0.229    0.061    6.922
  433.000   74.234    0.188    0.044    7.603
  433.250   70.645    0.186    0.030    8.354
  433.500   76.719    0.195    0.030    8.674
  433.750   84.000    0.249    0.083    9.703
  434.000   93.704    0.287    0.151    9.195
  434.250   97.989    0.360    0.220    8.102
  434.500   98.623    0.411    0.220    7.273
  434.750   98.654    0.432    0.220    7.020
  435.000   98.695    0.458    0.220    6.424
  435.250   98.144    0.469    0.223    6.313
  435.500   98.778    0.465    0.227    6.093
  435.750  100.026    0.457    0.229    5.779
  436.000  100.670    0.458    0.234    5.682
  436.250  101.315    0.444    0.245    5.590
  436.500  101.356    0.415    0.252    5.498
  436.750   97.778    0.382    0.261    5.507
  437.000   92.993    0.367    0.273    5.619
  437.250   88.811    0.344    0.289    6.059
  437.500   87.053    0.331    0.287    6.297
  437.750   87.094    0.326    0.290    6.661
  438.000   87.125    0.328    0.318    6.925
  438.250   87.780    0.355    0.312    6.939
  438.500   89.028    0.396    0.296    6.825
  438.750   90.879    0.401    0.271    6.588
  439.000   92.127    0.405    0.257    6.137
  439.250   93.375    0.417    0.251    5.924
  439.500   94.019    0.431    0.244    5.718
  439.750   95.267    0.436    0.242    5.626
  440.000   97.139    0.437    0.242    5.533
  440.250   97.763    0.438    0.245    5.440
  440.500   98.418    0.438    0.247    5.451
  440.750   96.639    0.433    0.252    5.461
  441.000   93.060    0.427    0.259    5.573
  441.250   87.683    0.422    0.260    5.578
  441.500   88.327    0.415    0.258    5.588
  441.750   91.374    0.414    0.256    5.706
  442.000   92.040    0.411    0.255    5.713
  442.250   91.467    0.405    0.255    5.834
  442.500   90.302    0.404    0.255    5.841
  442.750   90.967    0.410    0.252    5.848
  443.000   91.591    0.422    0.251    5.861
  443.250   92.236    0.435    0.252    5.873
  443.500   92.287    0.434    0.256    5.878
  443.750   91.725    0.424    0.257    5.893
  444.000   91.163    0.416    0.258    5.901
  444.250   89.395    0.416    0.258    5.911
  444.500   84.600    0.414    0.263    5.924
  444.750   79.211    0.405    0.267    5.828
  445.000   75.643    0.409    0.275    5.836
  445.250   76.881    0.415    0.279    5.737
  445.500   79.949    0.420    0.284    5.643
  445.750   81.800    0.423    0.286    5.549
  446.000   83.037    0.424    0.288    5.460
  446.250   84.296    0.425    0.287    5.470
  446.500   84.357    0.428    0.287    5.379
  446.750   84.378    0.435    0.287    5.291
  447.000   84.419    0.469    0.288    5.201
  447.250   83.868    0.478    0.291    5.024
  447.500   82.713    0.450    0.290    5.031
  447.750   82.130    0.446    0.283    4.862
  448.000   82.171    0.452    0.278    4.780
  448.250   85.229    0.458    0.274    4.701
  448.500   87.683    0.482    0.259    4.541
  448.750   91.355    0.489    0.259    4.547
  449.000   93.799    0.494    0.258    4.472
  449.250   99.280    0.487    0.253    4.400
  449.500  104.147    0.483    0.245    4.406
  449.750  104.189    0.476    0.234    4.333
  450.000  102.420    0.469    0.227    3.962
  450.250   95.222    0.460    0.151    4.269
  450.500   81.981    0.442    0.107    5.139
  450.750   70.560    0.276    0.067    5.853
  451.000   63.965    0.269    0.106    6.666
  451.250   65.213    0.297    0.178    7.595
  451.500   73.097    0.339    0.254    7.067
  451.750   79.181    0.383    0.286    6.459
  452.000   84.049    0.421    0.303    6.129
  452.250   86.503    0.450    0.292    6.134
  452.500   88.957    0.450    0.279    6.038
  452.750   89.602    0.450    0.262    5.938
  453.000   90.257    0.449    0.250    5.948
  453.250   90.298    0.451    0.244    5.850
  453.500   90.953    0.452    0.233    5.858
  453.750   90.994    0.448    0.214    5.764
  454.000   91.025    0.441    0.206    5.666
  454.250   91.670    0.439    0.212    5.681
  454.500   91.711    0.446    0.217    5.686
  454.750   92.366    0.449    0.222    5.592
  455.000   93.010    0.446    0.227    5.606
  455.250   94.269    0.432    0.229    5.613
  455.500   95.496    0.421    0.229    5.625
  455.750   97.950    0.415    0.229    5.635
  456.000  100.415    0.415    0.229    5.642
  456.250  101.652    0.415    0.229    5.554
  456.500  104.127    0.416    0.229    5.561
  456.750  104.772    0.416    0.229    5.469
  457.000  103.003    0.416    0.228    5.379
  457.250  100.632    0.416    0.230    5.007
  457.500   98.249    0.424    0.231    4.745
  457.750   94.681    0.457    0.233    4.105
  458.000   92.299    0.480    0.234    3.616
  458.250   87.514    0.499    0.241    3.018
  458.500   82.126    0.487    0.255    2.859
  458.750   79.141    0.459    0.281    2.565
  459.000   77.986    0.450    0.275    2.303
  459.250   82.260    0.437    0.269    2.392
  459.500   84.704    0.427    0.262    2.726
  459.750   87.762    0.416    0.254    2.938
  460.000   90.216    0.403    0.247    3.226
  460.250   89.061    0.400    0.238    3.674
  460.500   86.076    0.405    0.238    4.033
  460.750   81.301    0.399    0.241    4.510
  461.000   82.539    0.395    0.249    4.773
  461.250   87.417    0.427    0.267    4.781
  461.500   91.681    0.457    0.288    4.451
  461.750   94.135    0.468    0.283    3.994
  462.000   94.187    0.462    0.275    3.584
  462.250   93.625    0.465    0.246    3.398
  462.500   93.073    0.449    0.239    3.404
  462.750   93.094    0.426    0.238    3.950
  463.000   93.739    0.473    0.237    4.258
  463.250   95.590    0.502    0.247    4.038
  463.500   97.441    0.518    0.252    3.759
  463.750  101.102    0.528    0.247    3.628
  464.000  101.143    0.499    0.242    3.378
  464.250   98.781    0.491    0.237    3.144
  464.500   98.833    0.469    0.237    3.095
  464.750   99.467    0.468    0.239    3.155
  465.000  101.329    0.479    0.244    3.401
  465.250  101.973    0.485    0.245    3.667
  465.500  103.221    0.481    0.239    3.881
  465.750  104.469    0.477    0.235    3.817
  466.000  103.917    0.476    0.224    3.686
  466.250  103.335    0.470    0.210    3.628
  466.500  103.979    0.457    0.210    3.633
  466.750  104.624    0.466    0.219    3.706
  467.000  106.485    0.479    0.231    3.853
  467.250  108.939    0.478    0.240    3.928
  467.500  110.187    0.478    0.242    4.085
  467.750  110.842    0.480    0.238    4.166
  468.000  107.857    0.488    0.229    4.411
  468.250  100.055    0.478    0.219    4.666
  468.500   93.450    0.408    0.233    5.218
  468.750   89.289    0.412    0.245    5.624
  469.000   89.913    0.394    0.257    6.068
  469.250   90.578    0.388    0.262    6.422
  469.500   90.006    0.384    0.262    6.797
  469.750   88.238    0.384    0.266    7.193
  470.000   90.089    0.385    0.268    7.472
  470.250   91.950    0.389    0.261    7.767
  470.500   91.388    0.388    0.246    7.921
  470.750   87.799    0.377    0.240    8.088
  471.000   82.411    0.368    0.235    8.252
  471.250   81.256    0.358    0.235    8.270
  471.500   80.694    0.356    0.235    8.126
  471.750   80.132    0.358    0.235    7.992
  472.000   81.370    0.362    0.237    7.724
  472.250   93.477    0.365    0.241    7.734
  472.500  100.164    0.371    0.243    7.610
  472.750  100.205    0.374    0.240    7.619
  473.000  100.860    0.373    0.234    7.629
  473.250  101.505    0.377    0.231    7.790
  473.500  103.356    0.379    0.227    7.948
  473.750  104.001    0.378    0.230    8.259
