~VERSION INFORMATION
 VERS.                 2.0:   CWLS LOG ASCII STANDARD -VERSION 2.0
 WRAP.                  NO:   ONE LINE PER DEPTH STEP
~WELL INFORMATION BLOCK
#MNEM.UNIT           DATA                    DESCRIPTION OF MNEMONIC
#---------    -------------------            -------------------------------
# Generated from Intellog Unique Number	CW_79_81/WELL/2465
WELL.         10-10-080-24W4                 : Well_name    - WELL
LOC .         00/10-10-080-24W4/0            : Location     - LOCATION
UWI .         00/10-10-080-24W4/0            : Uwi          - UNIQUE WELL ID
ENTR.         MAX                            : Entered      - ENTERED BY
SRVC.         SCHLUMBERGER                   : Scn          - SERVICE COMPANY
STRT.M        200                            : top_depth    - START DEPTH
STOP.M        455                            : bot_depth    - STOP DEPTH
STEP.M        0.25                           : increment    - STEP LENGTH
 NULL. -999.2500:NULL Value
~CURVE INFORMATION BLOCK
#MNEM UNIT       ERCB CURVE CODE    CURVE DESCRIPTION
#-----------   ------------------   ----------------------------------
DEPT.M        00 001 00 00         : DEPTH        - DEPTH
ILD .OHMM     00 120 00 00         : RESD         - DEEP RESISTIVITY (DIL)
NPHI.V/V      00 330 00 00         : PHIN         - NEUTRON POROSITY (SANDSTONE)
DPHI.V/V      00 890 00 00         : PHID         - DENSITY POROSITY (SANDSTONE)
GR  .API      00 310 00 00         : GR           - GAMMA RAY
CALI.MM       00 280 01 00         : CAL          - CALIPER
~PARAMETER INFORMATION
#MNEM.UNIT           DATA             DESCRIPTION OF MNEMONIC
#---------         -----------     ------------------------------
GL  .M        558.63               : gl           - GROUND LEVEL ELEVATION
EREF.M        562.83               : kb           - ELEVATION OF DEPTH REFERENCE
DATM.M        558.63               : datum        - DATUM ELEVATION
TDD .M        456.5                : tdd          - TOTAL DEPTH DRILLER
RUN .         ONE                  : Run          - RUN NUMBER
ENG .         BILL                 : Engineer     - RECORDING ENGINEER
WIT .         JIM                  : Witness      - WITNESSED BY
MUD .         GEL                  : Mud_type     - MUD TYPE
MATR.         SANDSTONE            : Logunit      - NEUTRON MATRIX
TMAX.C        24.5                 : BHT          - MAXIMUM RECORDED TEMPERATURE
BHTD.M        456.5                : BHTDEP       - MAXIMUM RECORDED TEMPERATURE
MATR.         1                    : LOGUNIT      - NEUTRON MATRIX
RMT .C        18.5                 : MDTP         - TEMPERATURE OF MUD
NEUT.         1                    : NEUTRON      - NEUTRON TYPE
RESI.         0                    : RESIST       - RESISTIVITY TYPE
RMC .OHMM     7.95                 : RMC          - RESISTIVITY OF MUD CAKE
RMF .OHMM     5.82                 : RMF          - RESISTIVITY OF MUD FILTRATE
SUFT.C        -20                  : SUFT         - SURFACE TEMPERATURE
~A  DEPTH     RESD     PHIN     PHID       GR      CAL
# ...
  382.500   12.060    0.440    0.196   92.024  213.591
  382.750   12.045    0.436    0.196   91.964  214.699
  383.000   11.957    0.438    0.185   90.476  214.286
  383.250   11.784    0.425    0.181   91.905  214.286
  383.500   11.488    0.428    0.182   93.512  214.583
  383.750   11.200    0.427    0.184   94.941  214.980
  384.000   10.939    0.419    0.184   95.595  214.881
  384.250   10.611    0.416    0.189   94.692  213.128
  384.500   10.532    0.428    0.208   94.941  212.302
  384.750   10.535    0.434    0.209   93.036  213.095
  385.000   10.595    0.433    0.199   91.845  214.484
  385.250   10.714    0.429    0.183   91.012  215.476
  385.500   10.895    0.425    0.169   90.238  215.873
  385.750   11.157    0.419    0.160   90.525  216.435
  386.000   11.246    0.416    0.168   96.726  217.262
  386.250   11.166    0.434    0.172   98.393  218.055
  386.500   11.026    0.443    0.176   98.988  218.552
  386.750   10.666    0.452    0.180   99.822  219.147
  387.000   10.117    0.461    0.182  100.595  220.040
  387.250    9.474    0.458    0.176   98.958  221.230
  387.500    9.123    0.447    0.169   96.726  221.230
  387.750    9.260    0.435    0.163   93.869  220.437
  388.000    9.656    0.420    0.155   94.762  219.643
  388.250   10.022    0.408    0.153   97.976  219.048
  388.500   10.135    0.402    0.160  101.964  219.048
  388.750    9.762    0.406    0.169  104.762  220.403
  389.000    9.053    0.416    0.174  103.274  221.230
  389.250    7.742    0.422    0.148  101.607  219.246
  389.500    7.147    0.412    0.151  100.833  218.750
  389.750    7.098    0.408    0.166   99.762  218.750
  390.000    7.433    0.418    0.177   98.036  218.651
  390.250    7.933    0.428    0.173   95.585  218.089
  390.500    8.503    0.401    0.182   92.857  217.262
  390.750   10.098    0.396    0.187   91.667  216.468
  391.000   10.596    0.394    0.180   89.762  215.675
  391.250   10.830    0.409    0.174   86.547  215.079
  391.500   11.964    0.437    0.178   83.036  214.683
  391.750   16.863    0.452    0.192   81.597  214.203
  392.000   19.235    0.425    0.180   80.357  213.790
  392.250   22.057    0.361    0.141   74.882  213.393
  392.500   22.275    0.371    0.160   74.583  212.996
  392.750   21.398    0.402    0.203   76.607  212.798
  393.000   20.445    0.418    0.237   78.750  212.798
  393.250   19.254    0.406    0.218   79.861  212.880
  393.500   18.401    0.400    0.188   81.845  213.294
  393.750   18.004    0.391    0.178   86.607  213.690
  394.000   17.033    0.380    0.174   93.333  214.385
  394.250   15.642    0.383    0.169   98.095  214.782
  394.500   14.462    0.397    0.154   98.334  214.683
  394.750   14.363    0.400    0.126   92.808  214.120
  395.000   14.928    0.403    0.160   92.559  213.294
  395.250   16.054    0.420    0.175   91.845  213.294
  395.500   18.192    0.433    0.183   82.203  213.294
  395.750   20.862    0.428    0.133   73.274  213.492
  396.000   23.101    0.391    0.044   68.096  213.889
  396.250   24.334    0.291    0.006   61.310  214.451
  396.500   28.638    0.215    0.003   52.381  215.278
  396.750   32.606    0.198    0.008   48.334  216.071
  397.000   38.894    0.190    0.013   46.964  216.865
  397.250   46.523    0.187    0.018   49.703  217.659
  397.500   52.453    0.190    0.023   56.071  218.353
  397.750   50.126    0.212    0.030   64.732  218.750
  398.000   40.985    0.241    0.030   69.941  218.750
  398.250   25.853    0.274    0.089   73.512  218.750
  398.500   18.474    0.302    0.123   78.333  219.048
  398.750   15.523    0.335    0.148   81.667  219.246
  399.000   14.603    0.367    0.165   82.500  219.246
  399.250   14.164    0.384    0.163   81.399  219.246
  399.500   14.060    0.394    0.147   80.655  219.246
  399.750   13.961    0.394    0.149   82.083  219.246
  400.000   13.862    0.395    0.163   83.690  218.948
  400.250   13.764    0.399    0.172   83.690  218.750
  400.500   13.742    0.405    0.170   82.619  218.750
  400.750   13.991    0.407    0.163   84.077  218.750
  401.000   14.210    0.403    0.172   87.798  218.750
  401.250   14.109    0.411    0.179   92.559  218.750
  401.500   13.169    0.424    0.171   95.357  218.750
  401.750   12.016    0.433    0.164   96.667  218.750
  402.000   11.148    0.436    0.166   95.179  218.750
  402.250   10.909    0.433    0.167   88.293  218.750
  402.500   10.914    0.431    0.173   90.774  218.750
  402.750   10.835    0.427    0.180   93.154  218.353
  403.000   10.758    0.426    0.180   93.393  217.956
  403.250   10.721    0.427    0.173   92.917  217.758
  403.500   10.723    0.427    0.163   93.036  217.659
  403.750   10.710    0.415    0.156   95.436  217.262
  404.000   10.631    0.407    0.154   97.917  217.262
  404.250   10.631    0.411    0.150   97.917  217.262
  404.500   10.635    0.420    0.147   95.238  217.262
  404.750   10.599    0.414    0.139   91.905  217.262
  405.000   10.543    0.393    0.127   89.226  217.262
  405.250   10.544    0.376    0.131   88.541  217.262
  405.500   10.550    0.398    0.166   92.262  217.262
  405.750   10.552    0.415    0.133   93.690  218.452
  406.000   10.438    0.419    0.111   93.512  219.048
  406.250   10.289    0.419    0.099   92.083  219.246
  406.500   10.160    0.422    0.098   90.476  219.345
  406.750   10.104    0.424    0.119   91.121  219.990
  407.000   10.184    0.422    0.157   94.345  221.230
  407.250   10.336    0.409    0.170   92.679  220.437
  407.500   10.549    0.385    0.176   91.548  219.345
  407.750   10.863    0.367    0.176   90.357  218.750
  408.000   11.271    0.361    0.164   88.393  218.651
  408.250   11.750    0.356    0.118   83.681  218.171
  408.500   12.026    0.325    0.094   77.976  217.758
  408.750   12.029    0.309    0.081   78.690  217.758
  409.000   11.834    0.321    0.104   80.655  217.758
  409.250   11.492    0.359    0.128   86.965  217.758
  409.500   10.933    0.404    0.135   95.059  217.956
  409.750    9.852    0.418    0.125   96.478  219.081
  410.000    9.067    0.415    0.125   95.238  220.734
  410.250    8.677    0.422    0.131   93.095  223.115
  410.500    8.398    0.419    0.129   91.667  223.115
  410.750    8.309    0.401    0.118   91.548  221.528
  411.000    8.388    0.374    0.108   93.095  219.445
  411.250    8.591    0.360    0.119   97.172  218.254
  411.500    8.997    0.353    0.136  100.893  218.254
  411.750    9.469    0.372    0.150  103.274  218.651
  412.000    9.808    0.385    0.150  102.083  218.750
  412.250   10.175    0.397    0.144   97.916  218.750
  412.500   10.654    0.405    0.140   92.857  218.651
  412.750   11.371    0.402    0.142   90.377  218.171
  413.000   12.188    0.389    0.144   89.881  217.758
  413.250   12.736    0.373    0.151   90.119  217.758
  413.500   12.954    0.366    0.148   89.464  217.460
  413.750   12.956    0.371    0.143   88.988  217.063
  414.000   12.744    0.382    0.147   88.274  216.667
  414.250   12.276    0.390    0.174   82.391  216.270
  414.500   12.661    0.418    0.221   67.262  216.270
  414.750   14.724    0.399    0.246   54.882  216.270
  415.000   17.587    0.382    0.262   47.143  215.972
  415.250   22.078    0.383    0.272   42.262  215.774
  415.500   28.817    0.399    0.280   38.750  215.774
  415.750   36.828    0.397    0.293   34.673  215.774
  416.000   49.611    0.364    0.295   30.952  215.774
  416.250   62.703    0.353    0.295   30.476  215.377
  416.500   70.490    0.349    0.294   30.893  215.278
  416.750   73.196    0.353    0.293   31.488  215.278
  417.000   73.481    0.359    0.290   31.786  215.179
  417.250   72.629    0.358    0.286   31.647  214.782
  417.500   71.007    0.358    0.287   32.143  214.782
  417.750   70.001    0.364    0.287   32.857  214.782
  418.000   68.611    0.373    0.286   33.214  214.484
  418.250   66.376    0.379    0.286   33.691  214.087
  418.500   63.174    0.379    0.286   34.702  213.790
  418.750   57.971    0.363    0.282   37.103  213.707
