~VERSION INFORMATION
 VERS.                 2.0:   CWLS LOG ASCII STANDARD -VERSION 2.0
 WRAP.                  NO:   ONE LINE PER DEPTH STEP
~WELL INFORMATION BLOCK
#MNEM.UNIT           DATA                    DESCRIPTION OF MNEMONIC
#---------    -------------------            -------------------------------
# Generated from Intellog Unique Number	CW_70_72/WELL/1058
NULL.         -999.25                        : NULL_VALUE
WELL.         WINCAN ET AL SMITH 11-16       : Well_name    - WELL              
LOC .         11-16-071-26W4                 : Location     - LOCATION          
UWI .         00/11-16-071-26W4/0            : Uwi          - UNIQUE WELL ID    
ENTR.         JAYE                           : Entered      - ENTERED BY        
SRVC.         COMPUTALOG                     : Scn          - SERVICE COMPANY   
DATE.         13 AUG 83                      : Date         - LOG DATE          
STRT.M        400                            : top_depth    - START DEPTH       
STOP.M        668.5                          : bot_depth    - STOP DEPTH        
STEP.M        0.25                           : increment    - STEP LENGTH       
~CURVE INFORMATION BLOCK
#MNEM UNIT       ERCB CURVE CODE    CURVE DESCRIPTION
#-----------   ------------------   ----------------------------------
DEPT.M        00 001 00 00         : DEPTH        - DEPTH                       
DPHI.V/V      00 890 00 00         : PHID         - DENSITY POROSITY (SANDSTONE)
NPHI.V/V      00 330 00 00         : PHIN         - NEUTRON POROSITY (SANDSTONE)
GR  .API      00 310 00 00         : GR           - GAMMA RAY                   
CALI.MM       00 280 01 00         : CAL          - CALIPER                     
ILD .OHMM     00 120 00 00         : RESD         - DEEP RESISTIVITY (DIL)      
~PARAMETER INFORMATION       
#MNEM.UNIT           DATA             DESCRIPTION OF MNEMONIC
#---------         -----------     ------------------------------
GL  .M        593.18               : gl           - GROUND LEVEL ELEVATION      
EREF.M        596.48               : kb           - ELEVATION OF DEPTH REFERENCE
DATM.M        593.18               : datum        - DATUM ELEVATION             
TDD .M        668                  : tdd          - TOTAL DEPTH DRILLER         
RUN .         ONE                  : Run          - RUN NUMBER                  
ENG .         WOOD                 : Engineer     - RECORDING ENGINEER          
WIT .         VAN FRAASEN          : Witness      - WITNESSED BY                
BASE.         LLOYD                : Branch       - HOME BASE OF LOGGING UNIT   
MUD .         GEL CHEM             : Mud_type     - MUD TYPE                    
MATR.         SANDSTONE            : Logunit      - NEUTRON MATRIX              
TMAX.C        31                   : BHT          - MAXIMUM RECORDED TEMPERATURE
BHTD.M        668.3                : BHTDEP       - MAXIMUM RECORDED TEMPERATURE
RMT .C        22                   : MDTP         - TEMPERATURE OF MUD          
MUDD.KG/M     1120                 : MWT          - MUD DENSITY                 
NEUT.         1                    : NEUTRON      - NEUTRON TYPE                
RESI.         0                    : RESIST       - RESISTIVITY TYPE            
RM  .OHMM     2.6                  : RM           - RESISTIVITY OF MUD          
RMC .OHMM     0                    : RMC          - RESISTIVITY OF MUD CAKE     
RMF .OHMM     3.2                  : RMF          - RESISTIVITY OF MUD FILTRATE 
SUFT.C        0                    : SUFT         - SURFACE TEMPERATURE         
~A  DEPTH     PHID     PHIN       GR      CAL     RESD
# ...
  509.500    0.253    0.366   67.839  152.490    3.536
  509.750    0.253    0.363   67.075  152.974    3.540
  510.000    0.256    0.359   67.427  154.180    3.592
  510.250    0.269    0.362   66.601  155.293    3.596
  510.500    0.280    0.356   69.255  156.398    3.601
  510.750    0.274    0.347   73.401  157.095    3.619
  511.000    0.257    0.345   78.043  158.303    3.631
  511.250    0.254    0.349   76.283  159.618    3.642
  511.500    0.264    0.359   73.841  161.455    3.661
  511.750    0.266    0.373   72.391  162.977    3.672
  512.000    0.273    0.387   71.565  164.708    3.655
  512.250    0.266    0.389   72.850  165.504    3.612
  512.500    0.236    0.332   74.137  164.644    3.624
  512.750    0.212    0.310   74.552  163.059    3.621
  513.000    0.202    0.312   73.228  160.951    3.606
  513.250    0.237    0.341   72.339  159.987    3.563
  513.500    0.262    0.361   71.883  160.787    3.508
  513.750    0.273    0.362   71.866  161.480    3.414
  514.000    0.278    0.366   71.783  161.862    3.280
  514.250    0.280    0.377   72.697  161.521    3.168
  514.500    0.276    0.388   74.047  144.914    3.084
  514.750    0.251    0.401   76.264  144.467    3.030
  515.000    0.213    0.406   78.793  147.955    3.284
  515.250    0.128    0.182   79.087  154.756    3.647
  515.500    0.075    0.147   71.793  160.223    4.343
  515.750    0.009    0.135   61.705  165.264    5.290
  516.000   -0.007    0.126   53.481  168.754    6.443
  516.250   -0.012    0.122   50.105  172.352    8.134
  516.500   -0.014    0.120   49.091  173.874   10.523
  516.750   -0.012    0.121   50.564  166.069   13.012
  517.000    0.006    0.127   51.975  163.653   14.397
  517.250    0.031    0.147   53.073  163.211   13.910
  517.500    0.047    0.177   55.107  162.864   13.386
  517.750    0.046    0.202   57.574  162.525   12.643
  518.000    0.022    0.194   57.058  161.559   11.242
  518.250    0.033    0.217   55.981  161.423    8.453
  518.500    0.097    0.270   60.562  161.084    5.817
  518.750    0.182    0.347   70.552  160.119    4.647
  519.000    0.237    0.355   75.754  158.425    3.868
  519.250    0.254    0.362   79.838  157.255    3.472
  519.500    0.251    0.371   79.943  155.877    3.188
  519.750    0.250    0.379   78.991  155.432    3.028
  520.000    0.245    0.377   75.802  155.708    3.089
  520.250    0.229    0.365   75.720  155.883    3.182
  520.500    0.219    0.349   79.866  155.647    3.397
  520.750    0.214    0.329   81.339  154.063    3.653
  521.000    0.204    0.336   79.889  155.789    3.863
  521.250    0.193    0.346   84.596  160.420    4.040
  521.500    0.177    0.353   83.892  163.499    4.232
  521.750    0.168    0.352   84.992  164.186    4.359
  522.000    0.166    0.348   88.143  164.470    4.456
  522.250    0.170    0.355   91.668  164.534    4.503
  522.500    0.187    0.379   86.798  164.511    4.526
  522.750    0.198    0.373   85.227  164.577    4.516
  523.000    0.202    0.307   85.332  164.549    4.521
  523.250    0.198    0.276   86.245  164.412    4.527
  523.500    0.191    0.322   86.226  164.068    4.619
  523.750    0.177    0.362   86.829  163.517    4.659
  524.000    0.158    0.386   89.483  163.794    4.587
  524.250    0.161    0.382   89.215  163.868    4.507
  524.500    0.177    0.367   87.269  164.144    4.455
  524.750    0.195    0.353   84.452  164.527    4.368
  525.000    0.214    0.356   81.885  165.018    4.157
  525.250    0.233    0.374   80.995  165.193    3.993
  525.500    0.227    0.389   84.331  165.162    3.865
  525.750    0.203    0.405   88.539  165.123    3.769
  526.000    0.188    0.415   94.675  165.098    3.738
  526.250    0.206    0.409   98.448  165.067    3.773
  526.500    0.227    0.403   94.885  164.720    3.855
  526.750    0.220    0.394   91.073  164.688    3.941
  527.000    0.204    0.389   89.501  164.350    4.106
  527.250    0.193    0.399   90.353  164.007    4.269
  527.500    0.183    0.374   90.271  163.450    4.430
  527.750    0.176    0.355   86.336  163.218    4.528
  528.000    0.180    0.330   84.515  162.977    4.525
  528.250    0.194    0.355   86.916  162.945    4.489
  528.500    0.204    0.371   88.703  163.018    4.436
  528.750    0.199    0.380   91.606  163.295    4.384
  529.000    0.197    0.393   94.136  163.580    4.348
  529.250    0.193    0.396   93.618  163.646    4.328
  529.500    0.190    0.378   92.668  164.032    4.327
  529.750    0.190    0.368   95.133  164.622    4.332
  530.000    0.189    0.371   96.794  165.933    4.370
  530.250    0.207    0.383   94.102  166.836    4.434
  530.500    0.204    0.379   93.708  167.532    4.491
  530.750    0.197    0.361   93.753  167.703    4.539
  531.000    0.202    0.363   90.066  168.191    4.570
  531.250    0.200    0.375   91.042  168.158    4.602
  531.500    0.193    0.382   92.390  168.541    4.617
  531.750    0.186    0.386   93.552  169.031    4.640
  532.000    0.179    0.386   96.018  169.310    4.681
  532.250    0.178    0.384   98.673  169.484    4.714
  532.500    0.183    0.374   99.400  169.339    4.719
  532.750    0.188    0.375   97.702  169.314    4.726
  533.000    0.184    0.381   94.576  169.077    4.714
  533.250    0.168    0.389   91.882  168.629    4.755
  533.500    0.157    0.400   92.174  168.599    4.726
  533.750    0.164    0.399   97.625  168.774    4.704
  534.000    0.170    0.394  101.709  168.744    4.641
  534.250    0.177    0.382  105.110  168.911    4.559
  534.500    0.184    0.363  100.241  168.779    4.396
  534.750    0.193    0.379   95.312  168.441    4.295
  535.000    0.202    0.385   93.303  168.098    4.301
  535.250    0.204    0.375   94.775  168.272    4.347
  535.500    0.190    0.380   97.927  168.341    4.410
  535.750    0.182    0.380   98.093  168.726    4.526
  536.000    0.175    0.377   97.579  168.490    4.626
  536.250    0.169    0.369   98.800  168.245    4.765
  536.500    0.174    0.379  100.897  167.900    4.871
  536.750    0.195    0.384  104.172  167.565    4.979
  537.000    0.215    0.387   97.067  166.808    5.090
  537.250    0.235    0.408   92.759  166.256    5.232
  537.500    0.251    0.424   93.608  165.914    5.379
  537.750    0.253    0.424   94.024  164.947    5.458
  538.000    0.234    0.406   93.510  163.985    5.444
  538.250    0.191    0.387   90.381  163.229    5.472
  538.500    0.191    0.338   86.447  162.369    5.593
  538.750    0.202    0.322   82.139  161.814    6.028
  539.000    0.197    0.338   83.798  161.580    6.327
  539.250    0.174    0.378   87.011  162.376    6.382
  539.500    0.164    0.382   84.754  161.412    6.260
  539.750    0.149    0.359   76.965  158.066    6.127
  540.000    0.166    0.351   79.122  156.166    5.647
  540.250    0.208    0.367   82.520  156.648    5.415
  540.500    0.197    0.364   84.428  158.486    5.760
  540.750    0.187    0.341   80.618  161.247    6.089
  541.000    0.172    0.322   74.694  164.533    6.464
  541.250    0.155    0.301   69.329  168.336    7.099
  541.500    0.125    0.284   66.139  169.652    7.868
  541.750    0.142    0.296   64.566  169.100    8.510
  542.000    0.170    0.318   64.548  168.440    8.239
  542.250    0.193    0.356   70.993  167.895    7.298
  542.500    0.202    0.369   77.999  167.661    6.525
  542.750    0.204    0.379   84.133  167.316    5.557
  543.000    0.205    0.389   89.584  166.657    4.960
  543.250    0.198    0.385   94.973  166.630    4.809
  543.500    0.193    0.376   97.813  166.386    4.926
  543.750    0.193    0.363   93.319  166.361    5.093
  544.000    0.190    0.368   84.658  166.531    5.295
  544.250    0.188    0.384   80.661  166.919    5.484
  544.500    0.183    0.387   80.890  167.403    5.595
  544.750    0.181    0.371   82.178  167.788    5.529
  545.000    0.185    0.355   83.711  168.274    5.403
  545.250    0.185    0.370   85.744  168.651    5.298
  545.500    0.183    0.384   89.083  168.937    5.216
  545.750    0.183    0.390   90.928  169.311    5.174
