~VERSION INFORMATION
 VERS.                 2.0:   CWLS LOG ASCII STANDARD -VERSION 2.0
 WRAP.                  NO:   ONE LINE PER DEPTH STEP
~WELL INFORMATION BLOCK
#MNEM.UNIT           DATA                    DESCRIPTION OF MNEMONIC
#---------    -------------------            -------------------------------
# Generated from Intellog Unique Number	CW_70_72/WELL/1060
NULL.         -999.25                        : NULL_VALUE
WELL.         HUSKY ET AL SMITH 11-21        : Well_name    - WELL              
LOC .         11-21-071-24W4                 : Location     - LOCATION          
UWI .         00/11-21-071-24W4/0            : Uwi          - UNIQUE WELL ID    
ENTR.         JAYE                           : Entered      - ENTERED BY        
SRVC.         SCHLUMBERGER                   : Scn          - SERVICE COMPANY   
DATE.         18 DEC 77                      : Date         - LOG DATE          
STRT.M        422.453                        : top_depth    - START DEPTH       
STOP.M        642.453                        : bot_depth    - STOP DEPTH        
STEP.M        0.25                           : increment    - STEP LENGTH       
~CURVE INFORMATION BLOCK
#MNEM UNIT       ERCB CURVE CODE    CURVE DESCRIPTION
#-----------   ------------------   ----------------------------------
DEPT.M        00 001 00 00         : DEPTH        - DEPTH                       
DPHI.V/V      00 890 00 00         : PHID         - DENSITY POROSITY (SANDSTONE)
NPHI.V/V      00 330 00 00         : PHIN         - NEUTRON POROSITY (SANDSTONE)
GR  .API      00 310 00 00         : GR           - GAMMA RAY                   
CALI.MM       00 280 01 00         : CAL          - CALIPER                     
ILD .OHMM     00 120 00 00         : RESD         - DEEP RESISTIVITY (DIL)      
~PARAMETER INFORMATION       
#MNEM.UNIT           DATA             DESCRIPTION OF MNEMONIC
#---------         -----------     ------------------------------
GL  .M        642.671              : gl           - GROUND LEVEL ELEVATION      
EREF.M        646.633              : kb           - ELEVATION OF DEPTH REFERENCE
DATM.M        642.671              : datum        - DATUM ELEVATION             
TDD .M        658.368              : tdd          - TOTAL DEPTH DRILLER         
RUN .         ONE                  : Run          - RUN NUMBER                  
ENG .         DALY                 : Engineer     - RECORDING ENGINEER          
WIT .         TODD/GEORGE          : Witness      - WITNESSED BY                
BASE.         EDM                  : Branch       - HOME BASE OF LOGGING UNIT   
MUD .         GEL                  : Mud_type     - MUD TYPE                    
MATR.         SANDSTONE            : Logunit      - NEUTRON MATRIX              
TMAX.C        26.1111              : BHT          - MAXIMUM RECORDED TEMPERATURE
BHTD.M        658.368              : BHTDEP       - MAXIMUM RECORDED TEMPERATURE
RMT .C        -17.7778             : MDTP         - TEMPERATURE OF MUD          
MUDD.KG/M     1092                 : MWT          - MUD DENSITY                 
NEUT.         1                    : NEUTRON      - NEUTRON TYPE                
RESI.         0                    : RESIST       - RESISTIVITY TYPE            
RM  .OHMM     0                    : RM           - RESISTIVITY OF MUD          
RMC .OHMM     0                    : RMC          - RESISTIVITY OF MUD CAKE     
RMF .OHMM     6.97                 : RMF          - RESISTIVITY OF MUD FILTRATE 
SUFT.C        -17.7778             : SUFT         - SURFACE TEMPERATURE         
~A  DEPTH     PHID     PHIN       GR      CAL     RESD
# ...
  458.953    0.268    0.431  104.014  173.800    3.192
  459.203    0.274    0.438   99.403  171.487    3.208
  459.453    0.249    0.424   96.538  169.593    3.435
  459.703    0.211    0.378   91.489  169.074    3.825
  459.953    0.121    0.326   85.566  169.400    4.158
  460.203    0.139    0.284   85.385  170.150    4.348
  460.453    0.200    0.368  103.798  170.901    4.385
  460.703    0.224    0.404  114.537  171.437    4.022
  460.953    0.254    0.414  112.108  172.080    3.628
  461.203    0.240    0.410  114.111  173.251    3.430
  461.453    0.220    0.421  119.296  174.105    3.389
  461.703    0.211    0.439  122.171  176.017    3.523
  461.953    0.201    0.443  124.423  179.091    3.752
  462.203    0.182    0.441  126.862  181.635    3.951
  462.453    0.169    0.443  128.178  185.132    4.046
  462.703    0.170    0.451  128.683  185.141    3.984
  462.953    0.185    0.455  120.014  182.932    3.737
  463.203    0.227    0.449  113.718  180.300    3.421
  463.453    0.253    0.436  104.676  176.399    3.204
  463.703    0.290    0.419   99.689  172.922    3.079
  463.953    0.313    0.409   96.388  168.916    2.976
  464.203    0.303    0.419   96.081  166.178    2.898
  464.453    0.293    0.431   97.085  164.919    2.869
  464.703    0.292    0.424  102.831  165.458    2.873
  464.953    0.286    0.416  105.894  167.052    2.921
  465.203    0.275    0.425  108.708  170.019    2.958
  465.453    0.234    0.456  109.774  177.003    3.001
  465.703    0.270    0.473  113.586  187.155    3.044
  465.953    0.258    0.444  108.412  194.561    3.129
  466.203    0.250    0.428  106.858  181.362    3.277
  466.453    0.203    0.404  107.362  172.919    3.581
  466.703    0.106    0.389  103.811  171.767    4.444
  466.953    0.069    0.335   97.453  173.997    5.293
  467.203    0.132    0.295   92.965  175.589    5.732
  467.453    0.160    0.372   99.335  178.030    5.707
  467.703    0.198    0.411  111.384  178.777    4.988
  467.953    0.203    0.439  100.906  179.316    4.270
  468.203    0.215    0.452   94.609  179.325    3.718
  468.453    0.243    0.448   78.079  178.807    3.261
  468.703    0.286    0.378   70.846  178.497    2.882
  468.953    0.305    0.393   63.988  178.085    2.566
  469.203    0.304    0.391   65.990  178.835    2.376
  469.453    0.282    0.370   75.481  178.737    2.275
  469.703    0.246    0.396   96.015  178.642    2.365
  469.953    0.257    0.420  112.245  179.390    2.724
  470.203    0.276    0.457  113.311  182.041    2.993
  470.453    0.293    0.495  104.955  182.895    3.129
  470.703    0.301    0.471   92.730  177.304    3.087
  470.953    0.283    0.423   77.198  176.470    3.001
  471.203    0.276    0.417   69.716  176.797    2.932
  471.453    0.288    0.403   63.357  177.123    2.882
  471.703    0.296    0.381   68.729  177.130    2.870
  471.953    0.288    0.389   78.344  177.034    2.917
  472.203    0.253    0.396   84.839  177.468    3.027
  472.453    0.244    0.408   91.459  177.688    3.070
  472.703    0.255    0.421   97.704  178.225    3.086
  472.953    0.265    0.448  105.135  182.355    3.044
  473.203    0.245    0.494  112.878  189.760    2.915
  473.453    0.261    0.536  118.936  201.392    2.791
  473.703    0.282    0.530  108.646  193.266    2.723
  473.953    0.299    0.473   98.730  181.548    2.701
  474.203    0.317    0.451   89.563  172.575    2.690
  474.453    0.296    0.441   80.895  172.057    2.749
  474.703    0.278    0.433   80.090  172.488    2.896
  474.953    0.267    0.429   82.965  172.817    3.055
  475.203    0.259    0.424   83.096  172.825    3.217
  475.453    0.247    0.417   79.170  172.516    3.406
  475.703    0.228    0.424   75.618  172.737    3.534
  475.953    0.254    0.424   70.445  172.220    3.592
  476.203    0.284    0.401   64.086  171.804    3.583
  476.453    0.290    0.415   60.597  171.920    3.483
  476.703    0.267    0.417   59.230  172.036    3.348
  476.953    0.285    0.409   58.798  171.938    3.235
  477.203    0.286    0.405   59.303  171.947    3.058
  477.453    0.284    0.402   58.311  172.274    2.895
  477.703    0.289    0.400   56.195  172.814    2.716
  477.953    0.302    0.405   55.326  173.349    2.552
  478.203    0.307    0.403   57.765  173.570    2.412
  478.453    0.292    0.404   61.702  174.214    2.263
  478.703    0.300    0.406   64.328  174.434    2.147
  478.953    0.307    0.409   66.580  174.548    2.090
  479.203    0.319    0.401   63.840  174.031    2.070
  479.453    0.316    0.388   61.225  173.301    2.088
  479.703    0.304    0.384   60.045  172.781    2.115
  479.953    0.299    0.387   59.115  172.474    2.133
  480.203    0.310    0.393   59.682  171.957    2.144
  480.453    0.315    0.398   60.935  171.753    2.147
  480.703    0.312    0.403   63.623  171.550    2.166
  480.953    0.291    0.407   67.872  171.667    2.189
  481.203    0.299    0.408   68.003  171.675    2.192
  481.453    0.314    0.406   68.258  171.895    2.208
  481.703    0.306    0.397   69.823  173.278    2.211
  481.953    0.290    0.387   71.326  174.449    2.222
  482.203    0.289    0.380   68.773  173.825    2.237
  482.453    0.293    0.379   67.780  172.355    2.266
  482.703    0.305    0.377   70.032  170.252    2.290
  482.953    0.300    0.381   71.348  169.627    2.301
  483.203    0.291    0.393   69.795  169.741    2.322
  483.453    0.307    0.406   68.489  170.385    2.347
  483.703    0.294    0.422   67.621  171.558    2.390
  483.953    0.262    0.415   66.442  172.411    2.416
  484.203    0.196    0.380   66.758  172.420    2.433
  484.453    0.185    0.339   69.697  170.951    2.431
  484.703    0.219    0.336   73.696  169.798    2.416
  484.953    0.304    0.387   79.005  168.856    2.375
  485.203    0.318    0.413   76.577  166.752    2.317
  485.453    0.320    0.414   74.648  165.177    2.268
  485.703    0.318    0.410   74.592  167.511    2.259
  485.953    0.318    0.406   72.725  170.796    2.317
  486.203    0.318    0.409   72.356  171.544    2.422
  486.453    0.318    0.412   71.239  169.863    2.504
  486.703    0.310    0.438   69.684  169.661    2.503
  486.953    0.341    0.477   67.630  172.313    2.392
  487.203    0.344    0.499   67.823  173.590    2.202
  487.453    0.324    0.442   68.391  173.599    2.073
  487.703    0.345    0.433   69.644  170.755    1.989
  487.953    0.344    0.429   71.022  166.961    1.933
  488.203    0.317    0.435   69.780  165.809    1.897
  488.453    0.314    0.425   66.603  165.606    1.878
  488.703    0.318    0.409   63.675  165.827    1.874
  488.953    0.318    0.427   62.121  166.577    1.876
  489.203    0.318    0.437   62.688  168.170    1.865
  489.453    0.320    0.432   61.945  171.137    1.881
  489.703    0.322    0.416   63.386  170.619    1.905
  489.953    0.307    0.406   65.076  167.778    1.918
  490.203    0.289    0.403   63.521  167.044    1.953
  490.453    0.291    0.397   61.468  167.160    2.000
  490.703    0.288    0.389   63.657  167.592    2.087
  490.953    0.290    0.383   66.595  168.236    2.337
  491.203    0.272    0.376   70.346  169.092    2.652
  491.453    0.243    0.365   68.416  169.628    3.212
  491.703    0.217    0.339   62.993  170.483    3.949
  491.953    0.178    0.195   58.506  171.125    5.521
  492.203    0.009    0.143   57.450  171.453    8.554
  492.453   -0.009    0.135   58.892  171.780   11.248
  492.703   -0.015    0.134   57.711  171.894   12.666
  492.953   -0.019    0.135   58.154  172.008   13.314
  493.203   -0.000    0.144   60.530  172.757   12.844
  493.453    0.021    0.140   63.157  174.246   12.185
  493.703    0.005    0.147   65.159  175.628   11.516
  493.953    0.012    0.159   67.848  173.421   11.088
  494.203    0.023    0.173   70.911  172.584   10.247
  494.453    0.038    0.185   76.969  172.804    9.056
  494.703    0.075    0.244   83.838  173.448    8.138
  494.953    0.123    0.301   92.829  174.726    7.085
  495.203    0.185    0.345   99.698  175.897    5.811
