~VERSION INFORMATION
 VERS.                 2.0:   CWLS LOG ASCII STANDARD -VERSION 2.0
 WRAP.                  NO:   ONE LINE PER DEPTH STEP
~WELL INFORMATION BLOCK
#MNEM.UNIT           DATA                    DESCRIPTION OF MNEMONIC
#---------    -------------------            -------------------------------
# Generated from Intellog Unique Number	CW_70_72/WELL/1038
NULL.         -999.25                        : NULL_VALUE
WELL.         LANDBANK ET AL SPURFIELD 10-15 : Well_name    - WELL              
LOC .         10-15-072-02W5                 : Location     - LOCATION          
UWI .         00/10-15-072-02W5/0            : Uwi          - UNIQUE WELL ID    
ENTR.         JAYE                           : Entered      - ENTERED BY        
SRVC.         SCHLUMBERGER                   : Scn          - SERVICE COMPANY   
DATE.         6 MAR 83                       : Date         - LOG DATE          
STRT.M        375                            : top_depth    - START DEPTH       
STOP.M        590                            : bot_depth    - STOP DEPTH        
STEP.M        0.25                           : increment    - STEP LENGTH       
~CURVE INFORMATION BLOCK
#MNEM UNIT       ERCB CURVE CODE    CURVE DESCRIPTION
#-----------   ------------------   ----------------------------------
DEPT.M        00 001 00 00         : DEPTH        - DEPTH                       
DPHI.V/V      00 890 00 00         : PHID         - DENSITY POROSITY (SANDSTONE)
NPHI.V/V      00 330 00 00         : PHIN         - NEUTRON POROSITY (SANDSTONE)
GR  .API      00 310 00 00         : GR           - GAMMA RAY                   
CALI.MM       00 280 01 00         : CAL          - CALIPER                     
ILD .OHMM     00 120 00 00         : RESD         - DEEP RESISTIVITY (DIL)      
~PARAMETER INFORMATION       
#MNEM.UNIT           DATA             DESCRIPTION OF MNEMONIC
#---------         -----------     ------------------------------
GL  .M        589.3                : gl           - GROUND LEVEL ELEVATION      
EREF.M        593                  : kb           - ELEVATION OF DEPTH REFERENCE
DATM.M        589.3                : datum        - DATUM ELEVATION             
TDD .M        622                  : tdd          - TOTAL DEPTH DRILLER         
RUN .         ONE                  : Run          - RUN NUMBER                  
ENG .         DUNLOP               : Engineer     - RECORDING ENGINEER          
WIT .         SMITH                : Witness      - WITNESSED BY                
BASE.         EDM                  : Branch       - HOME BASE OF LOGGING UNIT   
MUD .         CHEM GEL             : Mud_type     - MUD TYPE                    
MATR.         SANDSTONE            : Logunit      - NEUTRON MATRIX              
TMAX.C        35.6                 : BHT          - MAXIMUM RECORDED TEMPERATURE
BHTD.M        622.2                : BHTDEP       - MAXIMUM RECORDED TEMPERATURE
RMT .C        21.1                 : MDTP         - TEMPERATURE OF MUD          
MUDD.KG/M     1140                 : MWT          - MUD DENSITY                 
NEUT.         1                    : NEUTRON      - NEUTRON TYPE                
RESI.         0                    : RESIST       - RESISTIVITY TYPE            
RM  .OHMM     5.6                  : RM           - RESISTIVITY OF MUD          
RMC .OHMM     0                    : RMC          - RESISTIVITY OF MUD CAKE     
RMF .OHMM     6.48                 : RMF          - RESISTIVITY OF MUD FILTRATE 
SUFT.C        32                   : SUFT         - SURFACE TEMPERATURE         
~A  DEPTH     PHID     PHIN       GR      CAL     RESD
# ...
  557.500    0.185    0.448   98.496  197.356    8.624
  557.750    0.216    0.480   98.395  205.998    7.843
  558.000    0.226    0.511   98.356  200.856    6.260
  558.250    0.224    0.527  101.801  200.380    5.333
  558.500    0.236    0.526  104.063  200.114    3.701
  558.750    0.208    0.480  100.916  196.730    2.751
  559.000    0.156    0.447  101.873  198.225    2.254
  559.250    0.147    0.472  105.005  200.539    1.924
  559.500    0.159    0.480  107.392  202.550    1.861
  559.750    0.174    0.484  104.183  201.656    1.878
  560.000    0.102    0.422   95.752  195.376    1.975
  560.250    0.026    0.338   91.984  186.196    2.117
  560.500    0.057    0.334   99.344  183.958    2.324
  560.750    0.097    0.345  103.785  183.686    2.527
  561.000    0.108    0.342  105.361  183.418    2.738
  561.250    0.113    0.332  106.131  183.147    3.006
  561.500    0.112    0.343  105.098  182.872    3.451
  561.750    0.104    0.336  102.202  182.297    4.120
  562.000    0.079    0.319   97.811  181.818    5.261
  562.250    0.048    0.299   91.930  182.375    5.984
  562.500    0.061    0.307   97.299  183.035    6.246
  562.750    0.081    0.346   99.561  183.284    6.224
  563.000    0.068    0.353   80.686  181.456    6.353
  563.250    0.033    0.280   75.178  179.427    6.546
  563.500    0.090    0.230   87.947  180.817    6.898
  563.750    0.112    0.331  102.953  182.096    7.488
  564.000    0.137    0.386  106.273  184.000    7.644
  564.250    0.135    0.404  102.566  181.763    7.602
  564.500    0.120    0.355   98.799  179.213    8.010
  564.750    0.107    0.332   96.212  178.630    8.300
  565.000    0.114    0.329   92.630  178.465    8.027
  565.250    0.114    0.344   93.151  177.987    7.231
  565.500    0.103    0.344   95.911  177.197    5.847
  565.750    0.100    0.324   99.851  176.305    5.592
  566.000    0.103    0.323  103.916  174.999    5.730
  566.250    0.111    0.332  101.205  173.381    6.015
  566.500    0.137    0.325   83.014  169.588    6.397
  566.750    0.205    0.282   57.052  165.379    6.932
  567.000    0.254    0.230   39.483  163.553    7.455
  567.250    0.290    0.205   40.874  162.663    7.783
  567.500    0.305    0.202   43.885  162.186    7.769
  567.750    0.315    0.207   44.964  162.227    7.813
  568.000    0.307    0.209   46.481  162.574    8.080
  568.250    0.291    0.214   47.188  163.347    8.707
  568.500    0.276    0.222   47.711  163.386   10.279
  568.750    0.277    0.227   49.664  163.421   13.247
  569.000    0.276    0.232   51.986  163.255   18.916
  569.250    0.258    0.235   51.076  163.711   29.047
  569.500    0.252    0.239   49.671  163.957   40.107
  569.750    0.269    0.241   50.505  163.998   40.261
  570.000    0.268    0.243   51.959  164.039   37.721
  570.250    0.259    0.246   54.033  164.181   35.210
  570.500    0.251    0.251   56.546  164.117   32.682
  570.750    0.245    0.257   58.373  164.165   30.450
  571.000    0.253    0.262   58.832  163.991   28.264
  571.250    0.253    0.267   57.735  164.138   26.779
  571.500    0.245    0.270   55.960  164.484   25.562
  571.750    0.239    0.266   56.416  165.458   24.628
  572.000    0.232    0.262   57.932  166.123   23.685
  572.250    0.224    0.269   59.386  166.574   22.440
  572.500    0.216    0.282   60.902  166.821   21.340
  572.750    0.206    0.297   59.809  167.069   20.144
  573.000    0.196    0.300   56.912  166.904   19.050
  573.250    0.191    0.293   55.504  166.946   18.218
  573.500    0.189    0.291   54.099  167.086   17.390
  573.750    0.186    0.300   54.184  167.022   16.849
  574.000    0.183    0.310   56.571  167.066   16.294
  574.250    0.186    0.310   59.581  167.002   15.641
  574.500    0.190    0.308   61.779  167.151   14.791
  574.750    0.187    0.306   64.041  167.396   13.806
  575.000    0.181    0.316   65.930  167.855   12.839
  575.250    0.176    0.332   66.890  167.783   12.007
  575.500    0.185    0.340   66.912  167.617   11.145
  575.750    0.191    0.327   66.873  167.761   10.154
  576.000    0.188    0.316   65.529  167.598    9.373
  576.250    0.178    0.303   65.927  167.635    8.781
  576.500    0.174    0.299   68.251  167.674    8.304
  576.750    0.172    0.297   70.575  167.614    7.912
  577.000    0.176    0.298   70.849  167.445    7.752
  577.250    0.176    0.307   69.818  167.379    7.667
  577.500    0.166    0.304   69.531  167.317    7.596
  577.750    0.154    0.299   71.604  167.669    7.625
  578.000    0.141    0.306   75.421  169.160    7.669
  578.250    0.131    0.305   77.808  170.959    7.727
  578.500    0.140    0.300   80.630  171.623    7.800
  578.750    0.144    0.301   83.451  173.322    7.844
  579.000    0.145    0.311   85.899  173.571    7.904
  579.250    0.131    0.303   79.334  172.882    7.715
  579.500    0.096    0.296   85.203  175.202    7.108
  579.750    0.086    0.336   98.095  179.075    6.067
  580.000    0.104    0.377  107.445  183.363    5.642
  580.250    0.126    0.370  108.526  185.891    5.446
  580.500    0.134    0.353  106.437  181.996    5.306
  580.750    0.143    0.354  107.890  176.544    5.199
  581.000    0.160    0.379  101.636  171.612    5.317
  581.250    0.242    0.424   86.366  167.711    5.634
  581.500    0.378    0.551   71.408  163.919    6.128
  581.750    0.398    0.583   65.277  161.162    7.207
  582.000    0.370    0.600   56.349  159.026    9.289
  582.250    0.335    0.199   34.614  156.893   11.793
  582.500    0.332    0.158   20.837  154.859   17.029
  582.750    0.352    0.130   18.748  155.729   29.574
  583.000    0.362    0.134   20.015  155.768   48.747
  583.250    0.334    0.167   26.691  155.808   62.007
  583.500    0.280    0.210   32.496  157.714   61.782
  583.750    0.216    0.253   37.121  160.136   55.558
  584.000    0.197    0.274   44.607  164.012   41.386
  584.250    0.180    0.296   49.294  166.849   33.340
  584.500    0.168    0.318   50.810  168.132   29.372
  584.750    0.151    0.323   48.037  166.412   24.837
  585.000    0.080    0.269   45.759  166.245   22.841
  585.250    0.065    0.196   48.459  166.181   21.399
  585.500    0.103    0.192   51.402  170.053   20.657
  585.750    0.123    0.191   50.681  168.126   21.126
  586.000    0.044    0.177   40.324  164.644   21.931
  586.250   -0.002    0.132   38.544  164.998   23.325
  586.500    0.081    0.182   58.772  166.693   24.899
  586.750    0.102    0.261   79.250  170.877   25.752
  587.000    0.127    0.281   88.848  173.819   24.581
  587.250    0.151    0.314   81.475  175.103   23.116
  587.500    0.177    0.244   67.697  170.583   22.523
  587.750    0.191    0.206   53.300  166.479   22.821
  588.000    0.186    0.170   43.375  170.250   23.166
  588.250    0.177    0.203   46.259  172.055   23.914
  588.500    0.186    0.256   60.831  170.746   24.918
  588.750    0.189    0.316   61.539  167.469   25.247
  589.000    0.124    0.270   41.359  160.880   24.922
  589.250    0.076    0.202   32.307  153.459   23.525
  589.500    0.056    0.178   25.928  155.265   21.473
  589.750    0.065    0.165   22.284  158.617   19.310
  590.000    0.057    0.156   19.946  160.002   18.363
