~VERSION INFORMATION
 VERS.                 2.0:   CWLS LOG ASCII STANDARD -VERSION 2.0
 WRAP.                  NO:   ONE LINE PER DEPTH STEP
~WELL INFORMATION BLOCK
#MNEM.UNIT           DATA                    DESCRIPTION OF MNEMONIC
#---------    -------------------            -------------------------------
# Generated from Intellog Unique Number	CW_76_78/WELL/2818
WELL.         SCURRY ATKINSON MCMULLEN 11-30 : Well_name    - WELL
LOC .         00/11-30-077-25W4/0            : Location     - LOCATION
UWI .         00/11-30-077-25W4/0            : Uwi          - UNIQUE WELL ID
ENTR.         JJ                             : Entered      - ENTERED BY
SRVC.         SCHLUMBERGER                   : Scn          - SERVICE COMPANY
DATE.         26 FEB 74                      : Date         - LOG DATE
STRT.M        435.864                        : top_depth    - START DEPTH
STOP.M        563.864                        : bot_depth    - STOP DEPTH
STEP.M        0.25                           : increment    - STEP LENGTH
 NULL. -999.2500:NULL Value
~CURVE INFORMATION BLOCK
#MNEM UNIT       ERCB CURVE CODE    CURVE DESCRIPTION
#-----------   ------------------   ----------------------------------
DEPT.M        00 001 00 00         : DEPTH        - DEPTH
DELT.US/F     00 520 00 00         : DELT         - SONIC TRAVEL TIME
GR  .API      00 310 00 00         : GR           - GAMMA RAY
CALI.MM       00 280 01 00         : CAL          - CALIPER
ILD .OHMM     00 120 00 00         : RESD         - DEEP RESISTIVITY (DIL)
~PARAMETER INFORMATION
#MNEM.UNIT           DATA             DESCRIPTION OF MNEMONIC
#---------         -----------     ------------------------------
GL  .M        648.005              : gl           - GROUND LEVEL ELEVATION
EREF.M        651.967              : kb           - ELEVATION OF DEPTH REFERENCE
DATM.M        648.005              : datum        - DATUM ELEVATION
TDD .M        566.014              : tdd          - TOTAL DEPTH DRILLER
RUN .         ONE                  : Run          - RUN NUMBER
ENG .         BOYKO                : Engineer     - RECORDING ENGINEER
BASE.         EDM                  : Branch       - HOME BASE OF LOGGING UNIT
MUD .         GEL CHEM             : Mud_type     - MUD TYPE
MATR.         SANDSTONE            : Logunit      - NEUTRON MATRIX
TMAX.C        23.3333              : BHT          - MAXIMUM RECORDED TEMPERATURE
BHTD.M        566.014              : BHTDEP       - MAXIMUM RECORDED TEMPERATURE
RMT .C        17.7778              : MDTP         - TEMPERATURE OF MUD
MUDD.KG/M     1140                 : MWT          - MUD DENSITY
NEUT.         1                    : NEUTRON      - NEUTRON TYPE
RESI.         0                    : RESIST       - RESISTIVITY TYPE
RM  .OHMM     2.28                 : RM           - RESISTIVITY OF MUD
RMC .OHMM     0                    : RMC          - RESISTIVITY OF MUD CAKE
RMF .OHMM     2.2                  : RMF          - RESISTIVITY OF MUD FILTRATE
SUFT.C        5                    : SUFT         - SURFACE TEMPERATURE
~A  DEPTH     DELT       GR      CAL     RESD
# ...
  522.864  227.460   53.685  196.502   46.343
  523.114  224.254   60.790  195.690   46.683
  523.364  288.253   66.911  193.829   44.867
  523.614  326.747   69.144  191.971   41.526
  523.864  326.339   68.969  191.465   38.415
  524.114  310.511   68.920  191.491   34.514
  524.364  294.423   73.126  192.137   21.445
  524.614  293.365   78.814  193.625   21.103
  524.864  305.318   82.282  193.954   20.640
  525.114  317.399   83.776  194.819   19.515
  525.364  322.456   84.711  195.464   17.573
  525.614  324.845   87.006  196.112   16.000
  525.864  319.882   88.806  196.024   15.090
  526.114  312.772   89.375  195.523   14.691
  526.364  327.586   93.829  195.129   13.902
  526.614  335.895   95.138  194.837   13.375
  526.864  339.129   94.717  194.440   12.609
  527.114  339.890   90.966  194.461   12.443
  527.364  338.766   83.641  194.170   12.780
  527.614  344.020   78.102  192.310   13.669
  527.864  352.070   73.243  190.768   14.870
  528.114  323.231   70.665  189.533   15.232
  528.364  312.023   74.686  187.571   15.105
  528.614  334.188   81.113  186.025   15.051
  528.864  349.845   85.690  185.630   15.140
  529.114  355.423   80.090  188.784   15.558
  529.364  320.472   71.345  193.716   16.399
  529.614  280.184   65.993  196.763   15.985
  529.864  271.316   77.044  199.402   14.707
  530.114  329.134   84.272  200.462   13.941
  530.364  347.007   91.008  201.323   13.055
  530.614  348.154   91.268  200.923   12.657
  530.864  344.238   80.918  198.856   14.833
  531.114  331.468   65.575  194.907   20.258
  531.364  349.991   46.468  189.186   25.015
  531.614  366.042   33.344  186.596   31.530
  531.864  377.730   28.855  185.473   44.614
  532.114  380.123   28.313  185.701   60.573
  532.364  389.017   28.326  186.248   86.302
  532.614  396.740   27.906  186.576  105.149
  532.864  402.122   26.193  187.019  116.229
  533.114  407.372   25.526  187.246  117.381
  533.364  407.746   24.551  186.745  114.849
  533.614  402.522   24.749  190.737  107.758
  533.864  394.178   28.401  197.127  100.980
  534.114  385.049   27.737  189.004   91.647
  534.364  387.372   26.270  189.024   82.149
  534.614  384.622   25.975  191.657   71.851
  534.864  372.895   26.108  188.970   62.677
  535.114  363.444   25.195  187.626   56.631
  535.364  358.807   25.827  192.244   53.775
  535.614  354.882   25.714  192.684   51.645
  535.864  356.557   24.497  193.648   51.112
  536.114  360.964   25.061  197.009   51.703
  536.364  362.375   27.048  195.572   55.027
  536.614  361.051   27.431  194.021   58.581
  536.864  359.148   26.334  192.168   59.887
  537.114  357.181   27.086  191.874   57.681
  537.364  353.324   30.122  193.360   55.388
  537.614  358.184   28.775  194.847   53.172
  537.864  363.439   27.002  194.445   49.367
  538.114  359.642   27.814  193.735   46.033
  538.364  353.510   29.064  193.026   43.499
  538.614  351.476   29.566  193.048   40.251
  538.864  354.517   29.582  193.277   37.718
  539.114  356.318   29.471  187.030   34.788
  539.364  355.257   29.975  184.231   31.778
  539.614  352.900   31.405  185.508   29.085
  539.864  349.043   29.631  186.783   26.717
  540.114  349.611   30.876  188.371   25.704
  540.364  357.399   30.274  189.542   24.622
  540.614  350.419   30.471  190.606   24.405
  540.864  342.399   33.259  192.196   24.121
  541.114  339.195   37.341  193.474   23.432
  541.364  337.937   41.609  194.325   23.298
  541.614  332.520   42.981  195.605   22.853
  541.864  323.006   42.868  195.834   22.805
  542.114  331.117   39.057  195.856   23.234
  542.364  355.172   30.435  195.876   23.587
  542.614  361.852   23.355  196.001   23.534
  542.864  361.835   22.073  194.975   23.090
  543.114  358.823   25.847  186.956   22.722
  543.364  366.679   29.869  178.204   17.589
  543.614  370.363   31.794  176.766   16.417
  543.864  367.609   32.239  176.372   14.548
  544.114  364.537   30.092  176.393   13.008
  544.364  363.157   29.736  176.623   12.004
  544.614  365.154   30.859  176.438   11.185
  544.864  364.422   33.154  176.560   10.806
  545.114  362.387   32.363  176.893   10.891
  545.364  357.163   30.340  177.122   11.057
  545.614  363.909   32.330  177.147   11.432
  545.864  358.556   33.880  176.962   11.604
  546.114  358.474   37.656  177.083   12.082
  546.364  356.437   35.881  177.733   11.591
  546.614  357.071   37.187  180.887   10.163
  546.864  363.495   40.346  182.474    8.935
  547.114  356.450   38.756  184.065    8.084
  547.364  352.854   40.124  185.965    8.138
  547.614  351.014   43.220  187.967    9.032
  547.864  356.655   41.876  190.078   11.335
  548.114  358.783   40.840  189.580   15.810
  548.364  355.835   42.272  187.510   17.641
  548.614  353.348   44.629  184.818   18.160
  548.864  348.903   46.800  183.169   14.809
  549.114  346.739   49.587  181.937   12.420
  549.364  344.373   54.104  181.538   10.992
  549.614  343.252   58.987  181.559   10.229
  549.864  336.993   55.054  183.358    9.889
  550.114  318.887   48.959  186.616    9.454
  550.364  275.022   45.025  188.204   10.413
  550.614  231.869   52.994  190.001   12.316
  550.864  260.217   62.998  192.425   15.301
  551.114  320.116   74.482  198.817   24.778
  551.364  330.963   83.684  205.315   27.587
  551.614  335.757   91.654  208.364   29.014
  551.864  333.202   96.539  205.983   29.977
  552.114  329.735   94.086  205.274   29.752
  552.364  334.658   90.395  208.636   29.349
  552.614  348.110   86.462  210.123   28.634
  552.864  346.725   81.971  209.204   26.645
  553.114  341.827   85.315  207.031   16.396
  553.364  338.818   87.177  199.949   13.312
  553.614  350.574   77.877  191.097   13.568
  553.864  338.782   63.150  189.026   14.774
  554.114  328.088   55.700  187.797   16.388
  554.364  319.746   46.708  187.403   28.710
  554.614  308.929   40.246  187.319   31.440
  554.864  304.291   39.394  187.655   33.770
  555.114  316.307   40.334  187.775   36.026
  555.364  327.936   42.749  188.109   37.804
  555.614  330.650   48.683  189.595   39.418
  555.864  317.555   54.864  191.286   40.391
  556.114  300.949   63.450  199.766   41.448
  556.364  332.809   71.294  208.874   42.427
  556.614  353.022   80.127  197.722   42.132
  556.864  344.351   64.535  186.988   41.197
  557.114  328.524   27.604  185.754   40.494
  557.364  320.568   24.350  185.468   38.684
  557.614  321.200   26.521  186.111   37.345
  557.864  330.876   32.640  187.489   35.447
  558.114  348.944   41.841  190.227   31.964
  558.364  395.831   51.598  193.903   30.067
  558.614  406.939   65.179  197.789   17.505
  558.864  398.201   71.422  199.899   16.406
  559.114  385.693   75.935  201.281   12.643
  559.364  384.374   77.736  202.243   10.197
  559.614  396.196   74.668  202.265    9.009
  559.864  395.461   75.789  202.081    8.408
  560.114  403.121   75.619  201.475    7.605
  560.364  427.105   74.580  201.076    6.980
  560.614  417.914   78.543  200.676    6.538
  560.864  410.805   77.815  199.968    6.153
  561.114  399.339   76.283  199.779    5.888
  561.364  387.611   80.491  199.176    5.961
  561.614  403.269   78.775  196.792    6.306
  561.864  411.838   77.062  189.921    6.514
  562.114  417.806   76.335  187.233    6.113
  562.364  408.745   76.409  187.877    6.250
  562.614  338.596   75.499  185.077    6.707
  562.864  292.322   73.720  181.760    7.325
  563.114  315.528   72.870  181.151    7.822
  563.364  327.286   72.575  182.011    8.055
  563.614  331.106   72.096  183.701    8.022
  563.864  330.373   71.184  185.296    7.958
