~VERSION INFORMATION
 VERS.                 2.0:   CWLS LOG ASCII STANDARD -VERSION 2.0
 WRAP.                  NO:   ONE LINE PER DEPTH STEP
~WELL INFORMATION BLOCK
#MNEM.UNIT           DATA                    DESCRIPTION OF MNEMONIC
#---------    -------------------            -------------------------------
# Generated from Intellog Unique Number	CW_76_78/WELL/877
WELL.         10-16-076-25W4                 : Well_name    - WELL
LOC .         00/10-16-076-25W4/0            : Location     - LOCATION
UWI .         00/10-16-076-25W4/0            : Uwi          - UNIQUE WELL ID
ENTR.         JAYE                           : Entered      - ENTERED BY
SRVC.         SCHLUMBERGER                   : Scn          - SERVICE COMPANY
DATE.         8 FEB 75                       : Date         - LOG DATE
STRT.M        472.44                         : top_depth    - START DEPTH
STOP.M        679.69                         : bot_depth    - STOP DEPTH
STEP.M        0.25                           : increment    - STEP LENGTH
 NULL. -999.2500:NULL Value
~CURVE INFORMATION BLOCK
#MNEM UNIT       ERCB CURVE CODE    CURVE DESCRIPTION
#-----------   ------------------   ----------------------------------
DEPT.M        00 001 00 00         : DEPTH        - DEPTH
ILD .OHMM     00 120 00 00         : RESD         - DEEP RESISTIVITY (DIL)
NPHI.V/V      00 330 00 00         : PHIN         - NEUTRON POROSITY (SANDSTONE)
DPHI.V/V      00 890 00 00         : PHID         - DENSITY POROSITY (SANDSTONE)
GR  .API      00 310 00 00         : GR           - GAMMA RAY
CALI.MM       00 280 01 00         : CAL          - CALIPER
~PARAMETER INFORMATION
#MNEM.UNIT           DATA             DESCRIPTION OF MNEMONIC
#---------         -----------     ------------------------------
GL  .M        763.829              : gl           - GROUND LEVEL ELEVATION
EREF.M        768.096              : kb           - ELEVATION OF DEPTH REFERENCE
DATM.M        763.829              : datum        - DATUM ELEVATION
TDD .M        673.608              : tdd          - TOTAL DEPTH DRILLER
RUN .         ONE                  : Run          - RUN NUMBER
ENG .         EARLEY               : Engineer     - RECORDING ENGINEER
WIT .         BRONK/AYERS          : Witness      - WITNESSED BY
BASE.         EDM                  : Branch       - HOME BASE OF LOGGING UNIT
MUD .         GEL CHEM             : Mud_type     - MUD TYPE
MATR.         SANDSTONE            : Logunit      - NEUTRON MATRIX
TMAX.C        35                   : BHT          - MAXIMUM RECORDED TEMPERATURE
BHTD.M        666.902              : BHTDEP       - MAXIMUM RECORDED TEMPERATURE
RMT .C        3.33333              : MDTP         - TEMPERATURE OF MUD
MUDD.KG/M     1080                 : MWT          - MUD DENSITY
NEUT.         1                    : NEUTRON      - NEUTRON TYPE
RESI.         0                    : RESIST       - RESISTIVITY TYPE
RM  .OHMM     2.32                 : RM           - RESISTIVITY OF MUD
RMC .OHMM     2.65                 : RMC          - RESISTIVITY OF MUD CAKE
RMF .OHMM     3.87                 : RMF          - RESISTIVITY OF MUD FILTRATE
SUFT.C        -17.7778             : SUFT         - SURFACE TEMPERATURE
~A  DEPTH     RESD     PHIN     PHID       GR      CAL
# ...
  654.940   22.514    1.062    0.209   61.310  232.041
  655.190   21.020    1.071    0.226   62.770  233.285
  655.440   19.304    1.079    0.230   65.019  233.719
  655.690   17.566    1.078    0.253   70.112  233.550
  655.940   15.752    1.040    0.268   77.569  233.263
  656.190   13.390    0.979    0.240   90.834  232.959
  656.440   11.723    0.942    0.197  110.646  232.655
  656.690   11.356    0.917    0.173  106.056  232.161
  656.940   12.037    0.894    0.125  101.098  231.585
  657.190   13.021    0.872    0.142   96.504  231.296
  657.440   13.956    0.860    0.221   93.426  231.293
  657.690   15.374    0.853    0.237   91.983  231.551
  657.940   16.298    0.846    0.225   92.054  231.663
  658.190   17.792    0.845    0.260   95.457  232.102
  658.440   19.638    0.847    0.271  100.070  232.322
  658.690   20.140    0.851    0.269  106.188  232.735
  658.940   20.054    0.857    0.277  119.576  233.238
  659.190   18.828    0.870    0.271  119.408  234.081
  659.440   17.516    0.883    0.263  120.810  235.015
  659.690   15.504    0.900    0.251  125.600  236.189
  659.940   14.030    0.932    0.233  131.117  236.509
  660.190   12.604    0.939    0.211  135.911  236.635
  660.440   11.427    0.919    0.204  145.787  236.743
  660.690   10.689    0.905    0.225  152.094  237.074
  660.940   10.128    0.890    0.213  158.519  237.473
  661.190    9.793    0.910    0.211  153.326  238.006
  661.440    9.734    0.947    0.282  153.999  238.846
  661.690    9.963    0.968    0.322  159.033  239.370
  661.940   10.014    0.961    0.308  165.700  239.795
  662.190   10.156    0.985    0.310  151.608  239.906
  662.440   10.569    1.000    0.334  141.991  240.047
  662.690   10.879    1.000    0.323  120.939  240.065
  662.940   11.054    0.988    0.322  114.650  240.074
  663.190   11.211    0.967    0.263  109.516  239.873
  663.440   11.328    0.956    0.224  110.980  239.209
  663.690   11.365    0.973    0.222  113.350  238.618
  663.940   11.463    1.017    0.234  115.242  237.823
  664.190   11.499    1.041    0.279  116.276  237.589
  664.440   11.451    1.060    0.337  117.375  236.928
  664.690   11.466    1.108    0.421  119.263  236.911
  664.940   11.501    1.106    0.379  120.358  236.645
  665.190   11.495    1.021    0.336  117.464  236.543
  665.440   11.594    0.957    0.281  113.177  236.464
  665.690   11.652    0.898    0.219  112.826  236.657
  665.940   11.753    0.853    0.194  115.203  236.687
  666.190   11.853    0.847    0.218  117.446  236.304
  666.440   11.891    0.879    0.251  120.600  235.731
  666.690   11.886    0.928    0.257  123.516  235.424
  666.940   11.922    0.955    0.259  116.932  234.895
  667.190   11.849    0.929    0.256  107.496  233.918
  667.440   11.757    0.900    0.249  101.213  233.511
  667.690   11.579    0.881    0.264  102.010  232.725
  667.940   11.257    0.884    0.266  103.711  232.605
  668.190   10.864    1.007    0.277  105.961  232.339
  668.440   10.602    1.052    0.355  104.584  232.044
  668.690   10.557    1.079    0.367  105.980  231.646
  668.940   10.551    1.026    0.354  109.139  231.143
  669.190   10.584    0.979    0.342  109.511  230.845
  669.440   10.539    0.972    0.216  102.015  230.453
  669.690   10.437    1.000    0.131   89.130  230.378
  669.940   10.129    1.017    0.126   91.019  230.103
  670.190    9.668    0.997    0.229   96.114  229.887
  670.440    8.418    0.971    0.250  103.809  229.606
  670.690    6.860    0.912    0.215  109.390  229.314
  670.940    5.821    0.945    0.187  110.372  228.811
  671.190    5.669    0.968    0.177  110.076  228.419
  671.440    5.750    0.971    0.171  113.175  228.229
  671.690    5.886    0.968    0.235  108.706  227.835
  671.940    6.114    0.952    0.248   92.974  227.443
  672.190    6.399    0.933    0.281   82.451  227.256
  672.440    7.154    0.872    0.198   73.260  226.759
  672.690    8.531    0.854    0.207   56.502  226.063
  672.940   10.730    0.854    0.205   58.569  225.680
  673.190   13.397    0.892    0.234   64.815  225.490
  673.440   15.626    0.912    0.276   71.182  225.321
  673.690   16.173    0.909    0.213   72.340  225.002
  673.940   16.343    0.817    0.179   75.620  224.821
  674.190   24.706    0.817    0.156   88.645  224.742
  674.440   40.124    0.940    0.207   79.820  224.550
  674.690   33.303    1.090    0.246   79.829  224.368
  674.940   26.351    1.035    0.332   81.534  224.263
  675.190   22.525    1.010    0.365   85.539  223.980
  675.440   19.361    0.966    0.341   84.334  223.893
  675.690   16.219    0.992    0.306   78.787  223.799
  675.940   14.095    1.005    0.256   75.096  223.814
  676.190   12.874    1.015    0.210   71.841  223.648
  676.440   13.323    1.015    0.197   69.788  223.768
  676.690   18.004    1.007    0.202   69.861  224.105
  676.940   17.279    1.010    0.205   71.259  224.196
  677.190   17.144    0.985    0.201   69.331  224.021
  677.440   53.095    0.958    0.224   68.983  224.036
  677.690   55.258    0.912    0.238   70.869  223.831
  677.940   47.145    0.821    0.232   74.329  223.668
  678.190   47.121    0.865    0.164   72.582  223.671
  678.440   80.869    0.901    0.170   69.513  223.596
  678.690  108.480    0.875    0.210   68.063  223.593
  678.940  128.166    0.848    0.157   67.592  223.424
  679.190  147.043    0.847    0.101   65.600  223.231
  679.440  156.440    0.842    0.109   63.859  223.047
  679.690  156.639    0.841    0.110   63.398  222.939
