~VERSION INFORMATION
 VERS.                 2.0:   CWLS LOG ASCII STANDARD -VERSION 2.0
 WRAP.                  NO:   ONE LINE PER DEPTH STEP
~WELL INFORMATION BLOCK
#MNEM.UNIT           DATA                    DESCRIPTION OF MNEMONIC
#---------    -------------------            -------------------------------
# Generated from Intellog Unique Number	CW_70_72/WELL/3031
NULL.         -999.25                        : NULL_VALUE
WELL.         SULPETRO ET AL PARKER 11-23    : Well_name    - WELL              
LOC .         11-23-070-05W5                 : Location     - LOCATION          
UWI .         00/11-23-070-05W5/0            : Uwi          - UNIQUE WELL ID    
ENTR.         JAYE                           : Entered      - ENTERED BY        
SRVC.         SCHLUMBERGER                   : Scn          - SERVICE COMPANY   
DATE.         2 APR 82                       : Date         - LOG DATE          
STRT.M        660                            : top_depth    - START DEPTH       
STOP.M        905                            : bot_depth    - STOP DEPTH        
STEP.M        0.25                           : increment    - STEP LENGTH       
~CURVE INFORMATION BLOCK
#MNEM UNIT       ERCB CURVE CODE    CURVE DESCRIPTION
#-----------   ------------------   ----------------------------------
DEPT.M        00 001 00 00         : DEPTH        - DEPTH                       
ILD .OHMM     00 120 00 00         : RESD         - DEEP RESISTIVITY (DIL)      
CALI.MM       00 280 01 00         : CAL          - CALIPER                     
GR  .API      00 310 00 00         : GR           - GAMMA RAY                   
NPHI.V/V      00 330 00 00         : PHIN         - NEUTRON POROSITY (SANDSTONE)
DPHI.V/V      00 890 00 00         : PHID         - DENSITY POROSITY (SANDSTONE)
~PARAMETER INFORMATION       
#MNEM.UNIT           DATA             DESCRIPTION OF MNEMONIC
#---------         -----------     ------------------------------
GL  .M        779.8                : gl           - GROUND LEVEL ELEVATION      
EREF.M        782.7                : kb           - ELEVATION OF DEPTH REFERENCE
DATM.M        779.8                : datum        - DATUM ELEVATION             
TDD .M        926                  : tdd          - TOTAL DEPTH DRILLER         
RUN .         ONE                  : Run          - RUN NUMBER                  
ENG .         VANDENBRINK          : Engineer     - RECORDING ENGINEER          
WIT .         SPRATT               : Witness      - WITNESSED BY                
BASE.         EDM                  : Branch       - HOME BASE OF LOGGING UNIT   
MUD .         GEL CHEM             : Mud_type     - MUD TYPE                    
MATR.         SANDSTONE            : Logunit      - NEUTRON MATRIX              
TMAX.C        35.5                 : BHT          - MAXIMUM RECORDED TEMPERATURE
BHTD.M        928                  : BHTDEP       - MAXIMUM RECORDED TEMPERATURE
RMT .C        18.8                 : MDTP         - TEMPERATURE OF MUD          
MUDD.KG/M     1210                 : MWT          - MUD DENSITY                 
NEUT.         1                    : NEUTRON      - NEUTRON TYPE                
RESI.         0                    : RESIST       - RESISTIVITY TYPE            
RM  .OHMM     0.644                : RM           - RESISTIVITY OF MUD          
RMC .OHMM     0.25                 : RMC          - RESISTIVITY OF MUD CAKE     
RMF .OHMM     0.598                : RMF          - RESISTIVITY OF MUD FILTRATE 
SUFT.C        0                    : SUFT         - SURFACE TEMPERATURE         
~A  DEPTH     RESD      CAL       GR     PHIN     PHID
  660.000    2.085  230.098   96.402    0.537    0.179
  660.250    2.171  227.523   97.295    0.522    0.193
  660.500    2.228  227.554   97.880    0.526    0.212
  660.750    2.282  225.919   98.900    0.533    0.223
  661.000    2.327  222.613  101.169    0.526    0.203
  661.250    2.361  219.938  104.693    0.532    0.183
  661.500    2.368  219.444  104.147    0.510    0.163
  661.750    2.344  221.248   99.601    0.474    0.151
  662.000    2.281  224.933   94.678    0.461    0.181
  662.250    2.202  227.779   90.254    0.478    0.198
  662.500    2.143  230.000   94.716    0.519    0.211
  662.750    2.097  233.060   94.673    0.535    0.199
  663.000    2.075  235.072   92.565    0.511    0.207
  663.250    2.081  235.724   91.707    0.502    0.201
  663.500    2.091  236.281   92.103    0.488    0.178
  663.750    2.102  236.832   91.683    0.467    0.156
  664.000    2.132  236.449   89.513    0.477    0.148
  664.250    2.174  236.166   87.281    0.492    0.186
  664.500    2.210  236.615   93.054    0.491    0.205
  664.750    2.259  237.377   96.890    0.469    0.189
  665.000    2.305  236.889   95.283    0.446    0.179
  665.250    2.378  234.210   94.302    0.434    0.184
  665.500    2.458  230.905   97.010    0.446    0.170
  665.750    2.508  228.433   98.343    0.443    0.154
  666.000    2.525  227.007   98.488    0.463    0.150
  666.250    2.457  226.723   97.881    0.488    0.158
  666.500    2.368  226.760   97.400    0.491    0.149
  666.750    2.244  227.204   96.606    0.491    0.138
  667.000    2.146  228.386   94.685    0.482    0.163
  667.250    2.037  229.358   87.699    0.479    0.202
  667.500    1.968  228.657   87.530    0.497    0.219
  667.750    1.937  222.124   95.180    0.516    0.202
  668.000    1.924  214.125  100.266    0.515    0.209
  668.250    1.933  203.939   88.463    0.532    0.242
  668.500    1.950  191.250   70.027    0.413    0.275
  668.750    1.985  177.624   59.664    0.395    0.279
  669.000    2.022  165.978   58.493    0.377    0.243
  669.250    2.055  157.461   68.084    0.365    0.211
  669.500    2.096  156.872   70.105    0.387    0.202
  669.750    2.134  156.495   66.870    0.425    0.232
  670.000    2.177  155.797   58.571    0.418    0.272
  670.250    2.234  155.409   61.403    0.400    0.239
  670.500    2.292  155.124   65.553    0.392    0.219
  670.750    2.370  155.051   62.757    0.388    0.223
  671.000    2.464  155.286   61.837    0.384    0.228
  671.250    2.566  155.531   66.799    0.397    0.230
  671.500    2.653  155.980   66.254    0.398    0.231
  671.750    2.696  156.425   59.893    0.405    0.229
  672.000    2.634  156.978   58.849    0.413    0.232
  672.250    2.533  158.054   82.452    0.406    0.223
  672.500    2.433  160.587   92.794    0.425    0.210
  672.750    2.376  173.548   98.254    0.451    0.191
  673.000    2.447  192.972  100.276    0.492    0.184
  673.250    2.598  202.386   95.603    0.496    0.171
  673.500    2.800  205.027   90.806    0.470    0.184
  673.750    2.972  202.764   87.508    0.449    0.202
  674.000    3.032  190.808   85.777    0.436    0.178
  674.250    2.917  177.182   89.736    0.432    0.149
  674.500    2.743  172.624   99.326    0.440    0.130
  674.750    2.521  183.082  109.668    0.465    0.151
  675.000    2.367  195.106  116.631    0.491    0.182
  675.250    2.316  205.979  119.966    0.490    0.198
  675.500    2.354  209.035  123.112    0.489    0.208
  675.750    2.518  205.316  127.822    0.484    0.133
  676.000    2.708  201.906  119.898    0.468    0.101
  676.250    2.826  200.580  111.408    0.429    0.131
  676.500    2.824  190.503  104.046    0.416    0.194
  676.750    2.769  174.893   89.552    0.399    0.216
  677.000    2.679  161.790   79.437    0.383    0.208
  677.250    2.577  156.293   72.076    0.399    0.224
  677.500    2.502  155.810   67.027    0.394    0.204
  677.750    2.515  157.608   66.045    0.382    0.170
  678.000    2.695  164.626  104.600    0.406    0.152
  678.250    2.932  191.139  116.253    0.429    0.192
  678.500    3.295  185.751  106.013    0.440    0.215
  678.750    3.439  174.316   96.837    0.425    0.221
  679.000    3.468  168.924   94.604    0.400    0.186
  679.250    3.292  170.105  102.443    0.413    0.172
  679.500    2.953  171.803   97.519    0.420    0.179
  679.750    2.555  169.229   79.523    0.375    0.176
  680.000    2.182  161.235   64.778    0.327    0.221
  680.250    1.787  159.702   51.161    0.336    0.262
  680.500    1.549  158.904   42.547    0.342    0.278
  680.750    1.427  157.785   43.192    0.336    0.289
  681.000    1.461  156.879   51.719    0.328    0.276
  681.250    1.608  156.601   64.061    0.346    0.245
  681.500    1.783  156.424   75.843    0.361    0.226
  681.750    1.928  156.667   74.985    0.362    0.218
  682.000    2.024  156.907   70.938    0.354    0.217
  682.250    2.089  157.038   66.953    0.354    0.224
  682.500    2.151  157.385   64.346    0.353    0.236
  682.750    2.215  158.144   66.803    0.325    0.212
  683.000    2.303  159.637   86.153    0.315    0.174
  683.250    2.385  162.273  100.810    0.321    0.127
  683.500    2.466  175.757  113.218    0.364    0.106
  683.750    2.583  189.027  116.675    0.460    0.192
  684.000    2.696  201.675  113.568    0.519    0.223
  684.250    2.814  198.789  106.267    0.490    0.252
  684.500    2.849  184.540   97.278    0.373    0.219
  684.750    2.654  168.825   87.726    0.331    0.177
  685.000    2.435  158.954   80.363    0.346    0.189
  685.250    2.107  157.320   64.680    0.355    0.234
  685.500    1.778  156.940   46.245    0.338    0.261
  685.750    1.527  156.754   42.324    0.325    0.275
  686.000    1.316  156.891   48.663    0.322    0.275
  686.250    1.222  157.343   50.056    0.328    0.277
  686.500    1.147  157.581   48.512    0.337    0.281
  686.750    1.133  157.929   48.343    0.355    0.283
  687.000    1.140  157.957   52.616    0.357    0.281
  687.250    1.183  158.408   58.891    0.350    0.267
  687.500    1.266  159.692   60.223    0.359    0.260
  687.750    1.388  160.246   61.118    0.348    0.268
  688.000    1.613  161.003   87.726    0.328    0.253
  688.250    1.941  161.765   98.628    0.356    0.180
  688.500    2.317  162.633  105.341    0.370    0.148
  688.750    2.740  163.498  106.425    0.361    0.127
  689.000    3.143  164.368  101.126    0.358    0.119
  689.250    3.343  164.814  100.332    0.364    0.113
  689.500    3.449  165.887  105.607    0.376    0.101
  689.750    3.552  170.923  108.878    0.397    0.108
  690.000    3.728  183.051  111.838    0.408    0.154
  690.250    3.825  186.629  111.293    0.406    0.147
  690.500    3.680  182.070  107.874    0.376    0.165
  690.750    3.364  171.784  103.451    0.428    0.207
  691.000    3.057  164.724   94.210    0.471    0.288
  691.250    2.811  157.771   84.032    0.450    0.249
  691.500    2.688  155.508   82.677    0.415    0.228
  691.750    2.661  154.394   82.444    0.398    0.214
  692.000    2.841  154.323   79.085    0.404    0.212
  692.250    3.091  154.457   73.537    0.413    0.207
  692.500    3.281  155.218   80.439    0.408    0.187
  692.750    3.310  156.606   88.776    0.400    0.137
  693.000    3.214  158.307   93.175    0.411    0.138
  693.250    3.104  159.589   91.757    0.437    0.178
  693.500    2.969  160.559   73.883    0.415    0.162
  693.750    2.824  161.426   63.831    0.382    0.139
  694.000    2.691  161.666   70.543    0.368    0.157
  694.250    2.628  161.802   83.325    0.387    0.177
  694.500    2.567  161.629   81.279    0.408    0.197
  694.750    2.498  161.242   76.607    0.411    0.221
  695.000    2.430  161.170   84.446    0.434    0.183
  695.250    2.369  160.786   83.276    0.479    0.206
  695.500    2.323  160.505   73.036    0.485    0.235
  695.750    2.295  160.440   67.675    0.390    0.238
  696.000    2.250  160.254   69.820    0.370    0.214
  696.250    2.227  160.185   73.781    0.395    0.219
