~VERSION INFORMATION
 VERS.                 2.0:   CWLS LOG ASCII STANDARD -VERSION 2.0
 WRAP.                  NO:   ONE LINE PER DEPTH STEP
~WELL INFORMATION BLOCK
#MNEM.UNIT           DATA                    DESCRIPTION OF MNEMONIC
#---------    -------------------            -------------------------------
# Generated from Intellog Unique Number	CS_73_76/WELL/2023
WELL.         10-22-076-03W4                 : Well_name    - WELL
LOC .         00/10-22-076-03W4/0            : Location     - LOCATION
UWI .         00/10-22-076-03W4/0            : Uwi          - UNIQUE WELL ID
ENTR.         JO                             : Entered      - ENTERED BY
SRVC.         SCHLUMBERGER                   : Scn          - SERVICE COMPANY
DATE.         05/25/92                       : Date         - LOG DATE
STRT.M        259.08                         : top_depth    - START DEPTH
STOP.M        524.33                         : bot_depth    - STOP DEPTH
STEP.M        0.25                           : increment    - STEP LENGTH
 NULL. -999.2500:NULL Value
~CURVE INFORMATION BLOCK
#MNEM UNIT       ERCB CURVE CODE    CURVE DESCRIPTION
#-----------   ------------------   ----------------------------------
DEPT.M        00 001 00 00         : DEPTH        - DEPTH
GR  .API      00 310 00 00         : GR           - GAMMA RAY
DPHI.V/V      00 890 00 00         : PHID         - DENSITY POROSITY (SANDSTONE)
ILD .OHMM     00 120 00 00         : RESD         - DEEP RESISTIVITY (DIL)
~PARAMETER INFORMATION
#MNEM.UNIT           DATA             DESCRIPTION OF MNEMONIC
#---------         -----------     ------------------------------
GL  .M        632.155              : gl           - GROUND LEVEL ELEVATION
EREF.M        634.594              : kb           - ELEVATION OF DEPTH REFERENCE
DATM.M        634.594              : datum        - DATUM ELEVATION
TDD .M        526.694              : tdd          - TOTAL DEPTH DRILLER
RUN .         ONE                  : Run          - RUN NUMBER
ENG .         BILL                 : Engineer     - RECORDING ENGINEER
WIT .         JIM                  : Witness      - WITNESSED BY
MUD .         GEL                  : Mud_type     - MUD TYPE
MATR.         SANDSTONE            : Logunit      - NEUTRON MATRIX
TMAX.C        25                   : BHT          - MAXIMUM RECORDED TEMPERATURE
BHTD.M        526.694              : BHTDEP       - MAXIMUM RECORDED TEMPERATURE
MATR.         1                    : LOGUNIT      - NEUTRON MATRIX
RMT .C        15.5556              : MDTP         - TEMPERATURE OF MUD
NEUT.         1                    : NEUTRON      - NEUTRON TYPE
RESI.         0                    : RESIST       - RESISTIVITY TYPE
RMC .OHMM     4.66                 : RMC          - RESISTIVITY OF MUD CAKE
RMF .OHMM     5.44                 : RMF          - RESISTIVITY OF MUD FILTRATE
SUFT.C        15                   : SUFT         - SURFACE TEMPERATURE
~A  DEPTH       GR     PHID     RESD
# ...
  367.580   43.828    0.113    9.653
  367.830   43.778    0.112    9.635
  368.080   44.354    0.108    9.792
  368.330   44.304    0.103    9.778
  368.580   44.264    0.101    9.937
  368.830   44.234    0.092   10.276
  369.080   44.780    0.081   10.825
  369.330   44.760    0.064   11.607
  369.580   44.710    0.033   12.662
  369.830   45.256    0.025   13.333
  370.080   45.226    0.056   14.805
  370.330   45.196    0.097   16.734
  370.580   45.732    0.126   15.287
  370.830   45.702    0.131   12.787
  371.080   45.672    0.129   10.887
  371.330   45.612    0.124    9.764
  371.580   45.582    0.121    9.578
  371.830   45.551    0.118    9.571
  372.080   44.895    0.118    9.720
  372.330   44.855    0.121    9.886
  372.580   44.199    0.122   10.406
  372.830   43.563    0.122   10.765
  373.080   43.523    0.122   10.945
  373.330   42.877    0.123   11.116
  373.580   42.230    0.126   11.099
  373.830   42.190    0.130   10.892
  374.080   42.150    0.130   10.685
  374.330   42.110    0.130   10.482
  374.580   42.656    0.121   10.462
  374.830   42.626    0.120   10.446
  375.080   43.193    0.120   10.431
  375.330   43.749    0.120   10.415
  375.580   43.719    0.119   10.399
  375.830   44.265    0.118   10.569
  376.080   44.235    0.123   10.364
  376.330   44.185    0.134    9.989
  376.580   44.154    0.142    9.974
  376.830   44.105    0.142    9.780
  377.080   44.074    0.139    9.426
  377.330   44.024    0.137    9.415
  377.580   44.590    0.136    9.569
  377.830   44.550    0.136    9.718
  378.080   45.117    0.137   10.057
  378.330   46.279    0.140   10.396
  378.580   47.441    0.144   10.389
  378.830   49.229    0.145    9.833
  379.080   50.412    0.146    9.818
  379.330   53.392    0.149    9.807
  379.580   56.383    0.154    9.620
  379.830   59.384    0.161    9.606
  380.080   63.577    0.170    9.420
  380.330   65.961    0.177    9.570
  380.580   65.931    0.186    9.726
  380.830   64.659    0.193    9.885
  381.080   64.619    0.202    9.871
  381.330   64.579    0.203    8.259
  381.580   65.145    0.203    2.899
  381.830   65.105    0.206    2.603
  382.080   65.661    0.210    2.379
  382.330   66.247    0.213    2.372
  382.580   66.197    0.213    2.455
  382.830   66.157    0.211    2.540
  383.080   66.107    0.210    2.627
  383.330   66.077    0.203    2.624
  383.580   64.198    0.194    2.620
  383.830   61.744    0.183    2.570
  384.080   60.471    0.172    2.567
  384.330   59.845    0.163    2.749
  384.580   59.189    0.162    3.053
  384.830   59.755    0.160    3.392
  385.080   60.321    0.161    4.044
  385.330   62.090    0.159    4.733
  385.580   63.272    0.157    5.166
  385.830   65.050    0.151    4.636
  386.080   63.798    0.141    4.016
  386.330   59.495    0.132    4.012
  386.580   58.253    0.129    4.077
  386.830   57.606    0.126    4.293
  387.080   56.960    0.122    4.442
  387.330   56.304    0.121    4.759
  387.580   56.254    0.120    5.188
  387.830   56.234    0.119    5.274
  388.080   56.184    0.118    5.458
  388.330   56.154    0.116    5.647
  388.580   56.104    0.110    5.841
  388.830   56.054    0.109    5.833
  389.080   56.014    0.111    5.824
  389.330   55.974    0.117    5.611
  389.580   55.327    0.122    5.500
  389.830   54.671    0.125    5.496
  390.080   54.651    0.129    5.391
  390.330   54.005    0.134    5.383
  390.580   52.743    0.142    5.767
  390.830   52.683    0.147    6.179
  391.080   52.653    0.150    6.285
  391.330   52.602    0.152    6.385
  391.580   53.179    0.152    6.376
  391.830   53.755    0.152    6.140
  392.080   54.291    0.152    6.028
  392.330   54.271    0.148    5.911
  392.580   54.837    0.145    5.697
  392.830   54.797    0.139    5.688
  393.080   54.757    0.133    5.677
  393.330   55.919    0.130    5.671
  393.580   56.495    0.126    5.660
  393.830   57.667    0.124    5.652
  394.080   59.436    0.122    5.544
  394.330   60.002    0.122    5.534
  394.580   59.952    0.121    5.530
  394.830   59.912    0.121    5.519
  395.080   59.872    0.121    5.507
  395.330   59.842    0.121    5.501
  395.580   60.408    0.121    5.493
  395.830   60.974    0.119    5.480
  396.080   59.096    0.118    5.474
  396.330   57.853    0.118    5.566
  396.580   57.197    0.121    5.657
  396.830   58.359    0.132    5.749
  397.080   58.935    0.149    5.839
  397.330   60.118    0.180    5.730
  397.580   61.290    0.192    5.425
  397.830   62.452    0.193    4.958
  398.080   62.998    0.197    4.297
  398.330   62.978    0.213    3.657
  398.580   62.938    0.220    3.343
  398.830   62.898    0.218    2.896
  399.080   62.242    0.216    2.694
  399.330   60.989    0.210    2.462
  399.580   59.141    0.197    2.290
  399.830   55.444    0.174    2.169
  400.080   54.182    0.156    2.052
  400.330   52.929    0.146    2.085
  400.580   52.899    0.140    2.157
  400.830   52.253    0.129    2.353
  401.080   51.597    0.028    2.568
  401.330   49.738    0.004    2.955
  401.580   48.496   -0.033    3.398
  401.830   49.658   -0.043    3.842
  402.080   50.821   -0.033    4.662
  402.330   51.407    0.001    5.556
  402.580   50.751    0.025    6.506
  402.830   49.498    0.073    7.755
  403.080   48.236    0.085    9.745
  403.330   48.196   -0.029   10.444
  403.580   49.974   -0.064   11.198
  403.830   51.157   -0.056   12.652
  404.080   52.935    0.151   11.984
  404.330   52.885    0.156    8.394
  404.580   52.239    0.155    7.405
  404.830   52.199    0.154    6.888
  405.080   53.361    0.147    6.633
  405.330   53.927    0.143    6.747
  405.580   53.281    0.138    6.737
  405.830   51.412    0.136    6.488
  406.080   50.786    0.136    6.140
  406.330   51.928    0.141    5.922
  406.580   53.111    0.150    5.607
  406.830   54.889    0.150    5.501
  407.080   56.071    0.143    5.299
  407.330   57.840    0.140    5.105
  407.580   58.416    0.138    5.006
  407.830   57.143    0.136    5.003
  408.080   56.517    0.136    4.820
  408.330   55.235    0.139    4.645
  408.580   55.205    0.144    4.477
  408.830   54.559    0.148    4.629
  409.080   54.529    0.146    4.791
  409.330   54.478    0.143    5.041
  409.580   54.438    0.141    5.033
  409.830   55.611    0.139    4.941
  410.080   57.389    0.135    4.847
  410.330   55.531    0.134    4.751
  410.580   53.056    0.129    4.744
  410.830   54.834    0.126    4.822
  411.080   56.017    0.123    5.168
  411.330   57.795    0.123    5.636
  411.580   58.957    0.128    5.728
  411.830   59.533    0.136    5.824
  412.080   60.090    0.148    5.711
  412.330   59.433    0.154    5.606
  412.580   59.393    0.159    5.030
  412.830   58.747    0.179    4.764
  413.080   58.707    0.208    4.354
  413.330   58.677    0.213    3.839
  413.580   58.021    0.209    3.571
  413.830   57.971    0.201    3.264
  414.080   57.315    0.194    2.983
  414.330   57.285    0.188    2.089
  414.580   56.638    0.195    1.810
  414.830   56.598    0.203    1.714
  415.080   56.558    0.197    1.742
  415.330   57.721    0.186    1.770
  415.580   58.893    0.185    1.768
  415.830   60.065    0.187    1.765
  416.080   60.035    0.171    1.792
  416.330   58.783    0.156    1.823
  416.580   56.308    0.146    1.919
  416.830   55.046    0.138    2.021
  417.080   55.006    0.135    2.409
  417.330   54.965    0.133    2.723
  417.580   55.532    0.130    3.188
  417.830   56.098    0.128    3.541
  418.080   57.260    0.124    3.862
  418.330   57.846    0.123    3.993
  418.580   58.402    0.126    4.060
  418.830   58.978    0.133    4.127
  419.080   60.141    0.138    4.194
  419.330   60.697    0.141    4.339
  419.580   61.869    0.143    4.488
  419.830   63.031    0.145    4.560
  420.080   63.607    0.146    4.634
  420.330   63.567    0.149    4.548
  420.580   61.103    0.152    4.156
  420.830   57.416    0.149    3.599
  421.080   57.376    0.143    3.233
  421.330   57.952    0.142    3.116
  421.580   59.720    0.140    3.111
