~VERSION INFORMATION
 VERS.                 2.0:   CWLS LOG ASCII STANDARD -VERSION 2.0
 WRAP.                  NO:   ONE LINE PER DEPTH STEP
~WELL INFORMATION BLOCK
#MNEM.UNIT           DATA                    DESCRIPTION OF MNEMONIC
#---------    -------------------            -------------------------------
# Generated from Intellog Unique Number	CW_79_81/WELL/2489
WELL.         13-26-080-22W4                 : Well_name    - WELL
LOC .         00/13-26-080-22W4/0            : Location     - LOCATION
UWI .         00/13-26-080-22W4/0            : Uwi          - UNIQUE WELL ID
ENTR.         MAX                            : Entered      - ENTERED BY
SRVC.         SCHLUMBERGER                   : Scn          - SERVICE COMPANY
STRT.M        185                            : top_depth    - START DEPTH
STOP.M        440                            : bot_depth    - STOP DEPTH
STEP.M        0.25                           : increment    - STEP LENGTH
 NULL. -999.2500:NULL Value
~CURVE INFORMATION BLOCK
#MNEM UNIT       ERCB CURVE CODE    CURVE DESCRIPTION
#-----------   ------------------   ----------------------------------
DEPT.M        00 001 00 00         : DEPTH        - DEPTH
ILD .OHMM     00 120 00 00         : RESD         - DEEP RESISTIVITY (DIL)
NPHI.V/V      00 330 00 00         : PHIN         - NEUTRON POROSITY (SANDSTONE)
DPHI.V/V      00 890 00 00         : PHID         - DENSITY POROSITY (SANDSTONE)
GR  .API      00 310 00 00         : GR           - GAMMA RAY
CALI.MM       00 280 01 00         : CAL          - CALIPER
~PARAMETER INFORMATION
#MNEM.UNIT           DATA             DESCRIPTION OF MNEMONIC
#---------         -----------     ------------------------------
GL  .M        595.95               : gl           - GROUND LEVEL ELEVATION
EREF.M        600.6                : kb           - ELEVATION OF DEPTH REFERENCE
DATM.M        595.95               : datum        - DATUM ELEVATION
TDD .M        449                  : tdd          - TOTAL DEPTH DRILLER
RUN .         ONE                  : Run          - RUN NUMBER
ENG .         BILL                 : Engineer     - RECORDING ENGINEER
WIT .         JIM                  : Witness      - WITNESSED BY
MUD .         GEL                  : Mud_type     - MUD TYPE
MATR.         SANDSTONE            : Logunit      - NEUTRON MATRIX
TMAX.C        36                   : BHT          - MAXIMUM RECORDED TEMPERATURE
BHTD.M        449                  : BHTDEP       - MAXIMUM RECORDED TEMPERATURE
MATR.         1                    : LOGUNIT      - NEUTRON MATRIX
RMT .C        17                   : MDTP         - TEMPERATURE OF MUD
NEUT.         1                    : NEUTRON      - NEUTRON TYPE
RESI.         0                    : RESIST       - RESISTIVITY TYPE
RMC .OHMM     4.46                 : RMC          - RESISTIVITY OF MUD CAKE
RMF .OHMM     4.55                 : RMF          - RESISTIVITY OF MUD FILTRATE
SUFT.C        -20                  : SUFT         - SURFACE TEMPERATURE
~A  DEPTH     RESD     PHIN     PHID       GR      CAL
# ...
  367.500   11.885    0.451    0.219   92.089  220.012
  367.750   11.869    0.430    0.207   85.739  220.503
  368.000   11.780    0.408    0.197   86.242  220.924
  368.250   11.695    0.405    0.197   86.963  221.728
  368.500   11.611    0.422    0.190   87.326  222.532
  368.750   11.570    0.445    0.186   88.287  223.137
  369.000   11.572    0.461    0.189   89.965  223.642
  369.250   11.538    0.458    0.202   91.644  224.532
  369.500   11.364    0.445    0.207   91.648  224.954
  369.750   11.282    0.435    0.191   91.892  224.960
  370.000   11.263    0.422    0.178   90.700  225.267
  370.250   11.307    0.419    0.178   90.824  225.673
  370.500   11.393    0.429    0.188   92.561  226.078
  370.750   11.408    0.449    0.187   93.264  226.486
  371.000   11.065    0.458    0.189   90.778  226.494
  371.250   11.066    0.446    0.205   87.914  226.899
  371.500   10.946    0.434    0.201   88.457  227.305
  371.750   10.786    0.435    0.193   90.135  227.512
  372.000   10.610    0.449    0.189   92.111  227.619
  372.250   10.331    0.462    0.192   95.185  228.108
  372.500   10.096    0.451    0.191   96.184  228.531
  372.750   10.099    0.438    0.185   94.515  228.936
  373.000   10.213    0.426    0.178   91.950  228.745
  373.250   10.405    0.421    0.172   90.520  227.956
  373.500   10.602    0.422    0.171   91.540  226.868
  373.750   10.650    0.419    0.179   96.655  225.995
  374.000   10.489    0.392    0.190  101.889  225.588
  374.250    9.809    0.397    0.194  104.762  225.595
  374.500    9.386    0.407    0.179  102.436  225.603
  374.750    9.081    0.420    0.157   95.627  225.411
  375.000    8.884    0.432    0.144   88.520  224.820
  375.250    8.900    0.435    0.167   89.859  223.386
  375.500    8.970    0.434    0.200   95.343  222.148
  375.750    9.241    0.426    0.198   93.674  221.359
  376.000    9.834    0.425    0.189   91.825  220.568
  376.250   10.592    0.429    0.185   90.275  219.379
  376.500   11.547    0.434    0.191   88.965  217.792
  376.750   13.523    0.435    0.211   86.699  216.042
  377.000   15.946    0.433    0.225   83.715  215.219
  377.250   19.108    0.437    0.229   80.612  214.430
  377.500   22.263    0.437    0.208   77.867  215.134
  377.750   26.391    0.404    0.148   72.731  216.934
  378.000   32.374    0.342    0.079   65.504  219.033
  378.250   39.903    0.289    0.078   59.334  220.237
  378.500   46.310    0.295    0.066   58.343  220.246
  378.750   51.681    0.299    0.066   57.391  220.253
  379.000   54.418    0.284    0.062   56.977  220.260
  379.250   55.249    0.265    0.053   57.220  220.267
  379.500   54.950    0.251    0.047   58.121  220.374
  379.750   53.250    0.245    0.073   60.307  220.781
  380.000   50.858    0.275    0.136   64.047  220.788
  380.250   46.145    0.314    0.155   69.549  221.593
  380.500   39.244    0.349    0.179   73.977  222.098
  380.750   31.324    0.376    0.202   78.643  222.503
  381.000   24.777    0.392    0.215   83.488  222.809
  381.250   20.041    0.390    0.201   87.229  222.818
  381.500   17.878    0.375    0.195   87.982  222.826
  381.750   15.855    0.397    0.198   87.268  222.434
  382.000   14.573    0.412    0.196   86.555  222.044
  382.250   13.955    0.415    0.184   85.722  221.653
  382.500   13.804    0.408    0.161   83.875  221.362
  382.750   13.849    0.384    0.121   78.391  221.288
  383.000   14.067    0.364    0.088   73.664  220.879
  383.250   14.922    0.359    0.105   77.254  220.488
  383.500   15.492    0.391    0.135   81.561  220.097
  383.750   15.436    0.423    0.172   82.044  219.506
  384.000   14.675    0.430    0.211   79.061  218.915
  384.250   13.162    0.407    0.245   78.318  218.925
  384.500   11.920    0.398    0.241   80.564  218.933
  384.750   11.746    0.390    0.237   80.808  218.939
  385.000   11.705    0.382    0.233   79.438  219.544
  385.250   11.794    0.384    0.226   77.291  219.949
  385.500   12.079    0.398    0.218   75.502  219.957
  385.750   12.845    0.416    0.208   75.208  219.966
  386.000   13.459    0.408    0.201   73.719  219.974
  386.250   14.487    0.400    0.192   71.333  221.973
  386.500   15.849    0.374    0.174   66.615  222.777
  386.750   17.990    0.301    0.130   58.491  222.785
  387.000   21.660    0.214    0.068   50.188  222.394
  387.250   29.428    0.203    0.027   49.984  222.005
  387.500   34.977    0.229    0.052   53.724  222.011
  387.750   33.705    0.265    0.100   60.660  221.221
  388.000   29.241    0.315    0.134   63.654  220.730
  388.250   24.659    0.357    0.156   64.615  220.538
  388.500   21.237    0.381    0.165   64.738  220.546
  388.750   18.963    0.395    0.160   64.704  220.471
  389.000   17.974    0.406    0.163   65.704  220.063
  389.250   16.808    0.414    0.179   69.055  220.072
  389.500   15.632    0.416    0.194   70.434  220.079
  389.750   14.745    0.408    0.199   73.188  220.285
  390.000   14.108    0.395    0.192   77.495  220.890
  390.250   13.395    0.390    0.181   80.718  222.343
  390.500   12.892    0.405    0.192   82.465  223.596
  390.750   12.516    0.418    0.197   86.534  224.001
  391.000   12.083    0.425    0.194   88.272  224.108
  391.250   11.822    0.425    0.191   89.233  225.112
  391.500   11.759    0.418    0.187   89.835  226.912
  391.750   11.761    0.404    0.182   88.664  228.283
  392.000   11.764    0.394    0.176   85.182  229.119
  392.250   11.766    0.385    0.168   81.601  229.525
  392.500   11.703    0.375    0.163   83.936  229.333
  392.750   11.488    0.384    0.157   89.439  226.949
  393.000   11.197    0.409    0.152   94.941  223.571
  393.250   10.984    0.414    0.155   96.859  223.181
  393.500   10.735    0.405    0.142   96.864  223.188
  393.750   10.422    0.406    0.124   91.370  223.992
  394.000   10.176    0.420    0.157   94.123  224.498
  394.250    9.992    0.423    0.184   98.311  224.704
  394.500    9.828    0.410    0.187   99.930  224.712
  394.750    9.599    0.394    0.186   96.936  224.638
  395.000    9.527    0.378    0.181   92.708  224.230
  395.250    9.600    0.403    0.180   91.995  223.042
  395.500    9.619    0.424    0.187   94.330  222.153
  395.750    9.692    0.440    0.186   98.637  222.160
  396.000    9.857    0.441    0.171  102.944  222.665
  396.250   10.187    0.404    0.147  104.683  222.109
  396.500   10.758    0.379    0.151  106.182  221.286
  396.750   11.919    0.373    0.168   99.493  221.692
  397.000   13.285    0.371    0.156   87.783  221.500
  397.250   14.850    0.370    0.141   76.551  220.312
  397.500   16.584    0.370    0.142   71.594  218.626
  397.750   18.805    0.371    0.173   80.206  217.838
  398.000   20.979    0.373    0.197   86.187  217.845
  398.250   22.254    0.377    0.206   90.734  218.649
  398.500   23.105    0.385    0.203   89.364  221.247
  398.750   23.717    0.391    0.188   86.021  223.446
  399.000   24.255    0.395    0.169   84.352  223.852
  399.250   24.883    0.397    0.166   87.654  221.453
  399.500   25.276    0.402    0.197   87.410  219.385
  399.750   24.907    0.399    0.207   88.371  220.189
  400.000   23.589    0.397    0.203   90.408  220.994
  400.250   21.727    0.398    0.197   91.966  221.200
  400.500   19.867    0.404    0.188   92.687  220.808
  400.750   18.231    0.414    0.162   93.160  220.502
  401.000   17.149    0.418    0.146   91.920  220.926
  401.250   16.773    0.403    0.108   87.621  221.330
  401.500   17.244    0.389    0.127   78.481  220.839
  401.750   18.543    0.384    0.179   68.325  219.452
  402.000   21.382    0.388    0.236   59.544  217.766
  402.250   30.632    0.383    0.270   51.651  216.978
  402.500   44.564    0.379    0.285   44.434  216.986
  402.750   58.440    0.369    0.294   41.092  216.594
  403.000   68.011    0.364    0.294   39.542  216.502
  403.250   74.127    0.363    0.290   38.829  216.509
  403.500   77.572    0.364    0.287   38.474  216.517
  403.750   73.653    0.368    0.290   38.579  216.442
