~VERSION INFORMATION
 VERS.                 2.0:   CWLS LOG ASCII STANDARD -VERSION 2.0
 WRAP.                  NO:   ONE LINE PER DEPTH STEP
~WELL INFORMATION BLOCK
#MNEM.UNIT           DATA                    DESCRIPTION OF MNEMONIC
#---------    -------------------            -------------------------------
# Generated from Intellog Unique Number	CS_71_72/WELL/900
WELL.         SULPETRO ET AL IPIATIK         : Well_name    - WELL
LOC .         00/11-17-072-10W4/0            : Location     - LOCATION
UWI .         00/11-17-072-10W4/0            : Uwi          - UNIQUE WELL ID
ENTR.         SP                             : Entered      - ENTERED BY
SRVC.         SCHLUMBERGER                   : Scn          - SERVICE COMPANY
STRT.M        300                            : top_depth    - START DEPTH
STOP.M        520                            : bot_depth    - STOP DEPTH
STEP.M        0.25                           : increment    - STEP LENGTH
 NULL. -999.2500:NULL Value
~CURVE INFORMATION BLOCK
#MNEM UNIT       ERCB CURVE CODE    CURVE DESCRIPTION
#-----------   ------------------   ----------------------------------
DEPT.M        00 001 00 00         : DEPTH        - DEPTH
ILD .OHMM     00 120 00 00         : RESD         - DEEP RESISTIVITY (DIL)
DPHI.V/V      00 890 00 00         : PHID         - DENSITY POROSITY (LIMESTONE)
NPHI.V/V      00 330 00 00         : PHIN         - NEUTRON POROSITY (LIMESTONE)
GR  .API      00 310 00 00         : GR           - GAMMA RAY
~PARAMETER INFORMATION
#MNEM.UNIT           DATA             DESCRIPTION OF MNEMONIC
#---------         -----------     ------------------------------
GL  .M        651.83               : gl           - GROUND LEVEL ELEVATION
EREF.M        655.44               : kb           - ELEVATION OF DEPTH REFERENCE
DATM.M        651.83               : datum        - DATUM ELEVATION
TDD .M        524                  : tdd          - TOTAL DEPTH DRILLER
RUN .         ONE                  : Run          - RUN NUMBER
ENG .         BILL                 : Engineer     - RECORDING ENGINEER
WIT .         JIM                  : Witness      - WITNESSED BY
MUD .         GEL                  : Mud_type     - MUD TYPE
MATR.         LIMESTONE            : Logunit      - NEUTRON MATRIX
TMAX.C        30                   : BHT          - MAXIMUM RECORDED TEMPERATURE
BHTD.M        524                  : BHTDEP       - MAXIMUM RECORDED TEMPERATURE
MATR.         1                    : LOGUNIT      - NEUTRON MATRIX
RMT .C        25                   : MDTP         - TEMPERATURE OF MUD
NEUT.         1                    : NEUTRON      - NEUTRON TYPE
RESI.         0                    : RESIST       - RESISTIVITY TYPE
RMC .OHMM     0.25                 : RMC          - RESISTIVITY OF MUD CAKE
RMF .OHMM     0.25                 : RMF          - RESISTIVITY OF MUD FILTRATE
SUFT.C        15                   : SUFT         - SURFACE TEMPERATURE
~A  DEPTH     RESD     PHID     PHIN       GR
  300.000    2.924    0.234    0.479  109.139
  300.250    2.869    0.240    0.495  109.128
  300.500    2.868    0.242    0.526  107.286
  300.750    2.814    0.239    0.539  104.834
  301.000    2.922    0.240    0.498  106.046
  301.250    3.033    0.245    0.503  107.862
  301.500    3.090    0.247    0.515  106.023
  301.750    3.032    0.242    0.522  107.232
  302.000    3.032    0.234    0.522  107.831
  302.250    2.975    0.222    0.501  107.207
  302.500    2.919    0.215    0.478  105.366
  302.750    2.810    0.215    0.475  104.137
  303.000    2.810    0.221    0.466  102.906
  303.250    2.917    0.222    0.460  102.896
  303.500    2.972    0.217    0.471  104.107
  303.750    2.916    0.221    0.517  106.534
  304.000    2.861    0.224    0.550  108.960
  304.250    2.807    0.216    0.533  109.561
  304.500    2.703    0.221    0.539  109.548
  304.750    2.603    0.219    0.516  110.149
  305.000    2.554    0.207    0.477  111.357
  305.250    2.553    0.199    0.498  111.345
  305.500    2.553    0.185    0.505  108.893
  305.750    2.601    0.175    0.479  108.883
  306.000    2.700    0.165    0.466  111.920
  306.250    2.804    0.147    0.469  113.131
  306.500    3.022    0.130    0.481  106.413
  306.750    3.258    0.141    0.469  103.963
  307.000    3.383    0.173    0.406  105.171
  307.250    3.646    0.184    0.404  108.209
  307.500    3.715    0.197    0.432  108.807
  307.750    3.714    0.206    0.459  106.353
  308.000    3.576    0.217    0.456  106.955
  308.250    3.444    0.223    0.461  108.165
  308.500    3.254    0.230    0.479  105.105
  308.750    3.254    0.219    0.486  114.236
  309.000    3.193    0.201    0.501  116.667
  309.250    3.132    0.196    0.478  114.218
  309.500    3.132    0.201    0.545  112.376
  309.750    3.191    0.208    0.499  111.145
  310.000    3.190    0.201    0.475  106.867
  310.250    3.250    0.201    0.484  108.075
  310.500    3.250    0.211    0.478  111.722
  310.750    3.311    0.211    0.423  108.050
  311.000    3.373    0.200    0.406  105.601
  311.250    3.373    0.201    0.447  104.983
  311.500    3.309    0.201    0.471  106.189
  311.750    3.186    0.193    0.472  107.400
  312.000    3.126    0.182    0.437   98.852
  312.250    3.245    0.144    0.428   92.134
  312.500    3.370    0.071    0.422   92.733
  312.750    3.498    0.149    0.411  106.744
  313.000    3.990    0.168    0.412  114.050
  313.250    4.467    0.182    0.396  117.089
  313.500    4.815    0.199    0.507  114.028
  313.750    5.094    0.386    0.525  101.824
  314.000    5.093    0.329    0.458   96.325
  314.250    5.490    0.288    0.414   92.654
  314.500    6.146    0.288    0.380   87.157
  314.750    7.998    0.325    0.320   76.781
  315.000   11.434    0.365    0.238   61.526
  315.250   17.960    0.366    0.210   49.927
  315.500   30.417    0.374    0.198   44.431
  315.750   37.407    0.371    0.182   39.542
  316.000   40.323    0.360    0.174   34.654
  316.250   41.081    0.353    0.186   34.643
  316.500   41.075    0.347    0.207   38.897
  316.750   39.552    0.350    0.216   40.718
  317.000   35.992    0.342    0.230   35.827
  317.250   33.378    0.336    0.257   35.209
  317.500   28.706    0.325    0.276   32.148
  317.750   25.637    0.316    0.280   29.700
  318.000   23.330    0.312    0.291   30.295
  318.250   20.447    0.298    0.310   32.116
  318.500   18.608    0.275    0.336   47.958
  318.750   16.933    0.238    0.332   68.065
  319.000   15.122    0.226    0.354   85.736
  319.250   14.023    0.221    0.365   99.751
  319.500   12.761    0.218    0.379  107.057
  319.750   11.613    0.212    0.375  107.043
  320.000   10.973    0.215    0.368  106.425
  320.250   10.567    0.220    0.362  108.853
  320.500   10.174    0.224    0.378  107.008
  320.750    9.983    0.209    0.380  107.002
  321.000    9.795    0.201    0.376  108.208
  321.250    9.793    0.201    0.396  107.590
  321.500    9.977    0.211    0.395  104.529
  321.750    9.976    0.242    0.391   94.152
  322.000   10.357    0.267    0.375   77.068
  322.250   10.957    0.279    0.328   67.913
  322.500   11.375    0.275    0.332   59.975
  322.750   11.373    0.272    0.360   73.378
  323.000   11.159    0.246    0.382   85.562
  323.250   10.544    0.261    0.404   81.890
  323.500   10.153    0.265    0.415   74.565
  323.750    9.776    0.249    0.394   69.067
  324.000    9.592    0.234    0.365   76.371
  324.250    9.412    0.217    0.359   84.281
  324.500    9.772    0.205    0.343   86.714
  324.750    9.956    0.251    0.357   83.045
  325.000   10.936    0.272    0.378   67.182
  325.250   11.142    0.272    0.353   59.242
  325.500   12.011    0.266    0.345   58.013
  325.750   12.470    0.265    0.346   59.831
  326.000   12.235    0.276    0.356   62.869
  326.250   11.347    0.244    0.378   78.709
  326.500   10.133    0.176    0.395   94.552
  326.750    8.393    0.114    0.419  107.345
  327.000    6.822    0.142    0.444  118.916
  327.250    5.651    0.173    0.471  124.394
  327.500    4.508    0.188    0.502  126.824
  327.750    3.805    0.200    0.522  127.421
  328.000    3.272    0.217    0.497  126.191
  328.250    2.922    0.237    0.504  128.010
  328.500    2.977    0.226    0.499  120.682
  328.750    3.593    0.143    0.477   97.501
  329.000    4.176    0.196    0.450   90.173
  329.250    5.971    0.230    0.403   91.377
  329.500    7.625    0.240    0.401   94.416
  329.750    9.737    0.215    0.408   95.627
  330.000   11.532    0.191    0.424   95.006
  330.250   12.668    0.203    0.438   94.995
  330.500   13.151    0.227    0.441   98.637
  330.750   13.399    0.242    0.432  101.067
  331.000   12.902    0.243    0.440  102.887
  331.250   12.423    0.223    0.447  105.313
  331.500   11.306    0.208    0.428  105.913
  331.750   10.096    0.202    0.412  106.515
  332.000    9.017    0.204    0.413  105.891
  332.250    8.053    0.204    0.425  111.371
  332.500    6.670    0.195    0.441  121.723
  332.750    5.736    0.185    0.469  125.368
  333.000    5.221    0.179    0.442  127.797
  333.250    4.751    0.183    0.453  130.225
  333.500    4.405    0.190    0.455  133.263
  333.750    4.242    0.178    0.453  133.864
  334.000    4.241    0.183    0.462  131.413
  334.250    4.321    0.203    0.480  135.670
  334.500    4.658    0.210    0.473  138.099
  334.750    5.837    0.199    0.457  130.157
  335.000    7.045    0.214    0.444  127.101
  335.250    7.739    0.238    0.405  122.209
  335.500    9.518    0.267    0.410  111.834
  335.750   10.654    0.291    0.404  103.898
  336.000   12.618    0.302    0.391   92.910
  336.250   14.393    0.311    0.369   86.804
  336.500   15.810    0.298    0.373   82.525
  336.750   16.109    0.263    0.395   87.392
  337.000   13.854    0.243    0.411   94.697
  337.250   11.915    0.238    0.404  104.434
  337.500   10.248    0.238    0.392  106.865
  337.750    9.326    0.238    0.421  108.078
  338.000   10.245    0.239    0.434  105.018
  338.250   11.907    0.279    0.376   90.981
  338.500   13.581    0.278    0.355   83.656
  338.750   14.101    0.275    0.350   78.156
  339.000   14.639    0.272    0.350   76.925
  339.250   14.915    0.266    0.366   76.916
  339.500   14.634    0.265    0.375   86.654
  339.750   13.570    0.267    0.393   90.305
  340.000   12.823    0.263    0.404   93.345
  340.250   11.891    0.256    0.417  100.036
  340.500   10.620    0.241    0.413  101.859
  340.750    9.483    0.228    0.380  105.505
  341.000    8.630    0.225    0.385  106.104
  341.250    8.468    0.219    0.392  103.043
  341.500    8.467    0.220    0.397   98.764
  341.750    9.477    0.270    0.413   93.264
  342.000   11.438    0.299    0.427   88.985
  342.250   13.294    0.310    0.440   84.707
  342.500   14.604    0.312    0.420   80.429
  342.750   16.974    0.310    0.405   76.759
  343.000   17.957    0.307    0.446   74.310
  343.250   19.725    0.304    0.458   74.910
