~VERSION INFORMATION
 VERS.                 2.0:   CWLS LOG ASCII STANDARD -VERSION 2.0
 WRAP.                  NO:   ONE LINE PER DEPTH STEP
~WELL INFORMATION BLOCK
#MNEM.UNIT           DATA                    DESCRIPTION OF MNEMONIC
#---------    -------------------            -------------------------------
# Generated from Intellog Unique Number	CS_77_79/WELL/973
WELL.         FRANCANA LEISMERE              : Well_name    - WELL
LOC .         00/10-27-078-07W4/0            : Location     - LOCATION
UWI .         00/10-27-078-07W4/0            : Uwi          - UNIQUE WELL ID
ENTR.         JHS                            : Entered      - ENTERED BY
SRVC.         SCHLUMBERGER                   : Scn          - SERVICE COMPANY
STRT.M        110                            : top_depth    - START DEPTH
STOP.M        345                            : bot_depth    - STOP DEPTH
STEP.M        0.25                           : increment    - STEP LENGTH
 NULL. -999.2500:NULL Value
~CURVE INFORMATION BLOCK
#MNEM UNIT       ERCB CURVE CODE    CURVE DESCRIPTION
#-----------   ------------------   ----------------------------------
DEPT.M        00 001 00 00         : DEPTH        - DEPTH
DPHI.V/V      00 890 00 00         : PHID         - DENSITY POROSITY (LIMESTONE)
NPHI.V/V      00 330 00 00         : PHIN         - NEUTRON POROSITY (LIMESTONE)
GR  .API      00 310 00 00         : GR           - GAMMA RAY
ILD .OHMM     00 120 00 00         : RESD         - DEEP RESISTIVITY (DIL)
~PARAMETER INFORMATION
#MNEM.UNIT           DATA             DESCRIPTION OF MNEMONIC
#---------         -----------     ------------------------------
GL  .M        548.21               : gl           - GROUND LEVEL ELEVATION
EREF.M        555.72               : kb           - ELEVATION OF DEPTH REFERENCE
DATM.M        555.72               : datum        - DATUM ELEVATION
TDD .M        351                  : tdd          - TOTAL DEPTH DRILLER
RUN .         ONE                  : Run          - RUN NUMBER
ENG .         BILL                 : Engineer     - RECORDING ENGINEER
WIT .         JIM                  : Witness      - WITNESSED BY
MUD .         GEL                  : Mud_type     - MUD TYPE
MATR.         LIMESTONE            : Logunit      - NEUTRON MATRIX
TMAX.C        13                   : BHT          - MAXIMUM RECORDED TEMPERATURE
BHTD.M        351                  : BHTDEP       - MAXIMUM RECORDED TEMPERATURE
MATR.         1                    : LOGUNIT      - NEUTRON MATRIX
RMT .C        25                   : MDTP         - TEMPERATURE OF MUD
NEUT.         1                    : NEUTRON      - NEUTRON TYPE
RESI.         0                    : RESIST       - RESISTIVITY TYPE
RMC .OHMM     0.25                 : RMC          - RESISTIVITY OF MUD CAKE
RMF .OHMM     0.25                 : RMF          - RESISTIVITY OF MUD FILTRATE
SUFT.C        15                   : SUFT         - SURFACE TEMPERATURE
~A  DEPTH     PHID     PHIN       GR     RESD
# ...
  153.500    0.299    0.428   69.375   14.295
  153.750    0.286    0.425   77.370   11.403
  154.000    0.279    0.422   83.509    8.757
  154.250    0.266    0.438   96.393    6.854
  154.500    0.237    0.465  107.436    6.609
  154.750    0.211    0.495  112.361    6.620
  155.000    0.192    0.507  113.000    6.755
  155.250    0.186    0.508  111.194    7.030
  155.500    0.193    0.519  111.830    7.174
  155.750    0.170    0.496  113.075    7.463
  156.000    0.140    0.461  108.207    7.911
  156.250    0.110    0.440  101.499    8.884
  156.500    0.071    0.445  107.644    9.594
  156.750    0.239    0.458  113.179   11.616
  157.000    0.291    0.449  110.145   15.465
  157.250    0.325    0.425  104.052   19.817
  157.500    0.336    0.418  102.241   19.852
  157.750    0.332    0.426   99.813   17.084
  158.000    0.305    0.427   94.940   14.424
  158.250    0.280    0.437   93.134   12.900
  158.500    0.270    0.453   96.830   12.674
  158.750    0.258    0.461   97.470   13.434
  159.000    0.240    0.469   95.045   14.794
  159.250    0.256    0.475   91.404   15.987
  159.500    0.262    0.463   88.367   16.625
  159.750    0.268    0.457   84.104   16.970
  160.000    0.264    0.433   78.009   17.322
  160.250    0.264    0.406   73.133   17.022
  160.500    0.280    0.394   70.709   17.710
  160.750    0.270    0.407   70.127   18.778
  161.000    0.285    0.418   71.985   19.909
  161.250    0.306    0.398   71.398   21.104
  161.500    0.312    0.391   68.976   21.538
  161.750    0.297    0.408   65.332   20.383
  162.000    0.298    0.424   62.908   18.566
  162.250    0.310    0.419   65.383   16.593
  162.500    0.289    0.422   73.364   14.278
  162.750    0.272    0.421   80.126   13.009
  163.000    0.265    0.415   88.727   12.307
  163.250    0.255    0.424   92.425   11.869
  163.500    0.240    0.465   94.282   11.663
  163.750    0.239    0.446   93.697   11.248
  164.000    0.226    0.441   94.948   10.441
  164.250    0.214    0.450   92.527    9.876
  164.500    0.246    0.451   94.385    8.829
  164.750    0.243    0.451   99.313    8.356
  165.000    0.227    0.453  102.397    8.057
  165.250    0.215    0.457  105.487    7.916
  165.500    0.225    0.462  106.126    8.083
  165.750    0.231    0.474  106.147    8.405
  166.000    0.231    0.485  104.951    9.435
  166.250    0.221    0.481  103.136   10.791
  166.500    0.231    0.455   96.428   11.882
  166.750    0.247    0.433   90.333   12.602
  167.000    0.243    0.421   87.297   12.613
  167.250    0.235    0.427   89.165   11.937
  167.500    0.245    0.437   91.022   11.085
  167.750    0.256    0.437   95.335   10.290
  168.000    0.214    0.440  103.318    9.920
  168.250    0.209    0.438  107.630    9.751
  168.500    0.231    0.447  105.206    9.580
  168.750    0.235    0.466  102.790    9.968
  169.000    0.223    0.457  103.433   10.371
  169.250    0.216    0.467  103.451   10.994
  169.500    0.236    0.477  102.247   11.435
  169.750    0.241    0.482  100.436   12.352
  170.000    0.256    0.492   99.850   13.102
  170.250    0.262    0.464   98.039   13.631
  170.500    0.263    0.446   95.004   13.918
  170.750    0.291    0.438   91.971   13.931
  171.000    0.298    0.445   91.994   13.952
  171.250    0.285    0.437   93.862   13.454
  171.500    0.270    0.441   93.888   13.220
  171.750    0.260    0.438   94.521   12.992
  172.000    0.244    0.437   96.387   12.527
  172.250    0.243    0.468  101.921   12.086
  172.500    0.224    0.479  106.846   11.653
  172.750    0.211    0.489  108.704   11.234
  173.000    0.216    0.491  101.995   10.833
  173.250    0.216    0.491   96.512   10.444
  173.500    0.211    0.472   92.254    9.883
  173.750    0.190    0.474   87.993    9.002
  174.000    0.158    0.476   79.446    8.046
  174.250    0.167    0.466   85.597    7.055
  174.500    0.240    0.477   91.743    7.066
  174.750    0.241    0.471   94.834   10.148
  175.000    0.235    0.478   91.188   11.393
  175.250    0.237    0.478   85.706   12.311
  175.500    0.266    0.457   81.442   13.299
  175.750    0.261    0.444   76.570   15.210
  176.000    0.260    0.434   71.085   18.067
  176.250    0.256    0.420   65.599   21.875
  176.500    0.274    0.408   57.667   26.485
  176.750    0.309    0.406   52.798   30.895
  177.000    0.317    0.414   52.211   31.530
  177.250    0.310    0.427   54.685   32.195
  177.500    0.319    0.421   55.932   31.617
  177.750    0.322    0.411   55.966   31.667
  178.000    0.321    0.417   55.373   31.720
  178.250    0.312    0.425   56.623   31.773
  178.500    0.320    0.421   56.649   32.418
  178.750    0.331    0.424   55.452   32.483
  179.000    0.322    0.429   53.645   33.794
  179.250    0.316    0.419   53.054   34.498
  179.500    0.307    0.414   53.693   34.527
  179.750    0.297    0.422   54.327   35.948
  180.000    0.304    0.427   53.748   35.977
  180.250    0.330    0.424   53.159   36.726
  180.500    0.334    0.412   55.020   37.487
  180.750    0.329    0.399   55.041   36.842
  181.000    0.324    0.392   53.232   36.898
  181.250    0.319    0.389   51.426   36.959
  181.500    0.319    0.399   50.847   37.015
  181.750    0.315    0.413   50.865   36.388
  182.000    0.320    0.426   52.727   35.750
  182.250    0.330    0.429   53.986   35.129
  182.500    0.325    0.436   53.997   33.247
  182.750    0.324    0.446   52.805   32.657
  183.000    0.335    0.440   54.051   32.709
  183.250    0.331    0.436   54.688   32.787
  183.500    0.326    0.446   54.106   33.448
  183.750    0.328    0.441   55.969   33.493
  184.000    0.328    0.437   55.378   33.542
  184.250    0.336    0.433   52.953   32.355
  184.500    0.346    0.418   53.594   31.785
  184.750    0.345    0.408   57.914   31.836
  185.000    0.350    0.398   58.541   31.888
  185.250    0.338    0.394   59.794   31.344
  185.500    0.327    0.411   60.437   30.214
  185.750    0.325    0.438   60.460   29.142
  186.000    0.334    0.449   59.870   28.097
  186.250    0.338    0.455   59.897   27.618
  186.500    0.338    0.452   59.307   28.736
  186.750    0.335    0.455   60.557   29.315
  187.000    0.325    0.443   61.199   28.813
  187.250    0.338    0.429   61.222   27.782
  187.500    0.340    0.435   60.035   27.298
  187.750    0.335    0.440   60.048   25.366
  188.000    0.337    0.437   59.467   25.380
  188.250    0.335    0.442   59.488   25.423
  188.500    0.342    0.440   60.127   26.952
  188.750    0.340    0.414   60.161   29.139
  189.000    0.327    0.405   59.574   29.174
  189.250    0.326    0.408   58.373   27.083
  189.500    0.317    0.407   57.168   25.622
  189.750    0.317    0.412   57.201   23.797
  190.000    0.331    0.409   57.839   22.942
  190.250    0.338    0.415   58.479   24.790
  190.500    0.333    0.444   57.887   26.775
  190.750    0.333    0.459   55.464   29.484
  191.000    0.323    0.432   54.269   31.271
  191.250    0.277    0.408   54.289   30.147
  191.500    0.218    0.356   52.475   27.983
  191.750    0.180    0.323   48.835   25.983
  192.000    0.181    0.335   50.086   25.057
  192.250    0.348    0.445   53.779   25.097
  192.500    0.346    0.435   53.806   25.616
  192.750    0.339    0.431   51.998   26.153
  193.000    0.345    0.443   50.188   26.184
  193.250    0.334    0.450   50.208   26.228
  193.500    0.342    0.456   56.359   25.282
  193.750    0.351    0.468   58.225   24.399
  194.000    0.344    0.458   58.258   23.960
  194.250    0.337    0.447   57.660   23.557
  194.500    0.327    0.440   56.460   23.585
  194.750    0.337    0.452   56.490   24.078
  195.000    0.345    0.469   57.121   23.668
  195.250    0.354    0.468   57.156   23.690
  195.500    0.341    0.461   57.182   23.747
  195.750    0.336    0.458   56.595   23.320
  196.000    0.344    0.451   56.616   23.358
  196.250    0.343    0.434   56.639   22.952
  196.500    0.338    0.430   57.288   22.991
  196.750    0.338    0.436   57.919   23.035
