~VERSION INFORMATION
 VERS.                 2.0:   CWLS LOG ASCII STANDARD -VERSION 2.0
 WRAP.                  NO:   ONE LINE PER DEPTH STEP
~WELL INFORMATION BLOCK
#MNEM.UNIT           DATA                    DESCRIPTION OF MNEMONIC
#---------    -------------------            -------------------------------
# Generated from Intellog Unique Number	CW_73_75/WELL/2751
WELL.         NORCEN POR MARTEN HILLS 15-34  : Well_name    - WELL
LOC .         00/15-34-073-25W4/0            : Location     - LOCATION
UWI .         00/15-34-073-25W4/0            : Uwi          - UNIQUE WELL ID
ENTR.         JAYE                           : Entered      - ENTERED BY
SRVC.         COMPUTALOG                     : Scn          - SERVICE COMPANY
DATE.         24 FEB 83                      : Date         - LOG DATE
STRT.M        430                            : top_depth    - START DEPTH
STOP.M        650                            : bot_depth    - STOP DEPTH
STEP.M        0.25                           : increment    - STEP LENGTH
 NULL. -999.2500:NULL Value
~CURVE INFORMATION BLOCK
#MNEM UNIT       ERCB CURVE CODE    CURVE DESCRIPTION
#-----------   ------------------   ----------------------------------
DEPT.M        00 001 00 00         : DEPTH        - DEPTH
DPHI.V/V      00 890 00 00         : PHID         - DENSITY POROSITY (SANDSTONE)
NPHI.V/V      00 330 00 00         : PHIN         - NEUTRON POROSITY (SANDSTONE)
GR  .API      00 310 00 00         : GR           - GAMMA RAY
CALI.MM       00 280 01 00         : CAL          - CALIPER
ILD .OHMM     00 120 00 00         : RESD         - DEEP RESISTIVITY (DIL)
~PARAMETER INFORMATION
#MNEM.UNIT           DATA             DESCRIPTION OF MNEMONIC
#---------         -----------     ------------------------------
GL  .M        681.45               : gl           - GROUND LEVEL ELEVATION
EREF.M        684.45               : kb           - ELEVATION OF DEPTH REFERENCE
DATM.M        681.45               : datum        - DATUM ELEVATION
TDD .M        652                  : tdd          - TOTAL DEPTH DRILLER
RUN .         ONE                  : Run          - RUN NUMBER
ENG .         GRBAVAC              : Engineer     - RECORDING ENGINEER
WIT .         STEVENS/BOGNER       : Witness      - WITNESSED BY
BASE.         EDM                  : Branch       - HOME BASE OF LOGGING UNIT
MUD .         GEL CHEM             : Mud_type     - MUD TYPE
MATR.         SANDSTONE            : Logunit      - NEUTRON MATRIX
TMAX.C        30                   : BHT          - MAXIMUM RECORDED TEMPERATURE
BHTD.M        651.5                : BHTDEP       - MAXIMUM RECORDED TEMPERATURE
RMT .C        17                   : MDTP         - TEMPERATURE OF MUD
MUDD.KG/M     1120                 : MWT          - MUD DENSITY
NEUT.         1                    : NEUTRON      - NEUTRON TYPE
RESI.         0                    : RESIST       - RESISTIVITY TYPE
RM  .OHMM     5                    : RM           - RESISTIVITY OF MUD
RMC .OHMM     5                    : RMC          - RESISTIVITY OF MUD CAKE
RMF .OHMM     5                    : RMF          - RESISTIVITY OF MUD FILTRATE
SUFT.C        0                    : SUFT         - SURFACE TEMPERATURE
~A  DEPTH     PHID     PHIN       GR      CAL     RESD
# ...
  576.000    0.250    0.401   61.721  205.040    9.423
  576.250    0.253    0.389   60.696  204.544    9.258
  576.500    0.241    0.372   61.416  204.464    9.237
  576.750    0.243    0.411   61.262  204.486    9.199
  577.000    0.242    0.400   60.607  204.509    9.108
  577.250    0.231    0.375   59.583  204.535    9.000
  577.500    0.223    0.360   61.240  204.459    8.997
  577.750    0.233    0.357   63.337  204.271    8.959
  578.000    0.245    0.375   65.505  204.297    8.990
  578.250    0.250    0.376   66.538  204.318    9.040
  578.500    0.253    0.373   66.758  204.651    9.054
  578.750    0.250    0.363   66.916  205.096    8.982
  579.000    0.237    0.349   67.825  205.218    8.740
  579.250    0.208    0.339   70.491  205.140    8.620
  579.500    0.187    0.329   70.771  205.271    8.700
  579.750    0.182    0.320   63.611  205.291    8.866
  580.000    0.186    0.309   59.517  205.316    9.264
  580.250    0.179    0.295   55.421  205.548   10.493
  580.500    0.166    0.294   55.517  205.464   12.163
  580.750    0.156    0.313   57.303  205.178   13.963
  581.000    0.172    0.340   60.470  204.580   15.277
  581.250    0.185    0.345   62.503  204.291   15.931
  581.500    0.186    0.327   61.097  204.311   15.957
  581.750    0.176    0.324   58.754  204.230   15.262
  582.000    0.169    0.324   61.667  203.528   14.236
  582.250    0.156    0.316   65.830  203.140   13.052
  582.500    0.130    0.304   63.239  203.161   11.829
  582.750    0.104    0.294   64.025  203.184   10.866
  583.000    0.129    0.315   67.183  202.999   10.274
  583.250    0.148    0.329   74.103  203.231    9.883
  583.500    0.150    0.342   77.889  203.881    9.379
  583.750    0.146    0.364   82.803  204.212    9.022
  584.000    0.144    0.356   87.658  204.549    8.680
  584.250    0.138    0.354   81.871  205.089    7.942
  584.500    0.120    0.353   74.961  206.050    7.729
  584.750    0.105    0.345   79.312  207.318    7.786
  585.000    0.131    0.361   84.916  208.277    7.965
  585.250    0.147    0.361   89.706  208.612    8.116
  585.500    0.149    0.348   95.056  208.950    8.223
  585.750    0.138    0.332   92.589  209.077    8.126
  586.000    0.128    0.343   92.253  209.513    7.893
  586.250    0.129    0.355   92.284  209.952    7.592
  586.500    0.140    0.361   93.379  209.667    7.474
  586.750    0.137    0.350   95.044  209.170    7.428
  587.000    0.126    0.343   96.138  208.153    7.355
  587.250    0.132    0.360   98.426  205.892    7.466
  587.500    0.134    0.366  104.654  202.385    7.521
  587.750    0.131    0.352   99.246  199.811    7.532
  588.000    0.151    0.336   93.461  196.925    7.676
  588.250    0.167    0.320   87.989  197.056    7.929
  588.500    0.155    0.307   81.141  198.635    8.332
  588.750    0.115    0.293   76.043  201.152    9.347
  589.000    0.097    0.290   79.392  203.045   10.346
  589.250    0.133    0.296   82.807  204.213   11.041
  589.500    0.151    0.309   76.147  205.069   11.470
  589.750    0.168    0.325   75.304  205.508   11.532
  590.000    0.176    0.323   81.595  205.736   11.331
  590.250    0.179    0.319   83.694  206.182   11.218
  590.500    0.165    0.307   81.853  206.303   10.979
  590.750    0.137    0.296   81.698  206.430   10.850
  591.000    0.135    0.301   84.486  206.561   10.701
  591.250    0.149    0.319   90.714  206.689   10.514
  591.500    0.143    0.335   97.443  206.920   10.271
  591.750    0.104    0.340   93.537  206.940   10.033
  592.000    0.068    0.324   88.689  206.754    9.934
  592.250    0.048    0.293   82.779  206.572   10.026
  592.500    0.026    0.268   76.621  206.493   10.886
  592.750    0.005    0.259   70.584  206.309   12.142
  593.000    0.003    0.262   70.807  206.018   14.183
  593.250    0.040    0.274   75.095  205.938   16.282
  593.500    0.057    0.291   78.261  206.170   17.510
  593.750    0.059    0.287   76.102  206.816   17.639
  594.000    0.072    0.302   78.076  208.504   16.968
  594.250    0.116    0.326   83.241  209.876   15.173
  594.500    0.113    0.346   87.092  210.418   13.081
  594.750    0.097    0.355   83.123  208.781   10.707
  595.000    0.079    0.363   82.280  207.765    9.779
  595.250    0.096    0.359   86.317  206.543    9.335
  595.500    0.115    0.347   87.981  205.737    9.206
  595.750    0.124    0.340   89.141  205.344    9.133
  596.000    0.111    0.329   89.113  205.367    9.077
  596.250    0.098    0.334   85.328  205.598    9.005
  596.500    0.113    0.341   85.300  206.038    8.933
  596.750    0.125    0.344   88.402  206.061    8.895
  597.000    0.134    0.341   91.190  206.085    8.910
  597.250    0.127    0.337   94.477  206.110    8.889
  597.500    0.118    0.330   91.571  205.821    8.869
  597.750    0.122    0.359   88.663  205.848    8.883
  598.000    0.070    0.355   90.260  205.765    8.983
  598.250    0.034    0.333   81.472  206.207    9.422
  598.500    0.025    0.276   71.060  206.332   10.469
  598.750    0.051    0.270   74.284  206.562   11.995
  599.000    0.083    0.290   79.698  206.999   13.075
  599.250    0.102    0.313   86.428  207.130   13.452
  599.500    0.115    0.336   91.781  207.049   13.345
  599.750    0.130    0.341   99.636  206.765   12.329
  600.000    0.144    0.319  100.173  206.783   10.919
  600.250    0.144    0.302   97.703  206.704    9.468
  600.500    0.135    0.307   96.924  206.727    9.003
  600.750    0.116    0.311   96.209  207.060    8.880
  601.000    0.072    0.301   92.487  207.500    9.136
  601.250    0.054    0.297   85.763  207.731    9.455
  601.500    0.080    0.294   81.357  207.653    9.803
  601.750    0.095    0.289   83.705  206.947    9.650
  602.000    0.109    0.279   87.243  206.245    9.107
  602.250    0.120    0.279   90.220  206.060    7.469
  602.500    0.141    0.364   92.505  206.812    6.220
  602.750    0.174    0.450   94.853  209.952    5.352
  603.000    0.210    0.462   98.082  213.403    4.297
  603.250    0.248    0.450   98.550  216.541    3.552
  603.500    0.232    0.445   98.648  212.931    3.182
  603.750    0.212    0.446  100.875  207.656    2.991
  604.000    0.191    0.446  102.972  204.876    3.048
  604.250    0.162    0.433  100.251  203.446    3.228
  604.500    0.125    0.328   86.208  203.155    3.471
  604.750    0.101    0.303   79.922  203.076    3.932
  605.000    0.122    0.344   83.398  205.072    4.837
  605.250    0.134    0.372   89.876  209.044    5.639
  605.500    0.121    0.381   94.105  211.045    6.088
  605.750    0.117    0.371   95.201  211.687    6.385
  606.000    0.121    0.361   96.549  209.113    6.532
  606.250    0.125    0.346   99.587  205.087    6.644
  606.500    0.123    0.334   97.431  202.827    6.783
  606.750    0.119    0.343   93.898  201.914    6.873
  607.000    0.105    0.357   93.999  202.040    6.923
  607.250    0.092    0.375   93.907  201.856    7.001
  607.500    0.078    0.386   91.565  202.402    6.774
  607.750    0.063    0.377   85.090  202.942    6.355
  608.000    0.041    0.334   81.618  203.070    6.125
  608.250    0.050    0.239   70.830  203.304    6.147
  608.500    0.253    0.209   58.098  203.436    7.043
  608.750    0.313    0.179   42.554  203.351    8.665
  609.000    0.337    0.160   36.271  203.269   10.722
  609.250    0.345    0.156   35.740  203.087   14.108
  609.500    0.347    0.181   35.652  203.111   18.281
  609.750    0.345    0.184   35.311  203.131   26.129
  610.000    0.340    0.186   34.470  203.161   32.896
  610.250    0.325    0.190   33.625  203.185   38.870
  610.500    0.317    0.206   33.659  203.006   39.534
  610.750    0.312    0.229   34.197  203.021   35.419
  611.000    0.303    0.264   34.851  203.041   30.950
  611.250    0.294    0.311   35.516  202.859   26.529
  611.500    0.287    0.333   35.799  202.781   23.316
  611.750    0.278    0.319   36.081  202.804   19.909
  612.000    0.266    0.303   36.559  202.721   16.645
  612.250    0.269    0.302   36.902  202.541   13.391
