~VERSION INFORMATION
 VERS.                 2.0:   CWLS LOG ASCII STANDARD -VERSION 2.0
 WRAP.                  NO:   ONE LINE PER DEPTH STEP
~WELL INFORMATION BLOCK
#MNEM.UNIT           DATA                    DESCRIPTION OF MNEMONIC
#---------    -------------------            -------------------------------
# Generated from Intellog Unique Number	CW_70_72/WELL/1048
NULL.         -999.25                        : NULL_VALUE
WELL.         SUNDANCE ET AL SMITH 10-33     : Well_name    - WELL              
LOC .         10-33-072-25W4                 : Location     - LOCATION          
UWI .         00/10-33-072-25W4/0            : Uwi          - UNIQUE WELL ID    
ENTR.         JAYE                           : Entered      - ENTERED BY        
SRVC.         SCHLUMBERGER                   : Scn          - SERVICE COMPANY   
DATE.         14 JAN 77                      : Date         - LOG DATE          
STRT.M        441.96                         : top_depth    - START DEPTH       
STOP.M        656.71                         : bot_depth    - STOP DEPTH        
STEP.M        0.25                           : increment    - STEP LENGTH       
~CURVE INFORMATION BLOCK
#MNEM UNIT       ERCB CURVE CODE    CURVE DESCRIPTION
#-----------   ------------------   ----------------------------------
DEPT.M        00 001 00 00         : DEPTH        - DEPTH                       
DPHI.V/V      00 890 00 00         : PHID         - DENSITY POROSITY (SANDSTONE)
NPHI.V/V      00 330 00 00         : PHIN         - NEUTRON POROSITY (SANDSTONE)
GR  .API      00 310 00 00         : GR           - GAMMA RAY                   
CALI.MM       00 280 01 00         : CAL          - CALIPER                     
ILD .OHMM     00 120 00 00         : RESD         - DEEP RESISTIVITY (DIL)      
~PARAMETER INFORMATION       
#MNEM.UNIT           DATA             DESCRIPTION OF MNEMONIC
#---------         -----------     ------------------------------
GL  .M        664.159              : gl           - GROUND LEVEL ELEVATION      
EREF.M        667.817              : kb           - ELEVATION OF DEPTH REFERENCE
DATM.M        664.159              : datum        - DATUM ELEVATION             
TDD .M        670.56               : tdd          - TOTAL DEPTH DRILLER         
RUN .         ONE                  : Run          - RUN NUMBER                  
MATR.         SANDSTONE            : Logunit      - NEUTRON MATRIX              
TMAX.C        -17.7778             : BHT          - MAXIMUM RECORDED TEMPERATURE
BHTD.M        671.17               : BHTDEP       - MAXIMUM RECORDED TEMPERATURE
RMT .C        17.7778              : MDTP         - TEMPERATURE OF MUD          
MUDD.KG/M     0                    : MWT          - MUD DENSITY                 
NEUT.         1                    : NEUTRON      - NEUTRON TYPE                
RESI.         0                    : RESIST       - RESISTIVITY TYPE            
RM  .OHMM     4.02                 : RM           - RESISTIVITY OF MUD          
RMC .OHMM     0                    : RMC          - RESISTIVITY OF MUD CAKE     
RMF .OHMM     3.71                 : RMF          - RESISTIVITY OF MUD FILTRATE 
SUFT.C        -17.7778             : SUFT         - SURFACE TEMPERATURE         
~A  DEPTH     PHID     PHIN       GR      CAL     RESD
# ...
  551.460    0.241    0.478  105.894  162.232    5.396
  551.710    0.245    0.488  106.575  161.839    5.219
  551.960    0.231    0.478  107.921  161.546    5.048
  552.210    0.221    0.462  106.958  161.665    4.891
  552.460    0.237    0.481  104.415  161.376    4.793
  552.710    0.242    0.516  102.541  161.186    4.713
  552.960    0.248    0.514  100.484  160.995    4.747
  553.210    0.249    0.486   97.820  160.704    4.916
  553.460    0.265    0.478   95.155  160.720    5.119
  553.710    0.257    0.476   92.187  160.740    5.351
  553.960    0.233    0.474   88.246  160.752    5.521
  554.210    0.207    0.471   84.610  160.769    5.717
  554.460    0.205    0.464   79.636  160.786    5.942
  554.710    0.204    0.454   75.269  159.258    6.142
  554.960    0.257    0.440   76.130  156.188    6.279
  555.210    0.274    0.425   77.782  154.044    6.467
  555.460    0.252    0.406   76.029  152.310    6.562
  555.710    0.217    0.382   76.647  150.269    6.561
  555.960    0.188    0.375   76.110  148.744    6.369
  556.210    0.212    0.394   76.363  148.039    6.115
  556.460    0.267    0.429   78.986  150.011    5.915
  556.710    0.266    0.427   81.731  152.085    5.763
  556.960    0.269    0.417   82.591  153.337    5.636
  557.210    0.278    0.411   84.972  153.251    5.584
  557.460    0.285    0.411   84.981  151.519    5.635
  557.710    0.268    0.405   85.720  148.036    5.750
  557.960    0.257    0.400   89.378  145.584    5.845
  558.210    0.208    0.410   92.487  148.069    5.910
  558.460    0.175    0.418   94.928  153.336    6.019
  558.710    0.194    0.424   97.004  157.265    6.142
  558.960    0.190    0.431   96.771  158.412    6.395
  559.210    0.186    0.441   92.466  157.193    6.684
  559.460    0.220    0.438   84.150  155.666    7.276
  559.710    0.237    0.436   81.971  154.138    8.233
  559.960    0.221    0.423   81.738  152.408    9.112
  560.210    0.190    0.398   81.990  151.394   10.444
  560.460    0.147    0.357   79.995  149.764   11.181
  560.710    0.121    0.346   78.607  147.826   10.499
  560.960    0.195    0.377   79.650  145.785    9.502
  561.210    0.220    0.391   82.031  144.153    8.365
  561.460    0.237    0.396   83.560  142.421    7.418
  561.710    0.205    0.402   84.664  142.849    6.713
  561.960    0.206    0.415   86.618  148.939    6.725
  562.210    0.217    0.431   84.076  154.204    6.849
  562.460    0.204    0.423   80.742  151.236    7.106
  562.710    0.187    0.407   81.421  150.223    7.468
  562.960    0.176    0.408   84.409  151.784    8.084
  563.210    0.185    0.400   83.264  153.241    8.544
  563.460    0.200    0.383   82.787  152.847    8.188
  563.710    0.224    0.390   85.715  151.938    7.562
  563.960    0.251    0.414   89.250  150.720    7.167
  564.210    0.246    0.434   92.481  150.222    6.792
  564.460    0.235    0.446   93.221  149.725    6.655
  564.710    0.237    0.428   97.485  148.816    6.557
  564.960    0.226    0.431   99.804  148.522    6.496
  565.210    0.221    0.434   99.449  147.821    6.495
  565.460    0.218    0.428   99.459  147.424    6.518
  565.710    0.222    0.433   98.740  147.028    6.578
  565.960    0.214    0.415   97.838  146.634    6.613
  566.210    0.204    0.406   98.274  147.062    6.625
  566.460    0.194    0.425  100.167  150.578    6.673
  566.710    0.189    0.434  102.913  156.153    6.722
  566.960    0.196    0.430  103.105  160.080    6.846
  567.210    0.187    0.425  101.899  158.966    6.934
  567.460    0.171    0.427   97.534  159.393    7.024
  567.710    0.170    0.434   93.531  159.409    7.180
  567.960    0.176    0.420   88.618  153.972    7.354
  568.210    0.194    0.403   89.844  145.446    7.573
  568.460    0.181    0.388   94.473  145.465    7.713
  568.710    0.161    0.397   99.892  147.849    7.755
  568.960    0.197    0.405  102.090  152.083    7.740
  569.210    0.194    0.413  101.248  157.760    7.696
  569.460    0.188    0.427  100.408  159.218    7.681
  569.710    0.189    0.425  100.601  155.633    7.638
  569.960    0.177    0.420   99.151  152.667    7.637
  570.210    0.177    0.419   99.283  151.757    7.580
  570.460    0.209    0.420  102.150  151.568    7.509
  570.710    0.216    0.409  104.712  151.484    7.467
  570.960    0.209    0.394  105.209  151.705    7.438
  571.210    0.198    0.404  105.340  151.824    7.493
  571.460    0.188    0.413  105.168  152.152    7.533
  571.710    0.197    0.425  104.509  152.267    7.801
  571.960    0.202    0.438  101.783  152.800    7.990
  572.210    0.219    0.424  101.125  152.815    8.048
  572.460    0.211    0.412  105.692  152.936    7.516
  572.710    0.188    0.423  111.051  153.262    6.827
  572.960    0.202    0.420  113.553  153.895    6.640
  573.210    0.189    0.417  110.889  157.514    6.664
  573.460    0.173    0.422  106.158  161.442    6.888
  573.710    0.179    0.418  101.002  158.371    7.266
  573.960    0.191    0.419   95.845  154.168    7.836
  574.210    0.187    0.430   92.147  154.288    8.530
  574.460    0.154    0.423   96.656  153.584    9.545
  574.710    0.141    0.430   99.947  151.749   11.104
  574.960    0.119    0.422   77.530  148.062   13.932
  575.210    0.049    0.182   61.737  154.869   19.243
  575.460    0.026    0.172   52.632  158.900   28.456
  575.710    0.033    0.177   58.294  154.696   21.651
  575.960    0.043    0.184   69.487  158.419   17.508
  576.210    0.077    0.212   81.348  158.744   13.950
  576.460    0.100    0.364   94.546  147.028   11.857
  576.710    0.167    0.388   98.263  150.338   10.059
  576.960    0.154    0.391   96.936  154.062    9.171
  577.210    0.159    0.389   96.035  150.577    8.660
  577.460    0.193    0.388   97.018  146.375    8.223
  577.710    0.190    0.398   98.913  146.392    7.938
  577.960    0.173    0.418  100.258  148.261    7.806
  578.210    0.172    0.431  102.335  152.190    7.648
  578.460    0.190    0.426  104.776  152.720    7.591
  578.710    0.183    0.415  105.454  148.311    7.548
  578.960    0.171    0.404  103.337  151.623    7.548
  579.210    0.170    0.415   98.970  156.475    7.533
  579.460    0.175    0.412   96.853  157.729    7.504
  579.710    0.169    0.408   99.294  158.052    7.448
  579.960    0.184    0.415  103.072  158.686    7.420
  580.210    0.183    0.430  106.972  158.293    7.391
  580.460    0.173    0.441  106.618  156.971    7.350
  580.710    0.192    0.434  102.433  153.591    7.281
  580.960    0.204    0.427  102.504  144.654    7.253
  581.210    0.173    0.423  103.972  147.040    7.239
  581.460    0.184    0.425  104.894  147.570    7.225
  581.710    0.190    0.415  107.761  147.380    7.237
  581.960    0.157    0.418  102.787  146.369    7.210
  582.210    0.224    0.416  100.427  143.606    7.223
  582.460    0.172    0.426   99.707  145.990    7.262
  582.710    0.138    0.446   98.380  153.211    7.342
  582.960    0.164    0.446   96.080  153.331    7.505
  583.210    0.180    0.431   94.146  146.452    7.758
  583.460    0.170    0.418   93.243  143.484    8.123
  583.710    0.181    0.392   93.982  142.780    8.585
  583.960    0.163    0.373   96.181  147.223    9.123
  584.210    0.173    0.387   97.467  149.504    9.535
  584.460    0.202    0.413   95.410  151.065    9.622
  584.710    0.198    0.405   92.990  151.493    9.445
  584.960    0.198    0.411   93.121  152.437    9.186
  585.210    0.205    0.436   93.799  153.173    8.852
  585.460    0.227    0.435   93.444  152.265    8.251
  585.710    0.212    0.423   93.150  150.634    7.893
  585.960    0.182    0.410   95.105  149.313    7.634
  586.210    0.168    0.398   96.938  148.402    7.521
  586.460    0.169    0.387   96.279  147.803    7.492
  586.710    0.150    0.372   94.466  147.612    7.561
  586.960    0.150    0.382   95.813  149.896    7.616
  587.210    0.183    0.417   97.647  152.895    7.587
  587.460    0.176    0.420   99.115  155.999    7.558
  587.710    0.171    0.418  100.097  159.515    7.571
