~VERSION INFORMATION
 VERS.                 2.0:   CWLS LOG ASCII STANDARD -VERSION 2.0
 WRAP.                  NO:   ONE LINE PER DEPTH STEP
~WELL INFORMATION BLOCK
#MNEM.UNIT           DATA                    DESCRIPTION OF MNEMONIC
#---------    -------------------            -------------------------------
# Generated from Intellog Unique Number	CX_WELLS/WELL/2964
WELL.         ATCOR HANGINGSTONE             : Well_name    - WELL
LOC .         00/12-12-082-11W4/0            : Location     - LOCATION
UWI .         00/12-12-082-11W400            : Uwi          - UNIQUE WELL ID
ENTR.         T                              : Entered      - ENTERED BY
SRVC.         SCHLUMBERGER                   : Scn          - SERVICE COMPANY
STRT.M        260                            : top_depth    - START DEPTH
STOP.M        485                            : bot_depth    - STOP DEPTH
STEP.M        0.25                           : increment    - STEP LENGTH
 NULL. -999.2500:NULL Value
~CURVE INFORMATION BLOCK
#MNEM UNIT       ERCB CURVE CODE    CURVE DESCRIPTION
#-----------   ------------------   ----------------------------------
DEPT.M        00 001 00 00         : DEPTH        - DEPTH
GR  .API      00 310 00 00         : GR           - GAMMA RAY
NPHI.V/V      00 330 00 00         : PHIN         - NEUTRON POROSITY (SANDSTONE)
DPHI.V/V      00 890 00 00         : PHID         - DENSITY POROSITY (SANDSTONE)
ILD .OHMM     00 120 00 00         : RESD         - DEEP RESISTIVITY (OTHER)
~PARAMETER INFORMATION
#MNEM.UNIT           DATA             DESCRIPTION OF MNEMONIC
#---------         -----------     ------------------------------
GL  .M        705                  : gl           - GROUND LEVEL ELEVATION
EREF.M        706.4                : kb           - ELEVATION OF DEPTH REFERENCE
DATM.M        706.4                : datum        - DATUM ELEVATION
TDD .M        497                  : tdd          - TOTAL DEPTH DRILLER
RUN .         ONE                  : Run          - RUN NUMBER
ENG .         BILL                 : Engineer     - RECORDING ENGINEER
WIT .         JIM                  : Witness      - WITNESSED BY
MUD .         GEL                  : Mud_type     - MUD TYPE
MATR.         SANDSTONE            : Logunit      - NEUTRON MATRIX
TMAX.C        20                   : BHT          - MAXIMUM RECORDED TEMPERATURE
BHTD.M        496                  : BHTDEP       - MAXIMUM RECORDED TEMPERATURE
MATR.         1                    : LOGUNIT      - NEUTRON MATRIX
RMT .C        20                   : MDTP         - TEMPERATURE OF MUD
NEUT.         1                    : NEUTRON      - NEUTRON TYPE
RESI.         7                    : RESIST       - RESISTIVITY TYPE
RMC .OHMM     2.3                  : RMC          - RESISTIVITY OF MUD CAKE
RMF .OHMM     9.7                  : RMF          - RESISTIVITY OF MUD FILTRATE
SUFT.C        4                    : SUFT         - SURFACE TEMPERATURE
~A  DEPTH       GR     PHIN     PHID     RESD
# ...
  390.500   91.095    0.497    0.261    5.136
  390.750   92.315    0.481    0.262    5.537
  391.000   92.340    0.459    0.268    5.859
  391.250   92.358    0.456    0.276    6.315
  391.500   92.389    0.464    0.282    7.063
  391.750   92.414    0.462    0.282    8.049
  392.000   93.027    0.451    0.246    9.003
  392.250   93.051    0.435    0.236    9.349
  392.500   93.076    0.421    0.222    9.711
  392.750   92.513    0.407    0.208    9.904
  393.000   91.943    0.400    0.203   10.098
  393.250   91.386    0.408    0.208   10.110
  393.500   90.804    0.413    0.215   10.120
  393.750   89.640    0.422    0.223    9.944
  394.000   88.482    0.430    0.232    9.953
  394.250   87.906    0.431    0.246    9.780
  394.500   87.337    0.432    0.251    9.610
  394.750   87.962    0.437    0.251    9.267
  395.000   88.575    0.442    0.251    8.777
  395.250   89.794    0.445    0.250    8.309
  395.500   89.825    0.447    0.245    7.584
  395.750   89.844    0.448    0.243    6.920
  396.000   89.875    0.448    0.241    6.674
  396.250   89.311    0.446    0.244    6.437
  396.500   88.141    0.438    0.250    6.814
  396.750   85.200    0.422    0.263    7.622
  397.000   83.436    0.392    0.278    8.523
  397.250   81.083    0.376    0.297    9.711
  397.500   81.102    0.387    0.305   10.277
  397.750   81.126    0.418    0.295   10.476
  398.000   81.151    0.424    0.283   10.682
  398.250   83.559    0.411    0.267   10.897
  398.500   87.150    0.408    0.267   10.705
  398.750   90.159    0.413    0.275   10.137
  399.000   91.360    0.419    0.270    9.425
  399.250   92.580    0.428    0.265    9.089
  399.500   93.199    0.436    0.260    8.448
  399.750   92.035    0.445    0.260    8.149
  400.000   90.865    0.451    0.263    7.860
  400.250   89.113    0.461    0.272    7.725
  400.500   87.949    0.445    0.277    7.731
  400.750   86.791    0.433    0.275    8.032
  401.000   86.816    0.421    0.267    8.188
  401.250   87.435    0.434    0.257    8.507
  401.500   87.460    0.443    0.255    9.001
  401.750   88.073    0.435    0.257    9.351
  402.000   88.097    0.427    0.259    9.532
  402.250   88.134    0.422    0.258    9.546
  402.500   87.559    0.417    0.257    9.375
  402.750   86.989    0.414    0.257    9.384
  403.000   87.007    0.413    0.263    9.395
  403.250   85.850    0.409    0.272    9.402
  403.500   84.097    0.404    0.274    9.589
  403.750   83.522    0.400    0.280    9.598
  404.000   79.987    0.400    0.288    9.607
  404.250   77.634    0.421    0.292    9.267
  404.500   77.070    0.432    0.292    8.945
  404.750   77.677    0.442    0.292    8.787
  405.000   78.891    0.449    0.291    8.794
  405.250   80.104    0.460    0.289    8.639
  405.500   81.912    0.465    0.287    8.488
  405.750   83.720    0.457    0.285    8.188
  406.000   84.933    0.452    0.284    7.614
  406.250   87.948    0.457    0.282    6.950
  406.500   88.555    0.479    0.282    6.578
  406.750   89.768    0.485    0.282    6.116
  407.000   91.582    0.493    0.285    5.478
  407.250   92.790    0.504    0.285    5.186
  407.500   94.597    0.473    0.262    4.822
  407.750   92.845    0.434    0.246    5.102
  408.000   89.898    0.421    0.242    5.600
  408.250   79.819    0.413    0.270    6.623
  408.500   77.466    0.421    0.279    7.406
  408.750   75.702    0.431    0.285    8.440
  409.000   70.383    0.454    0.279    9.267
  409.250   66.842    0.459    0.213   10.365
  409.500   62.700    0.359    0.148   12.030
  409.750   59.753    0.404    0.074   13.455
  410.000   65.133    0.421    0.187   13.979
  410.250   76.451    0.422    0.228   13.240
  410.500   83.013    0.427    0.270   12.307
  410.750   87.799    0.437    0.262   11.437
  411.000   88.418    0.444    0.243    9.692
  411.250   88.443    0.449    0.238    9.009
  411.500   87.879    0.448    0.234    8.532
  411.750   86.121    0.437    0.227    8.228
  412.000   86.740    0.429    0.215    8.087
  412.250   87.954    0.434    0.210    8.095
  412.500   89.167    0.440    0.206    8.100
  412.750   90.374    0.447    0.206    8.108
  413.000   93.377    0.452    0.206    8.116
  413.250   93.396    0.446    0.204    8.123
  413.500   91.644    0.430    0.204    7.988
  413.750   90.473    0.426    0.207    7.993
  414.000   89.322    0.433    0.211    7.853
  414.250   89.935    0.435    0.217    7.718
  414.500   91.749    0.432    0.227    7.443
  414.750   94.745    0.432    0.235    7.181
  415.000   95.959    0.435    0.244    6.675
  415.250   95.383    0.442    0.250    6.204
  415.500   93.624    0.456    0.260    5.558
  415.750   91.278    0.491    0.270    5.070
  416.000   88.925    0.512    0.283    4.377
  416.250   87.167    0.531    0.298    3.642
  416.500   84.820    0.487    0.290    3.513
  416.750   83.056    0.471    0.258    3.388
  417.000   80.703    0.449    0.241    3.519
  417.250   78.350    0.432    0.236    4.318
  417.500   78.970    0.416    0.236    4.830
  417.750   81.972    0.412    0.237    5.402
  418.000   83.180    0.411    0.241    5.932
  418.250   83.799    0.407    0.231    6.396
  418.500   82.653    0.407    0.220    6.518
  418.750   82.065    0.408    0.210    6.898
  419.000   80.313    0.410    0.240    6.907
  419.250   79.149    0.412    0.251    6.302
  419.500   82.740    0.417    0.254    5.857
  419.750   86.331    0.432    0.252    5.246
  420.000   85.179    0.447    0.245    4.787
  420.250   84.597    0.464    0.220    4.368
  420.500   82.839    0.436    0.189    4.137
  420.750   81.081    0.395    0.166    4.458
  421.000   78.734    0.417    0.210    4.987
  421.250   79.347    0.437    0.239    5.376
  421.500   85.909    0.452    0.254    5.187
  421.750   90.689    0.464    0.267    4.909
  422.000   92.509    0.478    0.278    4.239
  422.250   92.528    0.496    0.277    3.798
  422.500   94.336    0.514    0.270    3.663
  422.750   95.561    0.514    0.261    3.667
  423.000   94.397    0.503    0.252    3.880
  423.250   92.639    0.480    0.249    4.261
  423.500   92.057    0.474    0.241    4.506
  423.750   93.871    0.470    0.234    4.858
  424.000   93.302    0.461    0.226    5.045
  424.250   92.138    0.448    0.219    5.241
  424.500   90.385    0.438    0.212    5.347
  424.750   89.810    0.439    0.204    5.349
  425.000   92.819    0.446    0.214    5.356
  425.250  102.935    0.453    0.220    5.262
  425.500  105.343    0.460    0.229    5.266
  425.750  105.969    0.470    0.240    5.176
  426.000  105.981    0.474    0.247    5.086
  426.250  103.046    0.461    0.244    5.092
  426.500  101.876    0.391    0.239    5.094
  426.750   99.523    0.348    0.234    5.493
  427.000   94.799    0.316    0.247    6.030
  427.250   89.469    0.298    0.277    6.870
  427.500   83.550    0.277    0.333    8.123
  427.750   78.225    0.284    0.381   12.222
  428.000   78.263    0.299    0.360   13.925
  428.250   78.876    0.328    0.317   15.286
  428.500   81.278    0.359    0.276   15.593
  428.750   82.491    0.377    0.233   15.315
  429.000   83.110    0.358    0.261   13.722
  429.250   84.324    0.349    0.261   13.232
  429.500   84.937    0.358    0.261   11.856
  429.750   86.757    0.377    0.271   11.439
  430.000   87.964    0.395    0.273   11.447
  430.250   88.589    0.404    0.269   11.455
  430.500   89.809    0.410    0.261   11.469
  430.750   89.828    0.399    0.253   11.479
  431.000   91.041    0.385    0.242   11.705
  431.250   91.654    0.382    0.236   11.716
  431.500   94.657    0.394    0.235   11.946
  431.750   95.864    0.399    0.237   12.184
  432.000   99.467    0.394    0.241   12.652
  432.250  100.674    0.391    0.241   12.900
  432.500  102.488    0.389    0.237   13.653
  432.750  104.296    0.384    0.231   14.450
  433.000  101.937    0.373    0.227   15.005
  433.250   89.487    0.370    0.233   16.787
  433.500   84.156    0.354    0.242   18.427
  433.750   74.077    0.340    0.256   20.995
