~VERSION INFORMATION
 VERS.                 2.0:   CWLS LOG ASCII STANDARD -VERSION 2.0
 WRAP.                  NO:   ONE LINE PER DEPTH STEP
~WELL INFORMATION BLOCK
#MNEM.UNIT           DATA                    DESCRIPTION OF MNEMONIC
#---------    -------------------            -------------------------------
# Generated from Intellog Unique Number	CS_69_70/WELL/871
WELL.         GULF OIL CANADA LIMITED        : Well_name    - WELL
LOC .         00/10-27-069-15W4/0            : Location     - LOCATION
UWI .         00/10-27-069-15W4/0            : Uwi          - UNIQUE WELL ID
ENTR.         SP                             : Entered      - ENTERED BY
SRVC.         SCHLUMBERGER                   : Scn          - SERVICE COMPANY
STRT.M        274.32                         : top_depth    - START DEPTH
STOP.M        478.32                         : bot_depth    - STOP DEPTH
STEP.M        0.25                           : increment    - STEP LENGTH
 NULL. -999.2500:NULL Value
~CURVE INFORMATION BLOCK
#MNEM UNIT       ERCB CURVE CODE    CURVE DESCRIPTION
#-----------   ------------------   ----------------------------------
DEPT.M        00 001 00 00         : DEPTH        - DEPTH
GR  .API      00 310 00 00         : GR           - GAMMA RAY
DPHI.V/V      00 890 00 00         : PHID         - DENSITY POROSITY (SANDSTONE)
NPHI.V/V      00 330 00 00         : PHIN         - NEUTRON POROSITY (SANDSTONE)
ILD .OHMM     00 120 00 00         : RESD         - DEEP RESISTIVITY (DIL)
~PARAMETER INFORMATION
#MNEM.UNIT           DATA             DESCRIPTION OF MNEMONIC
#---------         -----------     ------------------------------
GL  .M        561.746              : gl           - GROUND LEVEL ELEVATION
EREF.M        565.252              : kb           - ELEVATION OF DEPTH REFERENCE
DATM.M        561.746              : datum        - DATUM ELEVATION
TDD .M        480.06               : tdd          - TOTAL DEPTH DRILLER
RUN .         ONE                  : Run          - RUN NUMBER
ENG .         BILL                 : Engineer     - RECORDING ENGINEER
WIT .         JIM                  : Witness      - WITNESSED BY
MUD .         GEL                  : Mud_type     - MUD TYPE
MATR.         SANDSTONE            : Logunit      - NEUTRON MATRIX
TMAX.C        13.3333              : BHT          - MAXIMUM RECORDED TEMPERATURE
BHTD.M        480.06               : BHTDEP       - MAXIMUM RECORDED TEMPERATURE
MATR.         1                    : LOGUNIT      - NEUTRON MATRIX
RMT .C        25                   : MDTP         - TEMPERATURE OF MUD
NEUT.         1                    : NEUTRON      - NEUTRON TYPE
RESI.         0                    : RESIST       - RESISTIVITY TYPE
RMC .OHMM     0.25                 : RMC          - RESISTIVITY OF MUD CAKE
RMF .OHMM     0.25                 : RMF          - RESISTIVITY OF MUD FILTRATE
SUFT.C        15                   : SUFT         - SURFACE TEMPERATURE
~A  DEPTH       GR     PHID     PHIN     RESD
  274.320  109.720    0.097    0.524    2.929
  274.570  109.042    0.062    0.455    3.115
  274.820  110.823    0.049    0.466    3.315
  275.070  112.893    0.017    0.478    3.411
  275.320  109.280   -0.011    0.464    3.446
  275.570  104.453   -0.015    0.434    3.403
  275.820  101.104    0.030    0.414    3.331
  276.070  105.201    0.057    0.426    3.184
  276.320  109.992    0.067    0.443    3.063
  276.570  111.132    0.075    0.463    2.922
  276.820  111.141    0.088    0.481    2.821
  277.070  109.936    0.095    0.496    2.710
  277.320  108.829    0.102    0.512    2.647
  277.570  106.971    0.112    0.515    2.652
  277.820  107.080    0.123    0.498    2.714
  278.070  108.190    0.123    0.471    2.765
  278.320  107.972    0.126    0.469    2.846
  278.570  106.023    0.130    0.479    2.955
  278.820  103.572    0.139    0.477    3.086
  279.070  103.064    0.142    0.468    3.222
  279.320  104.942    0.119    0.452    3.336
  279.570  101.276    0.109    0.456    3.377
  279.820   97.284    0.093    0.444    3.348
  280.070   96.687    0.074    0.414    3.141
  280.320  101.715    0.040    0.428    2.958
  280.570  104.939    0.103    0.464    2.972
  280.820  101.094    0.109    0.493    3.166
  281.070   94.196    0.095    0.518    3.673
  281.320   88.449    0.068    0.435    4.010
  281.570   84.461    0.081    0.364    4.227
  281.820   92.996    0.121    0.358    4.287
  282.070   99.569    0.134    0.370    4.301
  282.320  103.265    0.149    0.391    4.118
  282.570  107.133    0.170    0.420    4.045
  282.820  110.216    0.155    0.414    3.970
  283.070  111.510    0.151    0.400    3.953
  283.320  109.129    0.147    0.395    4.217
  283.570  103.485    0.162    0.395    4.653
  283.820   92.038    0.198    0.400    5.009
  284.070   82.213    0.232    0.410    5.300
  284.320   74.185    0.260    0.416    5.471
  284.570   62.265    0.286    0.416    5.409
  284.820   55.383    0.304    0.356    4.820
  285.070   48.791    0.295    0.257    4.321
  285.320   42.985    0.264    0.295    3.869
  285.570   39.910    0.243    0.330    3.229
  285.820   43.821    0.227    0.351    2.884
  286.070   49.719    0.211    0.363    2.699
  286.320   52.978    0.210    0.369    2.562
  286.570   55.524    0.214    0.371    2.419
  286.820   56.752    0.223    0.375    2.361
  287.070   58.870    0.230    0.380    2.384
  287.320   64.167    0.227    0.388    2.404
  287.570   69.129    0.221    0.379    2.440
  287.820   76.469    0.209    0.368    2.690
  288.070   83.504    0.192    0.358    3.019
  288.320   89.204    0.176    0.365    3.430
  288.570   91.259    0.159    0.363    3.845
  288.820   92.200    0.141    0.345    4.318
  289.070   91.251    0.119    0.334    4.703
  289.320   88.874    0.112    0.327    4.750
  289.570   88.033    0.118    0.341    4.734
  289.820   90.219    0.131    0.352    4.585
  290.070   92.044    0.145    0.362    4.380
  290.320   93.257    0.143    0.381    4.152
  290.570   93.305    0.133    0.382    3.950
  290.820   93.304    0.122    0.388    3.897
  291.070   94.013    0.112    0.398    3.883
  291.320   90.649    0.139    0.407    3.826
  291.570   84.856    0.192    0.414    3.715
  291.820   80.578    0.219    0.425    3.534
  292.070   77.805    0.234    0.421    3.316
  292.320   74.237    0.221    0.381    3.129
  292.570   71.287    0.221    0.392    2.924
  292.820   69.201    0.206    0.402    2.792
  293.070   70.108    0.199    0.409    2.644
  293.320   73.293    0.199    0.417    2.537
  293.570   75.572    0.201    0.425    2.479
  293.820   76.486    0.212    0.433    2.449
  294.070   74.577    0.220    0.439    2.421
  294.320   72.464    0.226    0.445    2.419
  294.570   70.690    0.227    0.431    2.448
  294.820   69.335    0.224    0.423    2.486
  295.070   68.564    0.215    0.412    2.531
  295.320   68.793    0.203    0.415    2.573
  295.570   71.624    0.195    0.421    2.584
  295.820   73.436    0.192    0.414    2.562
  296.070   74.331    0.197    0.408    2.529
  296.320   72.029    0.205    0.401    2.504
  296.570   70.326    0.210    0.400    2.490
  296.820   70.335    0.211    0.423    2.493
  297.070   70.347    0.208    0.434    2.509
  297.320   70.335    0.204    0.444    2.557
  297.570   70.390    0.198    0.451    2.613
  297.820   71.491    0.193    0.457    2.683
  298.070   74.920    0.194    0.464    2.771
  298.320   78.277    0.195    0.429    2.911
  298.570   80.928    0.182    0.404    3.274
  298.820   82.865    0.181    0.379    3.710
  299.070   80.106   -0.013    0.324    4.290
  299.320   74.421   -0.014    0.242    5.060
  299.570   65.917   -0.016    0.217    5.737
  299.820   62.671   -0.017    0.201    6.350
  300.070   62.322   -0.017    0.198    6.605
  300.320   69.936    0.077    0.230    5.782
  300.570   77.949    0.146    0.376    4.702
  300.820   82.421    0.180    0.417    3.978
  301.070   83.841    0.194    0.442    3.320
  301.320   85.182    0.184    0.442    2.980
  301.570   86.558    0.177    0.434    2.915
  301.820   86.446    0.172    0.429    2.922
  302.070   90.573    0.170    0.425    3.012
  302.320   95.657    0.155    0.432    3.128
  302.570   99.622    0.147    0.430    3.276
  302.820  102.764    0.139    0.431    3.401
  303.070  106.362    0.128    0.431    3.526
  303.320  110.103    0.110    0.431    3.608
  303.570  113.851    0.086    0.434    3.643
  303.820  118.189    0.072    0.440    3.600
  304.070  123.353    0.064    0.446    3.504
  304.320  125.353    0.069    0.454    3.463
  304.570  120.875    0.081    0.464    3.456
  304.820  120.446    0.068    0.471    3.501
  305.070  123.868    0.054    0.451    3.590
  305.320  126.568    0.042    0.445    3.747
  305.570  129.800    0.109    0.440    3.870
  305.820  131.149    0.119    0.431    4.015
  306.070  131.205    0.105    0.423    4.184
  306.320  124.451    0.116    0.418    4.321
  306.570  119.764    0.129    0.414    4.453
  306.820  115.187    0.142    0.417    4.560
  307.070  112.984    0.145    0.408    4.631
  307.320  112.225    0.133    0.392    4.604
  307.570  113.076    0.128    0.382    4.531
  307.820  112.942    0.139    0.390    4.436
  308.070  111.547    0.128    0.413    4.234
  308.320  109.679    0.123    0.424    4.034
  308.570  107.195    0.140    0.434    3.852
  308.820  104.831    0.152    0.431    3.706
  309.070  105.145    0.133    0.426    3.617
  309.320  106.726    0.125    0.439    3.600
  309.570  107.467    0.126    0.458    3.613
  309.820  107.044    0.106    0.442    3.647
  310.070  109.336    0.101    0.434    3.681
  310.320  112.441    0.130    0.436    3.762
  310.570  114.763    0.161    0.439    3.871
  310.820  117.234    0.178    0.416    3.951
  311.070  119.140    0.153    0.397    4.072
  311.320  120.768    0.118    0.387    4.180
  311.570  121.304    0.118    0.383    4.309
  311.820  120.226    0.097    0.378    4.419
  312.070  121.514    0.095    0.375    4.458
  312.320  125.099    0.104    0.391    4.421
  312.570  127.199    0.101    0.405    4.284
  312.820  127.434    0.081    0.401    4.049
  313.070  126.254    0.072    0.417    3.812
  313.320  126.064    0.069    0.438    3.667
  313.570  126.158    0.084    0.456    3.590
  313.820  126.244    0.111    0.455    3.533
  314.070  125.967    0.142    0.438    3.480
  314.320  122.750    0.156    0.445    3.450
  314.570  114.028    0.142    0.454    3.431
  314.820  103.253    0.148    0.439    3.425
  315.070   97.142    0.154    0.424    3.393
  315.320   95.055    0.159    0.411    3.352
  315.570   98.597    0.156    0.404    3.305
  315.820  100.194    0.154    0.425    3.274
  316.070  101.435    0.168    0.436    3.251
  316.320  100.520    0.173    0.442    3.231
  316.570   96.947    0.175    0.405    3.229
  316.820   96.358    0.176    0.393    3.230
  317.070   98.999    0.162    0.403    3.236
  317.320  100.058    0.152    0.411    3.242
  317.570   99.888    0.138    0.417    3.197
