~VERSION INFORMATION
 VERS.                 2.0:   CWLS LOG ASCII STANDARD -VERSION 2.0
 WRAP.                  NO:   ONE LINE PER DEPTH STEP
~WELL INFORMATION BLOCK
#MNEM.UNIT           DATA                    DESCRIPTION OF MNEMONIC
#---------    -------------------            -------------------------------
# Generated from Intellog Unique Number	CS_77_79/WELL/979
WELL.         MESA HB THORNBURY              : Well_name    - WELL
LOC .         00/10-32-078-12W4/0            : Location     - LOCATION
UWI .         00/10-32-078-12W4/0            : Uwi          - UNIQUE WELL ID
ENTR.         JHS                            : Entered      - ENTERED BY
SRVC.         SCHLUMBERGER                   : Scn          - SERVICE COMPANY
STRT.M        240                            : top_depth    - START DEPTH
STOP.M        455                            : bot_depth    - STOP DEPTH
STEP.M        0.25                           : increment    - STEP LENGTH
 NULL. -999.2500:NULL Value
~CURVE INFORMATION BLOCK
#MNEM UNIT       ERCB CURVE CODE    CURVE DESCRIPTION
#-----------   ------------------   ----------------------------------
DEPT.M        00 001 00 00         : DEPTH        - DEPTH
DPHI.V/V      00 890 00 00         : PHID         - DENSITY POROSITY (LIMESTONE)
NPHI.V/V      00 330 00 00         : PHIN         - NEUTRON POROSITY (LIMESTONE)
GR  .API      00 310 00 00         : GR           - GAMMA RAY
ILD .OHMM     00 120 00 00         : RESD         - DEEP RESISTIVITY (DIL)
RHOB.KG/M3    00 350 00 00         : DENS         - BULK DENSITY
~PARAMETER INFORMATION
#MNEM.UNIT           DATA             DESCRIPTION OF MNEMONIC
#---------         -----------     ------------------------------
GL  .M        675.6                : gl           - GROUND LEVEL ELEVATION
EREF.M        679.7                : kb           - ELEVATION OF DEPTH REFERENCE
DATM.M        679.7                : datum        - DATUM ELEVATION
TDD .M        470                  : tdd          - TOTAL DEPTH DRILLER
RUN .         ONE                  : Run          - RUN NUMBER
ENG .         BILL                 : Engineer     - RECORDING ENGINEER
WIT .         JIM                  : Witness      - WITNESSED BY
MUD .         GEL                  : Mud_type     - MUD TYPE
MATR.         LIMESTONE            : Logunit      - NEUTRON MATRIX
TMAX.C        26.2                 : BHT          - MAXIMUM RECORDED TEMPERATURE
BHTD.M        470                  : BHTDEP       - MAXIMUM RECORDED TEMPERATURE
MATR.         1                    : LOGUNIT      - NEUTRON MATRIX
RMT .C        25                   : MDTP         - TEMPERATURE OF MUD
NEUT.         1                    : NEUTRON      - NEUTRON TYPE
RESI.         0                    : RESIST       - RESISTIVITY TYPE
RMC .OHMM     0.25                 : RMC          - RESISTIVITY OF MUD CAKE
RMF .OHMM     0.25                 : RMF          - RESISTIVITY OF MUD FILTRATE
SUFT.C        15                   : SUFT         - SURFACE TEMPERATURE
~A  DEPTH     PHID     PHIN       GR     RESD     DENS
  240.000    0.283    0.600  104.469    3.182    0.000
  240.250    0.267    0.590  103.875    3.244    0.000
  240.500    0.257    0.580  103.886    3.308    0.000
  240.750    0.267    0.573  106.331    3.371    0.000
  241.000    0.273    0.577  105.132    3.502    0.000
  241.250    0.271    0.586  104.540    3.570    0.000
  241.500    0.256    0.572  105.157    3.639    0.000
  241.750    0.267    0.557  106.995    3.710    0.000
  242.000    0.280    0.575  110.049    3.712    0.000
  242.250    0.266    0.581  110.665    3.715    0.000
  242.500    0.269    0.584  106.429    3.716    0.000
  242.750    0.267    0.597  104.015    3.718    0.000
  243.000    0.274    0.608  103.422    3.720    0.000
  243.250    0.284    0.615  101.007    3.792    0.000
  243.500    0.279    0.618   99.804    3.794    0.000
  243.750    0.261    0.602   96.783    3.797    0.000
  244.000    0.286    0.590   96.190    3.729    0.000
  244.250    0.278    0.582   96.809    3.731    0.000
  244.500    0.284    0.591   97.433    3.664    0.000
  244.750    0.282    0.595   97.446    3.666    0.000
  245.000    0.276    0.564   93.817    3.601    0.000
  245.250    0.280    0.560   92.615    3.603    0.000
  245.500    0.284    0.576   95.667    3.538    0.000
  245.750    0.269    0.575   99.325    3.540    0.000
  246.000    0.280    0.588   99.338    3.476    0.000
  246.250    0.291    0.602   97.531    3.351    0.000
  246.500    0.298    0.605   94.508    3.230    0.000
  246.750    0.311    0.613   93.915    3.113    0.000
  247.000    0.304    0.617   92.715    3.000    0.000
  247.250    0.272    0.617   89.690    2.947    0.000
  247.500    0.177    0.608   84.237    2.948    0.000
  247.750    0.166    0.564   82.430    2.950    0.000
  248.000    0.210    0.541   90.341    2.952    0.000
  248.250    0.284    0.572   95.821    2.899    0.000
  248.500    0.297    0.588   96.443    2.847    0.000
  248.750    0.294    0.593   97.063    2.796    0.000
  249.000    0.277    0.578   96.469    2.745    0.000
  249.250    0.277    0.587   96.484    2.799    0.000
  249.500    0.281    0.601   98.323    2.853    0.000
  249.750    0.266    0.611   98.337    2.963    0.000
  250.000    0.263    0.600   97.742    3.021    0.000
  250.250    0.254    0.587   97.148    2.967    0.000
  250.500    0.245    0.587   96.558    3.025    0.000
  250.750    0.266    0.609   97.784    3.083    0.000
  251.000    0.262    0.594   99.621    3.202    0.000
  251.250    0.258    0.591   98.420    3.204    0.000
  251.500    0.263    0.576   97.218    3.266    0.000
  251.750    0.277    0.578   96.017    3.268    0.000
  252.000    0.256    0.578   97.854    3.332    0.000
  252.250    0.239    0.583  102.119    3.396    0.000
  252.500    0.241    0.560  104.563    3.462    0.000
  252.750    0.246    0.533  103.364    3.529    0.000
  253.000    0.235    0.523  102.162    3.735    0.000
  253.250    0.238    0.535  100.354    3.807    0.000
  253.500    0.234    0.519   98.545    3.954    0.000
  253.750    0.241    0.516   99.776    3.957    0.000
  254.000    0.244    0.534   99.790    3.959    0.000
  254.250    0.236    0.524   98.591    3.961    0.000
  254.500    0.237    0.523   96.783    3.890    0.000
  254.750    0.257    0.546   98.617    3.750    0.000
  255.000    0.253    0.573   99.847    3.614    0.000
  255.250    0.253    0.596   99.253    3.483    0.000
  255.500    0.249    0.569   99.269    3.358    0.000
  255.750    0.237    0.553   99.284    3.423    0.000
  256.000    0.221    0.531   98.686    3.490    0.000
  256.250    0.227    0.524   99.310    3.693    0.000
  256.500    0.240    0.513  101.756    3.835    0.000
  256.750    0.249    0.535  102.375    3.838    0.000
  257.000    0.259    0.563  102.389    3.839    0.000
  257.250    0.257    0.546  100.579    3.842    0.000
  257.500    0.257    0.548   96.949    3.916    0.000
  257.750    0.260    0.553   92.713    4.068    0.000
  258.000    0.259    0.533   89.081    4.070    0.000
  258.250    0.249    0.524   87.880    4.227    0.000
  258.500    0.258    0.533   90.327    4.558    0.000
  258.750    0.255    0.553   86.087    4.823    0.000
  259.000    0.223    0.476   81.244    5.010    0.000
  259.250    0.190    0.466   81.865    5.012    0.000
  259.500    0.156    0.504   87.953    5.015    0.000
  259.750    0.160    0.521   96.470    5.017    0.000
  260.000    0.187    0.544  104.379    4.836    0.000
  260.250    0.239    0.575  105.612    4.662    0.000
  260.500    0.244    0.543  108.660    4.329    0.000
  260.750    0.244    0.515  108.066    4.019    0.000
  261.000    0.256    0.521   99.578    4.583    0.000
  261.250    0.291    0.510   89.264    5.425    0.000
  261.500    0.334    0.477   75.917    6.542    0.000
  261.750    0.362    0.427   66.213    7.889    0.000
  262.000    0.354    0.432   55.902   11.255    0.000
  262.250    0.349    0.452   55.310   14.901    0.000
  262.500    0.347    0.454   55.934   16.992    0.000
  262.750    0.352    0.461   57.162   17.002    0.000
  263.000    0.362    0.486   58.389   15.207    0.000
  263.250    0.355    0.502   56.581   13.861    0.000
  263.500    0.333    0.460   51.129   14.129    0.000
  263.750    0.319    0.427   46.286   14.954    0.000
  264.000    0.322    0.412   42.655   15.530    0.000
  264.250    0.322    0.444   40.847   16.129    0.000
  264.500    0.325    0.448   40.251   17.069    0.000
  264.750    0.334    0.457   38.447   18.406    0.000
  265.000    0.339    0.468   37.852   19.476    0.000
  265.250    0.336    0.456   36.652   20.225    0.000
  265.500    0.334    0.439   40.311   20.236    0.000
  265.750    0.330    0.445   43.970   19.876    0.000
  266.000    0.336    0.446   45.803   20.644    0.000
  266.250    0.335    0.456   46.428   20.654    0.000
  266.500    0.335    0.453   47.659   19.541    0.000
  266.750    0.334    0.443   48.882   17.810    0.000
  267.000    0.310    0.431   59.829   15.931    0.000
  267.250    0.291    0.425   68.953   14.250    0.000
  267.500    0.280    0.451   77.471   12.511    0.000
  267.750    0.288    0.452   79.309   11.402    0.000
  268.000    0.304    0.452   79.323   10.588    0.000
  268.250    0.282    0.460   78.730   10.793    0.000
  268.500    0.293    0.463   76.922   11.421    0.000
  268.750    0.302    0.448   76.326   12.086    0.000
  269.000    0.306    0.447   80.592   12.553    0.000
  269.250    0.300    0.450   86.073   12.797    0.000
  269.500    0.303    0.437   91.554   12.567    0.000
  269.750    0.267    0.428   97.033   11.454    0.000
  270.000    0.256    0.447  101.905   10.245    0.000
  270.250    0.239    0.467  104.959    8.996    0.000
  270.500    0.242    0.468  100.723    8.199    0.000
  270.750    0.257    0.465   97.695    7.902    0.000
  271.000    0.271    0.478   91.637    8.845    0.000
  271.250    0.294    0.468   86.187   10.274    0.000
  271.500    0.318    0.465   84.376   11.937    0.000
  271.750    0.339    0.467   83.178   13.611    0.000
  272.000    0.343    0.456   85.620   15.520    0.000
  272.250    0.337    0.461   83.810   17.047    0.000
  272.500    0.333    0.477   77.754   17.708    0.000
  272.750    0.350    0.482   77.161   17.389    0.000
  273.000    0.345    0.477   79.602   16.762    0.000
  273.250    0.343    0.467   84.482   16.462    0.000
  273.500    0.339    0.456   85.096   16.165    0.000
  273.750    0.322    0.466   87.545   15.876    0.000
  274.000    0.316    0.474   90.592   15.303    0.000
  274.250    0.300    0.477   94.252   15.027    0.000
  274.500    0.285    0.469   94.873   15.320    0.000
  274.750    0.280    0.455   90.633   15.616    0.000
  275.000    0.269    0.430   72.426   15.919    0.000
  275.250    0.259    0.395   58.473   15.636    0.000
  275.500    0.241    0.384   58.487   14.793    0.000
  275.750    0.234    0.396   62.753   13.993    0.000
  276.000    0.232    0.412   69.448   13.240    0.000
  276.250    0.264    0.447   70.675   12.761    0.000
