~VERSION INFORMATION
 VERS.                 2.0:   CWLS LOG ASCII STANDARD -VERSION 2.0
 WRAP.                  NO:   ONE LINE PER DEPTH STEP
~WELL INFORMATION BLOCK
#MNEM.UNIT           DATA                    DESCRIPTION OF MNEMONIC
#---------    -------------------            -------------------------------
# Generated from Intellog Unique Number	CW_73_75/WELL/2998
WELL.         COX SOUTHEASTERN MARTEN H      : Well_name    - WELL
LOC .         00/16-15-073-01W5/0            : Location     - LOCATION
UWI .         00/16-15-073-01W5/0            : Uwi          - UNIQUE WELL ID
ENTR.         CAMPBELL                       : Entered      - ENTERED BY
SRVC.         SCHLUMBERGER                   : Scn          - SERVICE COMPANY
DATE.         30 NOV 1966                    : Date         - LOG DATE
STRT.M        521.208                        : top_depth    - START DEPTH
STOP.M        667.458                        : bot_depth    - STOP DEPTH
STEP.M        0.25                           : increment    - STEP LENGTH
 NULL. -999.2500:NULL Value
~CURVE INFORMATION BLOCK
#MNEM UNIT       ERCB CURVE CODE    CURVE DESCRIPTION
#-----------   ------------------   ----------------------------------
DEPT.M        00 001 00 00         : DEPTH        - DEPTH
ILD .OHMM     00 120 00 00         : RESD         - DEEP RESISTIVITY (DIL)
DELT.US/F     00 520 00 00         : DELT         - SONIC TRAVEL TIME
CALI.MM       00 280 01 00         : CAL          - CALIPER
GR  .API      00 310 00 00         : GR           - GAMMA RAY
~PARAMETER INFORMATION
#MNEM.UNIT           DATA             DESCRIPTION OF MNEMONIC
#---------         -----------     ------------------------------
GL  .M        627.583              : gl           - GROUND LEVEL ELEVATION
EREF.M        631.85               : kb           - ELEVATION OF DEPTH REFERENCE
DATM.M        631.85               : datum        - DATUM ELEVATION
TDD .M        1473.4               : tdd          - TOTAL DEPTH DRILLER
RUN .         ONE                  : Run          - RUN NUMBER
ENG .         DUFFY                : Engineer     - RECORDING ENGINEER
WIT .         RANSOM & STEWART     : Witness      - WITNESSED BY
MUD .         GEL                  : Mud_type     - MUD TYPE
MATR.         SANDSTONE            : Logunit      - NEUTRON MATRIX
TMAX.C        37.2222              : BHT          - MAXIMUM RECORDED TEMPERATURE
BHTD.M        1473.4               : BHTDEP       - MAXIMUM RECORDED TEMPERATURE
RMT .C        13.3333              : MDTP         - TEMPERATURE OF MUD
MUDD.KG/M     9800                 : MWT          - MUD DENSITY
NEUT.         1                    : NEUTRON      - NEUTRON TYPE
RESI.         0                    : RESIST       - RESISTIVITY TYPE
RM  .OHMM     1.26                 : RM           - RESISTIVITY OF MUD
RMC .OHMM     1.47                 : RMC          - RESISTIVITY OF MUD CAKE
RMF .OHMM     0.83                 : RMF          - RESISTIVITY OF MUD FILTRATE
SUFT.C        0                    : SUFT         - SURFACE TEMPERATURE
~A  DEPTH     RESD     DELT      CAL       GR
# ...
  608.208   10.470  304.629  214.074   40.766
  608.458   10.591  304.916  214.129   40.568
  608.708   10.595  304.542  214.204   40.834
  608.958   10.707  304.823  214.795   38.959
  609.208   10.822  306.409  214.888   40.912
  609.458   10.843  305.052  214.953   40.226
  609.708   10.847  295.173  215.037   37.394
  609.958   10.961  284.634  215.092   38.152
  610.208   10.961  287.209  215.683   37.945
  610.458   11.088  295.034  216.772   40.372
  610.708   11.198  301.214  217.362   41.612
  610.958   11.198  301.168  218.441   40.927
  611.208   11.330  290.956  220.046   41.202
  611.458   11.542  285.993  221.651   45.302
  611.708   11.656  292.173  222.214   48.685
  611.958   11.667  293.438  223.809   47.765
  612.208   11.781  287.492  224.898   45.416
  612.458   11.796  283.507  225.479   45.208
  612.708   11.796  298.542  225.572   45.245
  612.958   11.821  301.767  225.637   45.281
  613.208   12.035  301.726  225.712   45.331
  613.458   12.353  302.657  225.777   45.597
  613.708   12.571  301.961  225.870   45.877
  613.958   12.990  298.959  225.945   45.913
  614.208   13.205  293.019  226.526   45.950
  614.458   13.524  285.751  226.600   46.938
  614.708   13.845  281.771  226.675   47.930
  614.958   14.266  278.120  226.740   46.293
  615.208   14.995  269.880  226.814   45.852
  615.458   15.413  257.046  227.396   46.371
  615.708   16.039  267.821  223.414   49.036
  615.958   15.744  274.978  221.461   53.853
  616.208   12.789  274.938  227.619   55.563
  616.458    9.629  315.542  237.336   54.643
  616.708    8.108  364.017  249.072   52.767
  616.958    7.506  436.417  262.347   50.896
  617.208    7.005  455.063  271.031   50.215
  617.458    6.609  316.994  265.528   53.598
  617.708    6.517  315.964  251.914   57.458
  617.958    6.428  365.089  270.250   57.734
  618.208    6.542  403.399  288.576   54.902
  618.458    6.552  432.860  302.349   52.787
  618.708    6.973  462.977  277.064   60.237
  618.958    7.805  284.258  259.900   66.489
  619.208    8.941  289.121  241.723   61.983
  619.458    9.874  284.165  235.197   52.932
  619.708   11.215  281.490  228.689   46.754
  619.958   12.967  283.410  225.731   39.854
  620.208   14.411  280.086  224.792   32.480
  620.458   15.650  275.779  224.340   26.302
  620.708   16.787  265.567  225.429   25.143
  620.958   17.413  268.137  229.052   26.375
  621.208   16.913  271.701  232.676   39.562
  621.458   15.800  275.921  234.797   45.813
  621.708   14.278  291.606  236.909   42.503
  621.958   13.061  328.605  242.035   42.539
  622.208   12.664  345.606  251.235   45.453
  622.458   14.005  321.957  232.550   45.489
  622.708   16.371  261.590  225.527   41.453
  622.958   19.349  232.691  222.568   30.973
  623.208   23.761  218.219  222.136   20.965
  623.458   26.943  220.466  221.694   17.899
  623.708   23.888  237.795  222.285   18.657
  623.958   22.773  248.564  222.876   18.923
  624.208   20.023  268.849  223.438   18.720
  624.458   17.579  308.797  224.020   19.713
  624.708   14.624  318.910  224.104   21.188
  624.958   13.103  236.580  224.685   17.873
  625.208   12.704  254.564  225.257   13.846
  625.458   15.887  285.003  225.857   12.687
  625.708   18.764  294.138  226.429   13.684
  625.958   22.050  248.192  227.011   13.716
  626.208   26.153  198.312  228.099   13.523
  626.458   35.680  180.229  231.225   13.315
  626.708   40.908  180.516  232.323   13.117
  626.958   38.465  198.828  232.379   12.915
  627.208   32.339  229.600  231.439   13.902
  627.458   28.769  273.154  228.979   18.480
  627.708   22.644  297.038  226.518   40.755
  627.958   19.790  317.316  232.188   69.245
  628.208   17.961  318.581  237.849   68.325
  628.458   17.052  290.999  240.458   61.668
  628.708   18.189  272.594  241.528   56.924
  628.958   19.943  257.460  242.626   51.697
  629.208   21.079  249.875  243.207   44.563
  629.458   21.603  241.635  243.789   43.165
  629.708   22.024  236.012  244.887   41.055
  629.958   22.443  249.080  245.459   41.804
  630.208   23.580  273.619  246.049   45.186
  630.458   25.434  295.865  246.124   49.773
  630.708   27.287  268.283  245.682   45.976
  630.958   29.754  195.128  246.273   38.125
  631.208   32.631  207.864  246.845   27.400
  631.458   31.415  211.750  247.933   22.895
  631.708   27.641  218.264  250.055   26.760
  631.958   20.696  233.626  251.134   26.792
  632.208   17.026  242.429  252.738   30.896
  632.458   13.560  248.281  255.339   36.430
  632.708   11.320  259.711  258.962   41.495
  632.958    9.797  293.761  262.586   47.264
  633.208    9.298  316.661  269.260   60.212
  633.458    9.004  332.018  277.954   68.141
  633.708    8.709  400.163  263.832   67.699
  633.958    8.412  408.638  326.287   63.672
  634.208    8.017  382.367  295.425   67.537
  634.458    7.825  310.851  278.768   66.852
  634.708    7.834  306.872  263.116   64.259
  634.958    7.847  316.330  265.228   63.817
  635.208    7.963  337.592  268.851   65.531
  635.458    7.973  352.299  273.996   69.870
  635.708    7.983  339.793  267.479   68.950
  635.958    8.100  312.211  253.855   63.011
  636.208    8.214  301.671  242.785   58.262
  636.458    8.431  301.624  247.920   54.235
  636.708    8.543  297.967  261.693   55.228
  636.958    8.453  294.637  266.330   61.722
  637.208    8.365  301.813  267.428   69.168
  637.458    8.374  311.926  266.488   72.556
  637.708    8.489  310.568  265.549   74.982
  637.958    8.706  305.934  243.813   65.692
  638.208    9.023  300.971  241.352   56.406
  638.458    9.342  290.103  241.943   48.311
  638.708    9.558  287.435  242.018   44.289
  638.958    9.469  290.338  243.115   47.428
  639.208    9.071  298.813  243.687   50.103
  639.458    8.572  308.932  244.776   52.051
  639.708    7.767  314.457  254.981   54.712
  639.958    7.266  318.343  265.205   66.704
  640.208    6.868  287.150  264.772   68.653
  640.458    6.472  335.298  266.368   54.821
  640.708    6.277  399.177  316.147   46.970
  640.958    6.085  437.814  308.617   52.743
  641.208    5.995  401.050  288.402   62.584
  641.458    6.008  303.638  274.289   70.034
  641.708    5.916  336.698  275.875   69.115
  641.958    5.929  361.243  288.625   66.044
  642.208    5.736  348.409  275.517   64.407
  642.458    5.544  340.169  276.108   67.311
  642.708    5.351  305.365  276.680   68.308
  642.958    5.260  323.350  277.271   65.233
  643.208    4.965  339.368  286.979   63.118
  643.458    4.771  321.946  282.997   64.359
  643.708    4.172  328.782  291.690   65.581
  643.958    3.465  380.535  320.674   66.812
  644.208    2.351  377.866  286.262   67.575
  644.458    1.954  340.774  278.225   68.085
  644.708    2.784  322.369  277.792   69.316
  644.958    3.922  330.188  277.360   70.074
  645.208    5.059  349.811  276.429   70.106
  645.458    5.583  350.420  275.987   70.864
  645.708    5.800  347.090  275.057   70.661
  645.958    6.018  334.912  274.108   69.976
  646.208    6.131  317.823  269.629   68.578
  646.458    6.245  305.651  267.676   63.595
  646.708    6.359  292.817  266.727   55.022
  646.958    6.473  286.210  281.007   41.429
  647.208    6.587  278.298  306.440   38.845
  647.458    6.496  277.923  336.438   37.443
  647.708    6.200  314.595  359.336   37.479
  647.958    5.802  344.705  369.053   37.516
  648.208    5.304  361.379  369.128   39.225
  648.458    4.907  372.809  346.378   40.935
  648.708    4.612  367.841  335.289   43.127
  648.958    4.418  371.399  326.744   41.485
  649.208    4.327  410.370  343.052   38.892
  649.458    4.238  445.069  366.477   36.543
  649.708    4.250  468.625  367.039   41.116
  649.958    4.159  488.910  366.118   47.611
  650.208    4.171  454.767  364.156   51.233
  650.458    4.181  438.328  346.973   50.556
  650.708    4.500  456.969  306.985   50.115
  650.958    5.229  424.465  282.714   49.912
  651.208    5.958  372.947  257.936   47.315
  651.458    6.582  278.156  240.781   37.790
