~VERSION INFORMATION
 VERS.                 2.0:   CWLS LOG ASCII STANDARD -VERSION 2.0
 WRAP.                  NO:   ONE LINE PER DEPTH STEP
~WELL INFORMATION BLOCK
#MNEM.UNIT           DATA                    DESCRIPTION OF MNEMONIC
#---------    -------------------            -------------------------------
# Generated from Intellog Unique Number	CS_73_76/WELL/3279
WELL.         BAAY LAND CONSULTANTS LTD.     : Well_name    - WELL
LOC .         00/16-04-075-05W4/0            : Location     - LOCATION
UWI .         00/16-04-075-05W4/0            : Uwi          - UNIQUE WELL ID
ENTR.         SP                             : Entered      - ENTERED BY
SRVC.         SCHLUMBERGER                   : Scn          - SERVICE COMPANY
STRT.M        243.84                         : top_depth    - START DEPTH
STOP.M        460.09                         : bot_depth    - STOP DEPTH
STEP.M        0.25                           : increment    - STEP LENGTH
 NULL. -999.2500:NULL Value
~CURVE INFORMATION BLOCK
#MNEM UNIT       ERCB CURVE CODE    CURVE DESCRIPTION
#-----------   ------------------   ----------------------------------
DEPT.M        00 001 00 00         : DEPTH        - DEPTH
GR  .API      00 310 00 00         : GR           - GAMMA RAY
DPHI.V/V      00 890 00 00         : PHID         - DENSITY POROSITY (SANDSTONE)
NPHI.V/V      00 330 00 00         : PHIN         - NEUTRON POROSITY (SANDSTONE)
ILD .OHMM     00 120 00 00         : RESD         - DEEP RESISTIVITY (DIL)
~PARAMETER INFORMATION
#MNEM.UNIT           DATA             DESCRIPTION OF MNEMONIC
#---------         -----------     ------------------------------
GL  .M        649.834              : gl           - GROUND LEVEL ELEVATION
EREF.M        652.272              : kb           - ELEVATION OF DEPTH REFERENCE
DATM.M        649.834              : datum        - DATUM ELEVATION
TDD .M        559.308              : tdd          - TOTAL DEPTH DRILLER
RUN .         ONE                  : Run          - RUN NUMBER
ENG .         BILL                 : Engineer     - RECORDING ENGINEER
WIT .         JIM                  : Witness      - WITNESSED BY
MUD .         GEL                  : Mud_type     - MUD TYPE
MATR.         SANDSTONE            : Logunit      - NEUTRON MATRIX
TMAX.C        26.6667              : BHT          - MAXIMUM RECORDED TEMPERATURE
BHTD.M        559.308              : BHTDEP       - MAXIMUM RECORDED TEMPERATURE
MATR.         1                    : LOGUNIT      - NEUTRON MATRIX
RMT .C        25                   : MDTP         - TEMPERATURE OF MUD
NEUT.         1                    : NEUTRON      - NEUTRON TYPE
RESI.         0                    : RESIST       - RESISTIVITY TYPE
RMC .OHMM     0.25                 : RMC          - RESISTIVITY OF MUD CAKE
RMF .OHMM     0.25                 : RMF          - RESISTIVITY OF MUD FILTRATE
SUFT.C        15                   : SUFT         - SURFACE TEMPERATURE
~A  DEPTH       GR     PHID     PHIN     RESD
# ...
  417.840   94.964    0.192    0.475    6.667
  418.090   91.652    0.200    0.457    6.823
  418.340   89.795    0.186    0.438    6.545
  418.590   89.674    0.176    0.445    6.468
  418.840   91.041    0.192    0.432    6.421
  419.090   92.061    0.203    0.416    6.413
  419.340   93.128    0.208    0.406    6.348
  419.590   93.379    0.218    0.425    6.294
  419.840   93.255    0.227    0.440    6.290
  420.090   95.826    0.213    0.454    6.287
  420.340   97.728    0.204    0.445    6.285
  420.590   99.813    0.217    0.460    6.281
  420.840  100.361    0.200    0.472    6.277
  421.090   99.937    0.180    0.465    6.276
  421.340   98.031    0.173    0.446    6.150
  421.590   95.496    0.179    0.440    6.154
  421.840   94.642    0.168    0.460    6.159
  422.090   93.623    0.165    0.477    6.029
  422.340   93.465    0.161    0.479    6.036
  422.590   92.870    0.196    0.485    6.035
  422.840   92.250    0.210    0.491    6.031
  423.090   91.675    0.207    0.497    6.027
  423.340   91.594    0.191    0.488    6.119
  423.590   92.315    0.185    0.478    6.133
  423.840   92.257    0.180    0.473    6.133
  424.090   92.263    0.187    0.489    6.217
  424.340   92.308    0.175    0.494    6.243
  424.590   91.677    0.192    0.495    6.240
  424.840   91.752    0.194    0.488    6.364
  425.090   91.000    0.174    0.481    6.355
  425.340   88.344    0.180    0.476    6.344
  425.590   85.856    0.191    0.470    6.476
  425.840   86.538    0.189    0.457    6.459
  426.090   88.522    0.184    0.454    6.564
  426.340   90.501    0.170    0.462    6.575
  426.590   91.715    0.158    0.455    6.576
  426.840   92.126    0.175    0.448    6.570
  427.090   93.123    0.197    0.451    6.526
  427.340   94.111    0.195    0.467    6.448
  427.590   95.923    0.183    0.476    6.445
  427.840   97.174    0.173    0.478    6.441
  428.090   98.856    0.164    0.474    6.439
  428.340   98.198    0.180    0.452    6.437
  428.590   98.219    0.171    0.447    6.434
  428.840   99.378    0.178    0.459    6.433
  429.090   99.759    0.193    0.442    6.491
  429.340  100.068    0.210    0.429    6.544
  429.590  100.116    0.214    0.424    6.548
  429.840   98.971    0.211    0.416    6.595
  430.090   97.672    0.201    0.419    6.665
  430.340   97.122    0.209    0.430    6.792
  430.590   97.466    0.199    0.443    6.812
  430.840   98.918    0.183    0.458    7.031
  431.090   97.406    0.173    0.440    7.012
  431.340   92.084    0.163    0.413    7.163
  431.590   91.014    0.151    0.400    7.277
  431.840   95.557    0.160    0.421    7.216
  432.090   99.323    0.177    0.431    6.992
  432.340   99.642    0.169    0.438    6.780
  432.590   99.617    0.172    0.439    6.566
  432.840   98.898    0.180    0.435    6.511
  433.090   97.024    0.198    0.428    6.494
  433.340   95.121    0.182    0.435    6.627
  433.590   94.178    0.178    0.447    6.748
  433.840   93.140    0.187    0.453    6.833
  434.090   92.855    0.190    0.446    6.902
  434.340   92.429    0.190    0.450    6.990
  434.590   93.024    0.178    0.459    7.216
  434.840   95.938    0.178    0.469    7.267
  435.090   99.947    0.178    0.456    7.511
  435.340  101.682    0.175    0.471    7.575
  435.590  101.616    0.159    0.464    7.817
  435.840   97.912    0.180    0.451    8.069
  436.090   95.100    0.203    0.441    8.139
  436.340   90.408    0.195    0.452    8.413
  436.590   85.516    0.206    0.457    9.123
  436.840   78.454    0.230    0.444    9.428
  437.090   81.799    0.191    0.395    9.528
  437.340   88.492    0.186    0.383    9.121
  437.590   91.334    0.155    0.388    8.768
  437.840   92.466    0.141    0.376    8.229
  438.090   94.497    0.112    0.359    7.663
  438.340   99.589    0.146    0.363    7.151
  438.590  104.483    0.162    0.442    6.841
  438.840  108.381    0.169    0.454    6.497
  439.090  109.073    0.176    0.446    6.321
  439.340  109.375    0.173    0.446    6.306
  439.590  110.508    0.151    0.449    6.643
  439.840  103.006    0.150    0.472    7.346
  440.090   95.620    0.168    0.467    8.232
  440.340   75.136    0.246    0.473   11.051
  440.590   46.495    0.309    0.444   17.275
  440.840   35.370    0.309    0.415   23.284
  441.090   34.712    0.293    0.432   28.232
  441.340   39.198    0.295    0.445   30.780
  441.590   43.585    0.303    0.459   31.985
  441.840   47.137    0.320    0.491   33.961
  442.090   45.881    0.332    0.498   34.906
  442.340   38.364    0.329    0.479   37.047
  442.590   34.764    0.337    0.484   38.458
  442.840   35.261    0.344    0.501   38.413
  443.090   36.329    0.340    0.525   38.411
  443.340   39.009    0.343    0.542   38.394
  443.590   37.361    0.339    0.548   40.079
  443.840   36.586    0.343    0.545   41.546
  444.090   36.618    0.351    0.516   44.618
  444.340   37.424    0.353    0.491   30.529
  444.590   41.731    0.315    0.488   20.077
  444.840   50.184    0.305    0.511   14.197
  445.090   61.759    0.272    0.522   10.478
  445.340   80.327    0.212    0.537    8.921
  445.590   89.551    0.189    0.541    8.580
  445.840   87.745    0.192    0.511    9.990
  446.090   79.723    0.218    0.504   13.500
  446.340   59.772    0.266    0.494   21.957
  446.590   38.510    0.331    0.473   33.364
  446.840   33.134    0.370    0.467   49.259
  447.090   31.765    0.383    0.460   60.593
  447.340   33.621    0.353    0.467   61.833
  447.590   35.434    0.293    0.463   62.808
  447.840   36.963    0.293    0.450   59.479
  448.090   33.643    0.288    0.444   50.990
  448.340   29.997    0.292    0.438   31.916
  448.590   32.637    0.302    0.439   23.040
  448.840   57.253    0.301    0.439   16.407
  449.090   67.614    0.294    0.433   10.842
  449.340   68.692    0.289    0.425   10.203
  449.590   63.454    0.287    0.411    9.317
  449.840   60.643    0.280    0.404    8.726
  450.090   61.216    0.263    0.396    8.296
  450.340   72.648    0.240    0.387    7.911
  450.590   82.408    0.221    0.379    7.675
  450.840   86.379    0.212    0.374    7.463
  451.090   88.439    0.220    0.383    7.338
  451.340   88.329    0.206    0.392    7.257
  451.590   82.025    0.204    0.398    7.178
  451.840   77.229    0.223    0.396    6.936
  452.090   74.132    0.228    0.395    6.867
  452.340   71.904    0.225    0.394    6.786
  452.590   73.831    0.222    0.394    6.659
  452.840   69.245    0.220    0.409    6.706
  453.090   63.022    0.246    0.420    6.780
  453.340   55.264    0.266    0.432    6.990
  453.590   50.532    0.284    0.438    7.842
  453.840   46.446    0.291    0.430    8.141
  454.090   46.533    0.298    0.406    7.646
  454.340   48.955    0.297    0.400    6.561
  454.590   51.893    0.289    0.410    5.995
  454.840   55.144    0.275    0.411    5.584
  455.090   54.568    0.265    0.404    5.199
  455.340   55.237    0.251    0.391    4.953
  455.590   56.236    0.245    0.388    4.775
  455.840   60.731    0.268    0.398    4.578
  456.090   59.690    0.282    0.407    4.297
  456.340   51.152    0.295    0.412    4.150
  456.590   47.622    0.305    0.406    4.027
  456.840   45.578    0.313    0.399    3.827
  457.090   45.267    0.310    0.394    3.731
  457.340   46.480    0.305    0.424    3.663
  457.590   40.023    0.285    0.441    4.122
  457.840   36.424    0.278    0.410    4.550
  458.090   29.536    0.126    0.368    5.569
  458.340   21.213    0.050    0.314    7.539
  458.590   17.633    0.000    0.163   12.306
  458.840   13.724   -0.000    0.165   19.209
  459.090   10.978   -0.000    0.187   27.416
  459.340   10.104    0.000    0.152   32.271
  459.590    8.854    0.000    0.145   35.306
  459.840    9.063    0.000    0.142   38.535
  460.090    9.522   -0.000    0.141   44.569
