~VERSION INFORMATION
 VERS.                 2.0:   CWLS LOG ASCII STANDARD -VERSION 2.0
 WRAP.                  NO:   ONE LINE PER DEPTH STEP
~WELL INFORMATION BLOCK
#MNEM.UNIT           DATA                    DESCRIPTION OF MNEMONIC
#---------    -------------------            -------------------------------
# Generated from Intellog Unique Number	CS_71_72/WELL/916
WELL.         AEC IPIATIK PAPA               : Well_name    - WELL
LOC .         00/12-18-071-04W4/0            : Location     - LOCATION
UWI .         00/12-18-071-04W4/0            : Uwi          - UNIQUE WELL ID
ENTR.         SP                             : Entered      - ENTERED BY
SRVC.         SCHLUMBERGER                   : Scn          - SERVICE COMPANY
STRT.M        290                            : top_depth    - START DEPTH
STOP.M        520                            : bot_depth    - STOP DEPTH
STEP.M        0.25                           : increment    - STEP LENGTH
 NULL. -999.2500:NULL Value
~CURVE INFORMATION BLOCK
#MNEM UNIT       ERCB CURVE CODE    CURVE DESCRIPTION
#-----------   ------------------   ----------------------------------
DEPT.M        00 001 00 00         : DEPTH        - DEPTH
ILD .OHMM     00 120 00 00         : RESD         - DEEP RESISTIVITY (DIL)
DPHI.V/V      00 890 00 00         : PHID         - DENSITY POROSITY (LIMESTONE)
NPHI.V/V      00 330 00 00         : PHIN         - NEUTRON POROSITY (LIMESTONE)
GR  .API      00 310 00 00         : GR           - GAMMA RAY
~PARAMETER INFORMATION
#MNEM.UNIT           DATA             DESCRIPTION OF MNEMONIC
#---------         -----------     ------------------------------
GL  .M        669.95               : gl           - GROUND LEVEL ELEVATION
EREF.M        674.21               : kb           - ELEVATION OF DEPTH REFERENCE
DATM.M        669.95               : datum        - DATUM ELEVATION
TDD .M        545                  : tdd          - TOTAL DEPTH DRILLER
RUN .         ONE                  : Run          - RUN NUMBER
ENG .         BILL                 : Engineer     - RECORDING ENGINEER
WIT .         JIM                  : Witness      - WITNESSED BY
MUD .         GEL                  : Mud_type     - MUD TYPE
MATR.         LIMESTONE            : Logunit      - NEUTRON MATRIX
TMAX.C        22                   : BHT          - MAXIMUM RECORDED TEMPERATURE
BHTD.M        545                  : BHTDEP       - MAXIMUM RECORDED TEMPERATURE
MATR.         1                    : LOGUNIT      - NEUTRON MATRIX
RMT .C        25                   : MDTP         - TEMPERATURE OF MUD
NEUT.         1                    : NEUTRON      - NEUTRON TYPE
RESI.         0                    : RESIST       - RESISTIVITY TYPE
RMC .OHMM     0.25                 : RMC          - RESISTIVITY OF MUD CAKE
RMF .OHMM     0.25                 : RMF          - RESISTIVITY OF MUD FILTRATE
SUFT.C        15                   : SUFT         - SURFACE TEMPERATURE
~A  DEPTH     RESD     PHID     PHIN       GR
# ...
  420.500   10.046    0.300    0.455   62.425
  420.750   10.850    0.295    0.467   60.006
  421.000   10.999    0.286    0.470   54.058
  421.250   10.884    0.302    0.455   54.074
  421.500   10.317    0.320    0.447   57.697
  421.750    9.475    0.313    0.437   62.419
  422.000    8.415    0.293    0.433   64.936
  422.250    7.699    0.270    0.448   67.093
  422.500    7.031    0.251    0.460   68.029
  422.750    6.543    0.262    0.456   71.170
  423.000    6.306    0.252    0.447   73.260
  423.250    5.901    0.233    0.444   75.538
  423.500    5.646    0.215    0.445   77.575
  423.750    5.535    0.210    0.446   78.751
  424.000    5.477    0.216    0.454   79.080
  424.250    5.562    0.220    0.468   78.493
  424.500    5.745    0.223    0.469   76.382
  424.750    5.889    0.229    0.463   73.536
  425.000    6.174    0.265    0.472   68.439
  425.250    6.732    0.268    0.480   64.010
  425.500    7.149    0.259    0.484   60.677
  425.750    7.663    0.247    0.481   58.015
  426.000    8.986    0.214    0.479   55.781
  426.250   10.533    0.063    0.466   53.914
  426.500   13.888    0.029    0.410   52.901
  426.750   16.964    0.009    0.369   52.739
  427.000   18.322    0.001    0.329   52.271
  427.250   19.244    0.018    0.209   50.706
  427.500   22.104    0.020    0.203   48.961
  427.750   22.659    0.019    0.225   48.008
  428.000   16.150    0.046    0.245   48.456
  428.250   11.048    0.112    0.278   56.466
  428.500    7.948    0.170    0.331   71.918
  428.750    6.382    0.225    0.385   78.100
  429.000    5.917    0.258    0.431   81.600
  429.250    5.736    0.237    0.459   82.963
  429.500    5.602    0.235    0.476   82.374
  429.750    5.542    0.231    0.470   79.786
  430.000    5.443    0.231    0.461   78.280
  430.250    5.179    0.228    0.455   77.624
  430.500    4.774    0.219    0.450   77.096
  430.750    4.426    0.210    0.451   76.387
  431.000    4.290    0.211    0.465   74.459
  431.250    4.439    0.219    0.473   71.187
  431.500    4.821    0.229    0.493   67.977
  431.750    5.178    0.246    0.489   65.378
  432.000    5.429    0.189    0.468   63.879
  432.250    5.483    0.169    0.446   63.471
  432.500    5.276    0.198    0.438   65.201
  432.750    4.633    0.244    0.461   68.638
  433.000    3.950    0.252    0.467   71.831
  433.250    3.620    0.261    0.464   74.233
  433.500    3.162    0.261    0.487   76.397
  433.750    2.925    0.252    0.517   77.390
  434.000    2.732    0.266    0.535   78.384
  434.250    2.580    0.261    0.549   79.756
  434.500    2.665    0.255    0.546   80.272
  434.750    3.066    0.265    0.521   79.981
  435.000    3.670    0.262    0.503   77.438
  435.250    4.351    0.268    0.492   70.507
  435.500    4.897    0.279    0.475   66.077
  435.750    5.065    0.278    0.463   67.871
  436.000    5.232    0.244    0.457   70.025
  436.250    5.167    0.224    0.465   72.124
  436.500    4.807    0.219    0.471   73.061
  436.750    4.626    0.216    0.458   72.777
  437.000    4.654    0.213    0.446   73.835
  437.250    4.710    0.216    0.434   75.017
  437.500    4.617    0.228    0.428   76.015
  437.750    4.410    0.239    0.436   77.017
  438.000    4.259    0.248    0.448   77.461
  438.250    4.237    0.233    0.473   77.489
  438.500    5.062    0.244    0.498   76.652
  438.750    6.346    0.255    0.514   74.420
  439.000    7.867    0.264    0.507   72.305
  439.250    9.415    0.270    0.476   67.879
  439.500    9.779    0.175    0.441   61.859
  439.750    9.444    0.126    0.419   58.346
  440.000    7.500    0.089    0.399   67.762
  440.250    5.878    0.132    0.384   74.061
  440.500    4.599    0.176    0.443   80.060
  440.750    3.776    0.201    0.487   84.719
  441.000    3.488    0.200    0.515   85.290
  441.250    3.457    0.207    0.528   84.767
  441.500    3.479    0.220    0.531   84.114
  441.750    3.580    0.225    0.520   81.517
  442.000    4.135    0.217    0.509   79.036
  442.250    4.584    0.209    0.504   75.094
  442.500    5.007    0.201    0.496   70.543
  442.750    5.249    0.199    0.481   67.150
  443.000    5.321    0.214    0.454   63.513
  443.250    5.101    0.227    0.435   65.432
  443.500    4.590    0.238    0.426   66.859
  443.750    4.375    0.234    0.439   67.853
  444.000    5.942    0.203    0.463   68.604
  444.250    8.977    0.174    0.477   63.503
  444.500   10.743    0.084    0.455   56.513
  444.750   10.750    0.072    0.382   55.071
  445.000    9.422    0.095    0.376   59.612
  445.250    7.680    0.126    0.399   62.865
  445.500    6.486    0.154    0.423   65.939
  445.750    5.728    0.190    0.447   67.969
  446.000    6.095    0.228    0.465   69.939
  446.250    6.924    0.257    0.477   72.769
  446.500    7.647    0.226    0.491   69.862
  446.750    8.414    0.224    0.503   61.837
  447.000    9.242    0.239    0.451   57.407
  447.250    9.816    0.247    0.407   54.746
  447.500   10.063    0.250    0.403   54.158
  447.750   10.220    0.233    0.420   54.607
  448.000   10.341    0.223    0.431   55.728
  448.250   10.444    0.217    0.445   56.607
  448.500   10.509    0.219    0.437   57.723
  448.750   10.895    0.226    0.419   58.537
  449.000   11.443    0.233    0.403   58.804
  449.250   12.361    0.221    0.406   56.998
  449.500   12.908    0.205    0.410   54.030
  449.750   13.257    0.175    0.406   52.775
  450.000   12.450    0.115    0.396   54.380
  450.250   11.541    0.098    0.387   60.023
  450.500   11.208    0.156    0.409   61.926
  450.750   11.707    0.204    0.429   64.513
  451.000   13.149    0.214    0.428   63.985
  451.250   15.358    0.210    0.415   58.091
  451.500   17.059    0.209    0.411   52.745
  451.750   17.751    0.209    0.422   47.400
  452.000   17.927    0.242    0.433   42.361
  452.250   17.805    0.273    0.432   38.664
  452.500   16.230    0.287    0.431   39.357
  452.750   12.938    0.293    0.431   45.843
  453.000   11.532    0.282    0.428   53.306
  453.250   10.414    0.271    0.429   59.123
  453.500   10.228    0.261    0.435   63.291
  453.750   11.617    0.274    0.443   66.364
  454.000   13.930    0.281    0.444   68.517
  454.250   15.499    0.262    0.422   70.858
  454.500   17.278    0.252    0.404   70.635
  454.750   18.697    0.249    0.401   63.587
  455.000   19.167    0.243    0.362   57.998
  455.250   18.546    0.240    0.327   53.754
  455.500   14.402    0.247    0.308   55.480
  455.750   12.026    0.266    0.292   65.626
  456.000   11.004    0.277    0.319   72.357
  456.250   10.353    0.259    0.349   76.038
  456.500    9.779    0.240    0.380   77.828
  456.750    9.340    0.208    0.403   78.033
  457.000    8.986    0.220    0.414   77.203
  457.250    8.520    0.236    0.418   76.979
  457.500    8.381    0.238    0.424   78.100
  457.750    8.142    0.228    0.429   79.594
  458.000    8.145    0.196    0.429   80.035
  458.250    8.241    0.163    0.440   80.423
  458.500    8.401    0.149    0.424   79.895
  458.750    8.581    0.149    0.406   78.578
  459.000    8.667    0.158    0.395   78.599
  459.250    8.592    0.168    0.398   79.232
  459.500    8.500    0.182    0.405   80.047
  459.750    8.258    0.192    0.403   80.929
  460.000    8.154    0.197    0.405   81.310
  460.250    8.082    0.159    0.427   81.645
  460.500    8.242    0.146    0.441   80.928
  460.750    8.353    0.164    0.448   76.010
  461.000    8.579    0.178    0.435   72.375
  461.250    8.779    0.198    0.412   69.779
  461.500    8.818    0.209    0.392   69.613
  461.750    8.791    0.199    0.373   72.874
  462.000    8.762    0.170    0.389   74.782
  462.250    8.557    0.170    0.411   76.635
  462.500    8.547    0.180    0.421   77.393
  462.750    8.488    0.188    0.414   75.768
  463.000    8.305    0.194    0.408   73.591
  463.250    8.219    0.194    0.408   73.184
  463.500    8.315    0.189    0.412   76.194
  463.750    9.015    0.178    0.425   78.599
