~VERSION INFORMATION
 VERS.                 2.0:   CWLS LOG ASCII STANDARD -VERSION 2.0
 WRAP.                  NO:   ONE LINE PER DEPTH STEP
~WELL INFORMATION BLOCK
#MNEM.UNIT           DATA                    DESCRIPTION OF MNEMONIC
#---------    -------------------            -------------------------------
# Generated from Intellog Unique Number	CW_79_81/WELL/877
WELL.         10-32-079-21W4                 : Well_name    - WELL
LOC .         00/10-32-079-21W4/0            : Location     - LOCATION
UWI .         00/10-32-079-21W4/0            : Uwi          - UNIQUE WELL ID
ENTR.         MAX                            : Entered      - ENTERED BY
SRVC.         SCHLUMBERGER                   : Scn          - SERVICE COMPANY
STRT.M        195                            : top_depth    - START DEPTH
STOP.M        415                            : bot_depth    - STOP DEPTH
STEP.M        0.25                           : increment    - STEP LENGTH
 NULL. -999.2500:NULL Value
~CURVE INFORMATION BLOCK
#MNEM UNIT       ERCB CURVE CODE    CURVE DESCRIPTION
#-----------   ------------------   ----------------------------------
DEPT.M        00 001 00 00         : DEPTH        - DEPTH
ILD .OHMM     00 120 00 00         : RESD         - DEEP RESISTIVITY (DIL)
NPHI.V/V      00 330 00 00         : PHIN         - NEUTRON POROSITY (SANDSTONE)
DPHI.V/V      00 890 00 00         : PHID         - DENSITY POROSITY (SANDSTONE)
CALI.MM       00 280 01 00         : CAL          - CALIPER
GR  .API      00 310 00 00         : GR           - GAMMA RAY
~PARAMETER INFORMATION
#MNEM.UNIT           DATA             DESCRIPTION OF MNEMONIC
#---------         -----------     ------------------------------
GL  .M        576.83               : gl           - GROUND LEVEL ELEVATION
EREF.M        580.8                : kb           - ELEVATION OF DEPTH REFERENCE
DATM.M        576.83               : datum        - DATUM ELEVATION
TDD .M        446.75               : tdd          - TOTAL DEPTH DRILLER
RUN .         ONE                  : Run          - RUN NUMBER
ENG .         BILL                 : Engineer     - RECORDING ENGINEER
WIT .         JIM                  : Witness      - WITNESSED BY
MUD .         GEL                  : Mud_type     - MUD TYPE
MATR.         SANDSTONE            : Logunit      - NEUTRON MATRIX
TMAX.C        27.2                 : BHT          - MAXIMUM RECORDED TEMPERATURE
BHTD.M        446.75               : BHTDEP       - MAXIMUM RECORDED TEMPERATURE
RMT .C        12.2                 : MDTP         - TEMPERATURE OF MUD
MUDD.KG/M     1188                 : MWT          - MUD DENSITY
NEUT.         1                    : NEUTRON      - NEUTRON TYPE
RESI.         0                    : RESIST       - RESISTIVITY TYPE
RM  .OHMM     1.35                 : RM           - RESISTIVITY OF MUD
RMC .OHMM     0                    : RMC          - RESISTIVITY OF MUD CAKE
RMF .OHMM     4.93                 : RMF          - RESISTIVITY OF MUD FILTRATE
SUFT.C        -5                   : SUFT         - SURFACE TEMPERATURE
~A  DEPTH     RESD     PHIN     PHID      CAL       GR
# ...
  268.000    5.584    0.526    0.271  224.214   81.074
  268.250    5.588    0.523    0.289  224.753   81.406
  268.500    5.391    0.556    0.303  225.298   80.257
  268.750    4.877    0.544    0.286  225.851   82.360
  269.000    4.452    0.534    0.277  225.898   84.159
  269.250    3.883    0.549    0.279  226.451   84.491
  269.500    3.850    0.547    0.289  226.498   85.113
  269.750    3.889    0.529    0.273  225.574   84.555
  270.000    3.820    0.529    0.277  224.152   86.654
  270.250    3.966    0.581    0.282  221.759   83.439
  270.500    4.857    0.591    0.285  220.816   75.501
  270.750    5.838    0.577    0.303  219.892   64.020
  271.000    7.416    0.544    0.314  218.962   61.687
  271.250   11.214    0.475    0.338  218.032   55.225
  271.500   11.857    0.464    0.336  217.594   52.317
  271.750   10.825    0.458    0.335  217.155   52.349
  272.000    8.772    0.470    0.327  217.701   52.964
  272.250    9.710    0.477    0.326  219.245   55.063
  272.500   10.554    0.480    0.330  219.285   55.980
  272.750   10.855    0.488    0.339  218.368   57.489
  273.000   10.964    0.503    0.347  217.923   57.529
  273.250   10.964    0.501    0.352  216.009   55.790
  273.500   11.084    0.487    0.346  215.591   54.941
  273.750   11.089    0.465    0.353  215.631   54.674
  274.000   11.097    0.457    0.360  214.708   55.002
  274.250   11.103    0.448    0.368  213.778   55.624
  274.500   10.711    0.464    0.368  212.834   56.837
  274.750   10.711    0.489    0.362  212.403   57.169
  275.000   10.436    0.500    0.357  212.463   57.792
  275.250   10.347    0.498    0.344  212.025   60.772
  275.500   11.454    0.521    0.339  211.580   64.650
  275.750   12.224    0.535    0.340  211.149   63.202
  276.000   11.899    0.509    0.343  211.202   59.987
  276.250   11.065    0.474    0.329  211.263   57.071
  276.500   10.009    0.464    0.326  211.323   57.395
  276.750    8.811    0.493    0.320  211.364   57.726
  277.000    8.735    0.503    0.307  211.910   58.054
  277.250    8.903    0.490    0.281  211.970   60.153
  277.500    9.328    0.468    0.210  213.008   62.842
  277.750    9.683    0.481    0.149  213.055   61.996
  278.000   10.144    0.490    0.206  213.122   59.364
  278.250   10.339    0.466    0.256  212.684   56.743
  278.500   10.253    0.392    0.315  213.230   59.724
  278.750    9.890    0.426    0.351  213.776   64.192
  279.000    9.368    0.504    0.342  213.830   62.744
  279.250    9.549    0.487    0.343  214.376   62.190
  279.500   10.003    0.520    0.341  214.429   64.879
  279.750   10.673    0.538    0.343  214.483   62.841
  280.000   11.815    0.537    0.342  214.544   62.287
  280.250   12.725    0.523    0.337  214.598   62.918
  280.500   12.734    0.498    0.333  214.651   61.761
  280.750   12.282    0.467    0.323  214.698   58.850
  281.000   11.317    0.459    0.326  214.759   56.512
  281.250   10.146    0.466    0.338  214.826   56.840
  281.500    9.608    0.474    0.321  214.388   59.529
  281.750    9.615    0.468    0.325  214.435   59.565
  282.000   10.259    0.463    0.318  214.496   62.550
  282.250   11.049    0.482    0.325  214.536   69.371
  282.500   11.262    0.498    0.338  214.597   67.337
  282.750   11.066    0.498    0.346  214.664   62.942
  283.000   10.479    0.474    0.330  214.704   63.568
  283.250    9.481    0.463    0.349  214.765   65.081
  283.500    8.898    0.476    0.341  214.825   65.109
  283.750    8.903    0.510    0.341  214.866   65.145
  284.000    9.158    0.520    0.353  215.418   65.764
  284.250    9.595    0.550    0.348  215.479   67.571
  284.500    9.780    0.569    0.348  216.025   66.423
  284.750    9.435    0.567    0.343  216.078   67.046
  285.000    9.017    0.516    0.346  216.132   69.148
  285.250    8.308    0.508    0.345  216.186   67.409
  285.500    7.380    0.503    0.333  216.247   63.305
  285.750    7.054    0.483    0.331  216.307   61.861
  286.000    6.995    0.485    0.340  216.307   63.960
  286.250    7.000    0.511    0.328  216.401   67.838
  286.500    6.941    0.513    0.329  216.469   71.704
  286.750    6.696    0.505    0.336  216.509   71.441
  287.000    6.400    0.500    0.335  217.068   67.045
  287.250    6.062    0.502    0.332  217.129   67.668
  287.500    5.955    0.521    0.341  217.169   67.413
  287.750    6.182    0.512    0.342  217.263   69.212
  288.000    7.297    0.532    0.321  217.277   73.673
  288.250    8.152    0.535    0.300  217.337   69.572
  288.500    7.375    0.537    0.313  217.391   64.881
  288.750    5.160    0.507    0.321  217.452   64.626
  289.000    5.212    0.490    0.323  217.452   66.127
  289.250    5.411    0.493    0.318  217.566   67.639
  289.500    6.446    0.475    0.304  217.613   70.623
  289.750    6.815    0.483    0.282  218.152   75.383
  290.000    9.146    0.502    0.278  218.712   75.415
  290.250   12.851    0.540    0.276  219.264   72.196
  290.500   19.610    0.543    0.278  219.304   63.963
  290.750   28.582    0.519    0.287  219.358   58.977
  291.000   31.641    0.449    0.234  219.419   53.400
  291.250   33.152    0.249    0.094  219.473   51.075
  291.500   33.175    0.247    0.082  220.018   53.177
  291.750   33.195    0.244    0.075  220.072   56.752
  292.000   31.729    0.243    0.086  220.133   55.600
  292.250   29.776    0.243    0.078  220.193   53.569
  292.500   23.914    0.244    0.074  220.234   53.307
  292.750   19.916    0.263    0.060  220.786   52.457
  293.000   18.351    0.299    0.073  220.840   53.076
  293.250   15.287    0.361    0.133  221.399   55.765
  293.500   12.733    0.386    0.171  221.440   60.230
  293.750   10.225    0.397    0.198  221.494   60.553
  294.000    9.165    0.408    0.208  221.554   62.652
  294.250    8.216    0.447    0.266  221.608   68.887
  294.500    7.998    0.480    0.286  221.662   72.761
  294.750    7.998    0.464    0.271  222.214   73.384
  295.000    7.939    0.453    0.245  223.252   79.025
  295.250    7.871    0.453    0.210  224.283   81.718
  295.500    7.876    0.460    0.216  226.318   81.746
  295.750    7.881    0.474    0.224  226.359   81.783
  296.000    7.743    0.483    0.228  225.435   81.520
  296.250    7.539    0.479    0.221  224.997   80.080
  296.500    7.543    0.471    0.231  225.556   81.880
  296.750    7.543    0.483    0.217  226.588   83.392
  297.000    7.625    0.481    0.216  227.625   83.125
  297.250    7.915    0.487    0.205  227.180   83.157
  297.500    8.068    0.493    0.208  225.273   83.796
  297.750    8.072    0.466    0.221  221.889   84.407
  298.000    8.004    0.461    0.197  222.435   85.915
  298.250    8.004    0.476    0.201  222.974   85.951
  298.500    7.943    0.497    0.207  223.035   84.512
  298.750    7.804    0.484    0.225  222.590   82.482
  299.000    7.738    0.479    0.238  222.159   81.919
  299.250    7.815    0.495    0.243  222.704   81.653
  299.500    7.892    0.502    0.231  223.250   80.504
  299.750    8.044    0.493    0.245  224.288   80.241
  300.000    8.274    0.490    0.244  222.873   78.211
  300.250    9.159    0.505    0.226  223.904   76.177
  300.500   10.232    0.491    0.224  224.450   77.980
  300.750   11.120    0.479    0.230  222.542   76.242
  301.000   11.438    0.480    0.227  221.612   73.613
  301.250   11.454    0.491    0.230  221.187   70.697
  301.500   11.248    0.494    0.236  221.733   71.623
  301.750   10.458    0.490    0.241  221.773   74.009
  302.000    9.375    0.490    0.228  222.326   75.812
  302.250    8.559    0.506    0.230  223.364   74.373
  302.500    8.181    0.480    0.217  224.893   77.652
  302.750    8.038    0.473    0.223  226.430   83.002
  303.000    7.970    0.488    0.217  228.452   83.338
  303.250    7.904    0.499    0.222  230.467   83.657
  303.500    8.056    0.494    0.236  233.486   85.461
  303.750    8.755    0.495    0.220  235.993   87.272
  304.000   10.525    0.505    0.217  238.507   87.001
  304.250   11.438    0.502    0.205  240.037   84.082
