~VERSION INFORMATION
 VERS.                 2.0:   CWLS LOG ASCII STANDARD -VERSION 2.0
 WRAP.                  NO:   ONE LINE PER DEPTH STEP
~WELL INFORMATION BLOCK
#MNEM.UNIT           DATA                    DESCRIPTION OF MNEMONIC
#---------    -------------------            -------------------------------
# Generated from Intellog Unique Number	CS_71_72/WELL/915
WELL.         AMOCO AEC IPIATIK INDIA        : Well_name    - WELL
LOC .         00/12-04-072-06W4/0            : Location     - LOCATION
UWI .         00/12-04-072-06W4/0            : Uwi          - UNIQUE WELL ID
ENTR.         SP                             : Entered      - ENTERED BY
SRVC.         SCHLUMBERGER                   : Scn          - SERVICE COMPANY
STRT.M        320                            : top_depth    - START DEPTH
STOP.M        545                            : bot_depth    - STOP DEPTH
STEP.M        0.25                           : increment    - STEP LENGTH
 NULL. -999.2500:NULL Value
~CURVE INFORMATION BLOCK
#MNEM UNIT       ERCB CURVE CODE    CURVE DESCRIPTION
#-----------   ------------------   ----------------------------------
DEPT.M        00 001 00 00         : DEPTH        - DEPTH
ILD .OHMM     00 120 00 00         : RESD         - DEEP RESISTIVITY (DIL)
DPHI.V/V      00 890 00 00         : PHID         - DENSITY POROSITY (LIMESTONE)
NPHI.V/V      00 330 00 00         : PHIN         - NEUTRON POROSITY (LIMESTONE)
GR  .API      00 310 00 00         : GR           - GAMMA RAY
~PARAMETER INFORMATION
#MNEM.UNIT           DATA             DESCRIPTION OF MNEMONIC
#---------         -----------     ------------------------------
GL  .M        690.3                : gl           - GROUND LEVEL ELEVATION
EREF.M        694.56               : kb           - ELEVATION OF DEPTH REFERENCE
DATM.M        690.3                : datum        - DATUM ELEVATION
TDD .M        561                  : tdd          - TOTAL DEPTH DRILLER
RUN .         ONE                  : Run          - RUN NUMBER
ENG .         BILL                 : Engineer     - RECORDING ENGINEER
WIT .         JIM                  : Witness      - WITNESSED BY
MUD .         GEL                  : Mud_type     - MUD TYPE
MATR.         LIMESTONE            : Logunit      - NEUTRON MATRIX
TMAX.C        23                   : BHT          - MAXIMUM RECORDED TEMPERATURE
BHTD.M        561                  : BHTDEP       - MAXIMUM RECORDED TEMPERATURE
MATR.         1                    : LOGUNIT      - NEUTRON MATRIX
RMT .C        25                   : MDTP         - TEMPERATURE OF MUD
NEUT.         1                    : NEUTRON      - NEUTRON TYPE
RESI.         0                    : RESIST       - RESISTIVITY TYPE
RMC .OHMM     0.25                 : RMC          - RESISTIVITY OF MUD CAKE
RMF .OHMM     0.25                 : RMF          - RESISTIVITY OF MUD FILTRATE
SUFT.C        15                   : SUFT         - SURFACE TEMPERATURE
~A  DEPTH     RESD     PHID     PHIN       GR
# ...
  494.000   10.359    0.241    0.402   74.224
  494.250    9.985    0.232    0.398   75.453
  494.500    9.448    0.224    0.407   72.434
  494.750    8.774    0.219    0.426   73.055
  495.000    7.708    0.270    0.415   76.710
  495.250    7.292    0.257    0.406   83.413
  495.500    6.773    0.181    0.409   85.242
  495.750    9.121    0.165    0.411   87.684
  496.000   12.281    0.155    0.411   81.018
  496.250   15.931    0.146    0.399   70.108
  496.500   22.263    0.176    0.392   65.867
  496.750   32.896    0.223    0.400   60.415
  497.000   41.890    0.267    0.403   56.178
  497.250   57.466    0.290    0.398   52.546
  497.500   67.941    0.282    0.394   50.130
  497.750   78.863    0.277    0.392   48.323
  498.000   80.359    0.277    0.390   50.775
  498.250   81.893    0.299    0.390   52.609
  498.500   81.923    0.308    0.402   54.442
  498.750   80.445    0.313    0.409   55.667
  499.000   73.342    0.314    0.412   56.902
  499.250   65.644    0.309    0.408   56.910
  499.500   60.961    0.297    0.402   56.924
  499.750   57.675    0.294    0.401   53.906
  500.000   53.563    0.294    0.404   55.744
  500.250   48.837    0.299    0.405   56.967
  500.500   46.205    0.306    0.407   60.024
  500.750   42.124    0.294    0.400   60.640
  501.000   39.855    0.288    0.395   62.477
  501.250   37.709    0.271    0.384   63.101
  501.500   35.023    0.262    0.377   62.506
  501.750   31.349    0.277    0.405   62.519
  502.000   30.214    0.301    0.414   63.748
  502.250   27.544    0.307    0.407   66.801
  502.500   23.748    0.289    0.402   68.632
  502.750   20.100    0.281    0.406   72.903
  503.000   17.658    0.279    0.406   75.347
  503.250   16.099    0.272    0.403   77.179
  503.500   15.230    0.259    0.403   79.624
  503.750   13.380    0.257    0.403   81.460
  504.000   11.539    0.263    0.408   82.687
  504.250   10.916    0.250    0.409   85.136
  504.500    9.769    0.240    0.412   86.969
  504.750    9.073    0.235    0.413   88.803
  505.000    8.271    0.229    0.399   92.462
  505.250    7.682    0.235    0.392   96.117
  505.500    7.268    0.223    0.383  102.207
  505.750    7.407    0.213    0.372  106.471
  506.000    8.283    0.208    0.368  108.308
  506.250    9.978    0.198    0.364  102.247
  506.500   11.797    0.189    0.366   88.903
  506.750   15.023    0.183    0.369   80.417
  507.000   16.492    0.180    0.367   72.536
  507.250   16.497    0.171    0.355   65.866
  507.500   16.815    0.160    0.302   62.848
  507.750   17.459    0.116    0.271   65.292
  508.000   18.466    0.145    0.278   64.694
  508.250   19.170    0.183    0.305   60.456
  508.500   19.901    0.206    0.350   56.219
  508.750   21.049    0.237    0.365   52.590
  509.000   22.264    0.258    0.375   49.569
  509.250   23.114    0.269    0.387   51.410
  509.500   25.374    0.266    0.390   53.245
  509.750   27.849    0.265    0.395   52.650
  510.000   32.323    0.268    0.396   51.447
  510.250   36.148    0.272    0.394   47.820
  510.500   37.527    0.287    0.393   44.794
  510.750   34.215    0.281    0.391   50.282
  511.000   24.959    0.275    0.386   55.151
  511.250   15.697    0.272    0.383   62.450
  511.500   12.566    0.253    0.380   74.001
  511.750   10.439    0.214    0.377   83.125
  512.000    9.001    0.184    0.379   80.710
  512.250    8.677    0.180    0.392   74.652
  512.500    8.365    0.211    0.381   70.415
  512.750    8.368    0.226    0.378   71.035
  513.000    8.370    0.239    0.384   74.696
  513.250    8.692    0.248    0.380   79.566
  513.500    8.857    0.243    0.366   88.087
  513.750    8.860    0.197    0.352   93.564
  514.000    8.864    0.169    0.341   98.436
  514.250    8.867    0.131    0.331  101.486
  514.500    8.706    0.120    0.352  102.715
  514.750    8.392    0.135    0.365  103.338
  515.000    8.089    0.160    0.390  104.567
  515.250    7.942    0.172    0.402  107.012
  515.500    7.656    0.148    0.405  109.459
  515.750    7.381    0.115    0.408  110.075
  516.000    7.247    0.144    0.424  112.524
  516.250    6.985    0.158    0.433  113.140
  516.500    6.860    0.147    0.421  114.375
  516.750    6.736    0.142    0.415  114.992
  517.000    6.739    0.147    0.410  115.003
  517.250    6.741    0.154    0.408  114.408
  517.500    6.744    0.162    0.405  113.213
  517.750    6.745    0.176    0.400  112.009
  518.000    6.874    0.183    0.398  112.631
  518.250    6.878    0.185    0.395  112.646
  518.500    6.880    0.166    0.399  113.268
  518.750    7.011    0.154    0.409  112.675
  519.000    7.013    0.140    0.411  111.470
  519.250    6.887    0.124    0.404  109.669
  519.500    6.890    0.124    0.398  108.463
  519.750    6.893    0.119    0.388  106.047
  520.000    6.896    0.135    0.398  100.597
  520.250    6.898    0.138    0.396   97.574
  520.500    7.162    0.128    0.390   99.416
  520.750    7.163    0.121    0.395  100.031
  521.000    7.035    0.133    0.401  102.479
  521.250    7.037    0.124    0.406  101.881
  521.500    6.909    0.136    0.405   97.647
  521.750    6.787    0.144    0.390   94.628
  522.000    6.789    0.162    0.385   92.816
  522.250    6.666    0.191    0.383   92.228
  522.500    6.668    0.191    0.391   91.024
  522.750    6.671    0.171    0.395   89.820
  523.000    6.673    0.162    0.388   86.193
  523.250    6.675    0.159    0.380   81.959
  523.500    6.678    0.183    0.375   79.540
  523.750    6.680    0.185    0.377   81.992
  524.000    6.808    0.169    0.387   83.822
  524.250    6.810    0.163    0.392   88.700
  524.500    6.814    0.178    0.396   90.528
  524.750    6.816    0.200    0.412   92.970
  525.000    6.818    0.191    0.403   93.591
  525.250    6.572    0.149    0.403   85.104
  525.500    6.103    0.143    0.392   79.656
  525.750    5.263    0.159    0.386   74.209
  526.000    4.710    0.170    0.374   71.185
  526.250    4.294    0.178    0.369   68.763
  526.500    3.702    0.175    0.379   61.491
  526.750    3.019    0.228    0.422   51.788
  527.000    2.652    0.268    0.430   42.693
  527.250    2.418    0.287    0.416   37.851
  527.500    2.331    0.318    0.405   33.010
  527.750    2.289    0.330    0.403   32.410
  528.000    2.247    0.331    0.394   33.032
  528.250    2.248    0.314    0.391   33.659
  528.500    2.249    0.308    0.397   33.671
  528.750    2.292    0.304    0.406   34.288
  529.000    2.380    0.305    0.395   36.129
  529.250    2.471    0.316    0.398   37.355
  529.500    2.614    0.333    0.394   41.627
  529.750    2.764    0.327    0.383   43.459
  530.000    2.869    0.315    0.375   45.898
  530.250    2.979    0.311    0.359   50.169
  530.500    3.211    0.281    0.345   52.607
  530.750    3.271    0.253    0.338   56.268
  531.000    3.273    0.232    0.338   59.320
  531.250    3.274    0.230    0.348   60.544
  531.500    3.215    0.232    0.360   55.093
  531.750    3.157    0.237    0.365   42.354
  532.000    2.988    0.243    0.356   36.903
  532.250    2.879    0.247    0.334   35.703
  532.500    2.827    0.263    0.327   37.537
  532.750    2.626    0.266    0.344   36.946
  533.000    2.485    0.266    0.360   35.743
  533.250    2.395    0.289    0.367   31.515
  533.500    2.266    0.305    0.375   30.311
  533.750    2.225    0.307    0.361   29.108
  534.000    2.145    0.309    0.361   27.300
  534.250    2.106    0.306    0.373   26.101
  534.500    2.068    0.307    0.385   25.510
  534.750    2.069    0.322    0.394   25.519
  535.000    2.070    0.325    0.398   26.756
  535.250    2.109    0.324    0.400   27.375
  535.500    2.190    0.313    0.387   27.991
  535.750    2.316    0.300    0.378   31.048
  536.000    2.450    0.313    0.378   33.485
  536.250    2.591    0.317    0.396   38.966
  536.500    3.007    0.300    0.408   48.089
  536.750    3.690    0.280    0.420   55.999
  537.000    5.982    0.257    0.449   60.264
  537.250    7.906    0.210    0.472   60.883
