~VERSION INFORMATION
 VERS.                 2.0:   CWLS LOG ASCII STANDARD -VERSION 2.0
 WRAP.                  NO:   ONE LINE PER DEPTH STEP
~WELL INFORMATION BLOCK
#MNEM.UNIT           DATA                    DESCRIPTION OF MNEMONIC
#---------    -------------------            -------------------------------
# Generated from Intellog Unique Number	CW_76_78/WELL/2815
WELL.         11-12-076-01W5                 : Well_name    - WELL
LOC .         00/11-12-076-01W5/0            : Location     - LOCATION
UWI .         00/11-12-076-01W5/0            : Uwi          - UNIQUE WELL ID
ENTR.         JJ                             : Entered      - ENTERED BY
SRVC.         SCHLUMBERGER                   : Scn          - SERVICE COMPANY
DATE.         4 MAR 68                       : Date         - LOG DATE
STRT.M        731.52                         : top_depth    - START DEPTH
STOP.M        829.02                         : bot_depth    - STOP DEPTH
STEP.M        0.25                           : increment    - STEP LENGTH
 NULL. -999.2500:NULL Value
~CURVE INFORMATION BLOCK
#MNEM UNIT       ERCB CURVE CODE    CURVE DESCRIPTION
#-----------   ------------------   ----------------------------------
DEPT.M        00 001 00 00         : DEPTH        - DEPTH
DELT.US/F     00 520 00 00         : DELT         - SONIC TRAVEL TIME
GR  .API      00 310 00 00         : GR           - GAMMA RAY
ILD .OHMM     00 120 00 00         : RESD         - DEEP RESISTIVITY (DIL)
~PARAMETER INFORMATION
#MNEM.UNIT           DATA             DESCRIPTION OF MNEMONIC
#---------         -----------     ------------------------------
GL  .M        911.718              : gl           - GROUND LEVEL ELEVATION
EREF.M        915.162              : kb           - ELEVATION OF DEPTH REFERENCE
DATM.M        915.162              : datum        - DATUM ELEVATION
TDD .M        830.58               : tdd          - TOTAL DEPTH DRILLER
RUN .         ONE                  : Run          - RUN NUMBER
ENG .         SWINARTON            : Engineer     - RECORDING ENGINEER
WIT .         SANDERSON            : Witness      - WITNESSED BY
BASE.         EDMONTON             : Branch       - HOME BASE OF LOGGING UNIT
MUD .         GEL-CHEM             : Mud_type     - MUD TYPE
MATR.         SANDSTONE            : Logunit      - NEUTRON MATRIX
TMAX.C        27.2222              : BHT          - MAXIMUM RECORDED TEMPERATURE
BHTD.M        829.97               : BHTDEP       - MAXIMUM RECORDED TEMPERATURE
RMT .C        17.7778              : MDTP         - TEMPERATURE OF MUD
MUDD.KG/M     1092                 : MWT          - MUD DENSITY
NEUT.         1                    : NEUTRON      - NEUTRON TYPE
RESI.         0                    : RESIST       - RESISTIVITY TYPE
RM  .OHMM     5.31                 : RM           - RESISTIVITY OF MUD
RMC .OHMM     3.05                 : RMC          - RESISTIVITY OF MUD CAKE
RMF .OHMM     5.02                 : RMF          - RESISTIVITY OF MUD FILTRATE
SUFT.C        5                    : SUFT         - SURFACE TEMPERATURE
~A  DEPTH     DELT       GR     RESD
  731.520  368.298   82.528    9.276
  731.770  356.641   83.171    9.742
  732.020  351.659   76.020   11.002
  732.270  182.100   70.819   12.198
  732.520  250.068   66.066   13.069
  732.770  337.185   71.355   12.804
  733.020  338.203   77.444   11.562
  733.270  340.233   83.682    9.851
  733.520  339.162   84.124    8.285
  733.770  348.000   82.819    7.573
  734.020  365.942   80.115    7.427
  734.270  361.094   74.563    7.893
  734.520  342.089   77.204    8.606
  734.770  346.208   80.544    9.046
  735.020  344.058   80.439    9.492
  735.270  342.110   78.283    9.939
  735.520  365.512   79.876   10.018
  735.770  360.193   82.667    9.246
  736.020  373.820   82.661    8.589
  736.270  307.483   78.109    7.857
  736.520  333.987   74.654    7.287
  736.770  363.997   79.394    6.858
  737.020  384.298   83.782    6.550
  737.270  379.990   87.573    7.261
  737.520  363.748   87.667    8.824
  737.770  321.347   80.667   10.998
  738.020  272.473   70.569   14.189
  738.270  294.797   64.967   17.319
  738.520  263.655   63.062   19.391
  738.770  331.488   62.806   18.453
  739.020  363.386   66.796   15.421
  739.270  386.991   71.036   13.976
  739.520  364.075   73.227   15.337
  739.770  357.879   74.070   18.040
  740.020  350.941   72.265   20.274
  740.270  259.659   69.811   25.479
  740.520  324.189   67.757   28.608
  740.770  352.648   64.900   31.193
  741.020  320.697   63.646   32.958
  741.270  318.614   63.141   31.756
  741.520  327.251   65.831   26.160
  741.770  305.279   68.623   21.969
  742.020  343.178   69.166   18.554
  742.270  362.601   71.157   16.414
  742.520  366.182   73.299   14.623
  742.770  355.806   71.644   13.258
  743.020  356.758   71.986   13.421
  743.270  362.360   75.377   14.435
  743.520  368.502   75.820   16.488
  743.770  360.487   73.365   18.681
  744.020  326.985   67.764   22.788
  744.270  295.843   63.312   31.672
  744.520  272.859   61.756   39.377
  744.770  226.817   64.348   42.629
  745.020  314.338   64.791   44.723
  745.270  293.377   59.988   46.693
  745.520  289.743   56.584   48.033
  745.770  256.444   53.431   47.096
  746.020  233.527   50.278   42.357
  746.270  244.120   52.369   39.183
  746.520  300.356   55.410   38.022
  746.770  340.682   58.501   36.840
  747.020  370.894   62.490   33.016
  747.270  132.227   64.832   27.767
  747.520  173.699   66.674   22.049
  747.770  191.236   64.370   17.168
  748.020  277.475   66.011   13.607
  748.270  315.778   71.000   11.388
  748.520  328.730   74.891    9.739
  748.770  317.208   80.329    8.984
  749.020  324.834   85.569    9.795
  749.270  315.334   82.964   11.667
  749.520  325.859   78.412   13.127
  749.770  238.015   73.459   15.221
  750.020  209.166   70.056   16.643
  750.270  219.691   65.853   16.865
  750.520  331.214   68.394   15.195
  750.770  360.280   74.083   12.568
  751.020  359.410   80.072   10.515
  751.270  340.741   78.716    9.433
  751.520  368.055   78.310    8.093
  751.770  330.035   78.752    7.340
  752.020  344.740   79.945    6.972
  752.270  361.401   81.587    6.847
  752.520  365.723   84.578    7.089
  752.770  355.549   83.773    7.389
  753.020  354.410   77.071    8.020
  753.270  356.103   78.114    9.176
  753.520  327.118   81.605    9.703
  753.770  264.625   77.652    9.558
  754.020  294.703   72.649    9.173
  754.270  366.986   79.437    8.842
  754.520  360.790   87.574    8.353
  754.770  332.616   83.170    7.883
  755.020  307.542   79.367    7.414
  755.270  365.936   81.559    7.315
  755.520  358.730   86.798    7.350
  755.770  361.028   87.090    7.496
  756.020  360.293   85.936    7.633
  756.270  350.929   81.982    7.937
  756.520  312.842   76.981    8.178
  756.770  297.005   79.272    8.540
  757.020  347.849   85.609    9.089
  757.270  343.743   88.600    9.552
  757.520  353.324   85.147   10.121
  757.770  315.439   84.042   10.690
  758.020  346.124   85.383   11.296
  758.270  352.941   85.326   11.967
  758.520  350.454   83.922   12.291
  758.770  367.046   80.968   11.534
  759.020  245.424   78.612   10.171
  759.270  258.039   76.209    8.808
  759.520  335.716   75.203    7.990
  759.770  351.905   80.692    7.175
  760.020  356.294   87.529    6.570
  760.270  366.684   93.317    6.419
  760.520  356.038   94.461    6.294
  760.770  356.113   91.157    6.455
  761.020  351.063   89.902    6.758
  761.270  348.643   90.894    7.288
  761.520  383.102   89.338    7.939
  761.770  343.399   89.083    8.605
  762.020  291.085   87.777    9.700
  762.270  324.804   81.427   10.959
  762.520  259.344   77.373   12.014
  762.770  332.638   79.215   12.196
  763.020  340.872   83.255   11.583
  763.270  341.014   80.102   10.713
  763.520  334.885   75.249   10.198
  763.770  351.141   73.743    9.402
  764.020  367.194   78.733    8.608
  764.270  334.569   81.324    7.936
  764.520  353.050   81.167    7.547
  764.770  332.763   82.410    7.672
  765.020  345.782   83.652    7.889
  765.270  353.813   83.845    8.418
  765.520  343.234   80.542    9.066
  765.770  340.949   74.241    9.734
  766.020  322.212   73.335   10.931
  766.270  361.459   75.626   11.581
  766.520  288.179   77.119   11.579
  766.770  275.848   73.165   11.478
  767.020  353.593   74.258   11.637
  767.270  370.590   80.096   12.041
  767.520  321.109   85.636   13.136
  767.770  330.016   73.539   15.374
  768.020  348.294   67.538   18.584
  768.270  314.995   64.384   34.545
  768.520  238.680   64.278   44.489
  768.770  234.440   62.922   49.266
  769.020  223.659   59.369   49.692
  769.270  243.353   56.765   48.755
  769.520  417.781   60.905   45.925
  769.770  466.399   68.141   42.913
  770.020  464.114   71.782   38.681
  770.270  456.165   70.577   35.323
  770.520  261.728   64.974   34.081
  770.770  223.237   62.571   35.259
  771.020  294.239   61.664   37.474
  771.270  327.418   64.256   42.373
  771.520  302.074   64.949   46.500
  771.770  289.002   60.496   49.611
  772.020  281.120   58.891   50.200
  772.270  247.956   59.784   50.277
  772.520  285.921   60.676   50.175
  772.770  234.351   57.273   50.130
  773.020  268.810   55.818   49.663
  773.270  288.572   55.511   47.463
  773.520  240.911   55.953   38.635
  773.770  237.076   56.546   33.854
  774.020  249.286   57.490   29.866
  774.270  246.934   59.932   26.715
  774.520  280.247   64.121   25.144
  774.770  309.313   62.316   24.739
  775.020  334.805   61.610   25.589
  775.270  338.589   63.252   27.315
  775.520  338.393   65.544   29.693
  775.770  312.982   63.289   30.851
  776.020  324.653   59.436   29.650
  776.270  325.873   59.130   27.511
  776.520  266.077   63.819   25.701
  776.770  292.649   61.865   24.519
  777.020  314.905   63.355   23.380
  777.270  347.072   66.497   22.867
  777.520  288.152   70.537   23.313
  777.770  265.101   67.684   24.246
  778.020  338.531   62.681   22.963
  778.270  372.519   61.675   21.335
  778.520  334.500   63.567   20.175
  778.770  308.079   63.660   19.075
  779.020  316.512   61.106   18.991
  779.270  329.464   66.444   20.538
  779.520  352.530   69.585   22.366
  779.770  357.459   72.977   24.680
  780.020  335.284   76.916   28.358
  780.270  260.857   73.263   35.718
  780.520  242.323   63.311   35.799
  780.770  236.667   60.910   33.196
  781.020  283.195   57.007   31.342
  781.270  340.039   61.697   29.752
  781.520  310.448   64.387   26.882
  781.770  252.270   65.280   21.737
  782.020  264.210   64.125   18.154
  782.270  231.181   62.370   15.186
  782.520  268.337   61.015   13.168
  782.770  271.446   63.706   11.298
  783.020  350.876   69.494   10.014
  783.270  359.041   75.532    9.585
  783.520  353.115   77.224    9.585
  783.770  325.209   73.720    9.804
  784.020  308.091   71.616   10.270
  784.270  331.156   72.560   10.351
  784.520  347.816   78.998   10.248
  784.770  344.250   75.094    9.780
  785.020  320.255   76.237    9.266
  785.270  293.765   79.327    8.553
  785.520  336.384   79.421    7.781
