~VERSION INFORMATION
 VERS.                 2.0:   CWLS LOG ASCII STANDARD -VERSION 2.0
 WRAP.                  NO:   ONE LINE PER DEPTH STEP
~WELL INFORMATION BLOCK
#MNEM.UNIT           DATA                    DESCRIPTION OF MNEMONIC
#---------    -------------------            -------------------------------
# Generated from Intellog Unique Number	CW_73_75/WELL/2740
WELL.         SUNDALE ET AL FRANCIS 10-16    : Well_name    - WELL
LOC .         00/10-16-073-21W4/0            : Location     - LOCATION
UWI .         00/10-16-073-21W4/0            : Uwi          - UNIQUE WELL ID
ENTR.         JAYE                           : Entered      - ENTERED BY
SRVC.         SCHLUMBERGER                   : Scn          - SERVICE COMPANY
DATE.         11 FEB 1976                    : Date         - LOG DATE
STRT.M        377.952                        : top_depth    - START DEPTH
STOP.M        579.202                        : bot_depth    - STOP DEPTH
STEP.M        0.25                           : increment    - STEP LENGTH
 NULL. -999.2500:NULL Value
~CURVE INFORMATION BLOCK
#MNEM UNIT       ERCB CURVE CODE    CURVE DESCRIPTION
#-----------   ------------------   ----------------------------------
DEPT.M        00 001 00 00         : DEPTH        - DEPTH
ILD .OHMM     00 120 00 00         : RESD         - DEEP RESISTIVITY (DIL)
NPHI.V/V      00 330 00 00         : PHIN         - NEUTRON POROSITY (SANDSTONE)
DPHI.V/V      00 890 00 00         : PHID         - DENSITY POROSITY (SANDSTONE)
GR  .API      00 310 00 00         : GR           - GAMMA RAY
CALI.MM       00 280 01 00         : CAL          - CALIPER
~PARAMETER INFORMATION
#MNEM.UNIT           DATA             DESCRIPTION OF MNEMONIC
#---------         -----------     ------------------------------
GL  .M        668.731              : gl           - GROUND LEVEL ELEVATION
EREF.M        672.998              : kb           - ELEVATION OF DEPTH REFERENCE
DATM.M        668.731              : datum        - DATUM ELEVATION
TDD .M        609.6                : tdd          - TOTAL DEPTH DRILLER
RUN .         ONE                  : Run          - RUN NUMBER
MUD .         GEL CHEM             : Mud_type     - MUD TYPE
MATR.         SANDSTONE            : Logunit      - NEUTRON MATRIX
TMAX.C        21.6667              : BHT          - MAXIMUM RECORDED TEMPERATURE
BHTD.M        578.206              : BHTDEP       - MAXIMUM RECORDED TEMPERATURE
RMT .C        16.6667              : MDTP         - TEMPERATURE OF MUD
MUDD.KG/M     1080                 : MWT          - MUD DENSITY
NEUT.         1                    : NEUTRON      - NEUTRON TYPE
RESI.         0                    : RESIST       - RESISTIVITY TYPE
RM  .OHMM     3.62                 : RM           - RESISTIVITY OF MUD
RMC .OHMM     0                    : RMC          - RESISTIVITY OF MUD CAKE
RMF .OHMM     2.9                  : RMF          - RESISTIVITY OF MUD FILTRATE
SUFT.C        0                    : SUFT         - SURFACE TEMPERATURE
~A  DEPTH     RESD     PHIN     PHID       GR      CAL
  377.952    4.675    0.670    0.412   82.410  159.909
  378.202    4.956    0.607    0.479   85.302  160.332
  378.452    5.235    0.532    0.370   89.179  160.438
  378.702    5.550    0.512    0.322   95.025  160.755
  378.952    5.873    0.499    0.327   97.425  161.072
  379.202    6.158    0.490    0.325   91.893  161.388
  379.452    6.386    0.483    0.252   87.284  161.497
  379.702    6.623    0.477    0.252   83.965  162.127
  379.952    6.894    0.470    0.247   84.275  162.443
  380.202    6.703    0.470    0.248   89.874  162.865
  380.452    6.459    0.483    0.292   90.738  163.183
  380.702    6.200    0.501    0.439   84.837  163.289
  380.952    6.008    0.535    0.432   82.071  163.398
  381.202    5.757    0.557    0.412   85.149  163.403
  381.452    5.536    0.580    0.533   88.657  163.304
  381.702    5.626    0.615    0.463   89.275  163.203
  381.952    5.782    0.580    0.410   89.093  162.168
  382.202    6.007    0.547    0.354   88.972  161.858
  382.452    6.427    0.508    0.316   87.807  161.239
  382.702    6.789    0.481    0.217   85.595  160.722
  382.952    6.565    0.484    0.262   81.416  160.517
  383.202    6.188    0.511    0.268   79.573  160.209
  383.452    5.736    0.540    0.270   84.988  160.006
  383.702    5.397    0.577    0.291   87.389  159.804
  383.952    5.257    0.590    0.324   84.194  159.806
  384.202    5.343    0.582    0.345   83.089  159.290
  384.452    5.602    0.570    0.331   84.753  158.566
  384.702    5.896    0.557    0.306   84.816  158.049
  384.952    6.194    0.569    0.321   85.065  157.638
  385.202    6.700    0.600    0.371   85.806  157.435
  385.452    7.288    0.580    0.330   86.177  157.437
  385.702    7.842    0.545    0.258   86.918  157.755
  385.952    8.688    0.499    0.279   87.658  158.280
  386.202    9.733    0.511    0.311   85.755  158.492
  386.452   13.323    0.516    0.277   78.377  159.018
  386.702   19.773    0.483    0.232   67.802  159.334
  386.952   26.041    0.459    0.247   59.687  159.130
  387.202   35.383    0.480    0.270   47.389  159.030
  387.452   57.147    0.481    0.283   35.769  158.618
  387.702   73.754    0.483    0.285   32.819  158.518
  387.952   70.933    0.476    0.290   33.991  158.212
  388.202   63.968    0.461    0.297   36.883  158.215
  388.452   58.544    0.454    0.304   37.378  158.219
  388.702   55.075    0.443    0.292   35.289  158.017
  388.952   51.719    0.434    0.253   37.322  158.021
  389.202   45.456    0.449    0.226   39.354  157.920
  389.452   39.153    0.457    0.209   41.325  158.132
  389.702   34.476    0.439    0.202   44.156  158.345
  389.952   26.938    0.435    0.181   49.325  158.351
  390.202   20.289    0.449    0.220   54.493  158.459
  390.452   18.534    0.452    0.239   59.108  158.462
  390.702   18.256    0.455    0.254   64.769  158.466
  390.952   19.002    0.469    0.267   73.135  158.263
  391.202   20.071    0.483    0.288   73.384  157.956
  391.452   20.701    0.495    0.270   68.651  157.855
  391.702   17.961    0.479    0.285   62.811  157.235
  391.952   15.357    0.472    0.280   64.536  156.718
  392.202   12.939    0.467    0.268   68.782  155.994
  392.452   10.842    0.464    0.256   73.459  155.790
  392.702    8.968    0.459    0.224   77.089  155.379
  392.952    7.955    0.460    0.225   82.381  155.278
  393.202    7.056    0.470    0.243   88.718  154.970
  393.452    6.111    0.476    0.227   93.641  154.975
  393.702    4.909    0.488    0.223   97.517  154.980
  393.952    4.031    0.490    0.223   96.475  155.296
  394.202    3.510    0.487    0.244   96.477  155.405
  394.452    3.266    0.552    0.238   97.402  155.305
  394.702    3.235    0.583    0.275   98.512  155.205
  394.952    3.361    0.610    0.258   99.991  154.897
  395.202    3.479    0.619    0.276  100.547  155.006
  395.452    3.654    0.609    0.296   98.520  155.219
  395.702    3.846    0.610    0.320   96.370  155.432
  395.952    4.145    0.637    0.344   96.680  155.643
  396.202    4.518    0.641    0.384   98.651  155.857
  396.452    5.024    0.625    0.428  101.728  156.381
  396.702    5.495    0.604    0.288  106.097  157.636
  396.952    6.056    0.585    0.229  108.683  158.370
  397.202    6.491    0.538    0.215  107.763  158.895
  397.452    6.382    0.546    0.310  101.615  159.106
  397.702    6.356    0.582    0.373   99.281  159.528
  397.952    6.591    0.605    0.391  100.329  159.115
  398.202    7.104    0.600    0.433   99.102  158.911
  398.452    8.167    0.606    0.409   93.323  158.917
  398.702    9.370    0.594    0.286   86.192  158.920
  398.952   10.594    0.539    0.252   78.323  158.924
  399.202   10.590    0.508    0.277   71.991  158.929
  399.452    9.763    0.492    0.259   78.267  159.037
  399.702    8.692    0.486    0.268   82.205  159.147
  399.952    7.796    0.484    0.288   83.130  159.152
  400.202    7.567    0.485    0.245   83.502  159.156
  400.452    7.426    0.510    0.289   82.889  159.057
  400.702    7.450    0.530    0.323   80.740  158.956
  400.952    7.544    0.475    0.255   81.357  158.857
  401.202    7.472    0.465    0.260   85.726  158.757
  401.452    6.889    0.488    0.287   90.710  158.657
  401.702    6.327    0.513    0.323   94.465  158.453
  401.952    5.953    0.518    0.246   96.989  158.041
  402.202    5.478    0.521    0.205   99.636  157.732
  402.452    5.426    0.534    0.222  101.791  157.424
  402.702    5.637    0.529    0.232  102.285  157.116
  402.952    5.868    0.530    0.248  100.750  157.017
  403.202    6.164    0.544    0.255   98.600  156.916
  403.452    6.404    0.529    0.267   97.619  156.817
  403.702    6.641    0.500    0.225  101.680  156.821
  403.952    7.015    0.483    0.220  107.956  157.036
  404.202    7.631    0.494    0.244  108.574  157.246
  404.452    8.362    0.533    0.257   99.597  158.084
  404.702    9.542    0.566    0.299   89.022  158.506
  404.952   10.968    0.547    0.327   79.492  158.822
  405.202   11.822    0.502    0.309   59.877  159.243
  405.452   10.899    0.483    0.316   61.847  159.664
  405.702    9.847    0.479    0.320   69.476  159.981
  405.952    9.095    0.492    0.307   78.150  159.986
  406.202   10.513    0.502    0.290   84.610  159.989
  406.452   12.816    0.490    0.255   91.131  159.682
  406.702   14.253    0.492    0.249   94.824  159.686
  406.952   15.618    0.518    0.272   91.567  159.378
  407.202   16.407    0.510    0.284   84.620  159.176
  407.452   16.766    0.506    0.301   92.802  158.972
  407.702   16.576    0.518    0.307   91.329  158.975
  407.952   16.327    0.509    0.307   87.150  158.876
  408.202   16.963    0.487    0.304   77.497  158.672
  408.452   18.692    0.459    0.285   79.344  158.364
  408.702   21.844    0.440    0.158   77.440  158.160
  408.952   25.811    0.417    0.108   70.924  157.853
  409.202   31.008    0.382    0.080   66.806  157.648
  409.452   39.073    0.313    0.032   62.996  157.236
  409.702   48.342    0.220   -0.005   59.739  157.137
  409.952   49.038    0.156   -0.011   56.913  157.140
  410.202   33.017    0.132   -0.009   55.378  157.145
  410.452   22.311    0.184    0.020   60.300  157.253
  410.702   14.347    0.214    0.037   66.022  157.153
  410.952   10.885    0.320    0.130   73.036  157.261
  411.202    8.938    0.395    0.220   77.159  157.265
  411.452    7.987    0.453    0.256   80.175  157.271
  411.702    7.363    0.454    0.250   82.330  156.963
  411.952    6.991    0.462    0.237   83.501  156.758
  412.202    6.773    0.476    0.250   84.549  156.763
  412.452    6.587    0.490    0.238   87.688  156.767
  412.702    6.417    0.497    0.251   86.338  156.981
  412.952    6.217    0.491    0.253   87.447  156.984
  413.202    6.079    0.481    0.239   91.140  157.093
  413.452    5.922    0.482    0.236   89.175  157.305
  413.702    5.738    0.490    0.261   86.102  157.519
  413.952    5.488    0.503    0.263   84.875  158.044
  414.202    5.386    0.504    0.259   87.215  158.986
