~VERSION INFORMATION
 VERS.                 2.0:   CWLS LOG ASCII STANDARD -VERSION 2.0
 WRAP.                  NO:   ONE LINE PER DEPTH STEP
~WELL INFORMATION BLOCK
#MNEM.UNIT           DATA                    DESCRIPTION OF MNEMONIC
#---------    -------------------            -------------------------------
# Generated from Intellog Unique Number	CS_67_68/WELL/2192
WELL.         10-07-067-04W4                 : Well_name    - WELL
LOC .         00/10-07-067-04W4/0            : Location     - LOCATION
UWI .         00/10-07-067-04W4/0            : Uwi          - UNIQUE WELL ID
ENTR.         SP                             : Entered      - ENTERED BY
SRVC.         SCHLUMBERGER                   : Scn          - SERVICE COMPANY
STRT.M        355                            : top_depth    - START DEPTH
STOP.M        570                            : bot_depth    - STOP DEPTH
STEP.M        0.25                           : increment    - STEP LENGTH
 NULL. -999.2500:NULL Value
~CURVE INFORMATION BLOCK
#MNEM UNIT       ERCB CURVE CODE    CURVE DESCRIPTION
#-----------   ------------------   ----------------------------------
DEPT.M        00 001 00 00         : DEPTH        - DEPTH
ILD .OHMM     00 120 00 00         : RESD         - DEEP RESISTIVITY (DIL)
DPHI.V/V      00 890 00 00         : PHID         - DENSITY POROSITY (LIMESTONE)
NPHI.V/V      00 330 00 00         : PHIN         - NEUTRON POROSITY (LIMESTONE)
GR  .API      00 310 00 00         : GR           - GAMMA RAY
CALI.MM       00 280 01 00         : CAL          - CALIPER
~PARAMETER INFORMATION
#MNEM.UNIT           DATA             DESCRIPTION OF MNEMONIC
#---------         -----------     ------------------------------
GL  .M        682.01               : gl           - GROUND LEVEL ELEVATION
EREF.M        686.28               : kb           - ELEVATION OF DEPTH REFERENCE
DATM.M        686.8                : datum        - DATUM ELEVATION
TDD .M        580                  : tdd          - TOTAL DEPTH DRILLER
RUN .         ONE                  : Run          - RUN NUMBER
ENG .         BILL                 : Engineer     - RECORDING ENGINEER
WIT .         JIM                  : Witness      - WITNESSED BY
MUD .         GEL                  : Mud_type     - MUD TYPE
MATR.         LIMESTONE            : Logunit      - NEUTRON MATRIX
TMAX.C        22                   : BHT          - MAXIMUM RECORDED TEMPERATURE
BHTD.M        578.2                : BHTDEP       - MAXIMUM RECORDED TEMPERATURE
MATR.         1                    : LOGUNIT      - NEUTRON MATRIX
RMT .C        25                   : MDTP         - TEMPERATURE OF MUD
NEUT.         1                    : NEUTRON      - NEUTRON TYPE
RESI.         0                    : RESIST       - RESISTIVITY TYPE
RMC .OHMM     0.25                 : RMC          - RESISTIVITY OF MUD CAKE
RMF .OHMM     0.25                 : RMF          - RESISTIVITY OF MUD FILTRATE
SUFT.C        15                   : SUFT         - SURFACE TEMPERATURE
~A  DEPTH     RESD     PHID     PHIN       GR      CAL
# ...
  464.500    6.293    0.340    0.421   58.372  251.802
  464.750    6.236    0.341    0.427   58.385  251.414
  465.000    6.146    0.343    0.421   58.645  250.931
  465.250    6.021    0.344    0.436   59.579  250.951
  465.500    5.649    0.342    0.446   60.140  251.488
  465.750    5.319    0.344    0.445   60.766  251.710
  466.000    5.038    0.341    0.446   60.167  251.628
  466.250    4.917    0.329    0.448   58.098  252.057
  466.500    4.818    0.321    0.459   57.987  251.978
  466.750    4.712    0.310    0.442   59.410  251.799
  467.000    4.591    0.299    0.430   60.832  251.612
  467.250    4.506    0.302    0.448   62.255  252.044
  467.500    4.349    0.322    0.462   64.414  252.167
  467.750    4.237    0.327    0.468   66.387  252.394
  468.000    4.128    0.329    0.489   67.197  253.028
  468.250    4.030    0.335    0.500   66.290  253.765
  468.500    3.949    0.338    0.504   65.630  254.299
  468.750    3.920    0.335    0.504   65.889  254.934
  469.000    3.907    0.334    0.483   66.515  255.465
  469.250    3.946    0.327    0.468   67.755  259.879
  469.500    4.084    0.312    0.446   68.931  262.658
  469.750    4.260    0.296    0.453   70.415  265.029
  470.000    4.401    0.283    0.463   71.776  267.303
  470.250    4.296    0.276    0.469   73.138  268.750
  470.500    3.800    0.290    0.503   73.947  270.815
  470.750    3.280    0.300    0.527   74.635  271.758
  471.000    2.799    0.309    0.544   75.690  272.289
  471.250    2.467    0.315    0.561   76.621  276.600
  471.500    2.254    0.325    0.566   76.942  279.788
  471.750    2.114    0.325    0.550   76.832  281.444
  472.000    2.227    0.330    0.529   75.374  276.870
  472.250    2.362    0.340    0.539   70.916  280.570
  472.500    2.468    0.333    0.548   69.518  286.719
  472.750    2.755    0.331    0.524   71.064  278.980
  473.000    3.362    0.355    0.499   73.466  265.727
  473.250    4.229    0.356    0.477   76.545  260.845
  473.500    5.847    0.318    0.351   76.066  258.517
  473.750    8.223    0.331    0.314   70.871  256.497
  474.000   10.660    0.355    0.288   63.776  253.558
  474.250   14.767    0.383    0.304   58.397  251.948
  474.500   21.045    0.410    0.391   53.632  252.173
  474.750   27.439    0.388    0.410   51.010  252.296
  475.000   29.220    0.371    0.425   49.245  252.320
  475.250   29.453    0.369    0.433   48.523  252.442
  475.500   29.244    0.369    0.440   51.601  252.771
  475.750   28.384    0.363    0.443   51.184  252.690
  476.000   26.933    0.364    0.445   47.584  252.406
  476.250   25.894    0.362    0.462   46.248  252.122
  476.500   24.991    0.358    0.471   47.915  251.021
  476.750   24.120    0.352    0.464   48.910  249.510
  477.000   23.631    0.348    0.455   49.354  248.817
  477.250   23.331    0.350    0.449   49.122  248.023
  477.500   23.343    0.351    0.451   48.459  247.433
  477.750   23.529    0.350    0.465   47.492  247.147
  478.000   23.542    0.347    0.464   49.036  246.355
  478.250   23.639    0.345    0.449   50.092  245.762
  478.500   23.692    0.343    0.441   51.146  245.377
  478.750   24.385    0.341    0.438   51.039  245.194
  479.000   25.335    0.341    0.467   50.806  245.420
  479.250   26.177    0.345    0.489   50.819  245.648
  479.500   26.535    0.349    0.494   51.812  246.180
  479.750   26.099    0.355    0.467   53.173  246.201
  480.000   25.141    0.349    0.452   53.738  245.509
  480.250   24.540    0.338    0.434   53.751  243.697
  480.500   24.181    0.343    0.418   52.661  242.591
  480.750   24.102    0.350    0.438   51.756  241.183
  481.000   24.433    0.356    0.450   53.240  239.881
  481.250   25.433    0.352    0.458   55.091  238.982
  481.500   26.727    0.352    0.469   56.820  238.190
  481.750   27.876    0.356    0.478   57.323  238.008
  482.000   29.019    0.340    0.405   54.949  238.231
  482.250   30.037    0.269    0.368   50.732  239.171
  482.500   29.598    0.221    0.363   45.965  241.235
  482.750   27.976    0.285    0.428   45.305  242.891
  483.000   26.494    0.350    0.464   46.606  245.058
  483.250   25.812    0.363    0.376   47.293  247.226
  483.500   25.339    0.174    0.262   43.937  248.267
  483.750   21.260    0.112    0.223   42.539  248.289
  484.000   18.248    0.085    0.228   45.984  248.006
  484.250   15.870    0.217    0.325   48.999  247.621
  484.500   13.647    0.273    0.375   52.202  247.948
  484.750   12.210    0.323    0.433   54.174  248.687
  485.000   12.123    0.317    0.461   56.027  249.731
  485.250   14.138    0.307    0.439   56.651  250.056
  485.500   16.392    0.326    0.447   56.543  249.465
  485.750   18.900    0.335    0.458   56.619  247.857
  486.000   21.141    0.337    0.449   56.324  246.957
  486.250   22.899    0.341    0.446   54.804  247.081
  486.500   23.613    0.350    0.460   53.101  248.228
  486.750   15.144    0.356    0.457   54.463  249.373
  487.000    8.396    0.323    0.448   60.605  250.520
  487.250    6.457    0.285    0.441   66.745  251.152
  487.500    4.985    0.269    0.438   72.704  251.585
  487.750    4.360    0.258    0.460   75.779  252.013
  488.000    4.272    0.251    0.474   78.551  251.626
  488.250    4.761    0.247    0.472   80.156  250.938
  488.500    5.669    0.249    0.480   73.368  249.934
  488.750    6.340    0.266    0.497   64.680  248.120
  489.000    7.563    0.286    0.498   59.485  247.937
  489.250    9.787    0.316    0.491   55.576  247.554
  489.500   12.713    0.331    0.485   53.996  247.572
  489.750   15.338    0.338    0.472   54.869  247.495
  490.000   16.931    0.332    0.460   54.451  247.417
  490.250   18.029    0.324    0.456   51.768  247.332
  490.500   19.019    0.329    0.465   55.461  247.762
  490.750   19.648    0.316    0.459   59.823  249.112
  491.000   10.061    0.294    0.442   67.680  250.769
  491.250    8.506    0.271    0.428   74.003  251.505
  491.500    7.844    0.254    0.422   76.651  251.629
  491.750    7.345    0.252    0.439   73.234  251.856
  492.000    6.634    0.282    0.452   69.141  252.696
  492.250    6.165    0.271    0.427   63.580  254.044
  492.500    6.040    0.257    0.409   61.447  256.824
  492.750    6.158    0.286    0.430   61.399  258.888
  493.000    6.000    0.309    0.447   62.270  256.152
  493.250    4.360    0.324    0.456   62.958  253.213
  493.500    3.272    0.320    0.468   65.054  251.091
  493.750    2.673    0.314    0.487   67.581  250.195
  494.000    2.424    0.309    0.505   68.450  249.704
  494.250    2.304    0.317    0.521   65.158  249.729
  494.500    2.215    0.321    0.530   64.003  249.751
  494.750    2.187    0.314    0.536   63.160  249.569
  495.000    2.167    0.310    0.523   62.498  249.589
  495.250    2.144    0.315    0.506   64.595  249.713
  495.500    2.128    0.317    0.490   66.080  250.146
  495.750    2.094    0.316    0.497   67.195  250.371
  496.000    2.047    0.313    0.516   67.885  250.289
  496.250    2.021    0.313    0.531   68.510  249.905
  496.500    2.077    0.315    0.529   68.708  249.721
  496.750    2.211    0.317    0.533   68.414  249.540
  497.000    2.418    0.317    0.537   67.935  249.561
  497.250    2.669    0.319    0.520   67.828  249.893
  497.500    3.025    0.319    0.495   68.022  250.322
  497.750    3.429    0.313    0.466   68.158  250.750
  498.000    3.851    0.309    0.446   67.437  251.692
  498.250    4.061    0.308    0.473   66.224  252.534
  498.500    4.260    0.311    0.489   65.073  252.963
  498.750    4.426    0.314    0.462   64.781  253.085
  499.000    4.556    0.317    0.442   65.346  253.210
  499.250    4.627    0.319    0.465   66.217  252.927
  499.500    4.646    0.322    0.495   66.597  252.337
  499.750    4.579    0.326    0.521   67.346  251.539
  500.000    4.461    0.318    0.498   69.197  250.234
  500.250    4.138    0.311    0.479   70.497  249.136
  500.500    3.709    0.306    0.467   70.021  248.651
  500.750    3.202    0.309    0.459   71.077  248.359
