~VERSION INFORMATION
 VERS.                 2.0:   CWLS LOG ASCII STANDARD -VERSION 2.0
 WRAP.                  NO:   ONE LINE PER DEPTH STEP
~WELL INFORMATION BLOCK
#MNEM.UNIT           DATA                    DESCRIPTION OF MNEMONIC
#---------    -------------------            -------------------------------
# Generated from Intellog Unique Number	CS_73_76/WELL/3249
WELL.         10-30-076-04W4                 : Well_name    - WELL
LOC .         00/10-30-076-04W4/0            : Location     - LOCATION
UWI .         00/10-30-076-04W4/0            : Uwi          - UNIQUE WELL ID
ENTR.         SP                             : Entered      - ENTERED BY
SRVC.         SCHLUMBERGER                   : Scn          - SERVICE COMPANY
STRT.M        150                            : top_depth    - START DEPTH
STOP.M        415                            : bot_depth    - STOP DEPTH
STEP.M        0.25                           : increment    - STEP LENGTH
 NULL. -999.2500:NULL Value
~CURVE INFORMATION BLOCK
#MNEM UNIT       ERCB CURVE CODE    CURVE DESCRIPTION
#-----------   ------------------   ----------------------------------
DEPT.M        00 001 00 00         : DEPTH        - DEPTH
NPHI.V/V      00 330 00 00         : PHIN         - NEUTRON POROSITY (LIMESTONE)
DPHI.V/V      00 890 00 00         : PHID         - DENSITY POROSITY (LIMESTONE)
GR  .API      00 310 00 00         : GR           - GAMMA RAY
ILD .OHMM     00 120 00 00         : RESD         - DEEP RESISTIVITY (DIL)
~PARAMETER INFORMATION
#MNEM.UNIT           DATA             DESCRIPTION OF MNEMONIC
#---------         -----------     ------------------------------
GL  .M        586                  : gl           - GROUND LEVEL ELEVATION
EREF.M        589.3                : kb           - ELEVATION OF DEPTH REFERENCE
DATM.M        586                  : datum        - DATUM ELEVATION
TDD .M        430                  : tdd          - TOTAL DEPTH DRILLER
RUN .         ONE                  : Run          - RUN NUMBER
ENG .         BILL                 : Engineer     - RECORDING ENGINEER
WIT .         JIM                  : Witness      - WITNESSED BY
MUD .         GEL                  : Mud_type     - MUD TYPE
MATR.         LIMESTONE            : Logunit      - NEUTRON MATRIX
TMAX.C        18.9                 : BHT          - MAXIMUM RECORDED TEMPERATURE
BHTD.M        430                  : BHTDEP       - MAXIMUM RECORDED TEMPERATURE
MATR.         1                    : LOGUNIT      - NEUTRON MATRIX
RMT .C        25                   : MDTP         - TEMPERATURE OF MUD
NEUT.         1                    : NEUTRON      - NEUTRON TYPE
RESI.         0                    : RESIST       - RESISTIVITY TYPE
RMC .OHMM     0.25                 : RMC          - RESISTIVITY OF MUD CAKE
RMF .OHMM     0.25                 : RMF          - RESISTIVITY OF MUD FILTRATE
SUFT.C        15                   : SUFT         - SURFACE TEMPERATURE
~A  DEPTH     PHIN     PHID       GR     RESD
# ...
  324.000    0.460    0.266   75.580    8.873
  324.250    0.460    0.252   75.586    8.394
  324.500    0.469    0.240   75.592    7.941
  324.750    0.464    0.229   75.599    7.512
  325.000    0.458    0.216   78.045    6.977
  325.250    0.463    0.188   79.878    6.979
  325.500    0.468    0.182   85.984    7.111
  325.750    0.479    0.178   89.038    7.113
  326.000    0.475    0.201   87.824    7.248
  326.250    0.464    0.199   84.173    7.250
  326.500    0.455    0.198   83.572    7.253
  326.750    0.458    0.199   83.578    7.254
  327.000    0.453    0.209   82.972    7.392
  327.250    0.447    0.213   82.976    7.394
  327.500    0.453    0.227   83.592    7.395
  327.750    0.464    0.210   84.819    7.536
  328.000    0.475    0.223   84.824    7.537
  328.250    0.468    0.226   85.440    7.402
  328.500    0.467    0.223   86.056    7.404
  328.750    0.466    0.208   85.452    7.270
  329.000    0.449    0.201   86.071    7.138
  329.250    0.434    0.221   86.075    7.008
  329.500    0.421    0.218   86.690    6.880
  329.750    0.438    0.204   87.915    6.630
  330.000    0.460    0.204   90.362    6.157
  330.250    0.470    0.224   91.586    5.409
  330.500    0.456    0.208   89.764    4.750
  330.750    0.451    0.210   87.940    3.465
  331.000    0.462    0.197   84.900    2.723
  331.250    0.466    0.216   84.294    2.528
  331.500    0.499    0.235   81.250    2.437
  331.750    0.550    0.245   79.427    2.437
  332.000    0.582    0.265   79.436    2.438
  332.250    0.543    0.273   79.440    2.439
  332.500    0.558    0.267   80.664    2.440
  332.750    0.548    0.264   82.502    2.440
  333.000    0.541    0.258   82.508    2.487
  333.250    0.545    0.262   80.074    2.487
  333.500    0.554    0.292   77.642    2.582
  333.750    0.562    0.274   78.256    2.730
  334.000    0.574    0.293   80.095    3.110
  334.250    0.561    0.291   80.707    3.414
  334.500    0.554    0.271   82.543    3.889
  334.750    0.550    0.259   81.329    4.430
  335.000    0.526    0.250   79.508    4.772
  335.250    0.477    0.239   80.122    5.141
  335.500    0.460    0.225   81.959    5.539
  335.750    0.450    0.201   79.525    5.858
  336.000    0.467    0.213   78.310    6.082
  336.250    0.497    0.240   79.537    6.197
  336.500    0.472    0.219   80.764    6.199
  336.750    0.446    0.220   81.378    6.086
  337.000    0.440    0.213   81.386    5.758
  337.250    0.427    0.198   82.000    5.447
  337.500    0.420    0.185   82.618    4.696
  337.750    0.439    0.180   83.231    4.281
  338.000    0.458    0.259   83.238    4.050
  338.250    0.462    0.285   82.026    4.051
  338.500    0.486    0.274   85.080    4.052
  338.750    0.509    0.246   89.963    4.053
  339.000    0.470    0.254   88.750    4.054
  339.250    0.455    0.254   83.269    4.056
  339.500    0.456    0.235   83.276    3.982
  339.750    0.458    0.213   83.891    3.909
  340.000    0.462    0.223   86.947    3.838
  340.250    0.475    0.215   89.391    3.699
  340.500    0.491    0.203   90.617    3.632
  340.750    0.504    0.219   90.015    3.771
  341.000    0.515    0.232   88.799    3.988
  341.250    0.525    0.225   90.634    4.377
  341.500    0.508    0.232   93.690    4.986
  341.750    0.501    0.232   94.305    5.786
  342.000    0.489    0.216   91.265    6.469
  342.250    0.477    0.202   90.050    7.369
  342.500    0.435    0.205   87.007    7.939
  342.750    0.437    0.218   83.354    8.714
  343.000    0.439    0.208   83.361    9.046
  343.250    0.370    0.180   82.758    9.390
  343.500    0.324    0.191   82.153    9.749
  343.750    0.307    0.169   76.670    9.751
  344.000    0.357    0.124   72.410    9.574
  344.250    0.374    0.169   71.196    9.228
  344.500    0.393    0.225   69.983    9.059
  344.750    0.403    0.244   68.769    8.732
  345.000    0.400    0.227   69.385    8.574
  345.250    0.393    0.220   70.001    8.418
  345.500    0.391    0.232   71.225    8.265
  345.750    0.400    0.234   72.452    7.966
  346.000    0.406    0.230   72.456    7.536
  346.250    0.420    0.249   70.635    6.032
  346.500    0.434    0.271   71.862    4.739
  346.750    0.433    0.247   71.865    5.299
  347.000    0.455    0.226   73.091    7.543
  347.250    0.456    0.231   74.927    9.785
  347.500    0.400    0.233   74.932   13.673
  347.750    0.342    0.273   68.231   21.356
  348.000    0.212    0.316   60.919   25.720
  348.250    0.195    0.318   50.559   19.114
  348.500    0.238    0.321   45.687   13.943
  348.750    0.277    0.321   41.425   10.362
  349.000    0.313    0.319   43.260    9.101
  349.250    0.340    0.319   44.487    9.104
  349.500    0.365    0.295   43.274    9.277
  349.750    0.371    0.277   41.450    9.279
  350.000    0.356    0.276   40.846    9.282
  350.250    0.373    0.274   42.071    7.068
  350.500    0.421    0.273   46.347    6.323
  350.750    0.433    0.255   52.450    5.982
  351.000    0.445    0.186   62.212    5.985
  351.250    0.447    0.142   78.072    6.332
  351.500    0.440    0.144   99.421    6.699
  351.750    0.433    0.141   99.426    7.087
  352.000    0.420    0.138   99.435    7.358
  352.250    0.400    0.150   98.829    7.640
  352.500    0.398    0.169   95.787    7.788
  352.750    0.409    0.153   93.354    7.791
  353.000    0.392    0.150   94.581    7.795
  353.250    0.384    0.165   95.805    7.798
  353.500    0.403    0.148   98.249    7.658
  353.750    0.407    0.143   95.817    7.519
  354.000    0.417    0.143   93.383    7.383
  354.250    0.420    0.149   95.829    7.251
  354.500    0.405    0.162   96.444    7.119
  354.750    0.410    0.175   94.011    7.123
  355.000    0.414    0.145   97.676    7.125
  355.250    0.420    0.159  100.732    7.128
  355.500    0.410    0.160  100.739    7.133
  355.750    0.408    0.142   98.919    7.135
  356.000    0.416    0.160   97.703    7.139
  356.250    0.426    0.154   95.878    7.140
  356.500    0.429    0.156   94.666    7.144
  356.750    0.419    0.147   96.501    7.148
  357.000    0.421    0.134  100.165    7.150
  357.250    0.428    0.143  102.000    7.021
  357.500    0.419    0.139   97.737    7.025
  357.750    0.417    0.161   98.963    7.027
  358.000    0.422    0.163  101.409    6.773
  358.250    0.432    0.129  101.415    6.409
  358.500    0.445    0.133  100.810    5.842
  358.750    0.459    0.140  100.819    5.324
  359.000    0.472    0.150  101.435    4.853
  359.250    0.483    0.150  101.440    4.591
  359.500    0.493    0.161  100.225    4.425
  359.750    0.502    0.188  100.841    4.951
  360.000    0.501    0.190  103.287    5.642
  360.250    0.488    0.183  104.512    7.190
  360.500    0.464    0.186  103.909    9.510
  360.750    0.403    0.182  100.255   14.066
  361.000    0.382    0.159   94.774   19.675
  361.250    0.375    0.160   88.683   25.545
  361.500    0.372    0.179   83.812   29.661
  361.750    0.375    0.220   70.401   30.233
  362.000    0.387    0.235   62.481   27.555
  362.250    0.364    0.242   58.218   20.089
  362.500    0.358    0.247   56.394   16.073
  362.750    0.370    0.247   57.011   14.650
  363.000    0.389    0.247   60.066   13.860
  363.250    0.385    0.189   66.170   15.506
  363.500    0.391    0.177   72.273   19.759
  363.750    0.403    0.191   77.767   28.687
  364.000    0.407    0.203   79.603   43.230
  364.250    0.396    0.224   75.951   57.182
  364.500    0.387    0.241   71.687   65.168
  364.750    0.379    0.270   63.767   72.910
  365.000    0.380    0.282   60.114   77.125
  365.250    0.390    0.273   55.852   80.088
  365.500    0.398    0.274   54.028   80.123
  365.750    0.390    0.280   57.083   80.153
  366.000    0.375    0.296   59.528   77.265
  366.250    0.375    0.293   55.877   73.092
  366.500    0.388    0.288   55.881   48.544
  366.750    0.377    0.288   61.377   31.648
  367.000    0.361    0.281   66.870   23.946
  367.250    0.374    0.261   71.146   19.520
