~VERSION INFORMATION
 VERS.                 2.0:   CWLS LOG ASCII STANDARD -VERSION 2.0
 WRAP.                  NO:   ONE LINE PER DEPTH STEP
~WELL INFORMATION BLOCK
#MNEM.UNIT           DATA                    DESCRIPTION OF MNEMONIC
#---------    -------------------            -------------------------------
# Generated from Intellog Unique Number	CW_70_72/WELL/1042
NULL.         -999.25                        : NULL_VALUE
WELL.         MIKAS AMOCO MEYER              : Well_name    - WELL              
LOC .         10-26-071-25W4                 : Location     - LOCATION          
UWI .         00/10-26-071-25W4/0            : Uwi          - UNIQUE WELL ID    
ENTR.         JAYE                           : Entered      - ENTERED BY        
SRVC.         SCHLUMBERGER                   : Scn          - SERVICE COMPANY   
DATE.         4 MAR 73                       : Date         - LOG DATE          
STRT.M        374.904                        : top_depth    - START DEPTH       
STOP.M        609.654                        : bot_depth    - STOP DEPTH        
STEP.M        0.25                           : increment    - STEP LENGTH       
~CURVE INFORMATION BLOCK
#MNEM UNIT       ERCB CURVE CODE    CURVE DESCRIPTION
#-----------   ------------------   ----------------------------------
DEPT.M        00 001 00 00         : DEPTH        - DEPTH                       
DPHI.V/V      00 890 00 00         : PHID         - DENSITY POROSITY (SANDSTONE)
NPHI.V/V      00 330 00 00         : PHIN         - NEUTRON POROSITY (SANDSTONE)
GR  .API      00 310 00 00         : GR           - GAMMA RAY                   
CALI.MM       00 280 01 00         : CAL          - CALIPER                     
ILD .OHMM     00 120 00 00         : RESD         - DEEP RESISTIVITY (DIL)      
~PARAMETER INFORMATION       
#MNEM.UNIT           DATA             DESCRIPTION OF MNEMONIC
#---------         -----------     ------------------------------
GL  .M        589.94               : gl           - GROUND LEVEL ELEVATION      
EREF.M        593.75               : kb           - ELEVATION OF DEPTH REFERENCE
DATM.M        589.94               : datum        - DATUM ELEVATION             
TDD .M        667.817              : tdd          - TOTAL DEPTH DRILLER         
RUN .         ONE                  : Run          - RUN NUMBER                  
BASE.         EDM                  : Branch       - HOME BASE OF LOGGING UNIT   
MUD .         GEL CHEM             : Mud_type     - MUD TYPE                    
MATR.         SANDSTONE            : Logunit      - NEUTRON MATRIX              
TMAX.C        28.3333              : BHT          - MAXIMUM RECORDED TEMPERATURE
BHTD.M        667.817              : BHTDEP       - MAXIMUM RECORDED TEMPERATURE
RMT .C        17.7778              : MDTP         - TEMPERATURE OF MUD          
MUDD.KG/M     0                    : MWT          - MUD DENSITY                 
NEUT.         1                    : NEUTRON      - NEUTRON TYPE                
RESI.         0                    : RESIST       - RESISTIVITY TYPE            
RM  .OHMM     3.6                  : RM           - RESISTIVITY OF MUD          
RMC .OHMM     0                    : RMC          - RESISTIVITY OF MUD CAKE     
RMF .OHMM     0                    : RMF          - RESISTIVITY OF MUD FILTRATE 
SUFT.C        0                    : SUFT         - SURFACE TEMPERATURE         
~A  DEPTH     PHID     PHIN       GR      CAL     RESD
# ...
  484.404    0.182    0.473   87.814  165.619    3.630
  484.654    0.175    0.498   82.202  165.849    3.327
  484.904    0.193    0.512   76.044  166.290    3.204
  485.154    0.206    0.488   74.670  166.415    3.137
  485.404    0.222    0.468   92.077  166.654    3.101
  485.654    0.219    0.444   92.320  166.683    3.127
  485.904    0.193    0.413  100.570  166.916    3.272
  486.154    0.184    0.394  108.154  167.255    3.618
  486.404    0.180    0.403  113.316  167.595    3.793
  486.654    0.187    0.435  120.356  167.729    3.741
  486.904    0.222    0.447  134.720  167.961    3.480
  487.154    0.213    0.452  143.879  168.094    3.370
  487.404    0.200    0.448  160.966  168.225    3.430
  487.654    0.202    0.436  170.123  168.249    3.569
  487.904    0.216    0.445  186.304  168.280    3.790
  488.154    0.188    0.384  193.465  168.207    4.160
  488.404    0.153    0.336  200.807  168.144    4.728
  488.654    0.077    0.283  214.687  168.062    5.495
  488.904    0.015    0.207  222.151  168.199    7.027
  489.154   -0.021    0.165  229.006  168.121    9.710
  489.404   -0.038    0.173  240.284  168.053   13.293
  489.654    0.021    0.243  251.257  168.078   13.859
  489.904    0.071    0.272  259.688  167.703   13.008
  490.154    0.123    0.309  271.873  167.418   10.616
  490.404    0.201    0.349  285.693  167.040    8.442
  490.654    0.229    0.407  301.085  166.766    6.400
  490.904    0.220    0.426  306.733  166.691    5.737
  491.154    0.210    0.452  309.354  166.829    5.152
  491.404    0.213    0.443  310.280  166.855    4.559
  491.654    0.225    0.439  310.237  166.778    4.027
  491.904    0.218    0.435  309.891  166.190    3.886
  492.154    0.195    0.419  309.606  162.535    3.919
  492.404    0.192    0.410  308.775  159.485    4.048
  492.654    0.189    0.416  307.039  155.416    4.236
  492.904    0.180    0.432  305.177  153.190    4.279
  493.154    0.170    0.442  302.533  152.808    4.152
  493.404    0.178    0.453  298.979  153.562    4.088
  493.654    0.236    0.462  293.609  154.917    3.733
  493.904    0.237    0.476  284.848  156.900    3.478
  494.154    0.244    0.500  276.875  158.159    3.450
  494.404    0.244    0.495  108.973  160.238    3.460
  494.654    0.241    0.483  101.666  161.699    3.470
  494.904    0.234    0.466   95.570  163.470    3.455
  495.154    0.222    0.456   89.112  164.221    3.459
  495.404    0.217    0.449   82.955  164.355    3.463
  495.654    0.223    0.453   77.463  163.560    3.511
  495.904    0.230    0.459   68.826  161.335    3.535
  496.154    0.201    0.465   63.090  158.596    3.545
  496.404    0.175    0.472   56.632  155.553    3.549
  496.654    0.161    0.480   57.194  152.815    3.593
  496.904    0.155    0.462   61.085  150.081    3.650
  497.154    0.175    0.450   67.763  148.467    3.661
  497.404    0.190    0.458   73.954  147.476    3.558
  497.654    0.202    0.479   78.269  147.089    3.427
  497.904    0.213    0.490   81.071  146.815    3.350
  498.154    0.203    0.488   83.026  147.767    3.311
  498.404    0.200    0.474   85.042  148.618    3.345
  498.654    0.195    0.483   87.723  149.156    3.423
  498.904    0.180    0.485   92.581  150.723    3.536
  499.154    0.183    0.466  115.663  152.701    3.679
  499.404    0.183    0.457  125.729  152.730    3.836
  499.654    0.175    0.468  137.611  152.155    3.962
  499.904    0.172    0.481  163.839  151.973    4.025
  500.154    0.170    0.480  169.186  152.108    4.082
  500.404    0.167    0.471  176.162  152.542    4.117
  500.654    0.167    0.501  195.671  153.494    4.160
  500.904    0.164    0.522  196.900  155.885    4.179
  501.154    0.159    0.491  195.404  157.755    4.231
  501.404    0.179    0.435  193.123  159.938    4.290
  501.654    0.177    0.400  189.870  161.504    4.359
  501.904    0.135    0.394  182.321  162.558    4.436
  502.154    0.122    0.413  176.165  163.411    4.449
  502.404    0.140    0.447  169.764  164.362    4.446
  502.654    0.164    0.462  163.304  165.006    4.267
  502.904    0.179    0.474  156.058  165.860    4.162
  503.154    0.189    0.485  149.115  166.397    4.068
  503.404    0.176    0.461  136.784  166.440    4.126
  503.654    0.156    0.451    7.320  166.562    4.254
  503.904    0.146    0.472    2.677  166.692    4.402
  504.154    0.137    0.413   -0.210  166.533    4.640
  504.404    0.124    0.430   -2.312  166.451    4.864
  504.654    0.150    0.448   -1.020  166.174    4.959
  504.904    0.164    0.459    5.472  165.903    4.795
  505.154    0.163    0.442   13.237  165.722    4.525
  505.404    0.160    0.471   20.821  165.549    4.287
  505.654    0.177    0.483   36.879  165.467    4.128
  505.904    0.177    0.475   43.858  165.294    4.028
  506.154    0.170    0.464   54.227  165.120    3.966
  506.404    0.157    0.440   66.413  165.045    3.971
  506.654    0.161    0.429   76.236  165.174    3.997
  506.904    0.158    0.428   89.328  165.410    4.129
  507.154    0.156    0.436  118.886  165.436    4.194
  507.404    0.170    0.446  135.793  164.958    4.161
  507.654    0.161    0.455  142.409  164.066    4.135
  507.904    0.152    0.461  148.176  162.757    4.064
  508.154    0.130    0.469  154.367  160.230    3.986
  508.404    0.153    0.477  156.809  158.412    3.947
  508.654    0.160    0.483  157.550  158.132    3.937
  508.904    0.164    0.490  157.931  159.089    3.978
  509.154    0.174    0.490  157.890  159.834    4.139
  509.404    0.180    0.495  158.814  160.585    4.395
  509.654    0.190    0.512  160.770  161.229    4.641
  509.904    0.164    0.464  161.270  161.255    4.892
  510.154    0.119    0.435  161.348  161.180    5.215
  510.404    0.096    0.409  161.730  160.185    5.516
  510.654    0.110    0.397  161.928  157.964    5.868
  510.904    0.111    0.387  160.735  155.838    6.117
  511.154    0.103    0.416  153.973  153.815    6.215
  511.404    0.134    0.444  138.618  152.002    5.643
  511.654    0.131    0.467  120.836  151.825    4.994
  511.904    0.144    0.481   50.816  152.373    4.387
  512.154    0.134    0.483   39.697  153.015    4.148
  512.404    0.128    0.478   29.000  153.866    4.093
  512.654    0.141    0.475   19.816  154.713    4.067
  512.904    0.145    0.454   15.781  155.458    4.071
  513.154    0.135    0.481   14.341  156.207    4.053
  513.404    0.142    0.480   13.580  157.366    4.110
  513.654    0.144    0.457   13.831  158.521    4.222
  513.904    0.139    0.431   17.301  159.883    4.442
  514.154    0.137    0.435  205.575  161.142    4.682
  514.404    0.137    0.459  204.988  162.197    4.944
  514.654    0.147    0.476  199.436  162.842    5.250
  514.904    0.167    0.380  141.039  162.979    5.838
  515.154    0.150    0.347  113.211  163.005    6.515
  515.404    0.106    0.313  103.000  163.031    7.324
  515.654    0.046    0.368   99.808  161.425    7.593
  515.904    0.082    0.414   97.222  159.093    6.971
  516.154    0.131    0.442   94.153  156.356    6.135
  516.404    0.158    0.459   91.207  154.438    5.340
  516.654    0.140    0.439   89.044  154.779    5.078
  516.904    0.117    0.411   86.157  155.624    5.083
  517.154    0.117    0.416   84.234  156.680    5.126
  517.404    0.110    0.436   82.618  158.041    5.180
  517.654    0.127    0.422   82.151  159.301    5.223
  517.904    0.107    0.407   82.835  160.566    5.191
  518.154    0.141    0.411   83.519  160.799    5.102
  518.404    0.141    0.438   86.901  169.693    4.949
  518.654    0.136    0.463   90.079  170.329    4.879
  518.904    0.147    0.468   91.430  170.760    4.837
  519.154    0.152    0.465   91.683  170.570    4.805
  519.404    0.147    0.450   91.511  168.425    4.714
  519.654    0.143    0.430   89.816  166.173    4.654
  519.904    0.140    0.415   88.304  163.921    4.579
  520.154    0.134    0.442   92.151  164.042    4.491
  520.404    0.131    0.452   95.329  165.398    4.412
  520.654    0.139    0.445   98.140  166.861    4.415
