~VERSION INFORMATION
 VERS.                 2.0:   CWLS LOG ASCII STANDARD -VERSION 2.0
 WRAP.                  NO:   ONE LINE PER DEPTH STEP
~WELL INFORMATION BLOCK
#MNEM.UNIT           DATA                    DESCRIPTION OF MNEMONIC
#---------    -------------------            -------------------------------
# Generated from Intellog Unique Number	CS_71_72/WELL/872
WELL.         PACIFIC PHILLIPS AEC WIAU      : Well_name    - WELL
LOC .         00/10-29-072-08W4/0            : Location     - LOCATION
UWI .         00/10-29-072-08W4/0            : Uwi          - UNIQUE WELL ID
ENTR.         SP                             : Entered      - ENTERED BY
SRVC.         SCHLUMBERGER                   : Scn          - SERVICE COMPANY
STRT.M        315                            : top_depth    - START DEPTH
STOP.M        540                            : bot_depth    - STOP DEPTH
STEP.M        0.25                           : increment    - STEP LENGTH
 NULL. -999.2500:NULL Value
~CURVE INFORMATION BLOCK
#MNEM UNIT       ERCB CURVE CODE    CURVE DESCRIPTION
#-----------   ------------------   ----------------------------------
DEPT.M        00 001 00 00         : DEPTH        - DEPTH
GR  .API      00 310 00 00         : GR           - GAMMA RAY
NPHI.V/V      00 330 00 00         : PHIN         - NEUTRON POROSITY (LIMESTONE)
DPHI.V/V      00 890 00 00         : PHID         - DENSITY POROSITY (LIMESTONE)
ILD .OHMM     00 120 00 00         : RESD         - DEEP RESISTIVITY (DIL)
~PARAMETER INFORMATION
#MNEM.UNIT           DATA             DESCRIPTION OF MNEMONIC
#---------         -----------     ------------------------------
GL  .M        686.5                : gl           - GROUND LEVEL ELEVATION
EREF.M        689.5                : kb           - ELEVATION OF DEPTH REFERENCE
DATM.M        686.5                : datum        - DATUM ELEVATION
TDD .M        555                  : tdd          - TOTAL DEPTH DRILLER
RUN .         ONE                  : Run          - RUN NUMBER
ENG .         BILL                 : Engineer     - RECORDING ENGINEER
WIT .         JIM                  : Witness      - WITNESSED BY
MUD .         GEL                  : Mud_type     - MUD TYPE
MATR.         LIMESTONE            : Logunit      - NEUTRON MATRIX
TMAX.C        32.2                 : BHT          - MAXIMUM RECORDED TEMPERATURE
BHTD.M        555                  : BHTDEP       - MAXIMUM RECORDED TEMPERATURE
MATR.         1                    : LOGUNIT      - NEUTRON MATRIX
RMT .C        25                   : MDTP         - TEMPERATURE OF MUD
NEUT.         1                    : NEUTRON      - NEUTRON TYPE
RESI.         0                    : RESIST       - RESISTIVITY TYPE
RMC .OHMM     0.25                 : RMC          - RESISTIVITY OF MUD CAKE
RMF .OHMM     0.25                 : RMF          - RESISTIVITY OF MUD FILTRATE
SUFT.C        15                   : SUFT         - SURFACE TEMPERATURE
~A  DEPTH       GR     PHIN     PHID     RESD
# ...
  445.500   81.523    0.459    0.258    4.768
  445.750   82.727    0.470    0.254    4.856
  446.000   79.696    0.479    0.251    5.134
  446.250   74.851    0.488    0.264    5.427
  446.500   72.426    0.499    0.285    5.631
  446.750   72.420    0.500    0.296    5.735
  447.000   73.621    0.491    0.295    5.841
  447.250   74.222    0.484    0.294    5.840
  447.500   74.217    0.484    0.306    5.948
  447.750   74.812    0.484    0.285    5.946
  448.000   75.413    0.490    0.288    5.944
  448.250   75.407    0.497    0.294    5.943
  448.500   76.005    0.475    0.276    5.941
  448.750   76.001    0.466    0.276    5.939
  449.000   76.598    0.470    0.275    6.048
  449.250   77.199    0.475    0.271    6.047
  449.500   77.797    0.462    0.269    6.046
  449.750   79.000    0.462    0.267    6.044
  450.000   80.808    0.471    0.266    5.822
  450.250   83.826    0.469    0.269    5.014
  450.500   88.053    0.457    0.270    3.935
  450.750   89.864    0.453    0.263    3.031
  451.000   91.672    0.462    0.256    2.660
  451.250   91.058    0.474    0.251    2.468
  451.500   91.056    0.466    0.248    2.422
  451.750   91.654    0.489    0.263    2.467
  452.000   90.438    0.550    0.279    2.707
  452.250   87.409    0.584    0.268    3.200
  452.500   83.167    0.602    0.275    3.446
  452.750   80.136    0.568    0.256    3.781
  453.000   77.711    0.543    0.252    4.072
  453.250   77.706    0.548    0.262    4.386
  453.500   79.514    0.535    0.263    4.637
  453.750   80.719    0.513    0.266    4.812
  454.000   80.713    0.495    0.274    5.279
  454.250   81.310    0.484    0.274    5.478
  454.500   82.513    0.481    0.249    5.685
  454.750   84.321    0.489    0.251    5.789
  455.000   84.922    0.488    0.243    5.896
  455.250   86.123    0.468    0.225    5.895
  455.500   86.118    0.459    0.206    6.004
  455.750   86.719    0.448    0.237    6.002
  456.000   87.920    0.470    0.236    5.890
  456.250   87.916    0.479    0.244    5.888
  456.500   88.516    0.471    0.232    5.778
  456.750   89.112    0.474    0.225    5.670
  457.000   89.108    0.473    0.231    5.562
  457.250   89.704    0.475    0.234    5.561
  457.500   90.304    0.476    0.240    5.560
  457.750   90.905    0.484    0.234    5.558
  458.000   89.082    0.490    0.230    5.455
  458.250   87.868    0.490    0.235    5.453
  458.500   87.860    0.478    0.238    5.451
  458.750   88.461    0.485    0.238    5.450
  459.000   89.058    0.479    0.244    5.448
  459.250   89.657    0.480    0.244    5.548
  459.500   89.653    0.478    0.236    5.547
  459.750   90.250    0.466    0.232    5.650
  460.000   90.243    0.466    0.234    5.862
  460.250   91.448    0.467    0.243    5.861
  460.500   92.650    0.453    0.248    5.970
  460.750   93.250    0.444    0.239    6.080
  461.000   93.850    0.437    0.232    6.077
  461.250   93.239    0.437    0.219    6.075
  461.500   91.419    0.440    0.205    6.074
  461.750   89.599    0.440    0.216    5.961
  462.000   87.173    0.441    0.208    5.635
  462.250   84.748    0.441    0.206    4.945
  462.500   82.927    0.442    0.223    4.181
  462.750   84.130    0.451    0.218    3.669
  463.000   84.124    0.456    0.236    2.880
  463.250   82.909    0.468    0.242    2.623
  463.500   81.087    0.482    0.255    2.622
  463.750   81.081    0.488    0.281    2.621
  464.000   84.703    0.523    0.296    2.620
  464.250   86.514    0.525    0.280    2.619
  464.500   90.136    0.533    0.276    2.619
  464.750   92.549    0.549    0.274    2.667
  465.000   94.357    0.557    0.254    2.717
  465.250   94.957    0.554    0.250    2.819
  465.500   95.554    0.550    0.251    3.093
  465.750   94.338    0.561    0.259    3.394
  466.000   90.704    0.565    0.263    3.655
  466.250   86.465    0.539    0.250    3.937
  466.500   84.040    0.518    0.242    4.161
  466.750   82.218    0.498    0.228    4.239
  467.000   82.214    0.491    0.234    4.238
  467.250   80.393    0.488    0.239    4.236
  467.500   79.177    0.483    0.233    4.314
  467.750   78.565    0.477    0.244    4.313
  468.000   77.347    0.473    0.256    4.476
  468.250   76.740    0.487    0.262    4.644
  468.500   73.710    0.471    0.248    4.909
  468.750   65.840    0.455    0.245    5.095
  469.000   62.810    0.458    0.263    5.485
  469.250   60.989    0.472    0.286    5.587
  469.500   59.771    0.484    0.308    5.691
  469.750   61.582    0.475    0.330    5.796
  470.000   63.392    0.472    0.340    5.904
  470.250   63.385    0.480    0.340    5.902
  470.500   60.960    0.489    0.340    5.901
  470.750   61.559    0.500    0.346    5.790
  471.000   61.553    0.495    0.340    5.577
  471.250   59.731    0.496    0.330    5.472
  471.500   59.122    0.496    0.335    5.370
  471.750   59.115    0.496    0.340    5.369
  472.000   60.316    0.482    0.335    5.170
  472.250   60.917    0.472    0.328    5.073
  472.500   62.119    0.469    0.326    4.978
  472.750   62.115    0.466    0.323    4.977
  473.000   62.712    0.469    0.335    4.884
  473.250   63.313    0.475    0.345    4.883
  473.500   63.306    0.475    0.337    4.792
  473.750   63.300    0.473    0.333    4.614
  474.000   61.481    0.484    0.326    4.444
  474.250   60.264    0.494    0.322    3.973
  474.500   60.864    0.491    0.336    3.899
  474.750   62.670    0.490    0.337    3.826
  475.000   64.480    0.493    0.342    3.754
  475.250   65.684    0.494    0.347    3.753
  475.500   67.492    0.488    0.332    3.752
  475.750   66.881    0.476    0.326    3.752
  476.000   65.060    0.472    0.324    3.821
  476.250   63.845    0.467    0.321    3.820
  476.500   62.626    0.473    0.324    3.818
  476.750   63.227    0.481    0.333    3.889
  477.000   62.618    0.493    0.326    3.888
  477.250   62.611    0.500    0.319    3.887
  477.500   63.813    0.499    0.320    3.959
  477.750   64.415    0.493    0.319    3.958
  478.000   64.404    0.486    0.316    3.956
  478.250   64.403    0.480    0.319    4.030
  478.500   65.001    0.475    0.316    4.029
  478.750   63.785    0.469    0.302    4.028
  479.000   62.567    0.482    0.292    4.102
  479.250   62.563    0.490    0.299    4.178
  479.500   62.556    0.488    0.292    4.255
  479.750   63.760    0.473    0.281    4.415
  480.000   65.565    0.470    0.281    4.497
  480.250   66.165    0.466    0.289    4.665
  480.500   66.766    0.467    0.276    4.752
  480.750   67.366    0.467    0.276    4.841
  481.000   68.567    0.462    0.277    4.930
  481.250   69.167    0.471    0.292    5.115
  481.500   69.766    0.483    0.280    5.114
  481.750   69.156    0.476    0.276    5.208
  482.000   67.939    0.467    0.270    5.304
  482.250   66.723    0.455    0.268    5.403
  482.500   64.298    0.452    0.266    5.503
  482.750   63.689    0.441    0.266    5.710
  483.000   64.287    0.436    0.266    5.925
  483.250   64.886    0.429    0.267    6.264
  483.500   63.066    0.417    0.269    6.872
  483.750   61.848    0.413    0.272    7.131
  484.000   61.844    0.426    0.273    7.680
  484.250   63.653    0.418    0.273    7.969
  484.500   66.670    0.410    0.273    8.269
  484.750   70.898    0.420    0.271    8.423
  485.000   77.544    0.430    0.258    8.740
  485.250   82.981    0.421    0.255    9.239
  485.500   86.605    0.416    0.248   10.138
  485.750   87.810    0.419    0.247   10.919
  486.000   86.594    0.433    0.265   11.760
  486.250   87.796    0.444    0.280   11.117
  486.500   92.023    0.441    0.287   10.511
  486.750   94.437    0.447    0.283    9.753
  487.000   95.037    0.437    0.288    9.221
  487.250   92.610    0.416    0.271    9.048
  487.500   89.580    0.408    0.254    9.045
  487.750   87.154    0.411    0.241    9.213
  488.000   84.728    0.403    0.250    9.560
  488.250   79.885    0.396    0.256   10.887
  488.500   64.759    0.397    0.261   13.609
  488.750   54.471    0.408    0.262   18.671
