~VERSION INFORMATION
 VERS.                 2.0:   CWLS LOG ASCII STANDARD -VERSION 2.0
 WRAP.                  NO:   ONE LINE PER DEPTH STEP
~WELL INFORMATION BLOCK
#MNEM.UNIT           DATA                    DESCRIPTION OF MNEMONIC
#---------    -------------------            -------------------------------
# Generated from Intellog Unique Number	CW_70_72/WELL/3024
NULL.         -999.25                        : NULL_VALUE
WELL.         CHIEFCO ET AL RANCH 10-32      : Well_name    - WELL              
LOC .         10-32-070-26W4                 : Location     - LOCATION          
UWI .         00/10-32-070-26W4/0            : Uwi          - UNIQUE WELL ID    
ENTR.         J                              : Entered      - ENTERED BY        
SRVC.         SCHLUMBERGER                   : Scn          - SERVICE COMPANY   
DATE.         31 DEC 75                      : Date         - LOG DATE          
STRT.M        435.864                        : top_depth    - START DEPTH       
STOP.M        701.114                        : bot_depth    - STOP DEPTH        
STEP.M        0.25                           : increment    - STEP LENGTH       
~CURVE INFORMATION BLOCK
#MNEM UNIT       ERCB CURVE CODE    CURVE DESCRIPTION
#-----------   ------------------   ----------------------------------
DEPT.M        00 001 00 00         : DEPTH        - DEPTH                       
ILD .OHMM     00 120 00 00         : RESD         - DEEP RESISTIVITY (DIL)      
CALI.MM       00 280 01 00         : CAL          - CALIPER                     
GR  .API      00 310 00 00         : GR           - GAMMA RAY                   
NPHI.V/V      00 330 00 00         : PHIN         - NEUTRON POROSITY (SANDSTONE)
DPHI.V/V      00 890 00 00         : PHID         - DENSITY POROSITY (SANDSTONE)
~PARAMETER INFORMATION       
#MNEM.UNIT           DATA             DESCRIPTION OF MNEMONIC
#---------         -----------     ------------------------------
GL  .M        612.953              : gl           - GROUND LEVEL ELEVATION      
EREF.M        615.696              : kb           - ELEVATION OF DEPTH REFERENCE
DATM.M        612.953              : datum        - DATUM ELEVATION             
TDD .M        715.975              : tdd          - TOTAL DEPTH DRILLER         
RUN .         ONE                  : Run          - RUN NUMBER                  
ENG .         WILTSHIRE            : Engineer     - RECORDING ENGINEER          
BASE.         EDM                  : Branch       - HOME BASE OF LOGGING UNIT   
MUD .         GEL CHEM             : Mud_type     - MUD TYPE                    
MATR.         SANDSTONE            : Logunit      - NEUTRON MATRIX              
TMAX.C        -17.7778             : BHT          - MAXIMUM RECORDED TEMPERATURE
BHTD.M        717.194              : BHTDEP       - MAXIMUM RECORDED TEMPERATURE
RMT .C        21.1111              : MDTP         - TEMPERATURE OF MUD          
MUDD.KG/M     1128                 : MWT          - MUD DENSITY                 
NEUT.         1                    : NEUTRON      - NEUTRON TYPE                
RESI.         0                    : RESIST       - RESISTIVITY TYPE            
RM  .OHMM     3.87                 : RM           - RESISTIVITY OF MUD          
RMC .OHMM     0.25                 : RMC          - RESISTIVITY OF MUD CAKE     
RMF .OHMM     4.74                 : RMF          - RESISTIVITY OF MUD FILTRATE 
SUFT.C        -17.7778             : SUFT         - SURFACE TEMPERATURE         
~A  DEPTH     RESD      CAL       GR     PHIN     PHID
# ...
  618.364    2.925  185.388  108.814    0.360    0.180
  618.614    2.403  192.746  110.929    0.483    0.196
  618.864    2.118  207.392  109.525    0.536    0.232
  619.114    1.881  226.966  107.217    0.489    0.227
  619.364    1.766  217.106  106.117    0.458    0.185
  619.614    1.710  219.454  105.321    0.467    0.178
  619.864    1.746  235.220  105.147    0.492    0.201
  620.114    1.837  244.540  106.044    0.511    0.221
  620.364    2.120  241.760  108.154    0.523    0.230
  620.614    2.459  232.618  108.146    0.462    0.209
  620.864    2.889  214.775  107.039    0.396    0.147
  621.114    3.310  195.892  104.979    0.367    0.101
  621.364    3.918  184.816  102.062    0.382    0.097
  621.614    4.205  181.313   99.941    0.390    0.093
  621.864    4.238  179.872  100.771    0.392    0.089
  622.114    4.134  179.657  104.518    0.405    0.098
  622.364    4.076  180.568  108.748    0.391    0.079
  622.614    4.011  181.053  115.338    0.362    0.095
  622.864    3.956  182.590  114.063    0.355    0.120
  623.114    3.929  184.101  113.992    0.360    0.097
  623.364    3.945  185.435  117.556    0.373    0.110
  623.614    4.077  184.897  119.544    0.396    0.114
  623.864    4.290  183.046  114.394    0.363    0.122
  624.114    4.731  181.401  109.121    0.346    0.131
  624.364    5.431  179.936  102.513    0.329    0.109
  624.614    6.065  178.399   93.911    0.300    0.063
  624.864    6.429  177.360   86.158    0.271    0.029
  625.114    5.699  177.131   88.079    0.264    0.004
  625.364    5.133  177.428   98.666    0.280    0.026
  625.614    4.421  181.834  108.650    0.359    0.093
  625.864    4.114  191.444  106.519    0.414    0.111
  626.114    3.864  189.172  100.410    0.409    0.134
  626.364    3.950  182.397   98.949    0.387    0.109
  626.614    4.302  179.622   97.236    0.362    0.113
  626.864    4.753  179.633   93.777    0.344    0.112
  627.114    5.186  179.915   89.658    0.328    0.095
  627.364    5.587  180.188   88.615    0.317    0.085
  627.614    5.479  180.811   93.935    0.309    0.062
  627.864    5.109  181.306  100.166    0.322    0.050
  628.114    4.823  182.312  101.852    0.336    0.091
  628.364    4.571  184.141  101.791    0.353    0.084
  628.614    4.434  184.961  102.756    0.361    0.122
  628.864    4.501  185.462  104.981    0.341    0.130
  629.114    4.736  185.445  108.477    0.350    0.121
  629.364    5.075  184.493  108.589    0.334    0.119
  629.614    5.577  182.143  105.076    0.327    0.113
  629.864    6.008  180.984  101.320    0.312    0.097
  630.114    6.198  179.545   99.003    0.297    0.061
  630.364    5.831  179.735  105.658    0.290    0.036
  630.614    5.273  182.277  110.974    0.301    0.054
  630.864    4.863  185.853  111.206    0.326    0.067
  631.114    4.608  189.834  110.845    0.346    0.102
  631.364    4.422  191.874  116.280    0.362    0.102
  631.614    4.259  188.583  112.943    0.382    0.083
  631.864    4.185  184.570  108.697    0.363    0.092
  632.114    4.141  182.920  105.662    0.354    0.115
  632.364    4.121  181.891  107.667    0.348    0.090
  632.614    4.167  182.277  110.491    0.372    0.094
  632.864    4.315  187.496  109.452    0.386    0.095
  633.114    4.759  190.856  101.279    0.386    0.088
  633.364    5.183  180.804   90.005    0.336    0.037
  633.614    5.083  177.502   78.494    0.303    0.012
  633.864    4.094  177.186   63.115    0.297    0.022
  634.114    3.400  171.946   52.271    0.299    0.106
  634.364    2.885  167.621   44.334    0.303    0.167
  634.614    2.498  165.486   37.182    0.315    0.201
  634.864    2.163  165.053   36.755    0.314    0.224
  635.114    2.042  164.511   39.724    0.305    0.218
  635.364    2.014  164.086   40.908    0.303    0.217
  635.614    1.996  164.176   37.880    0.308    0.221
  635.864    2.008  164.263   36.603    0.304    0.220
  636.114    2.024  164.054   35.799    0.300    0.217
  636.364    2.035  164.242   36.771    0.301    0.227
  636.614    2.044  164.429   38.268    0.305    0.217
  636.864    2.055  164.530   37.836    0.316    0.211
  637.114    2.090  164.715   36.022    0.313    0.209
  637.364    2.098  164.393   35.527    0.298    0.193
  637.614    2.122  163.889   35.596    0.285    0.166
  637.864    2.154  163.650   35.876    0.297    0.192
  638.114    2.198  163.535   36.599    0.304    0.197
  638.364    2.219  163.629   37.130    0.302    0.215
  638.614    2.269  163.413   37.850    0.299    0.208
  638.864    2.319  163.605   39.407    0.295    0.210
  639.114    2.358  163.911   41.643    0.290    0.212
  639.364    2.437  164.826   42.235    0.289    0.211
  639.614    2.510  165.315   41.510    0.291    0.202
  639.864    2.556  165.605   42.646    0.291    0.194
  640.114    2.671  166.098   46.214    0.286    0.188
  640.364    2.755  166.384   47.415    0.279    0.172
  640.614    2.889  166.574   47.707    0.283    0.182
  640.864    3.107  166.769   48.128    0.283    0.179
  641.114    3.311  166.177   49.626    0.280    0.167
  641.364    3.612  165.936   51.558    0.274    0.162
  641.614    3.977  166.011   53.061    0.266    0.167
  641.864    4.615  166.224   54.754    0.261    0.157
  642.114    4.873  165.883   56.500    0.262    0.143
  642.364    4.873  166.173   60.242    0.263    0.140
  642.614    5.886  167.289   61.567    0.261    0.134
  642.864    6.017  168.233   61.929    0.259    0.124
  643.114    5.954  169.144   64.521    0.257    0.110
  643.364    5.936  170.258   68.867    0.253    0.101
  643.614    5.960  170.939   72.310    0.245    0.109
  643.864    6.027  172.175   75.028    0.253    0.127
  644.114    6.162  173.170   77.756    0.261    0.133
  644.364    6.322  174.609   79.380    0.265    0.123
  644.614    6.498  175.302   80.999    0.264    0.111
  644.864    6.753  176.525   84.379    0.259    0.098
  645.114    6.915  177.010   92.431    0.261    0.083
  645.364    7.147  177.507   95.445    0.258    0.065
  645.614    7.228  177.693   95.976    0.259    0.049
  645.864    7.244  177.704   91.372    0.287    0.093
  646.114    7.248  177.672   86.341    0.286    0.122
  646.364    7.237  177.768   82.638    0.276    0.118
  646.614    7.201  177.859   81.725    0.270    0.120
  646.864    7.114  177.947   83.961    0.268    0.116
  647.114    7.040  177.923   88.608    0.268    0.116
  647.364    6.917  177.720   86.543    0.269    0.123
  647.614    6.857  177.503   84.958    0.276    0.129
  647.864    6.798  177.180   86.897    0.285    0.137
  648.114    6.691  176.845   89.367    0.284    0.137
  648.364    6.597  176.625   91.605    0.277    0.128
  648.614    6.401  176.098   92.624    0.271    0.130
  648.864    6.243  175.381   94.429    0.269    0.126
  649.114    6.243  174.698   98.652    0.271    0.119
  649.364    5.772  174.723  104.093    0.276    0.107
  649.614    5.680  175.351  109.896    0.284    0.099
  649.864    5.652  176.719  117.274    0.305    0.097
  650.114    5.706  177.761  115.278    0.348    0.089
  650.364    5.749  182.775  107.030    0.403    0.067
  650.614    5.749  179.582   96.553    0.290    0.153
  650.864    5.806  173.327   89.763    0.270    0.118
  651.114    5.990  172.597   84.792    0.265    0.119
  651.364    6.618  172.879   81.880    0.268    0.119
  651.614    7.818  173.097   82.171    0.270    0.110
  651.864    8.924  173.077   80.164    0.271    0.092
  652.114   10.131  172.650   69.263    0.266    0.066
  652.364   10.935  172.241   61.446    0.216    0.037
  652.614    9.181  172.302   67.435    0.187    0.026
  652.864    7.434  171.786   80.436    0.168    0.018
  653.114    6.782  171.777   88.358    0.217    0.025
  653.364    6.533  171.869   95.251    0.250    0.081
  653.614    7.038  172.467   92.098    0.297    0.129
  653.864    7.819  172.872   85.255    0.331    0.109
  654.114    8.288  172.388   79.558    0.290    0.099
  654.364    8.040  171.905   78.334    0.238    0.072
  654.614    6.787  169.751   84.679    0.203    0.044
