~VERSION INFORMATION
 VERS.                 2.0:   CWLS LOG ASCII STANDARD -VERSION 2.0
 WRAP.                  NO:   ONE LINE PER DEPTH STEP
~WELL INFORMATION BLOCK
#MNEM.UNIT           DATA                    DESCRIPTION OF MNEMONIC
#---------    -------------------            -------------------------------
# Generated from Intellog Unique Number	CS_73_76/WELL/845
WELL.         BOW VALLEY INDUSTRIES LTD.     : Well_name    - WELL
LOC .         00/11-19-073-16W4/0            : Location     - LOCATION
UWI .         00/11-19-073-16W4/0            : Uwi          - UNIQUE WELL ID
ENTR.         SP                             : Entered      - ENTERED BY
SRVC.         SCHLUMBERGER                   : Scn          - SERVICE COMPANY
STRT.M        237.744                        : top_depth    - START DEPTH
STOP.M        445.994                        : bot_depth    - STOP DEPTH
STEP.M        0.25                           : increment    - STEP LENGTH
 NULL. -999.2500:NULL Value
~CURVE INFORMATION BLOCK
#MNEM UNIT       ERCB CURVE CODE    CURVE DESCRIPTION
#-----------   ------------------   ----------------------------------
DEPT.M        00 001 00 00         : DEPTH        - DEPTH
GR  .API      00 310 00 00         : GR           - GAMMA RAY
DPHI.V/V      00 890 00 00         : PHID         - DENSITY POROSITY (SANDSTONE)
NPHI.V/V      00 330 00 00         : PHIN         - NEUTRON POROSITY (SANDSTONE)
ILD .OHMM     00 120 00 00         : RESD         - DEEP RESISTIVITY (DIL)
~PARAMETER INFORMATION
#MNEM.UNIT           DATA             DESCRIPTION OF MNEMONIC
#---------         -----------     ------------------------------
GL  .M        574.639              : gl           - GROUND LEVEL ELEVATION
EREF.M        577.596              : kb           - ELEVATION OF DEPTH REFERENCE
DATM.M        574.639              : datum        - DATUM ELEVATION
TDD .M        445.922              : tdd          - TOTAL DEPTH DRILLER
RUN .         ONE                  : Run          - RUN NUMBER
ENG .         BILL                 : Engineer     - RECORDING ENGINEER
WIT .         JIM                  : Witness      - WITNESSED BY
MUD .         GEL                  : Mud_type     - MUD TYPE
MATR.         SANDSTONE            : Logunit      - NEUTRON MATRIX
TMAX.C        23                   : BHT          - MAXIMUM RECORDED TEMPERATURE
BHTD.M        538                  : BHTDEP       - MAXIMUM RECORDED TEMPERATURE
MATR.         1                    : LOGUNIT      - NEUTRON MATRIX
RMT .C        25                   : MDTP         - TEMPERATURE OF MUD
NEUT.         1                    : NEUTRON      - NEUTRON TYPE
RESI.         0                    : RESIST       - RESISTIVITY TYPE
RMC .OHMM     0.25                 : RMC          - RESISTIVITY OF MUD CAKE
RMF .OHMM     0.25                 : RMF          - RESISTIVITY OF MUD FILTRATE
SUFT.C        15                   : SUFT         - SURFACE TEMPERATURE
~A  DEPTH       GR     PHID     PHIN     RESD
# ...
  324.744   78.635    0.331    0.528    4.915
  324.994   74.508    0.362    0.545    4.807
  325.244   71.218    0.365    0.490    4.930
  325.494   67.138    0.341    0.433    5.404
  325.744   65.160    0.317    0.417    5.948
  325.994   64.908    0.321    0.405    7.176
  326.244   65.770    0.328    0.418    7.897
  326.494   67.016    0.335    0.434    8.396
  326.744   67.450    0.328    0.442    8.756
  326.994   67.586    0.328    0.441    8.943
  327.244   66.010    0.314    0.440    8.965
  327.494   66.297    0.296    0.450    9.100
  327.744   66.695    0.291    0.445    9.099
  327.994   67.043    0.288    0.450    9.098
  328.244   68.288    0.293    0.453    9.114
  328.494   65.263    0.310    0.449    8.916
  328.744   63.528    0.325    0.442    8.934
  328.994   65.609    0.330    0.439    8.941
  329.244   67.406    0.326    0.446    8.997
  329.494   69.053    0.318    0.452    9.106
  329.744   70.557    0.309    0.463    9.091
  329.994   71.081    0.303    0.470    9.301
  330.244   71.015    0.303    0.475    9.274
  330.494   70.420    0.295    0.474    9.454
  330.744   69.788    0.295    0.462    9.656
  330.994   69.319    0.305    0.452    9.623
  331.244   69.291    0.315    0.448    9.837
  331.494   69.291    0.316    0.451    9.820
  331.744   69.787    0.313    0.475    9.841
  331.994   70.665    0.312    0.487    9.655
  332.244   69.953    0.316    0.469    9.281
  332.494   68.388    0.322    0.452    9.174
  332.744   67.519    0.304    0.436    9.129
  332.994   65.302    0.273    0.350    9.123
  333.244   61.943    0.195    0.274    9.601
  333.494   58.674    0.043    0.218   10.515
  333.744   54.719    0.004    0.171   12.165
  333.994   52.731    0.048    0.174   14.336
  334.244   56.145    0.084    0.208   16.833
  334.494   59.241    0.151    0.252   18.185
  334.744   61.494    0.235    0.365   17.478
  334.994   63.848    0.313    0.429   15.202
  335.244   65.431    0.315    0.444   13.018
  335.494   66.290    0.316    0.449   11.323
  335.744   65.607    0.304    0.455   10.590
  335.994   64.033    0.312    0.463    9.887
  336.244   63.220    0.330    0.470    9.659
  336.494   63.316    0.331    0.460    9.495
  336.744   63.560    0.328    0.452    9.511
  336.994   66.261    0.322    0.447    9.297
  337.244   68.706    0.326    0.449    9.329
  337.494   70.041    0.329    0.453    9.129
  337.744   67.385    0.329    0.447    9.146
  337.994   64.254    0.332    0.442    9.149
  338.244   64.346    0.319    0.440    9.164
  338.494   66.104    0.323    0.449    8.975
  338.744   68.127    0.340    0.458    8.986
  338.994   70.135    0.335    0.476    8.984
  339.244   72.181    0.334    0.486    8.985
  339.494   71.473    0.328    0.484    8.986
  339.744   70.410    0.324    0.487    8.988
  339.994   70.479    0.324    0.480    8.989
  340.244   70.530    0.331    0.482    8.990
  340.494   70.638    0.338    0.472    8.991
  340.744   71.171    0.338    0.466    8.993
  340.994   72.131    0.341    0.451    9.009
  341.244   73.148    0.334    0.443    8.819
  341.494   73.719    0.338    0.459    8.832
  341.744   73.517    0.338    0.472    8.832
  341.994   73.176    0.329    0.472    8.832
  342.244   73.602    0.334    0.459    8.834
  342.494   74.865    0.340    0.451    8.836
  342.744   75.689    0.327    0.442    8.835
  342.994   77.826    0.316    0.454    8.738
  343.244   78.269    0.302    0.456    8.680
  343.494   78.992    0.293    0.454    8.676
  343.744   75.734    0.285    0.465    8.679
  343.994   77.958    0.290    0.475    8.684
  344.244   79.259    0.273    0.478    8.544
  344.494   74.320    0.288    0.484    8.474
  344.744   71.596    0.311    0.492    8.208
  344.994   70.472    0.312    0.489    8.100
  345.244   71.665    0.312    0.465    8.066
  345.494   72.441    0.306    0.448    8.062
  345.744   72.575    0.291    0.429    8.052
  345.994   70.877    0.248    0.403    8.272
  346.244   69.608    0.096    0.376    8.368
  346.494   65.731    0.062    0.276    8.647
  346.744   61.910    0.045    0.240    9.843
  346.994   61.493    0.058    0.230   11.268
  347.244   65.786    0.091    0.269   13.375
  347.494   67.832    0.075    0.293   16.642
  347.744   65.883    0.097    0.289   19.965
  347.994   63.741    0.178    0.289   23.270
  348.244   63.112    0.252    0.303   24.678
  348.494   64.773    0.278    0.334   24.705
  348.744   69.061    0.306    0.373   23.962
  348.994   69.852    0.311    0.421   22.523
  349.244   70.588    0.312    0.443   20.336
  349.494   69.605    0.327    0.461   17.877
  349.744   69.316    0.318    0.472   15.122
  349.994   69.971    0.325    0.479   12.392
  350.244   71.286    0.331    0.483   11.177
  350.494   71.303    0.338    0.456   10.012
  350.744   71.514    0.346    0.430    9.468
  350.994   73.305    0.332    0.415    9.196
  351.244   75.252    0.313    0.425    8.943
  351.494   78.037    0.307    0.435    8.534
  351.744   79.983    0.313    0.444    8.396
  351.994   81.783    0.303    0.457    8.397
  352.244   80.062    0.305    0.465    8.359
  352.494   78.325    0.301    0.470    8.243
  352.744   75.658    0.296    0.475    8.245
  352.994   74.572    0.295    0.469    8.247
  353.244   73.513    0.302    0.465    8.248
  353.494   74.356    0.292    0.467    8.245
  353.744   76.815    0.287    0.477    8.235
  353.994   78.876    0.292    0.489    8.092
  354.244   79.108    0.308    0.501    8.100
  354.494   78.481    0.319    0.514    8.103
  354.744   78.216    0.301    0.514    7.995
  354.994   81.113    0.297    0.503    7.969
  355.244   82.868    0.304    0.496    7.810
  355.494   84.164    0.282    0.488    7.742
  355.744   86.961    0.261    0.484    7.289
  355.994   89.379    0.243    0.485    6.650
  356.244   93.492    0.222    0.502    5.893
  356.494   96.161    0.223    0.529    5.220
  356.744   98.655    0.213    0.509    4.533
  356.994  100.393    0.207    0.503    4.201
  357.244  102.080    0.222    0.509    3.992
  357.494  102.612    0.242    0.513    3.924
  357.744  102.309    0.254    0.517    3.965
  357.994  100.236    0.238    0.498    4.315
  358.244   99.703    0.240    0.493    4.823
  358.494   98.812    0.240    0.500    5.277
  358.744   96.732    0.245    0.490    5.794
  358.994   97.434    0.247    0.480    5.962
  359.244   97.395    0.225    0.474    6.272
  359.494   97.463    0.185    0.479    6.354
  359.744   96.435    0.172    0.476    6.506
  359.994   96.003    0.157    0.471    6.499
  360.244   91.782    0.175    0.452    6.499
  360.494   88.933    0.182    0.433    6.500
  360.744   89.818    0.205    0.440    6.501
  360.994   93.247    0.225    0.450    6.502
  361.244   97.290    0.228    0.458    6.500
  361.494  100.719    0.236    0.462    6.505
  361.744  100.379    0.233    0.459    6.375
  361.994  100.400    0.224    0.452    6.385
  362.244   99.778    0.223    0.447    6.384
  362.494   96.029    0.243    0.462    6.322
  362.744   93.891    0.232    0.480    6.274
  362.994   91.267    0.221    0.484    6.261
  363.244   90.351    0.218    0.477    6.402
  363.494   89.394    0.234    0.472    6.391
  363.744   86.578    0.251    0.477    6.391
  363.994   81.667    0.267    0.467    6.395
  364.244   76.732    0.275    0.459    6.395
  364.494   71.202    0.279    0.453    6.526
  364.744   66.729    0.283    0.452    6.551
  364.994   63.692    0.295    0.472    6.636
  365.244   62.366    0.308    0.465    6.838
  365.494   62.583    0.299    0.465    7.027
  365.744   62.057    0.295    0.474    7.131
  365.994   60.087    0.303    0.466    7.300
  366.244   58.201    0.324    0.447    7.291
  366.494   58.746    0.331    0.444    7.289
  366.744   60.807    0.328    0.444    7.249
  366.994   61.429    0.337    0.435    7.025
  367.244   62.500    0.329    0.429    6.930
  367.494   63.461    0.325    0.435    6.862
  367.744   65.161    0.318    0.434    6.773
  367.994   65.240    0.319    0.440    6.691
