~VERSION INFORMATION
 VERS.                 2.0:   CWLS LOG ASCII STANDARD -VERSION 2.0
 WRAP.                  NO:   ONE LINE PER DEPTH STEP
~WELL INFORMATION BLOCK
#MNEM.UNIT           DATA                    DESCRIPTION OF MNEMONIC
#---------    -------------------            -------------------------------
# Generated from Intellog Unique Number	CW_73_75/WELL/993
WELL.         HB MARTEN HILLS 10-27          : Well_name    - WELL
LOC .         00/10-27-074-01W5/0            : Location     - LOCATION
UWI .         00/10-27-074-01W5/0            : Uwi          - UNIQUE WELL ID
ENTR.         JAYE                           : Entered      - ENTERED BY
SRVC.         SCHLUMBERGER                   : Scn          - SERVICE COMPANY
DATE.         3 MAR 75                       : Date         - LOG DATE
STRT.M        466.344                        : top_depth    - START DEPTH
STOP.M        673.594                        : bot_depth    - STOP DEPTH
STEP.M        0.25                           : increment    - STEP LENGTH
 NULL. -999.2500:NULL Value
~CURVE INFORMATION BLOCK
#MNEM UNIT       ERCB CURVE CODE    CURVE DESCRIPTION
#-----------   ------------------   ----------------------------------
DEPT.M        00 001 00 00         : DEPTH        - DEPTH
ILD .OHMM     00 120 00 00         : RESD         - DEEP RESISTIVITY (DIL)
NPHI.V/V      00 330 00 00         : PHIN         - NEUTRON POROSITY (SANDSTONE)
DPHI.V/V      00 890 00 00         : PHID         - DENSITY POROSITY (SANDSTONE)
GR  .API      00 310 00 00         : GR           - GAMMA RAY
CALI.MM       00 280 01 00         : CAL          - CALIPER
~PARAMETER INFORMATION
#MNEM.UNIT           DATA             DESCRIPTION OF MNEMONIC
#---------         -----------     ------------------------------
GL  .M        720.547              : gl           - GROUND LEVEL ELEVATION
EREF.M        730.301              : kb           - ELEVATION OF DEPTH REFERENCE
DATM.M        720.547              : datum        - DATUM ELEVATION
TDD .M        688.848              : tdd          - TOTAL DEPTH DRILLER
RUN .         ONE                  : Run          - RUN NUMBER
ENG .         CROCKFORD            : Engineer     - RECORDING ENGINEER
WIT .         CAMPBELL/GARBIES     : Witness      - WITNESSED BY
BASE.         EDM                  : Branch       - HOME BASE OF LOGGING UNIT
MUD .         GEL CHEM             : Mud_type     - MUD TYPE
MATR.         SANDSTONE            : Logunit      - NEUTRON MATRIX
TMAX.C        25.5556              : BHT          - MAXIMUM RECORDED TEMPERATURE
BHTD.M        690.982              : BHTDEP       - MAXIMUM RECORDED TEMPERATURE
RMT .C        18.3333              : MDTP         - TEMPERATURE OF MUD
MUDD.KG/M     1152                 : MWT          - MUD DENSITY
NEUT.         1                    : NEUTRON      - NEUTRON TYPE
RESI.         0                    : RESIST       - RESISTIVITY TYPE
RM  .OHMM     5.2                  : RM           - RESISTIVITY OF MUD
RMC .OHMM     0                    : RMC          - RESISTIVITY OF MUD CAKE
RMF .OHMM     0                    : RMF          - RESISTIVITY OF MUD FILTRATE
SUFT.C        -17.7778             : SUFT         - SURFACE TEMPERATURE
~A  DEPTH     RESD     PHIN     PHID       GR      CAL
# ...
  648.844    6.185    0.347   -0.012   86.515  205.364
  649.094    6.482    0.374    0.010   87.592  205.733
  649.344    6.550    0.394    0.120   98.543  206.107
  649.594    6.216    0.405    0.142  105.568  206.264
  649.844    5.781    0.399    0.134  101.370  206.114
  650.094    5.269    0.381    0.135   89.995  205.440
  650.344    4.758    0.344    0.165   77.885  204.151
  650.594    4.281    0.339    0.202   66.324  202.760
  650.844    3.513    0.342    0.242   53.416  201.874
  651.094    3.121    0.339    0.271   36.705  200.583
  651.344    2.829    0.338    0.273   24.102  199.701
  651.594    2.659    0.353    0.274   21.930  198.612
  651.844    2.576    0.364    0.278   21.656  197.217
  652.094    2.536    0.365    0.290   22.608  196.441
  652.344    2.520    0.361    0.292   24.670  196.088
  652.594    2.514    0.354    0.286   26.418  195.944
  652.844    2.530    0.350    0.300   27.553  195.993
  653.094    2.542    0.350    0.296   28.201  195.740
  653.344    2.535    0.363    0.287   29.216  195.483
  653.594    2.534    0.372    0.282   29.923  195.432
  653.844    2.508    0.367    0.284   30.263  195.494
  654.094    2.502    0.364    0.293   30.363  195.336
  654.344    2.450    0.360    0.297   30.211  195.090
  654.594    2.390    0.359    0.292   30.060  194.937
  654.844    2.397    0.365    0.286   31.076  194.896
  655.094    2.404    0.366    0.288   32.394  194.743
  655.344    2.415    0.361    0.298   32.857  194.900
  655.594    2.426    0.363    0.290   32.772  194.847
  655.844    2.438    0.351    0.286   32.801  194.903
  656.094    2.454    0.356    0.282   33.453  194.857
  656.344    2.461    0.367    0.273   34.157  194.712
  656.594    2.473    0.367    0.276   33.705  194.657
  656.844    2.498    0.364    0.283   33.732  194.611
  657.094    2.510    0.358    0.293   35.486  194.774
  657.344    2.508    0.351    0.288   37.606  194.834
  657.594    2.506    0.354    0.281   38.494  195.096
  657.844    2.500    0.361    0.272   38.347  195.149
  658.094    2.503    0.357    0.265   38.010  194.903
  658.344    2.519    0.351    0.285   38.413  194.854
  658.594    2.549    0.351    0.286   39.307  194.705
  658.844    2.609    0.357    0.273   40.256  194.447
  659.094    2.695    0.350    0.256   41.640  194.300
  659.344    2.936    0.328    0.242   43.207  194.347
  659.594    3.468    0.315    0.248   45.570  194.413
  659.844    3.764    0.311    0.243   49.406  194.568
  660.094    3.824    0.356    0.234   54.471  194.839
  660.344    3.907    0.385    0.239   58.922  194.889
  660.594    4.035    0.372    0.236   59.935  194.952
  660.844    4.221    0.355    0.230   59.722  195.102
  661.094    4.449    0.342    0.219   59.756  195.369
  661.344    4.733    0.338    0.210   61.205  195.741
  661.594    5.034    0.348    0.196   62.952  195.798
  661.844    5.425    0.358    0.183   64.518  196.167
  662.094    5.728    0.354    0.191   65.904  196.217
  662.344    5.798    0.344    0.179   67.100  196.280
  662.594    5.677    0.346    0.199   68.115  196.239
  662.844    5.528    0.357    0.207   68.517  196.081
  663.094    5.585    0.372    0.210   68.859  196.133
  663.344    6.018    0.393    0.228   64.842  196.812
  663.594    7.321    0.421    0.233   57.150  198.013
  663.844    9.361    0.267    0.127   49.574  199.218
  664.094   10.254    0.236    0.115   48.015  200.204
  664.344    9.931    0.273    0.201   60.253  201.617
  664.594    8.135    0.334    0.229   71.081  202.710
  664.844    6.914    0.402    0.262   80.931  203.595
  665.094    4.979    0.433    0.290   90.409  204.688
  665.344    4.521    0.547    0.264  101.360  206.620
  665.594    4.452    0.469    0.199  104.400  208.539
  665.844    4.744    0.402    0.194   96.581  209.841
  666.094    5.168    0.341    0.162   72.141  203.043
  666.344    5.895    0.264    0.119   63.589  200.097
  666.594    6.157    0.275    0.106   63.743  200.883
  666.844    5.996    0.309    0.097   69.545  203.645
  667.094    5.444    0.355    0.096   80.802  205.867
  667.344    5.092    0.380    0.088   91.815  210.183
  667.594    5.022    0.414    0.124  101.846  210.246
  667.844    5.121    0.448    0.106   99.854  206.971
  668.094    5.367    0.424    0.102   90.503  201.636
  668.344    5.848    0.333    0.102   80.907  199.921
  668.594    6.658    0.294    0.089   73.520  200.288
  668.844    7.175    0.318    0.046   77.359  201.071
  669.094    7.142    0.315    0.056   78.800  202.276
  669.344    6.867    0.298    0.011   81.228  203.267
  669.594    6.339    0.280    0.094   82.915  203.841
  669.844    6.196    0.267    0.110   82.151  204.213
  670.094    6.237    0.267    0.083   78.074  204.581
  670.344    6.573    0.265    0.084   67.865  204.844
  670.594    7.043    0.254    0.066   66.120  205.107
  670.844    7.674    0.259    0.100   72.962  205.989
  671.094    8.625    0.281    0.131   80.294  206.775
  671.344    9.930    0.300    0.167   86.461  206.832
  671.594   13.196    0.317    0.194   90.421  206.889
  671.844   19.801    0.256    0.164   82.543  206.945
  672.094   29.438    0.228    0.033   67.976  206.588
  672.344   43.206    0.114    0.021   52.982  204.254
  672.594   52.467    0.080    0.040   35.473  201.610
  672.844   62.897    0.060    0.045   29.439  199.593
  673.094   78.658    0.048    0.054   26.342  198.716
  673.344   89.894    0.037    0.038   23.369  198.564
  673.594   99.751    0.034    0.021   20.950  198.724
