~VERSION INFORMATION
 VERS.                 2.0:   CWLS LOG ASCII STANDARD -VERSION 2.0
 WRAP.                  NO:   ONE LINE PER DEPTH STEP
~WELL INFORMATION BLOCK
#MNEM.UNIT           DATA                    DESCRIPTION OF MNEMONIC
#---------    -------------------            -------------------------------
# Generated from Intellog Unique Number	CX_WELLS/WELL/3301
WELL.         ANDERSON ET AL NEWBY           : Well_name    - WELL
LOC .         00/10-35-084-05W4/0            : Location     - LOCATION
UWI .         00/10-35-084-05W400            : Uwi          - UNIQUE WELL ID
ENTR.         T                              : Entered      - ENTERED BY
SRVC.         SCHLUMBERGER                   : Scn          - SERVICE COMPANY
STRT.M        80                             : top_depth    - START DEPTH
STOP.M        330                            : bot_depth    - STOP DEPTH
STEP.M        0.25                           : increment    - STEP LENGTH
 NULL. -999.2500:NULL Value
~CURVE INFORMATION BLOCK
#MNEM UNIT       ERCB CURVE CODE    CURVE DESCRIPTION
#-----------   ------------------   ----------------------------------
DEPT.M        00 001 00 00         : DEPTH        - DEPTH
GR  .API      00 310 00 00         : GR           - GAMMA RAY
NPHI.V/V      00 330 00 00         : PHIN         - NEUTRON POROSITY (SANDSTONE)
DPHI.V/V      00 890 00 00         : PHID         - DENSITY POROSITY (SANDSTONE)
ILD .OHMM     00 120 00 00         : RESD         - DEEP RESISTIVITY (DIL)
~PARAMETER INFORMATION
#MNEM.UNIT           DATA             DESCRIPTION OF MNEMONIC
#---------         -----------     ------------------------------
GL  .M        470                  : gl           - GROUND LEVEL ELEVATION
EREF.M        474                  : kb           - ELEVATION OF DEPTH REFERENCE
DATM.M        474                  : datum        - DATUM ELEVATION
TDD .M        345                  : tdd          - TOTAL DEPTH DRILLER
RUN .         ONE                  : Run          - RUN NUMBER
ENG .         BILL                 : Engineer     - RECORDING ENGINEER
WIT .         JIM                  : Witness      - WITNESSED BY
MUD .         GEL                  : Mud_type     - MUD TYPE
MATR.         SANDSTONE            : Logunit      - NEUTRON MATRIX
TMAX.C        21                   : BHT          - MAXIMUM RECORDED TEMPERATURE
BHTD.M        345                  : BHTDEP       - MAXIMUM RECORDED TEMPERATURE
MATR.         1                    : LOGUNIT      - NEUTRON MATRIX
RMT .C        20                   : MDTP         - TEMPERATURE OF MUD
NEUT.         1                    : NEUTRON      - NEUTRON TYPE
RESI.         4                    : RESIST       - RESISTIVITY TYPE
RMC .OHMM     3.3                  : RMC          - RESISTIVITY OF MUD CAKE
RMF .OHMM     3.3                  : RMF          - RESISTIVITY OF MUD FILTRATE
SUFT.C        4                    : SUFT         - SURFACE TEMPERATURE
~A  DEPTH       GR     PHIN     PHID     RESD
# ...
  210.500   61.914    0.333    0.289    2.197
  210.750   68.119    0.345    0.299    2.159
  211.000   65.707    0.354    0.304    2.082
  211.250   64.525    0.356    0.311    2.008
  211.500   62.124    0.356    0.319    1.937
  211.750   59.086    0.357    0.327    1.903
  212.000   56.059    0.362    0.336    1.869
  212.250   51.804    0.364    0.331    1.838
  212.500   49.392    0.369    0.324    1.840
  212.750   53.138    0.372    0.310    1.841
  213.000   57.487    0.371    0.309    1.844
  213.250   58.149    0.366    0.314    1.882
  213.500   53.881    0.364    0.321    1.920
  213.750   49.625    0.362    0.321    1.922
  214.000   45.381    0.366    0.313    1.997
  214.250   44.187    0.365    0.307    2.077
  214.500   44.872    0.360    0.296    2.160
  214.750   47.389    0.355    0.301    2.162
  215.000   49.256    0.346    0.309    2.124
  215.250   51.773    0.338    0.314    2.048
  215.500   51.205    0.337    0.314    2.013
  215.750   50.022    0.348    0.319    1.941
  216.000   49.443    0.359    0.328    1.944
  216.250   48.886    0.365    0.335    1.946
  216.500   48.922    0.355    0.330    1.985
  216.750   48.365    0.348    0.315    1.987
  217.000   48.424    0.348    0.303    2.028
  217.250   47.856    0.338    0.307    2.031
  217.500   47.914    0.330    0.309    2.072
  217.750   47.949    0.322    0.311    2.114
  218.000   48.611    0.330    0.308    2.117
  218.250   50.501    0.340    0.302    2.159
  218.500   53.621    0.348    0.295    2.203
  218.750   57.356    0.358    0.283    2.247
  219.000   60.476    0.364    0.262    2.294
  219.250   64.210    0.368    0.257    2.384
  219.500   66.727    0.370    0.264    2.432
  219.750   61.845    0.364    0.277    2.528
  220.000   56.360    0.351    0.294    2.628
  220.250   53.948    0.344    0.259    2.732
  220.500   55.236    0.334    0.252    2.840
  220.750   57.753    0.329    0.245    2.952
  221.000   60.873    0.341    0.251    3.129
  221.250   65.210    0.353    0.256    3.252
  221.500   68.330    0.349    0.241    3.445
  221.750   66.533    0.350    0.230    3.385
  222.000   68.424    0.358    0.223    3.325
  222.250   74.628    0.363    0.224    3.330
  222.500   77.748    0.370    0.229    3.333
  222.750   74.107    0.376    0.241    3.466
  223.000   71.695    0.372    0.241    3.674
  223.250   74.212    0.370    0.237    3.747
  223.500   77.332    0.368    0.231    3.821
  223.750   80.452    0.367    0.226    4.049
  224.000   84.813    0.364    0.213    4.129
  224.250   86.089    0.361    0.205    4.136
  224.500   86.739    0.373    0.204    4.141
  224.750   88.653    0.379    0.202    4.147
  225.000   89.302    0.383    0.201    4.149
  225.250   91.193    0.386    0.200    4.003
  225.500   91.854    0.388    0.204    3.860
  225.750   92.527    0.388    0.209    3.586
  226.000   91.345    0.375    0.219    3.395
  226.250   88.307    0.362    0.233    3.334
  226.500   77.893    0.352    0.252    3.216
  226.750   74.263    0.331    0.254    3.159
  227.000   69.996    0.333    0.257    2.991
  227.250   62.667    0.341    0.261    2.938
  227.500   59.652    0.333    0.262    2.833
  227.750   57.240    0.328    0.276    2.784
  228.000   55.443    0.344    0.262    2.735
  228.250   57.960    0.368    0.250    2.739
  228.500   62.923    0.365    0.251    2.743
  228.750   67.273    0.361    0.255    2.596
  229.000   66.079    0.355    0.260    2.367
  229.250   59.979    0.349    0.269    2.282
  229.500   56.952    0.350    0.277    2.242
  229.750   53.926    0.350    0.280    2.162
  230.000   49.682    0.342    0.286    2.124
  230.250   46.643    0.331    0.290    2.127
  230.500   43.629    0.317    0.287    2.254
  230.750   42.434    0.316    0.280    2.387
  231.000   40.637    0.313    0.274    2.576
  231.250   41.298    0.312    0.262    2.888
  231.500   46.286    0.311    0.248    3.175
  231.750   49.394    0.322    0.235    3.427
  232.000   54.358    0.344    0.212    3.769
  232.250   59.322    0.350    0.193    4.225
  232.500   66.756    0.365    0.175    4.475
  232.750   73.564    0.374    0.165    4.315
  233.000   85.903    0.384    0.164    3.861
  233.250   93.952    0.390    0.164    3.653
  233.500  100.145    0.394    0.175    3.268
  233.750  101.421    0.396    0.208    2.869
  234.000   88.560    0.396    0.299    2.519
  234.250   75.085    0.391    0.361    2.170
  234.500   64.683    0.392    0.376    1.941
  234.750   59.800    0.395    0.373    1.770
  235.000   50.013    0.396    0.365    1.772
  235.250   49.445    0.394    0.334    1.877
  235.500   53.191    0.389    0.297    1.988
  235.750   56.311    0.379    0.280    2.147
  236.000   59.431    0.372    0.286    2.274
  236.250   59.489    0.365    0.294    2.363
  236.500   57.066    0.370    0.304    2.457
  236.750   60.800    0.370    0.272    2.554
  237.000   65.764    0.369    0.256    2.655
  237.250   72.595    0.370    0.249    2.708
  237.500   77.559    0.376    0.247    2.563
  237.750   80.065    0.385    0.250    2.381
  238.000   81.329    0.396    0.256    2.254
  238.250   82.605    0.398    0.264    2.214
  238.500   80.819    0.399    0.278    2.096
  238.750   68.585    0.400    0.315    2.022
  239.000   66.776    0.404    0.336    1.986
  239.250   63.123    0.403    0.351    1.989
  239.500   58.253    0.414    0.365    1.991
  239.750   52.767    0.413    0.366    1.993
  240.000   47.897    0.398    0.360    2.151
  240.250   47.329    0.387    0.337    2.412
  240.500   60.933    0.377    0.262    2.651
  240.750   62.800    0.373    0.250    2.972
  241.000   75.152    0.377    0.245    3.208
  241.250   78.272    0.382    0.240    3.398
  241.500   80.162    0.387    0.234    3.467
  241.750   80.824    0.390    0.224    3.280
  242.000   82.714    0.391    0.217    2.828
  242.250   85.219    0.373    0.224    2.625
  242.500   86.496    0.360    0.282    2.438
  242.750   73.635    0.357    0.316    2.182
  243.000   60.774    0.364    0.329    2.105
  243.250   55.903    0.375    0.333    2.107
  243.500   49.189    0.375    0.333    2.110
  243.750   43.112    0.368    0.333    2.112
  244.000   43.136    0.362    0.334    2.114
  244.250   43.206    0.355    0.330    2.158
  244.500   44.470    0.350    0.319    2.201
  244.750   46.361    0.346    0.300    2.288
  245.000   49.469    0.344    0.283    2.378
  245.250   53.204    0.341    0.269    2.472
  245.500   64.964    0.341    0.274    2.669
  245.750   68.060    0.349    0.290    2.881
  246.000   71.180    0.360    0.295    3.051
  246.250   66.310    0.372    0.289    3.420
  246.500   63.898    0.380    0.276    3.691
  246.750   63.945    0.389    0.265    3.984
  247.000   70.150    0.397    0.226    4.300
  247.250   82.501    0.404    0.170    4.555
  247.500   87.453    0.414    0.165    4.918
  247.750  101.648    0.424    0.153    5.210
  248.000  108.456    0.425    0.137    5.214
  248.250  107.888    0.425    0.124    5.423
  248.500  106.706    0.422    0.113    5.426
  248.750  106.161    0.420    0.120    5.644
  249.000  105.605    0.419    0.134    5.651
  249.250  105.013    0.423    0.150    5.658
  249.500  105.072    0.425    0.157    5.663
  249.750  104.492    0.432    0.164    5.674
  250.000  104.539    0.431    0.175    5.677
  250.250  103.983    0.428    0.185    5.684
  250.500  100.956    0.423    0.179    5.693
  250.750  100.991    0.417    0.177    5.700
  251.000  100.423    0.424    0.186    5.707
  251.250   99.855    0.430    0.180    5.714
  251.500   99.287    0.423    0.177    5.722
  251.750   96.272    0.415    0.192    5.625
  252.000   93.258    0.402    0.198    5.628
  252.250   91.449    0.398    0.205    5.530
  252.500   89.663    0.397    0.220    5.434
  252.750   89.698    0.397    0.201    5.341
  253.000   87.286    0.410    0.203    5.248
  253.250   81.198    0.431    0.219    5.158
  253.500   81.871    0.460    0.236    5.067
  253.750   81.895    0.478    0.256    4.979
