~VERSION INFORMATION
 VERS.                 2.0:   CWLS LOG ASCII STANDARD -VERSION 2.0
 WRAP.                  NO:   ONE LINE PER DEPTH STEP
~WELL INFORMATION BLOCK
#MNEM.UNIT           DATA                    DESCRIPTION OF MNEMONIC
#---------    -------------------            -------------------------------
# Generated from Intellog Unique Number	CS_67_68/WELL/855
WELL.         FISHER CREEK                   : Well_name    - WELL
LOC .         00/14-05-068-07W4/0            : Location     - LOCATION
UWI .         00/14-05-068-07W4/0            : Uwi          - UNIQUE WELL ID
ENTR.         S608.1                         : Entered      - ENTERED BY
SRVC.         SCHLUMBERGER                   : Scn          - SERVICE COMPANY
STRT.M        280                            : top_depth    - START DEPTH
STOP.M        510                            : bot_depth    - STOP DEPTH
STEP.M        0.25                           : increment    - STEP LENGTH
 NULL. -999.2500:NULL Value
~CURVE INFORMATION BLOCK
#MNEM UNIT       ERCB CURVE CODE    CURVE DESCRIPTION
#-----------   ------------------   ----------------------------------
DEPT.M        00 001 00 00         : DEPTH        - DEPTH
ILD .OHMM     00 120 00 00         : RESD         - DEEP RESISTIVITY (DIL)
DPHI.V/V      00 890 00 00         : PHID         - DENSITY POROSITY (LIMESTONE)
NPHI.V/V      00 330 00 00         : PHIN         - NEUTRON POROSITY (LIMESTONE)
GR  .API      00 310 00 00         : GR           - GAMMA RAY
~PARAMETER INFORMATION
#MNEM.UNIT           DATA             DESCRIPTION OF MNEMONIC
#---------         -----------     ------------------------------
GL  .M        608.1                : gl           - GROUND LEVEL ELEVATION
EREF.M        611.71               : kb           - ELEVATION OF DEPTH REFERENCE
DATM.M        608.1                : datum        - DATUM ELEVATION
TDD .M        519.5                : tdd          - TOTAL DEPTH DRILLER
RUN .         ONE                  : Run          - RUN NUMBER
ENG .         BILL                 : Engineer     - RECORDING ENGINEER
WIT .         JIM                  : Witness      - WITNESSED BY
MUD .         GEL                  : Mud_type     - MUD TYPE
MATR.         LIMESTONE            : Logunit      - NEUTRON MATRIX
TMAX.C        25                   : BHT          - MAXIMUM RECORDED TEMPERATURE
BHTD.M        519.5                : BHTDEP       - MAXIMUM RECORDED TEMPERATURE
MATR.         1                    : LOGUNIT      - NEUTRON MATRIX
RMT .C        25                   : MDTP         - TEMPERATURE OF MUD
NEUT.         1                    : NEUTRON      - NEUTRON TYPE
RESI.         0                    : RESIST       - RESISTIVITY TYPE
RMC .OHMM     0.25                 : RMC          - RESISTIVITY OF MUD CAKE
RMF .OHMM     0.25                 : RMF          - RESISTIVITY OF MUD FILTRATE
SUFT.C        15                   : SUFT         - SURFACE TEMPERATURE
~A  DEPTH     RESD     PHID     PHIN       GR
# ...
  454.000   31.222    0.304    0.314   50.247
  454.250   25.106    0.290    0.309   55.887
  454.500   22.061    0.276    0.314   60.118
  454.750   20.820    0.280    0.346   59.026
  455.000   20.873    0.287    0.337   53.589
  455.250   23.698    0.279    0.341   50.232
  455.500   25.569    0.272    0.347   54.036
  455.750   27.073    0.287    0.351   49.762
  456.000   28.131    0.302    0.353   46.834
  456.250   29.116    0.314    0.339   48.802
  456.500   29.189    0.321    0.331   54.075
  456.750   28.501    0.316    0.328   58.247
  457.000   28.573    0.301    0.333   59.724
  457.250   30.484    0.285    0.341   54.715
  457.500   32.950    0.297    0.348   50.564
  457.750   35.890    0.312    0.356   48.248
  458.000   37.784    0.321    0.350   46.238
  458.250   39.333    0.321    0.339   43.922
  458.500   40.793    0.323    0.330   41.911
  458.750   40.437    0.317    0.323   47.123
  459.000   17.758    0.298    0.312   62.066
  459.250   12.825    0.274    0.305   70.154
  459.500   11.248    0.272    0.315   70.347
  459.750    9.976    0.277    0.312   66.747
  460.000    8.799    0.260    0.305   66.387
  460.250    7.922    0.246    0.318   69.274
  460.500    7.013    0.274    0.336   68.243
  460.750    6.104    0.291    0.338   57.297
  461.000    5.537    0.300    0.334   47.822
  461.250    4.847    0.308    0.341   43.486
  461.500    4.448    0.320    0.342   39.578
  461.750    4.334    0.321    0.331   33.223
  462.000    4.304    0.316    0.322   28.276
  462.250    4.251    0.315    0.319   28.652
  462.500    4.198    0.321    0.319   29.398
  462.750    4.115    0.324    0.325   29.039
  463.000    4.064    0.323    0.330   27.518
  463.250    4.012    0.331    0.333   26.303
  463.500    3.932    0.341    0.342   31.271
  463.750    3.854    0.347    0.348   33.423
  464.000    3.786    0.346    0.349   34.718
  464.250    3.802    0.340    0.345   35.952
  464.500    3.840    0.339    0.343   35.837
  464.750    3.885    0.349    0.353   35.052
  465.000    4.007    0.384    0.374   33.838
  465.250    4.132    0.413    0.401   32.317
  465.500    4.237    0.403    0.401   30.245
  465.750    4.295    0.373    0.357   29.398
  466.000    4.414    0.347    0.336   31.244
  466.250    4.568    0.328    0.328   34.130
  466.500    4.883    0.327    0.323   33.038
  466.750    5.400    0.331    0.321   32.191
  467.000    5.804    0.304    0.320   41.441
  467.250    6.251    0.278    0.332   57.180
  467.500    6.757    0.251    0.341   74.448
  467.750    7.235    0.243    0.347   91.899
  468.000    7.776    0.246    0.343  109.473
  468.250    8.327    0.238    0.338  112.482
  468.500    8.985    0.235    0.331  109.737
  468.750   10.144    0.243    0.330   92.121
  469.000   10.760    0.264    0.337   81.237
  469.250   11.457    0.280    0.342   74.882
  469.500   11.949    0.284    0.334   72.015
  469.750   11.979    0.269    0.324   76.186
  470.000   11.829    0.253    0.324   84.519
  470.250   10.772    0.243    0.324   91.080
  470.500    9.429    0.243    0.331   93.597
  470.750    8.506    0.248    0.345   92.627
  471.000    7.864    0.254    0.355   88.535
  471.250    7.450    0.276    0.372   78.754
  471.500    7.247    0.291    0.370   73.010
  471.750    7.211    0.298    0.337   66.717
  472.000    7.215    0.271    0.300   62.931
  472.250    7.317    0.244    0.307  100.273
  472.500    7.487    0.225    0.316  104.199
  472.750    7.883    0.238    0.324   96.008
  473.000    8.160    0.253    0.331   89.226
  473.250    8.368    0.235    0.341   84.950
  473.500    8.437    0.216    0.355  102.586
  473.750    8.330    0.206    0.359  112.509
  474.000    8.180    0.201    0.352  118.883
  474.250    8.018    0.199    0.359  118.342
  474.500    8.037    0.216    0.369  113.762
  474.750    8.211    0.227    0.377  109.794
  475.000    8.532    0.237    0.374  104.418
  475.250    8.798    0.228    0.364   99.716
  475.500    9.006    0.225    0.345   95.869
  475.750    8.994    0.202    0.328   94.348
  476.000    8.866    0.178    0.316   96.010
  476.250    8.804    0.154    0.308   90.879
  476.500    8.809    0.195    0.325   86.544
  476.750    8.814    0.221    0.341   85.757
  477.000    8.869    0.225    0.350   91.459
  477.250    9.044    0.223    0.344   96.979
  477.500    9.291    0.222    0.354   99.434
  477.750    9.708    0.223    0.365  101.218
  478.000   10.398    0.228    0.361   99.515
  478.250   10.823    0.236    0.357   93.098
  478.500   11.396    0.252    0.364   82.704
  478.750   11.953    0.277    0.372   72.859
  479.000   12.633    0.293    0.369   65.953
  479.250   13.125    0.266    0.359   75.265
  479.500   13.382    0.246    0.354   89.291
  479.750   13.367    0.234    0.352   94.746
  480.000   13.298    0.223    0.358   92.981
  480.250   12.792    0.218    0.373   90.850
  480.500   12.140    0.246    0.397   90.368
  480.750   11.655    0.282    0.400   81.872
  481.000   13.258    0.287    0.376   73.803
  481.250   14.411    0.282    0.364   67.692
  481.500   16.116    0.281    0.352   62.806
  481.750   17.357    0.288    0.356   64.773
  482.000   18.032    0.301    0.380   67.231
  482.250   18.701    0.316    0.400   65.649
  482.500   18.997    0.329    0.383   60.090
  482.750   18.797    0.338    0.364   54.348
  483.000   18.146    0.300    0.354   52.949
  483.250   16.621    0.295    0.360   65.811
  483.500   15.451    0.300    0.367   75.000
  483.750   13.885    0.301    0.351   71.523
  484.000   11.859    0.287    0.344   68.900
  484.250    9.627    0.275    0.338   77.967
  484.500    8.223    0.271    0.340   83.668
  484.750    7.076    0.289    0.350   83.556
  485.000    6.206    0.318    0.394   76.404
  485.250    5.588    0.341    0.399   61.542
  485.500    5.205    0.345    0.374   50.413
  485.750    4.950    0.328    0.354   39.467
  486.000    4.815    0.328    0.351   44.803
  486.250    4.764    0.337    0.372   49.646
  486.500    4.784    0.347    0.377   53.573
  486.750    4.797    0.353    0.376   54.806
  487.000    4.800    0.345    0.376   50.838
  487.250    4.785    0.341    0.385   53.908
  487.500    4.806    0.345    0.382   53.550
  487.750    4.809    0.348    0.371   48.847
  488.000    4.793    0.326    0.357   50.570
  488.250    4.789    0.303    0.344   61.228
  488.500    4.791    0.289    0.330   68.398
  488.750    4.811    0.278    0.341   72.570
  489.000    4.878    0.288    0.353   73.191
  489.250    4.993    0.281    0.369   70.018
  489.500    5.034    0.274    0.387   66.540
  489.750    5.037    0.316    0.396   64.101
  490.000    4.936    0.349    0.397   57.685
  490.250    4.712    0.356    0.391   51.329
  490.500    4.618    0.350    0.389   47.790
  490.750    4.596    0.339    0.389   48.657
  491.000    4.598    0.331    0.386   50.318
  491.250    4.636    0.326    0.379   52.899
  491.500    4.666    0.326    0.379   54.682
  491.750    4.677    0.324    0.386   55.793
  492.000    4.697    0.329    0.367   54.641
  492.250    4.744    0.338    0.352   50.182
  492.500    4.775    0.286    0.340   55.761
  492.750    4.795    0.263    0.345   67.706
  493.000    4.808    0.268    0.373   74.079
  493.250    4.810    0.323    0.378   66.929
  493.500    4.795    0.299    0.356   58.492
  493.750    4.754    0.289    0.346   55.258
  494.000    4.722    0.302    0.355   57.654
  494.250    4.706    0.320    0.347   57.908
  494.500    4.709    0.328    0.333   61.897
  494.750    4.729    0.321    0.329   67.354
  495.000    4.768    0.273    0.331   73.421
  495.250    4.807    0.235    0.348   82.244
  495.500    4.837    0.251    0.373   80.601
  495.750    4.785    0.319    0.389   74.062
  496.000    4.134    0.349    0.398   66.666
  496.250    3.822    0.364    0.402   59.332
  496.500    3.676    0.369    0.401   50.773
  496.750    3.671    0.364    0.393   42.827
  497.000    3.764    0.357    0.376   46.325
  497.250    4.055    0.346    0.359   52.822
