~VERSION INFORMATION
 VERS.                 2.0:   CWLS LOG ASCII STANDARD -VERSION 2.0
 WRAP.                  NO:   ONE LINE PER DEPTH STEP
~WELL INFORMATION BLOCK
#MNEM.UNIT           DATA                    DESCRIPTION OF MNEMONIC
#---------    -------------------            -------------------------------
# Generated from Intellog Unique Number	CW_76_78/WELL/995
WELL.         GULF POC DROWNED 11-17         : Well_name    - WELL
LOC .         00/11-17-076-20W4/0            : Location     - LOCATION
UWI .         00/11-17-076-20W4/0            : Uwi          - UNIQUE WELL ID
ENTR.         JAYE                           : Entered      - ENTERED BY
SRVC.         SCHLUMBERGER                   : Scn          - SERVICE COMPANY
DATE.         19 MAR 78                      : Date         - LOG DATE
STRT.M        277.368                        : top_depth    - START DEPTH
STOP.M        455.118                        : bot_depth    - STOP DEPTH
STEP.M        0.25                           : increment    - STEP LENGTH
 NULL. -999.2500:NULL Value
~CURVE INFORMATION BLOCK
#MNEM UNIT       ERCB CURVE CODE    CURVE DESCRIPTION
#-----------   ------------------   ----------------------------------
DEPT.M        00 001 00 00         : DEPTH        - DEPTH
ILD .OHMM     00 120 00 00         : RESD         - DEEP RESISTIVITY (DIL)
NPHI.V/V      00 330 00 00         : PHIN         - NEUTRON POROSITY (SANDSTONE)
DPHI.V/V      00 890 00 00         : PHID         - DENSITY POROSITY (SANDSTONE)
GR  .API      00 310 00 00         : GR           - GAMMA RAY
CALI.MM       00 280 01 00         : CAL          - CALIPER
~PARAMETER INFORMATION
#MNEM.UNIT           DATA             DESCRIPTION OF MNEMONIC
#---------         -----------     ------------------------------
GL  .M        604.114              : gl           - GROUND LEVEL ELEVATION
EREF.M        608.228              : kb           - ELEVATION OF DEPTH REFERENCE
DATM.M        604.114              : datum        - DATUM ELEVATION
TDD .M        461.772              : tdd          - TOTAL DEPTH DRILLER
RUN .         ONE                  : Run          - RUN NUMBER
ENG .         DEROCHIE             : Engineer     - RECORDING ENGINEER
WIT .         ROY/ROZENHART        : Witness      - WITNESSED BY
BASE.         EDM                  : Branch       - HOME BASE OF LOGGING UNIT
MUD .         GEL CHEM             : Mud_type     - MUD TYPE
MATR.         SANDSTONE            : Logunit      - NEUTRON MATRIX
TMAX.C        18.3333              : BHT          - MAXIMUM RECORDED TEMPERATURE
BHTD.M        461.162              : BHTDEP       - MAXIMUM RECORDED TEMPERATURE
RMT .C        16.6667              : MDTP         - TEMPERATURE OF MUD
MUDD.KG/M     1116                 : MWT          - MUD DENSITY
NEUT.         1                    : NEUTRON      - NEUTRON TYPE
RESI.         0                    : RESIST       - RESISTIVITY TYPE
RM  .OHMM     5.43                 : RM           - RESISTIVITY OF MUD
RMC .OHMM     0                    : RMC          - RESISTIVITY OF MUD CAKE
RMF .OHMM     5.39                 : RMF          - RESISTIVITY OF MUD FILTRATE
SUFT.C        -17.7778             : SUFT         - SURFACE TEMPERATURE
~A  DEPTH     RESD     PHIN     PHID       GR      CAL
# ...
  350.368    7.516    0.393    0.303   81.792  157.377
  350.618    8.508    0.387    0.301   76.045  153.207
  350.868    9.506    0.390    0.268   71.940  147.219
  351.118    8.428    0.334    0.221   69.035  143.476
  351.368    7.654    0.294    0.131   66.194  142.514
  351.618    6.811    0.333    0.120   64.110  145.296
  351.868    6.027    0.376    0.154   64.868  148.505
  352.118    5.714    0.423    0.204   66.448  153.104
  352.368    5.530    0.457    0.285   68.659  153.961
  352.618    6.225    0.472    0.281   69.164  148.400
  352.868    6.904    0.468    0.295   66.512  145.941
  353.118    7.785    0.451    0.312   64.807  147.332
  353.368    8.714    0.436    0.317   65.502  151.183
  353.618    9.071    0.433    0.329   67.208  154.499
  353.868    9.232    0.435    0.319   65.188  155.784
  354.118    9.360    0.437    0.299   62.599  156.961
  354.368    9.474    0.440    0.281   63.420  157.817
  354.618    9.517    0.452    0.279   64.810  157.176
  354.868    9.561    0.464    0.300   64.431  156.107
  355.118    9.640    0.443    0.306   64.179  154.825
  355.368   10.034    0.432    0.308   63.927  153.970
  355.618   10.881    0.426    0.302   63.928  152.366
  355.868   12.977    0.418    0.222   64.433  151.618
  356.118   15.305    0.385    0.157   62.476  151.405
  356.368   19.741    0.232    0.106   57.992  151.513
  356.618   24.349    0.214    0.085   55.024  151.514
  356.868   27.614    0.200    0.072   54.961  151.728
  357.118   29.064    0.185    0.040   57.109  151.622
  357.368   28.023    0.166    0.010   56.920  151.302
  357.618   26.371    0.153   -0.011   53.889  150.875
  357.868   23.775    0.170    0.014   52.437  150.555
  358.118   20.844    0.187    0.041   53.764  150.449
  358.368   16.989    0.218    0.065   55.785  150.343
  358.618   13.144    0.243    0.112   57.933  150.129
  358.868   10.774    0.282    0.154   59.891  149.595
  359.118    8.898    0.334    0.179   62.355  148.099
  359.368    7.671    0.363    0.212   64.439  145.426
  359.618    6.762    0.401    0.244   66.019  144.250
  359.868    5.973    0.437    0.285   62.861  143.609
  360.118    5.335    0.443    0.283   63.683  144.359
  360.368    4.983    0.457    0.269   65.515  145.964
  360.618    4.689    0.463    0.289   68.042  148.317
  360.868    4.590    0.455    0.286   69.179  150.671
  361.118    4.508    0.447    0.275   68.737  153.238
  361.368    4.298    0.443    0.278   68.864  154.843
  361.618    4.121    0.467    0.282   70.507  155.379
  361.868    4.064    0.466    0.290   72.086  154.738
  362.118    3.984    0.442    0.301   72.592  153.990
  362.368    3.899    0.421    0.263   73.224  153.884
  362.618    3.902    0.419    0.273   75.687  153.778
  362.868    3.906    0.423    0.289   77.898  153.992
  363.118    3.895    0.426    0.296   79.351  154.207
  363.368    3.869    0.435    0.280   81.310  154.208
  363.618    3.850    0.447    0.267   85.163  153.994
  363.868    3.825    0.450    0.251   91.921  153.781
  364.118    3.793    0.446    0.243   95.774  153.568
  364.368    3.754    0.436    0.246   97.101  153.569
  364.618    3.708    0.433    0.257   92.743  153.570
  364.868    3.704    0.432    0.269   87.754  153.677
  365.118    3.707    0.431    0.261   92.618  153.678
  365.368    3.689    0.431    0.225   98.240  153.893
  365.618    3.638    0.432    0.218  105.566  154.214
  365.868    3.581    0.435    0.212  103.925  154.750
  366.118    3.543    0.442    0.202  104.620  155.285
  366.368    3.487    0.443    0.197  106.957  155.928
  366.618    3.438    0.434    0.182  109.421  155.928
  366.868    3.403    0.422    0.170  111.695  156.143
  367.118    3.451    0.417    0.180  112.706  156.251
  367.368    3.524    0.427    0.211  111.001  156.572
  367.618    3.682    0.439    0.212  108.538  156.680
  367.868    3.847    0.449    0.207  106.833  156.574
  368.118    4.034    0.453    0.206  105.697  156.468
  368.368    4.238    0.447    0.208  104.182  156.362
  368.618    4.428    0.437    0.211  101.656  156.148
  368.868    4.523    0.435    0.232   98.056  155.935
  369.118    4.569    0.461    0.230  103.299  155.722
  369.368    4.590    0.463    0.221  110.626  155.509
  369.618    4.602    0.454    0.220  115.300  155.403
  369.868    4.606    0.450    0.222  117.005  155.297
  370.118    4.696    0.454    0.240  117.132  155.083
  370.368    4.843    0.449    0.248  112.901  155.084
  370.618    5.013    0.438    0.257  101.849  154.764
  370.868    5.188    0.429    0.277   89.154  154.658
  371.118    5.310    0.418    0.255   85.744  152.413
  371.368    5.434    0.414    0.258   85.050  149.740
  371.618    5.510    0.414    0.263   86.566  148.243
  371.868    5.578    0.417    0.261   89.219  147.602
  372.118    5.613    0.420    0.255   92.315  148.245
  372.368    5.650    0.418    0.235   96.610  149.529
  372.618    5.718    0.415    0.217   99.389  151.027
  372.868    5.819    0.409    0.216   95.979  153.060
  373.118    5.923    0.404    0.229   97.369  154.771
  373.368    5.917    0.402    0.208  103.938  156.269
  373.618    5.855    0.408    0.201  104.128  157.019
  373.868    5.730    0.417    0.195  101.981  155.629
  374.118    5.597    0.422    0.188  100.718  152.422
  374.368    5.438    0.439    0.178  100.908  149.000
  374.618    5.311    0.455    0.180  102.361  144.830
  374.868    5.169    0.446    0.187  105.519  144.296
  375.118    5.041    0.438    0.213  103.120  147.291
  375.368    4.961    0.440    0.197  102.047  149.752
  375.618    4.891    0.442    0.190  102.552  151.891
  375.868    4.841    0.443    0.201  103.184  153.710
  376.118    4.835    0.444    0.201  103.122  155.101
  376.368    4.803    0.440    0.194  101.354  155.637
  376.618    4.789    0.435    0.211  100.407  155.530
  376.868    4.750    0.431    0.205   99.649  155.104
  377.118    4.727    0.427    0.188   98.134  154.890
  377.368    4.731    0.415    0.198   96.682  154.356
  377.618    4.778    0.425    0.197   95.356  154.036
  377.868    4.863    0.437    0.203   93.525  153.609
  378.118    5.109    0.449    0.223   91.251  152.968
  378.368    5.656    0.450    0.249   89.484  152.113
  378.618    6.144    0.421    0.288   88.284  151.473
  378.868    6.764    0.384    0.320   84.116  151.259
  379.118    7.253    0.360    0.338   79.127  150.939
  379.368    7.792    0.343    0.350   75.212  150.833
  379.618    8.450    0.333    0.321   74.833  150.941
  379.868    9.336    0.351    0.273   76.412  151.262
  380.118   10.333    0.345    0.230   75.213  151.905
  380.368   11.829    0.315    0.191   72.371  152.440
  380.618   12.900    0.299    0.134   69.845  153.404
  380.868   12.766    0.331    0.149   70.730  153.618
  381.118   11.815    0.355    0.186   73.067  151.694
  381.368   10.691    0.368    0.216   75.404  146.347
  381.618    9.114    0.382    0.242   77.552  142.284
  381.868    7.959    0.404    0.263   77.300  141.750
  382.118    6.760    0.429    0.248   75.406  143.248
  382.368    6.038    0.425    0.226   71.996  146.029
  382.618    5.909    0.409    0.221   69.975  150.522
  382.868    6.266    0.388    0.212   70.291  153.624
  383.118    6.846    0.349    0.190   69.976  154.373
  383.368    7.494    0.329    0.165   68.966  153.947
  383.618    7.713    0.297    0.159   68.777  153.092
  383.868    7.591    0.309    0.166   70.988  152.237
  384.118    7.305    0.350    0.182   73.957  151.382
  384.368    6.977    0.367    0.227   76.168  150.848
  384.618    6.791    0.376    0.224   76.294  150.742
  384.868    7.161    0.370    0.209   73.453  150.850
  385.118    7.551    0.351    0.193   73.832  151.278
  385.368    7.349    0.328    0.168   75.727  151.814
  385.618    6.916    0.314    0.135   77.749  152.242
  385.868    6.472    0.323    0.156   82.234  149.569
  386.118    5.770    0.362    0.176   85.013  143.046
  386.368    5.125    0.383    0.216   89.055  138.769
  386.618    4.612    0.424    0.235   89.245  135.668
