~VERSION INFORMATION
 VERS.                 2.0:   CWLS LOG ASCII STANDARD -VERSION 2.0
 WRAP.                  NO:   ONE LINE PER DEPTH STEP
~WELL INFORMATION BLOCK
#MNEM.UNIT           DATA                    DESCRIPTION OF MNEMONIC
#---------    -------------------            -------------------------------
# Generated from Intellog Unique Number	CW_70_72/WELL/1064
NULL.         -999.25                        : NULL_VALUE
WELL.         LANDBANK ET AL MITSUE 11-36    : Well_name    - WELL              
LOC .         11-36-072-03W5                 : Location     - LOCATION          
UWI .         00/11-36-072-03W5/0            : Uwi          - UNIQUE WELL ID    
ENTR.         JAYE                           : Entered      - ENTERED BY        
SRVC.         SCHLUMBERGER                   : Scn          - SERVICE COMPANY   
DATE.         29 FEB 79                      : Date         - LOG DATE          
STRT.M        395                            : top_depth    - START DEPTH       
STOP.M        635                            : bot_depth    - STOP DEPTH        
STEP.M        0.25                           : increment    - STEP LENGTH       
~CURVE INFORMATION BLOCK
#MNEM UNIT       ERCB CURVE CODE    CURVE DESCRIPTION
#-----------   ------------------   ----------------------------------
DEPT.M        00 001 00 00         : DEPTH        - DEPTH                       
DPHI.V/V      00 890 00 00         : PHID         - DENSITY POROSITY (SANDSTONE)
NPHI.V/V      00 330 00 00         : PHIN         - NEUTRON POROSITY (SANDSTONE)
GR  .API      00 310 00 00         : GR           - GAMMA RAY                   
CALI.MM       00 280 01 00         : CAL          - CALIPER                     
ILD .OHMM     00 120 00 00         : RESD         - DEEP RESISTIVITY (DIL)      
~PARAMETER INFORMATION       
#MNEM.UNIT           DATA             DESCRIPTION OF MNEMONIC
#---------         -----------     ------------------------------
GL  .M        589                  : gl           - GROUND LEVEL ELEVATION      
EREF.M        591.7                : kb           - ELEVATION OF DEPTH REFERENCE
DATM.M        589                  : datum        - DATUM ELEVATION             
TDD .M        637                  : tdd          - TOTAL DEPTH DRILLER         
RUN .         ONE                  : Run          - RUN NUMBER                  
ENG .         MARSCHNER            : Engineer     - RECORDING ENGINEER          
WIT .         LOWTHER              : Witness      - WITNESSED BY                
BASE.         EDM                  : Branch       - HOME BASE OF LOGGING UNIT   
MUD .         GEL XHEM             : Mud_type     - MUD TYPE                    
MATR.         SANDSTONE            : Logunit      - NEUTRON MATRIX              
TMAX.C        25.5                 : BHT          - MAXIMUM RECORDED TEMPERATURE
BHTD.M        638                  : BHTDEP       - MAXIMUM RECORDED TEMPERATURE
RMT .C        7.8                  : MDTP         - TEMPERATURE OF MUD          
MUDD.KG/M     1190                 : MWT          - MUD DENSITY                 
NEUT.         1                    : NEUTRON      - NEUTRON TYPE                
RESI.         0                    : RESIST       - RESISTIVITY TYPE            
RM  .OHMM     4.55                 : RM           - RESISTIVITY OF MUD          
RMC .OHMM     0                    : RMC          - RESISTIVITY OF MUD CAKE     
RMF .OHMM     4.7                  : RMF          - RESISTIVITY OF MUD FILTRATE 
SUFT.C        32                   : SUFT         - SURFACE TEMPERATURE         
~A  DEPTH     PHID     PHIN       GR      CAL     RESD
# ...
  431.500    0.210    0.407  125.392  169.132    4.093
  431.750    0.194    0.414  131.277  171.039    4.042
  432.000    0.194    0.423  130.142  173.876    3.739
  432.250    0.217    0.425  125.939  175.683    3.222
  432.500    0.227    0.419  121.981  172.362    2.802
  432.750    0.223    0.453  122.942  172.834    2.455
  433.000    0.211    0.479  127.901  174.945    2.205
  433.250    0.204    0.510  133.660  176.964    2.074
  433.500    0.226    0.556  138.250  182.050    2.036
  433.750    0.228    0.541  136.566  189.702    2.122
  434.000    0.254    0.536  132.484  197.762    2.245
  434.250    0.302    0.524  127.971  208.184    2.498
  434.500    0.277    0.504  123.580  178.619    2.789
  434.750    0.223    0.462  122.019  171.607    3.046
  435.000    0.198    0.441  121.628  176.691    3.241
  435.250    0.197    0.457  117.546  182.704    3.390
  435.500    0.228    0.474  110.631  185.028    3.462
  435.750    0.258    0.472   97.938  175.453    3.476
  436.000    0.282    0.434   80.260  169.571    3.464
  436.250    0.300    0.426   71.685  167.578    3.492
  436.500    0.280    0.416   75.600  166.926    3.579
  436.750    0.277    0.409   79.084  166.884    3.682
  437.000    0.287    0.398   81.583  166.855    3.738
  437.250    0.279    0.404   80.577  166.606    3.747
  437.500    0.267    0.423   78.462  166.471    3.734
  437.750    0.257    0.434   79.913  166.426    3.728
  438.000    0.252    0.423   85.490  166.702    3.709
  438.250    0.240    0.424   95.061  167.274    3.690
  438.500    0.237    0.435   98.177  167.958    3.643
  438.750    0.265    0.435   91.816  168.327    3.564
  439.000    0.301    0.425   83.183  168.385    3.512
  439.250    0.288    0.419   84.882  168.149    3.501
  439.500    0.260    0.415   92.116  167.186    3.495
  439.750    0.249    0.444   97.878  166.430    3.477
  440.000    0.232    0.445  100.807  165.985    3.453
  440.250    0.244    0.438   99.739  166.043    3.409
  440.500    0.253    0.426   96.701  166.316    3.385
  440.750    0.253    0.440  100.245  166.997    3.348
  441.000    0.249    0.440  102.067  167.269    3.312
  441.250    0.252    0.434   96.879  167.328    3.270
  441.500    0.257    0.431   89.228  167.083    3.223
  441.750    0.267    0.441   90.371  166.537    3.189
  442.000    0.273    0.454   92.442  166.799    3.160
  442.250    0.276    0.457   93.403  167.893    3.161
  442.500    0.259    0.464   88.765  170.934    3.198
  442.750    0.292    0.468   83.208  174.074    3.241
  443.000    0.323    0.442   78.755  166.960    3.297
  443.250    0.324    0.433   79.038  165.591    3.380
  443.500    0.308    0.434   82.891  166.264    3.483
  443.750    0.269    0.434   90.190  167.151    3.597
  444.000    0.231    0.434   99.332  168.443    3.693
  444.250    0.205    0.443  102.263  169.228    3.771
  444.500    0.220    0.467   99.779  169.803    3.829
  444.750    0.231    0.470   97.418  169.763    3.874
  445.000    0.240    0.461   95.919  169.007    3.904
  445.250    0.249    0.464   94.603  168.357    3.905
  445.500    0.255    0.469   92.859  167.702    3.835
  445.750    0.251    0.463   87.607  167.357    3.779
  446.000    0.236    0.462   91.030  166.700    3.697
  446.250    0.250    0.470   93.959  166.156    3.650
  446.500    0.260    0.474   92.644  165.709    3.544
  446.750    0.270    0.461   88.005  165.158    3.416
  447.000    0.288    0.447   86.507  164.810    3.311
  447.250    0.303    0.434   86.301  164.567    3.208
  447.500    0.286    0.450   82.402  164.219    3.144
  447.750    0.305    0.462   77.213  164.482    3.082
  448.000    0.320    0.475   74.480  164.859    3.032
  448.250    0.329    0.445   77.038  165.329    3.004
  448.500    0.316    0.434   79.664  165.501    2.983
  448.750    0.323    0.456   82.164  165.054    2.968
  449.000    0.326    0.453   83.986  164.397    2.952
  449.250    0.320    0.446   82.856  163.747    2.964
  449.500    0.314    0.451   77.603  163.910    2.954
  449.750    0.306    0.476   74.075  163.874    2.966
  450.000    0.306    0.473   75.098  164.147    2.967
  450.250    0.307    0.446   76.675  164.306    2.985
  450.500    0.308    0.442   74.991  164.479    3.014
  450.750    0.324    0.437   70.969  164.644    3.061
  451.000    0.329    0.423   70.208  164.709    3.125
  451.250    0.308    0.408   73.750  165.081    3.162
  451.500    0.274    0.393   76.558  166.169    3.198
  451.750    0.263    0.428   79.120  167.468    3.248
  452.000    0.292    0.447   81.495  168.243    3.335
  452.250    0.315    0.454   83.319  168.411    3.431
  452.500    0.318    0.459   85.632  168.582    3.483
  452.750    0.303    0.460   86.288  169.459    3.459
  453.000    0.286    0.447   83.619  169.529    3.383
  453.250    0.265    0.423   78.737  169.071    3.249
  453.500    0.248    0.406   72.684  168.723    3.190
  453.750    0.282    0.448   69.586  168.274    3.144
  454.000    0.321    0.448   70.485  167.931    3.104
  454.250    0.323    0.437   69.910  167.490    3.048
  454.500    0.328    0.448   67.607  167.451    2.993
  454.750    0.339    0.458   67.402  167.108    2.933
  455.000    0.348    0.464   66.947  166.866    2.896
  455.250    0.343    0.464   65.756  167.024    2.838
  455.500    0.343    0.460   63.889  167.098    2.792
  455.750    0.341    0.441   59.683  167.258    2.746
  456.000    0.332    0.423   58.120  167.224    2.697
  456.250    0.320    0.440   56.314  166.981    2.643
  456.500    0.316    0.452   54.446  166.832    2.610
  456.750    0.328    0.452   52.761  166.698    2.582
  457.000    0.324    0.437   50.955  166.659    2.563
  457.250    0.321    0.408   49.452  166.509    2.550
  457.500    0.325    0.399   48.325  166.365    2.542
  457.750    0.322    0.407   47.627  166.443    2.561
  458.000    0.321    0.430   47.663  166.404    2.581
  458.250    0.323    0.454   48.686  166.365    2.602
  458.500    0.328    0.446   50.448  166.020    2.617
  458.750    0.335    0.433   53.378  165.672    2.667
  459.000    0.342    0.432   56.739  165.329    2.796
  459.250    0.335    0.438   60.346  164.987    2.991
  459.500    0.328    0.438   65.673  164.324    3.147
  459.750    0.318    0.427   70.080  163.469    3.495
  460.000    0.347    0.443   74.794  163.026    3.961
  460.250    0.376    0.556   78.770  163.601    4.600
  460.500    0.404    0.588   82.931  166.123    5.382
  460.750    0.447    0.627   80.939  168.649    5.823
  461.000    0.500    0.664   75.257  170.152    6.103
  461.250    0.529    0.698   82.923  170.933    6.004
  461.500    0.347    0.729   86.960  170.075    5.679
  461.750    0.444    0.682   80.722  165.936    5.137
  462.000    0.463    0.597   85.251  167.941    4.814
  462.250    0.459    0.539  101.777  171.287    4.579
  462.500    0.451    0.493   97.383  173.921    4.430
  462.750    0.260    0.443   94.039  169.679    4.366
  463.000    0.263    0.432   97.218  169.741    4.295
  463.250    0.268    0.463   98.729  172.062    4.225
  463.500    0.285    0.493   95.326  172.740    4.087
  463.750    0.318    0.507   97.641  171.265    3.909
  464.000    0.296    0.496  101.800  168.052    3.726
  464.250    0.278    0.475  101.778  164.623    3.577
  464.500    0.262    0.453   93.879  165.918    3.441
  464.750    0.280    0.446   89.121  167.420    3.354
  465.000    0.299    0.440   86.945  167.691    3.311
  465.250    0.298    0.439   89.076  167.340    3.331
  465.500    0.288    0.443   92.928  166.792    3.357
  465.750    0.285    0.440   89.706  165.933    3.390
  466.000    0.263    0.443   85.992  165.285    3.436
  466.250    0.281    0.451   88.611  164.626    3.502
  466.500    0.285    0.426   93.388  164.283    3.569
  466.750    0.275    0.428   94.347  164.145    3.624
  467.000    0.245    0.441   92.360  164.096    3.666
  467.250    0.248    0.448   91.659  164.261    3.743
  467.500    0.253    0.444   93.237  164.232    3.851
  467.750    0.255    0.432   96.841  163.985    3.947
