~VERSION INFORMATION
 VERS.                 2.0:   CWLS LOG ASCII STANDARD -VERSION 2.0
 WRAP.                  NO:   ONE LINE PER DEPTH STEP
~WELL INFORMATION BLOCK
#MNEM.UNIT           DATA                    DESCRIPTION OF MNEMONIC
#---------    -------------------            -------------------------------
# Generated from Intellog Unique Number	CW_70_72/WELL/2907
NULL.         -999.25                        : NULL_VALUE
WELL.         CHEVRON CALLING WEST           : Well_name    - WELL              
LOC .         11-27-070-21W4                 : Location     - LOCATION          
UWI .         00/11-27-070-21W4/0            : Uwi          - UNIQUE WELL ID    
ENTR.         MAX                            : Entered      - ENTERED BY        
SRVC.         SCHLUMBERGER                   : Scn          - SERVICE COMPANY   
DATE.         30 JAN 74                      : Date         - LOG DATE
STRT.M        405.384                        : top_depth    - START DEPTH       
STOP.M        573.134                        : bot_depth    - STOP DEPTH        
STEP.M        0.25                           : increment    - STEP LENGTH       
~CURVE INFORMATION BLOCK
#MNEM UNIT       ERCB CURVE CODE    CURVE DESCRIPTION
#-----------   ------------------   ----------------------------------
DEPT.M        00 001 00 00         : DEPTH        - DEPTH                       
ILD .OHMM     00 120 00 00         : RESD         - DEEP RESISTIVITY (DIL)      
NPHI.V/V      00 330 00 00         : PHIN         - NEUTRON POROSITY (SANDSTONE)
DPHI.V/V      00 890 00 00         : PHID         - DENSITY POROSITY (SANDSTONE)
CALI.MM       00 280 01 00         : CAL          - CALIPER                     
GR  .API      00 310 00 00         : GR           - GAMMA RAY                   
~PARAMETER INFORMATION       
#MNEM.UNIT           DATA             DESCRIPTION OF MNEMONIC
#---------         -----------     ------------------------------
GL  .M        649.529              : gl           - GROUND LEVEL ELEVATION      
EREF.M        652.882              : kb           - ELEVATION OF DEPTH REFERENCE
DATM.M        649.529              : datum        - DATUM ELEVATION             
TDD .M        573.634              : tdd          - TOTAL DEPTH DRILLER         
RUN .         ONE                  : Run          - RUN NUMBER                  
ENG .         BILL                 : Engineer     - RECORDING ENGINEER          
WIT .         JIM                  : Witness      - WITNESSED BY                
MUD .         GEL                  : Mud_type     - MUD TYPE                    
MATR.         SANDSTONE            : Logunit      - NEUTRON MATRIX              
TMAX.C        72                   : BHT          - MAXIMUM RECORDED TEMPERATURE
BHTD.M        573.634              : BHTDEP       - MAXIMUM RECORDED TEMPERATURE
RMT .C        12.7778              : MDTP         - TEMPERATURE OF MUD          
MUDD.KG/M     9900                 : MWT          - MUD DENSITY                 
NEUT.         1                    : NEUTRON      - NEUTRON TYPE                
RESI.         0                    : RESIST       - RESISTIVITY TYPE            
RM  .OHMM     2.9                  : RM           - RESISTIVITY OF MUD          
RMC .OHMM     0.25                 : RMC          - RESISTIVITY OF MUD CAKE     
RMF .OHMM     3.87                 : RMF          - RESISTIVITY OF MUD FILTRATE 
SUFT.C        -20.5556             : SUFT         - SURFACE TEMPERATURE         
~A  DEPTH     RESD     PHIN     PHID      CAL       GR
# ...
  441.884    3.599    0.546    0.268  204.843   88.146
  442.134    3.599    0.555    0.252  205.816   88.430
  442.384    3.664    0.528    0.237  205.798   91.036
  442.634    3.664    0.502    0.224  205.784   94.226
  442.884    3.728    0.515    0.186  206.256   95.670
  443.134    3.864    0.562    0.188  206.242   95.953
  443.384    3.864    0.571    0.199  206.226   93.614
  443.634    3.932    0.570    0.223  206.208   90.697
  443.884    4.039    0.545    0.238  205.699   89.814
  444.134    4.149    0.524    0.254  204.204   87.769
  444.384    4.147    0.536    0.269  202.220   83.396
  444.634    4.146    0.533    0.279  200.231   78.151
  444.884    4.107    0.517    0.293  200.706   69.706
  445.134    4.069    0.487    0.313  201.182   50.790
  445.384    4.031    0.457    0.327  201.657   44.381
  445.634    3.993    0.418    0.328  201.643   44.952
  445.884    3.956    0.433    0.326  201.132   45.525
  446.134    3.919    0.448    0.335  201.114   45.806
  446.384    3.847    0.446    0.340  201.100   46.085
  446.634    3.777    0.449    0.336  201.572   46.659
  446.884    3.576    0.449    0.311  201.560   48.104
  447.134    3.417    0.436    0.307  201.540   50.130
  447.384    3.264    0.445    0.298  201.524   49.247
  447.634    3.119    0.430    0.287  201.508   44.584
  447.884    2.980    0.439    0.295  201.494   40.502
  448.134    2.873    0.437    0.317  200.981   39.328
  448.384    2.769    0.442    0.315  199.980   42.226
  448.634    2.719    0.453    0.308  198.977   42.507
  448.884    2.645    0.450    0.307  199.944   41.334
  449.134    2.620    0.443    0.310  200.917   41.034
  449.384    2.596    0.425    0.307  201.884   41.024
  449.634    2.619    0.414    0.301  201.866   41.015
  449.884    2.641    0.410    0.294  202.837   41.295
  450.134    2.689    0.437    0.283  203.309   44.775
  450.384    2.737    0.434    0.297  204.282   49.711
  450.634    2.837    0.424    0.298  206.234   59.882
  450.884    2.994    0.450    0.292  207.695   79.069
  451.134    3.189    0.587    0.277  209.645   80.222
  451.384    3.336    0.576    0.318  209.631   73.521
  451.634    3.458    0.572    0.352  205.673   65.949
  451.884    3.488    0.564    0.353  203.194   57.794
  452.134    3.455    0.542    0.332  203.178   54.876
  452.384    3.455    0.527    0.315  203.160   52.540
  452.634    3.391    0.449    0.304  202.653   50.785
  452.884    3.240    0.432    0.305  202.143   49.903
  453.134    3.068    0.425    0.309  202.129   49.892
  453.384    2.931    0.424    0.312  202.111   50.465
  453.634    2.800    0.462    0.317  201.108   51.619
  453.884    2.699    0.478    0.311  200.102   52.191
  454.134    2.602    0.474    0.325  200.088   54.799
  454.384    2.555    0.462    0.331  200.072   54.786
  454.634    2.554    0.454    0.330  200.547   56.522
  454.884    2.530    0.453    0.331  201.027   58.260
  455.134    2.506    0.472    0.329  201.499   60.868
  455.384    2.483    0.475    0.331  201.485   62.021
  455.634    2.438    0.471    0.334  200.975   61.717
  455.884    2.415    0.472    0.334  200.957   61.129
  456.134    2.371    0.467    0.337  200.941   55.882
  456.384    2.370    0.446    0.336  201.415   54.709
  456.634    2.369    0.446    0.335  202.388   56.735
  456.884    2.368    0.460    0.334  203.355   59.924
  457.134    2.411    0.459    0.325  203.339   63.406
  457.384    2.568    0.467    0.310  203.319   69.794
  457.634    2.735    0.480    0.301  203.305   71.240
  457.884    2.913    0.561    0.291  204.272   76.174
  458.134    3.246    0.554    0.276  204.750   75.001
  458.384    3.552    0.562    0.266  204.732   72.664
  458.634    3.649    0.575    0.271  204.714   70.909
  458.884    3.615    0.551    0.282  204.696   68.864
  459.134    3.517    0.527    0.277  203.699   63.909
  459.384    3.300    0.493    0.286  201.218   60.991
  459.634    3.013    0.477    0.311  199.232   58.943
  459.884    2.702    0.445    0.336  198.227   55.445
  460.134    2.512    0.438    0.330  197.229   53.398
  460.384    2.444    0.471    0.308  195.732   53.098
  460.634    2.378    0.471    0.310  195.221   53.669
  460.884    2.355    0.454    0.321  194.717   55.115
  461.134    2.355    0.451    0.321  194.204   58.303
  461.384    2.354    0.471    0.320  194.680   59.748
  461.634    2.353    0.471    0.327  194.666   60.902
  461.884    2.352    0.465    0.327  194.650   60.893
  462.134    2.351    0.460    0.327  194.632   60.301
  462.384    2.351    0.455    0.329  195.106   59.998
  462.634    2.350    0.436    0.329  195.090   59.700
  462.884    2.349    0.437    0.332  195.074   59.979
  463.134    2.370    0.442    0.335  196.039   60.552
  463.384    2.369    0.445    0.334  196.025   57.632
  463.634    2.390    0.458    0.340  196.009   55.877
  463.884    2.410    0.458    0.330  195.993   55.286
  464.134    2.432    0.464    0.337  195.482   55.568
  464.384    2.453    0.475    0.338  194.974   56.721
  464.634    2.474    0.468    0.333  195.448   57.292
  464.884    2.473    0.469    0.320  195.927   58.446
  465.134    2.473    0.469    0.317  197.388   59.599
  465.384    2.472    0.445    0.314  198.850   59.298
  465.634    2.449    0.444    0.318  198.831   59.291
  465.884    2.426    0.456    0.333  197.828   59.281
  466.134    2.425    0.466    0.330  196.333   60.142
  466.384    2.424    0.490    0.331  194.839   59.843
  466.634    2.423    0.486    0.327  193.840   57.795
  466.884    2.444    0.484    0.324  191.852   57.205
  467.134    2.444    0.490    0.314  189.863   60.685
  467.384    2.465    0.494    0.314  188.864   64.749
  467.634    2.487    0.507    0.326  187.861   64.444
  467.884    2.508    0.524    0.326  187.353   63.273
  468.134    2.507    0.528    0.331  187.336   61.809
  468.384    2.529    0.502    0.312  188.301   59.761
  468.634    2.552    0.481    0.310  188.780   58.009
  468.884    2.669    0.507    0.303  191.224   56.544
  469.134    2.717    0.486    0.293  193.180   57.986
  469.384    2.716    0.485    0.302  194.147   59.724
  469.634    2.690    0.503    0.326  194.131   60.003
  469.884    2.594    0.486    0.319  194.606   58.829
  470.134    2.546    0.483    0.314  193.606   58.240
  470.384    2.545    0.492    0.311  191.618   59.102
  470.634    2.568    0.489    0.306  189.632   60.548
  470.884    2.590    0.485    0.302  188.138   62.284
  471.134    2.589    0.501    0.312  190.090   63.146
  471.384    2.589    0.519    0.312  195.000   63.136
  471.634    2.588    0.515    0.304  195.476   62.544
  471.884    2.587    0.509    0.307  194.471   61.952
  472.134    2.609    0.519    0.300  194.457   60.197
  472.384    2.656    0.515    0.299  194.933   59.023
  472.634    2.728    0.491    0.328  194.917   59.013
  472.884    2.777    0.502    0.335  194.901   59.876
  473.134    2.776    0.524    0.336  194.883   60.450
  473.384    2.800    0.523    0.331  194.867   59.566
  473.634    2.800    0.500    0.313  194.851   58.394
  473.884    2.799    0.493    0.310  195.327   57.511
  474.134    2.823    0.509    0.317  195.802   57.501
  474.384    2.848    0.508    0.317  196.769   58.363
  474.634    2.899    0.487    0.312  197.245   59.226
  474.884    2.924    0.484    0.301  195.751   60.961
  475.134    2.923    0.474    0.294  194.748   62.405
  475.384    2.949    0.464    0.283  193.747   63.268
  475.634    3.084    0.437    0.267  192.744   65.296
  475.884    3.255    0.376    0.263  193.224   64.994
  476.134    3.467    0.315    0.226  199.609   65.858
  476.384    3.864    0.273    0.179  203.531   70.211
  476.634    4.546    0.250    0.080  206.961   70.492
  476.884    5.547    0.272    0.089  207.439   70.192
  477.134    6.015    0.285    0.108  205.941   70.473
  477.384    5.643    0.327    0.152  203.955   71.916
  477.634    5.107    0.418    0.187  202.460   73.069
  477.884    4.108    0.503    0.240  201.955   72.188
  478.134    3.553    0.523    0.298  200.459   67.815
