~VERSION INFORMATION
 VERS.                 2.0:   CWLS LOG ASCII STANDARD -VERSION 2.0
 WRAP.                  NO:   ONE LINE PER DEPTH STEP
~WELL INFORMATION BLOCK
#MNEM.UNIT           DATA                    DESCRIPTION OF MNEMONIC
#---------    -------------------            -------------------------------
# Generated from Intellog Unique Number	CW_79_81/WELL/2491
WELL.         14-17-081-24W4                 : Well_name    - WELL
LOC .         00/14-17-081-24W4/0            : Location     - LOCATION
UWI .         00/14-17-081-24W4/0            : Uwi          - UNIQUE WELL ID
ENTR.         MAX                            : Entered      - ENTERED BY
SRVC.         WESTERN ATLAS                  : Scn          - SERVICE COMPANY
STRT.M        215                            : top_depth    - START DEPTH
STOP.M        459.75                         : bot_depth    - STOP DEPTH
STEP.M        0.25                           : increment    - STEP LENGTH
 NULL. -999.2500:NULL Value
~CURVE INFORMATION BLOCK
#MNEM UNIT       ERCB CURVE CODE    CURVE DESCRIPTION
#-----------   ------------------   ----------------------------------
DEPT.M        00 001 00 00         : DEPTH        - DEPTH
ILD .OHMM     00 120 00 00         : RESD         - DEEP RESISTIVITY (DIL)
NPHI.V/V      00 330 00 00         : PHIN         - NEUTRON POROSITY (SANDSTONE)
DPHI.V/V      00 890 00 00         : PHID         - DENSITY POROSITY (SANDSTONE)
GR  .API      00 310 00 00         : GR           - GAMMA RAY
CALI.MM       00 280 01 00         : CAL          - CALIPER
~PARAMETER INFORMATION
#MNEM.UNIT           DATA             DESCRIPTION OF MNEMONIC
#---------         -----------     ------------------------------
GL  .M        602.08               : gl           - GROUND LEVEL ELEVATION
EREF.M        605.78               : kb           - ELEVATION OF DEPTH REFERENCE
DATM.M        602.08               : datum        - DATUM ELEVATION
TDD .M        462                  : tdd          - TOTAL DEPTH DRILLER
RUN .         ONE                  : Run          - RUN NUMBER
ENG .         BILL                 : Engineer     - RECORDING ENGINEER
WIT .         JIM                  : Witness      - WITNESSED BY
MUD .         GEL                  : Mud_type     - MUD TYPE
MATR.         SANDSTONE            : Logunit      - NEUTRON MATRIX
TMAX.C        22                   : BHT          - MAXIMUM RECORDED TEMPERATURE
BHTD.M        462                  : BHTDEP       - MAXIMUM RECORDED TEMPERATURE
MATR.         1                    : LOGUNIT      - NEUTRON MATRIX
RMT .C        13                   : MDTP         - TEMPERATURE OF MUD
NEUT.         1                    : NEUTRON      - NEUTRON TYPE
RESI.         0                    : RESIST       - RESISTIVITY TYPE
RMC .OHMM     4.2                  : RMC          - RESISTIVITY OF MUD CAKE
RMF .OHMM     2.5                  : RMF          - RESISTIVITY OF MUD FILTRATE
SUFT.C        -20                  : SUFT         - SURFACE TEMPERATURE
~A  DEPTH     RESD     PHIN     PHID       GR      CAL
# ...
  434.000   18.046    0.328    0.176  100.035  225.374
  434.250   19.523    0.309    0.233   89.951  225.763
  434.500   21.572    0.286    0.258   74.591  224.686
  434.750   24.601    0.248    0.297   58.761  223.120
  435.000   28.896    0.210    0.348   48.091  221.945
  435.250   35.263    0.214    0.355   48.832  222.024
  435.500   43.399    0.228    0.351   47.854  222.428
  435.750   45.630    0.232    0.348   46.211  222.817
  436.000   40.088    0.234    0.358   46.151  222.912
  436.250   32.033    0.238    0.364   47.087  223.301
  436.500   25.499    0.244    0.361   48.551  223.982
  436.750   20.254    0.253    0.350   50.728  224.451
  437.000   16.111    0.262    0.346   53.413  224.856
  437.250   13.687    0.267    0.344   55.757  225.245
  437.500   12.196    0.279    0.344   58.452  225.926
  437.750   11.441    0.289    0.337   61.030  226.510
  438.000   11.293    0.300    0.320   63.432  226.605
  438.250   11.810    0.318    0.260   66.644  225.984
  438.500   12.357    0.297    0.101   69.819  226.795
  438.750   12.533    0.293    0.142   71.224  226.012
  439.000   12.642    0.295    0.186   68.409  225.813
  439.250   12.499    0.298    0.212   63.952  225.811
  439.500   12.092    0.300    0.218   60.727  225.809
  439.750   11.413    0.307    0.227   61.800  225.806
  440.000   10.664    0.319    0.249   61.310  225.803
  440.250   10.203    0.336    0.272   57.791  225.801
  440.500    9.981    0.337    0.288   53.217  225.799
  440.750    9.906    0.334    0.296   51.340  225.992
  441.000    9.956    0.336    0.298   52.980  226.282
  441.250   10.306    0.350    0.298   56.710  226.279
  441.500   11.031    0.348    0.286   60.128  226.276
  441.750   11.934    0.353    0.285   61.768  227.056
  442.000   13.323    0.357    0.278   62.353  227.835
  442.250   15.217    0.355    0.259   62.703  228.810
  442.500   17.057    0.348    0.233   63.757  229.785
  442.750   16.444    0.335    0.198   67.497  230.092
  443.000   13.561    0.322    0.101   72.137  229.682
  443.250   11.960    0.320    0.103   78.466  229.680
  443.500   10.497    0.328    0.128   86.378  229.677
  443.750    9.464    0.334    0.147   93.060  229.675
  444.000    8.773    0.337    0.150   99.682  229.281
  444.250    8.292    0.349    0.156  112.235  227.471
  444.500    8.674    0.371    0.165  116.386  226.247
  444.750    9.385    0.360    0.187   99.269  227.026
  445.000   10.852    0.349    0.244   85.491  227.512
  445.250   13.973    0.337    0.275   77.986  227.120
  445.500   19.516    0.330    0.263   75.698  226.238
  445.750   22.674    0.344    0.232   73.537  226.234
  446.000   23.904    0.348    0.211   73.291  226.231
  446.250   24.245    0.344    0.191   74.697  226.230
  446.500   23.796    0.340    0.180   76.981  226.521
  446.750   22.417    0.332    0.187   78.738  226.714
  447.000   20.427    0.324    0.205   79.030  226.614
  447.250   18.141    0.326    0.206   77.826  226.139
  447.500   17.206    0.337    0.170   80.023  225.729
  447.750   15.985    0.330    0.048   80.725  225.336
  448.000   14.688    0.307    0.110   78.965  225.236
  448.250   12.988    0.300    0.198   79.081  225.429
  448.500   11.117    0.313    0.234   81.776  225.817
  448.750    8.936    0.322    0.210   84.608  226.286
  449.000    7.058    0.327    0.183   87.049  226.692
  449.250    5.906    0.335    0.200   86.579  227.080
  449.500    5.337    0.351    0.209   87.691  227.468
  449.750    5.076    0.369    0.206   90.620  227.856
  450.000    5.064    0.377    0.186   94.429  228.147
  450.250    5.459    0.355    0.143   95.591  228.226
  450.500    5.980    0.341    0.120   88.505  228.631
  450.750    7.039    0.355    0.134   95.069  228.628
  451.000    7.767    0.355    0.178   98.996  228.626
  451.250    8.576    0.323    0.238   97.588  228.623
  451.500    9.810    0.277    0.297   90.552  228.719
  451.750   11.628    0.284    0.336   79.998  229.269
  452.000   13.136    0.322    0.323   79.997  230.081
  452.250   12.755    0.368    0.315   84.685  230.860
  452.500   11.574    0.395    0.327   89.373  231.346
  452.750    9.975    0.417    0.365   91.951  231.735
  453.000    8.551    0.437    0.403   91.539  232.026
  453.250    7.470    0.451    0.378   88.831  232.104
  453.500    6.578    0.435    0.348   90.540  232.509
  453.750    6.248    0.422    0.314   98.510  232.897
  454.000    6.270    0.415    0.262   99.799  232.993
  454.250    6.268    0.412    0.250   97.570  233.186
  454.500    6.142    0.409    0.262   95.516  233.281
  454.750    5.995    0.396    0.197   98.006  232.252
  455.000    5.728    0.390    0.153   98.737  231.029
  455.250    5.644    0.397    0.156   97.329  229.463
  455.500    5.837    0.399    0.153   96.624  228.777
  455.750    6.139    0.392    0.154   96.974  228.579
  456.000    6.479    0.377    0.168   97.325  228.577
  456.250    6.927    0.362    0.204   95.066  228.574
  456.500    6.978    0.357    0.238   94.332  228.571
  456.750    6.824    0.371    0.230   96.441  227.787
  457.000    6.822    0.390    0.197   96.791  224.951
  457.250    7.042    0.394    0.183   96.204  220.260
  457.500    7.512    0.378    0.195   94.796  215.177
  457.750    8.272    0.361    0.196   91.931  211.787
  458.000    8.655    0.355    0.198   91.685  208.528
  458.250    9.034    0.358    0.220   92.387  205.399
  458.500    9.083    0.369    0.233   92.386  202.270
  458.750    8.882    0.387    0.241   92.150  199.728
  459.000    8.610    0.403    0.244   91.972  198.064
  459.250    8.496    0.404    0.247   91.922  197.605
  459.500    8.557    0.409    0.259   91.676  199.231
  459.750    8.869    0.373    0.270   90.972  199.620
