~VERSION INFORMATION
 VERS.                 2.0:   CWLS LOG ASCII STANDARD -VERSION 2.0
 WRAP.                  NO:   ONE LINE PER DEPTH STEP
~WELL INFORMATION BLOCK
#MNEM.UNIT           DATA                    DESCRIPTION OF MNEMONIC
#---------    -------------------            -------------------------------
# Generated from Intellog Unique Number	CC_80_83/WELL/2392
NULL.         -999.25                        : NULL_VALUE
WELL.         BVX ET ALWATCHUSK              : Well_name    - WELL
LOC .         11-08-082-04W4                 : Location     - LOCATION          
UWI .         00/11-08-082-04W4/0            : Uwi          - UNIQUE WELL ID    
ENTR.         DW                             : Entered      - ENTERED BY        
SRVC.         SCHLUMBERGER                   : Scn          - SERVICE COMPANY   
DATE.         13 FEB 78                      : Date         - LOG DATE
STRT.M        97.536                         : top_depth    - START DEPTH       
STOP.M        307.847                        : bot_depth    - STOP DEPTH        
STEP.M        0.3048                         : increment    - STEP LENGTH       
~CURVE INFORMATION BLOCK
#MNEM UNIT       ERCB CURVE CODE    CURVE DESCRIPTION
#-----------   ------------------   ----------------------------------
DEPT.M        00 001 00 00         : DEPTH        - DEPTH                       
DPHI.V/V      00 890 00 00         : PHID         - DENSITY POROSITY (LIMESTONE)
NPHI.V/V      00 330 00 00         : PHIN         - NEUTRON POROSITY (LIMESTONE)
GR  .API      00 310 00 00         : GR           - GAMMA RAY                   
ILD .OHMM     00 120 00 00         : RESD         - DEEP RESISTIVITY (DIL)      
~PARAMETER INFORMATION       
#MNEM.UNIT           DATA             DESCRIPTION OF MNEMONIC
#---------         -----------     ------------------------------
GL  .M        457.2                : gl           - GROUND LEVEL ELEVATION      
EREF.M        460.248              : kb           - ELEVATION OF DEPTH REFERENCE
DATM.M        460.248              : datum        - DATUM ELEVATION             
TDD .M        320.04               : tdd          - TOTAL DEPTH DRILLER         
RUN .         ONE                  : Run          - RUN NUMBER                  
ENG .         BILL                 : Engineer     - RECORDING ENGINEER          
WIT .         JIM                  : Witness      - WITNESSED BY                
MUD .         GEL                  : Mud_type     - MUD TYPE                    
MATR.         LIMESTONE            : Logunit      - NEUTRON MATRIX              
TMAX.C        20                   : BHT          - MAXIMUM RECORDED TEMPERATURE
BHTD.M        320.04               : BHTDEP       - MAXIMUM RECORDED TEMPERATURE
MATR.         1                    : LOGUNIT      - NEUTRON MATRIX              
RMT .C        25                   : MDTP         - TEMPERATURE OF MUD          
NEUT.         1                    : NEUTRON      - NEUTRON TYPE                
RESI.         0                    : RESIST       - RESISTIVITY TYPE            
RMC .OHMM     0.25                 : RMC          - RESISTIVITY OF MUD CAKE     
RMF .OHMM     0.25                 : RMF          - RESISTIVITY OF MUD FILTRATE 
SUFT.C        15                   : SUFT         - SURFACE TEMPERATURE         
~A  DEPTH     PHID     PHIN       GR     RESD
# ...
  203.605    0.252    0.402   88.272    2.642
  203.910    0.241    0.392   90.124    2.641
  204.215    0.247    0.388   86.420    2.541
  204.520    0.250    0.388   73.457    2.446
  204.824    0.264    0.428   66.667    2.266
  205.129    0.285    0.422   63.580    2.021
  205.434    0.259    0.413   77.160    1.908
  205.739    0.244    0.429   83.333    1.944
  206.044    0.255    0.413   74.691    1.943
  206.348    0.292    0.406   66.049    1.766
  206.653    0.312    0.424   61.111    1.668
  206.958    0.318    0.414   48.765    1.516
  207.263    0.299    0.402   52.469    1.459
  207.568    0.276    0.398   82.716    1.458
  207.872    0.298    0.411   74.691    1.542
  208.177    0.291    0.385   75.926    1.601
  208.482    0.270    0.370   95.062    1.600
  208.787    0.282    0.445   83.951    1.569
  209.091    0.301    0.455   70.370    1.510
  209.396    0.315    0.423   67.284    1.481
  209.701    0.278    0.380   66.667    1.537
  210.006    0.223    0.377   78.395    1.657
  210.311    0.266    0.411   69.136    1.656
  210.615    0.304    0.402   58.025    1.534
  210.920    0.304    0.396   58.025    1.421
  211.225    0.296    0.393   63.580    1.394
  211.530    0.288    0.392   77.778    1.447
  211.835    0.250    0.390   80.864    1.651
  212.139    0.261    0.424   77.160    1.814
  212.444    0.270    0.421   72.840    1.883
  212.749    0.278    0.439   76.543    1.812
  213.054    0.312    0.433   75.926    1.744
  213.359    0.289    0.414   54.321    1.556
  213.663    0.255    0.405   67.901    1.286
  213.968    0.247    0.391   70.370    1.361
  214.273    0.297    0.417   57.407    1.413
  214.578    0.311    0.435   48.765    1.412
  214.883    0.296    0.437   46.914    1.359
  215.187    0.287    0.429   51.852    1.283
  215.492    0.283    0.408   71.605    1.331
  215.797    0.246    0.391   83.333    1.519
  216.102    0.266    0.433   77.778    1.669
  216.407    0.287    0.440   57.407    1.766
  216.711    0.297    0.409   67.901    1.799
  217.016    0.280    0.409   74.074    1.730
  217.321    0.270    0.422   72.222    1.544
  217.626    0.312    0.405   65.432    1.486
  217.931    0.324    0.396   60.494    1.376
  218.235    0.286    0.393   61.111    1.402
  218.540    0.303    0.421   61.111    1.455
  218.845    0.309    0.429   62.963    1.482
  219.150    0.323    0.440   59.259    1.454
  219.454    0.336    0.447   43.827    1.347
  219.759    0.339    0.447   41.358    1.271
  220.064    0.308    0.424   50.617    1.247
  220.369    0.291    0.444   68.519    1.246
  220.674    0.277    0.435   62.963    1.318
  220.978    0.277    0.406   61.111    1.394
  221.283    0.282    0.417   64.198    1.393
  221.588    0.293    0.413   53.086    1.367
  221.893    0.306    0.398   54.938    1.315
  222.198    0.307    0.390   64.198    1.266
  222.502    0.294    0.381   76.543    1.195
  222.807    0.288    0.392   77.778    1.172
  223.112    0.314    0.396   64.198    1.194
  223.417    0.308    0.413   54.938    1.239
  223.722    0.286    0.395   53.086    1.262
  224.026    0.281    0.390   62.346    1.387
  224.331    0.271    0.422   71.605    1.876
  224.636    0.254    0.391   74.074    2.141
  224.941    0.230    0.412   73.457    2.352
  225.246    0.286    0.402   58.642    2.221
  225.550    0.315    0.392   40.123    1.735
  225.855    0.298    0.409   41.975    1.490
  226.160    0.289    0.413   43.827    1.381
  226.465    0.291    0.413   39.506    1.255
  226.770    0.320    0.384   25.926    1.255
  227.074    0.330    0.359   26.543    1.254
  227.379    0.325    0.382   29.012    1.253
  227.684    0.309    0.390   30.247    1.206
  227.989    0.291    0.376   30.247    1.160
  228.294    0.282    0.397   30.247    1.227
  228.598    0.283    0.429   31.482    1.374
  228.903    0.288    0.401   29.630    1.427
  229.208    0.299    0.390   28.395    1.453
  229.513    0.309    0.369   28.395    1.372
  229.817    0.317    0.396   30.247    1.247
  230.122    0.330    0.416   32.716    1.200
  230.427    0.340    0.417   32.716    1.133
  230.732    0.333    0.409   32.099    1.091
  231.037    0.325    0.402   32.099    1.070
  231.341    0.330    0.397   35.185    1.069
  231.646    0.330    0.392   38.272    1.131
  231.951    0.315    0.406   44.444    1.196
  232.256    0.266    0.423   60.494    1.314
  232.561    0.273    0.459   69.753    1.587
  232.865    0.315    0.443   77.160    1.617
  233.170    0.303    0.449   86.420    1.555
  233.475    0.291    0.455  121.605    1.555
  233.780    0.283    0.442  151.235    1.808
  234.085    0.247    0.390  164.815    2.268
  234.389    0.251    0.356  166.667    2.399
  234.694    0.272    0.345  155.556    2.181
  234.999    0.298    0.365   45.679    1.909
  235.304    0.325    0.481   47.531    1.769
  235.609    0.341    0.507   50.000    1.702
  235.913    0.339    0.544   50.617    1.607
  236.218    0.328    0.489   50.617    1.547
  236.523    0.311    0.460   50.617    1.460
  236.828    0.308    0.443   51.852    1.353
  237.133    0.317    0.431   56.790    1.302
  237.437    0.333    0.431   59.877    1.253
  237.742    0.336    0.459   62.963    1.252
  238.047    0.341    0.484   59.259    1.275
  238.352    0.338    0.470   54.938    1.349
  238.657    0.328    0.450   53.086    1.401
  238.961    0.302    0.429   53.086    1.481
  239.266    0.276    0.407   51.852    1.597
  239.571    0.256    0.407   50.000    1.626
  239.876    0.277    0.438   44.444    1.657
  240.180    0.286    0.423   41.358    1.625
  240.485    0.285    0.418   41.358    1.477
  240.790    0.327    0.448   45.679    1.269
  241.095    0.324    0.465   46.296    1.221
  241.400    0.332    0.473   43.210    1.174
  241.704    0.332    0.456   42.593    1.174
  242.009    0.319    0.424   45.062    1.315
  242.314    0.296    0.391   48.765    1.558
  242.619    0.262    0.413   56.790    1.777
  242.924    0.276    0.417   69.136    1.916
  243.228    0.278    0.403   70.370    2.066
  243.533    0.276    0.401   67.284    2.185
  243.838    0.278    0.403   64.815    2.184
  244.143    0.273    0.402   66.049    2.102
  244.448    0.257    0.402   65.432    2.023
  244.752    0.262    0.418   60.494    2.021
  245.057    0.276    0.428   58.642    2.138
  245.362    0.271    0.421   59.877    2.178
  245.667    0.272    0.413   60.494    2.218
  245.972    0.272    0.405   59.877    2.217
  246.276    0.268    0.393   59.259    2.134
  246.581    0.257    0.402   59.259    2.015
  246.886    0.275    0.419   59.877    2.014
  247.191    0.270    0.406   61.111    2.129
  247.496    0.239    0.391   63.580    2.210
  247.800    0.266    0.391   64.815    2.294
  248.105    0.250    0.390   67.284    2.337
  248.410    0.235    0.387   67.901    2.336
  248.715    0.244    0.387   64.815    2.425
  249.020    0.247    0.391   64.815    2.424
  249.324    0.251    0.391   66.049    2.376
  249.629    0.251    0.390   64.815    2.331
  249.934    0.255    0.387   61.111    2.200
  250.239    0.250    0.386   61.728    2.199
  250.544    0.239    0.377   63.580    2.240
  250.848    0.235    0.377   61.111    2.239
  251.153    0.265    0.396   53.086    2.154
  251.458    0.311    0.424   48.765    1.621
  251.763    0.329    0.435   45.062    1.446
  252.067    0.303    0.437   45.062    1.391
  252.372    0.328    0.423   45.062    1.391
  252.677    0.336    0.423   46.914    1.443
  252.982    0.313    0.427   47.531    1.526
  253.287    0.296    0.424   45.679    1.555
  253.591    0.311    0.433   43.827    1.554
  253.896    0.317    0.439   43.827    1.467
  254.201    0.311    0.434   45.062    1.412
  254.506    0.294    0.417   45.679    1.411
  254.811    0.275    0.413   47.531    1.437
  255.115    0.286    0.417   47.531    1.550
  255.420    0.320    0.424   46.914    1.519
  255.725    0.324    0.434   47.531    1.462
  256.030    0.334    0.444   45.679    1.381
  256.335    0.307    0.452   45.062    1.279
