~VERSION INFORMATION
 VERS.                 2.0:   CWLS LOG ASCII STANDARD -VERSION 2.0
 WRAP.                  NO:   ONE LINE PER DEPTH STEP
~WELL INFORMATION BLOCK
#MNEM.UNIT           DATA                    DESCRIPTION OF MNEMONIC
#---------    -------------------            -------------------------------
# Generated from Intellog Unique Number	CS_77_79/WELL/951
WELL.         B0W VALLEY EXPLORATION         : Well_name    - WELL
LOC .         00/10-13-077-15W4/0            : Location     - LOCATION
UWI .         00/10-13-077-15W4/0            : Uwi          - UNIQUE WELL ID
ENTR.         SP                             : Entered      - ENTERED BY
SRVC.         SCHLUMBERGER                   : Scn          - SERVICE COMPANY
STRT.M        280                            : top_depth    - START DEPTH
STOP.M        530                            : bot_depth    - STOP DEPTH
STEP.M        0.25                           : increment    - STEP LENGTH
 NULL. -999.2500:NULL Value
~CURVE INFORMATION BLOCK
#MNEM UNIT       ERCB CURVE CODE    CURVE DESCRIPTION
#-----------   ------------------   ----------------------------------
DEPT.M        00 001 00 00         : DEPTH        - DEPTH
GR  .API      00 310 00 00         : GR           - GAMMA RAY
DPHI.V/V      00 890 00 00         : PHID         - DENSITY POROSITY (LIMESTONE)
NPHI.V/V      00 330 00 00         : PHIN         - NEUTRON POROSITY (LIMESTONE)
ILD .OHMM     00 120 00 00         : RESD         - DEEP RESISTIVITY (DIL)
~PARAMETER INFORMATION
#MNEM.UNIT           DATA             DESCRIPTION OF MNEMONIC
#---------         -----------     ------------------------------
GL  .M        675.4                : gl           - GROUND LEVEL ELEVATION
EREF.M        678.9                : kb           - ELEVATION OF DEPTH REFERENCE
DATM.M        675.4                : datum        - DATUM ELEVATION
TDD .M        537                  : tdd          - TOTAL DEPTH DRILLER
RUN .         ONE                  : Run          - RUN NUMBER
ENG .         BILL                 : Engineer     - RECORDING ENGINEER
WIT .         JIM                  : Witness      - WITNESSED BY
MUD .         GEL                  : Mud_type     - MUD TYPE
MATR.         LIMESTONE            : Logunit      - NEUTRON MATRIX
TMAX.C        21                   : BHT          - MAXIMUM RECORDED TEMPERATURE
BHTD.M        537                  : BHTDEP       - MAXIMUM RECORDED TEMPERATURE
MATR.         1                    : LOGUNIT      - NEUTRON MATRIX
RMT .C        25                   : MDTP         - TEMPERATURE OF MUD
NEUT.         1                    : NEUTRON      - NEUTRON TYPE
RESI.         0                    : RESIST       - RESISTIVITY TYPE
RMC .OHMM     0.25                 : RMC          - RESISTIVITY OF MUD CAKE
RMF .OHMM     0.25                 : RMF          - RESISTIVITY OF MUD FILTRATE
SUFT.C        15                   : SUFT         - SURFACE TEMPERATURE
~A  DEPTH       GR     PHID     PHIN     RESD
# ...
  367.000   42.264    0.002    0.127   59.464
  367.250   42.271    0.000    0.129   59.461
  367.500   39.866    0.000    0.130   57.281
  367.750   42.284    0.000    0.135   57.278
  368.000   43.492    0.000    0.140   54.159
  368.250   45.306    0.013    0.142   53.157
  368.500   45.309    0.026    0.147   51.211
  368.750   44.111    0.017    0.151   49.335
  369.000   43.516    0.000    0.162   45.789
  369.250   42.313    0.000    0.178   43.299
  369.500   40.513    0.000    0.187   35.940
  369.750   41.121    0.002    0.152   30.392
  370.000   44.139    0.040    0.141   25.701
  370.250   45.951    0.069    0.209   21.734
  370.500   48.368    0.167    0.300   18.041
  370.750   48.973    0.240    0.320   15.835
  371.000   51.389    0.288    0.327   14.697
  371.250   54.407    0.312    0.448   13.897
  371.500   56.220    0.315    0.427   13.640
  371.750   59.240    0.315    0.418   13.140
  372.000   61.051    0.313    0.436   12.897
  372.250   64.070    0.309    0.446   12.895
  372.500   65.278    0.306    0.447   12.657
  372.750   68.899    0.302    0.450   12.422
  373.000   72.520    0.310    0.468   12.191
  373.250   74.933    0.306    0.480   11.966
  373.500   74.939    0.292    0.487   11.527
  373.750   71.932    0.297    0.483   11.105
  374.000   70.733    0.298    0.464   10.501
  374.250   71.943    0.289    0.452    9.567
  374.500   74.360    0.276    0.463    8.090
  374.750   75.569    0.295    0.480    6.233
  375.000   76.176    0.304    0.500    5.370
  375.250   73.773    0.314    0.520    4.458
  375.500   73.176    0.319    0.538    4.541
  375.750   76.193    0.307    0.511    4.892
  376.000   78.608    0.276    0.489    5.572
  376.250   79.819    0.234    0.498    6.002
  376.500   76.812    0.212    0.493    6.347
  376.750   74.409    0.165    0.422    6.346
  377.000   74.413    0.142    0.393    5.170
  377.250   80.444    0.132    0.406    4.455
  377.500   84.665    0.167    0.428    4.212
  377.750   88.889    0.198    0.454    4.537
  378.000   91.905    0.221    0.474    5.168
  378.250   94.923    0.240    0.472    5.465
  378.500   93.723    0.238    0.464    5.779
  378.750   91.319    0.223    0.455    6.110
  379.000   92.530    0.206    0.455    6.460
  379.250   92.535    0.222    0.463    6.581
  379.500   91.938    0.236    0.457    6.831
  379.750   87.727    0.217    0.454    6.958
  380.000   85.322    0.230    0.472    7.088
  380.250   84.124    0.239    0.483    7.221
  380.500   86.540    0.236    0.476    7.220
  380.750   87.748    0.233    0.464    7.220
  381.000   85.947    0.242    0.470    6.955
  381.250   84.747    0.219    0.467    6.577
  381.500   85.356    0.221    0.439    5.992
  381.750   86.567    0.217    0.441    5.666
  382.000   88.379    0.202    0.452    5.259
  382.250   90.192    0.194    0.468    5.066
  382.500   90.800    0.204    0.455    4.972
  382.750   89.600    0.216    0.462    5.065
  383.000   87.196    0.228    0.494    5.356
  383.250   85.393    0.234    0.507    5.663
  383.500   84.798    0.246    0.495    6.572
  383.750   84.803    0.256    0.485    6.949
  384.000   85.411    0.264    0.485    7.347
  384.250   86.620    0.275    0.468    7.347
  384.500   81.204    0.299    0.459    6.947
  384.750   75.788    0.283    0.467    5.556
  385.000   74.587    0.316    0.459    3.973
  385.250   83.630    0.303    0.449    3.237
  385.500   89.660    0.265    0.459    2.949
  385.750   94.484    0.249    0.485    2.789
  386.000   98.706    0.236    0.511    2.541
  386.250   98.713    0.241    0.545    2.447
  386.500   98.718    0.246    0.600    2.402
  386.750   98.724    0.253    0.580    2.358
  387.000   96.319    0.246    0.560    2.357
  387.250   95.722    0.248    0.538    2.357
  387.500   97.535    0.263    0.529    2.314
  387.750   98.143    0.275    0.554    2.313
  388.000  103.570    0.273    0.567    2.357
  388.250  105.985    0.272    0.565    2.401
  388.500  100.570    0.287    0.557    2.492
  388.750   96.360    0.271    0.560    2.634
  389.000   94.555    0.267    0.540    2.891
  389.250   92.152    0.260    0.536    3.173
  389.500   89.747    0.250    0.536    3.482
  389.750   87.945    0.247    0.533    4.436
  390.000   85.541    0.253    0.524    5.546
  390.250   80.727    0.292    0.512    6.806
  390.500   77.117    0.312    0.461    8.047
  390.750   73.508    0.295    0.438    8.831
  391.000   70.501    0.275    0.435    9.165
  391.250   68.701    0.258    0.439    9.164
  391.500   68.103    0.242    0.439    9.690
  391.750   65.698    0.261    0.432   10.834
  392.000   67.513    0.281    0.438   12.341
  392.250   68.118    0.261    0.439   14.323
  392.500   65.716    0.110    0.225   16.934
  392.750   62.105    0.013    0.193   18.934
  393.000   59.099    0.000    0.183   20.020
  393.250   54.887    0.020    0.202   17.572
  393.500   57.304    0.047    0.231   14.053
  393.750   59.719    0.075    0.253   11.449
  394.000   60.325    0.137    0.290   10.430
  394.250   59.729    0.267    0.422    9.681
  394.500   57.928    0.323    0.434    9.326
  394.750   57.330    0.318    0.434    9.326
  395.000   56.130    0.323    0.429    9.324
  395.250   54.329    0.297    0.432    9.152
  395.500   53.732    0.295    0.435    9.151
  395.750   54.944    0.300    0.421    8.982
  396.000   55.550    0.292    0.409    8.815
  396.250   54.350    0.278    0.400    8.814
  396.500   53.754    0.285    0.401    8.651
  396.750   53.759    0.303    0.406    8.650
  397.000   53.162    0.312    0.409    8.490
  397.250   51.362    0.312    0.413    8.489
  397.500   50.765    0.329    0.418    8.332
  397.750   50.168    0.335    0.412    8.331
  398.000   50.775    0.332    0.417    8.177
  398.250   51.984    0.319    0.418    8.025
  398.500   55.606    0.308    0.413    8.025
  398.750   56.816    0.313    0.410    7.876
  399.000   58.026    0.320    0.412    7.875
  399.250   59.237    0.321    0.407    7.729
  399.500   61.653    0.340    0.405    7.446
  399.750   62.862    0.341    0.419    7.308
  400.000   65.278    0.339    0.427    7.173
  400.250   65.883    0.339    0.431    7.172
  400.500   68.903    0.337    0.434    7.039
  400.750   70.714    0.333    0.439    7.039
  401.000   73.732    0.319    0.443    7.038
  401.250   76.147    0.310    0.433    6.908
  401.500   77.961    0.303    0.425    6.907
  401.750   78.568    0.301    0.433    6.907
  402.000   77.369    0.309    0.441    6.779
  402.250   76.772    0.297    0.443    6.778
  402.500   77.982    0.291    0.435    6.777
  402.750   76.181    0.295    0.417    6.652
  403.000   74.981    0.293    0.414    6.651
  403.250   76.192    0.276    0.420    6.528
  403.500   76.799    0.252    0.430    6.407
  403.750   75.600    0.257    0.434    6.172
  404.000   76.208    0.275    0.441    5.946
  404.250   76.816    0.301    0.446    5.417
  404.500   76.821    0.310    0.448    5.028
  404.750   77.429    0.324    0.437    4.935
  405.000   78.638    0.293    0.430    4.754
  405.250   79.850    0.249    0.435    4.843
  405.500   79.252    0.230    0.460    5.217
  405.750   76.245    0.245    0.474    5.516
  406.000   74.444    0.271    0.483    5.725
  406.250   72.040    0.287    0.470    5.724
  406.500   70.840    0.278    0.454    5.618
  406.750   73.255    0.257    0.450    5.618
  407.000   76.877    0.228    0.461    5.514
  407.250   80.496    0.233    0.457    5.312
  407.500   83.513    0.246    0.441    5.214
  407.750   82.314    0.251    0.427    5.311
  408.000   81.719    0.259    0.423    5.410
  408.250   81.722    0.264    0.443    5.828
  408.500   79.921    0.292    0.458    6.163
  408.750   80.529    0.312    0.446    6.396
  409.000   82.946    0.275    0.436    6.516
  409.250   84.154    0.277    0.441    6.047
  409.500   87.171    0.277    0.448    5.613
  409.750   89.587    0.273    0.452    5.509
  410.000   90.195    0.260    0.435    5.508
  410.250   89.598    0.246    0.439    5.508
