~VERSION INFORMATION
 VERS.                 2.0:   CWLS LOG ASCII STANDARD -VERSION 2.0
 WRAP.                  NO:   ONE LINE PER DEPTH STEP
~WELL INFORMATION BLOCK
#MNEM.UNIT           DATA                    DESCRIPTION OF MNEMONIC
#---------    -------------------            -------------------------------
# Generated from Intellog Unique Number	CW_70_72/WELL/1075
NULL.         -999.25                        : NULL_VALUE
WELL.         WESTM ET AL CALLW 16-23        : Well_name    - WELL              
LOC .         16-23-071-20W4                 : Location     - LOCATION          
UWI .         00/16-23-071-20W4/0            : Uwi          - UNIQUE WELL ID    
ENTR.         JAYE                           : Entered      - ENTERED BY        
SRVC.         SCHLUMBERGER                   : Scn          - SERVICE COMPANY   
DATE.         21 FEB 84                      : Date         - LOG DATE          
STRT.M        315                            : top_depth    - START DEPTH       
STOP.M        510                            : bot_depth    - STOP DEPTH        
STEP.M        0.25                           : increment    - STEP LENGTH       
~CURVE INFORMATION BLOCK
#MNEM UNIT       ERCB CURVE CODE    CURVE DESCRIPTION
#-----------   ------------------   ----------------------------------
DEPT.M        00 001 00 00         : DEPTH        - DEPTH                       
DPHI.V/V      00 890 00 00         : PHID         - DENSITY POROSITY (SANDSTONE)
NPHI.V/V      00 330 00 00         : PHIN         - NEUTRON POROSITY (SANDSTONE)
GR  .API      00 310 00 00         : GR           - GAMMA RAY                   
CALI.MM       00 280 01 00         : CAL          - CALIPER                     
ILD .OHMM     00 120 00 00         : RESD         - DEEP RESISTIVITY (DIL)      
~PARAMETER INFORMATION       
#MNEM.UNIT           DATA             DESCRIPTION OF MNEMONIC
#---------         -----------     ------------------------------
GL  .M        586.4                : gl           - GROUND LEVEL ELEVATION      
EREF.M        588.9                : kb           - ELEVATION OF DEPTH REFERENCE
DATM.M        586.4                : datum        - DATUM ELEVATION             
TDD .M        518                  : tdd          - TOTAL DEPTH DRILLER         
RUN .         ONE                  : Run          - RUN NUMBER                  
ENG .         DOWNIE               : Engineer     - RECORDING ENGINEER          
WIT .         JACKSON              : Witness      - WITNESSED BY                
BASE.         EDSON                : Branch       - HOME BASE OF LOGGING UNIT   
MUD .         GEL CHEN             : Mud_type     - MUD TYPE                    
MATR.         SANDSTONE            : Logunit      - NEUTRON MATRIX              
TMAX.C        26                   : BHT          - MAXIMUM RECORDED TEMPERATURE
BHTD.M        517.3                : BHTDEP       - MAXIMUM RECORDED TEMPERATURE
RMT .C        18.9                 : MDTP         - TEMPERATURE OF MUD          
MUDD.KG/M     1170                 : MWT          - MUD DENSITY                 
NEUT.         1                    : NEUTRON      - NEUTRON TYPE                
RESI.         0                    : RESIST       - RESISTIVITY TYPE            
RM  .OHMM     4.57                 : RM           - RESISTIVITY OF MUD          
RMC .OHMM     0                    : RMC          - RESISTIVITY OF MUD CAKE     
RMF .OHMM     4.13                 : RMF          - RESISTIVITY OF MUD FILTRATE 
SUFT.C        0                    : SUFT         - SURFACE TEMPERATURE         
~A  DEPTH     PHID     PHIN       GR      CAL     RESD
  315.000    0.213    0.483   93.121  180.804    2.908
  315.250    0.219    0.477   94.318  179.672    3.002
  315.500    0.223    0.460   96.517  178.223    3.074
  315.750    0.222    0.435   95.649  176.776    3.091
  316.000    0.215    0.431   93.905  173.872    2.976
  316.250    0.212    0.480   92.975  171.175    2.859
  316.500    0.222    0.488   94.235  169.518    2.789
  316.750    0.225    0.466   93.430  168.280    2.771
  317.000    0.234    0.458   88.056  166.624    2.834
  317.250    0.262    0.465   62.595  164.137    3.025
  317.500    0.546    0.626   53.341  161.964    3.417
  317.750    0.531    0.669   62.862  161.141    4.054
  318.000    0.351    0.566   70.880  161.572    4.711
  318.250    0.296    0.391   70.138  162.420    5.749
  318.500    0.278    0.360   60.509  163.060    6.519
  318.750    0.248    0.330   55.699  163.072    7.186
  319.000    0.226    0.320   52.078  162.879    7.601
  319.250    0.228    0.349   49.707  162.372    7.845
  319.500    0.236    0.345   46.587  161.761    8.005
  319.750    0.242    0.348   50.851  161.566    8.154
  320.000    0.235    0.361   52.300  161.899    8.167
  320.250    0.221    0.376   49.804  162.115    8.240
  320.500    0.212    0.370   53.755  162.445    8.268
  320.750    0.221    0.353   56.892  162.876    8.327
  321.000    0.225    0.357   54.647  162.887    8.386
  321.250    0.153    0.345   41.827  162.691    8.606
  321.500    0.105    0.320   48.218  161.767    8.731
  321.750    0.146    0.280   59.179  160.217    8.599
  322.000    0.195    0.322   66.321  158.460    8.401
  322.250    0.241    0.407   69.083  156.594    8.013
  322.500    0.291    0.421   69.092  154.000    7.542
  322.750    0.307    0.436   67.724  153.078    7.259
  323.000    0.314    0.438   69.734  153.610    7.053
  323.250    0.299    0.424   73.748  156.547    6.906
  323.500    0.285    0.413   78.012  159.063    6.710
  323.750    0.266    0.414   81.838  161.894    6.424
  324.000    0.244    0.417   86.227  165.037    5.900
  324.250    0.230    0.427   91.242  167.240    5.189
  324.500    0.241    0.436   94.129  166.003    4.606
  324.750    0.247    0.417   94.325  160.176    4.262
  325.000    0.242    0.391   95.710  157.168    4.261
  325.250    0.235    0.377   96.407  160.207    4.455
  325.500    0.227    0.384   94.413  162.722    4.668
  325.750    0.221    0.385   94.046  163.986    4.873
  326.000    0.215    0.385   90.237  162.750    5.058
  326.250    0.217    0.396   85.302  158.696    5.152
  326.500    0.224    0.384   80.992  156.103    5.228
  326.750    0.233    0.365   78.309  155.283    5.294
  327.000    0.253    0.346   81.008  155.088    5.322
  327.250    0.270    0.359   82.394  154.792    5.331
  327.500    0.261    0.376   81.777  154.911    5.328
  327.750    0.250    0.369   79.219  155.444    5.356
  328.000    0.237    0.358   80.855  156.187    5.354
  328.250    0.239    0.351   84.556  156.934    5.320
  328.500    0.233    0.345   86.065  156.947    5.299
  328.750    0.224    0.358   84.196  156.544    5.337
  329.000    0.233    0.362   77.947  156.348    5.406
  329.250    0.234    0.360   80.709  155.841    5.473
  329.500    0.232    0.360   85.035  155.438    5.503
  329.750    0.248    0.361   78.848  154.931    5.409
  330.000    0.265    0.369   76.667  154.422    5.324
  330.250    0.272    0.379   79.741  154.226    5.136
  330.500    0.277    0.390   80.501  153.824    4.797
  330.750    0.288    0.400   79.571  153.317    4.431
  331.000    0.293    0.393   85.586  153.018    4.217
  331.250    0.289    0.403   91.478  153.345    4.052
  331.500    0.280    0.415   97.244  154.504    3.975
  331.750    0.264    0.425  104.574  157.857    3.878
  332.000    0.208    0.458  107.273  164.338    3.760
  332.250    0.173    0.491  103.589  170.609    3.593
  332.500    0.143    0.476  103.285  167.181    3.426
  332.750    0.165    0.459  108.926  166.257    3.249
  333.000    0.193    0.474  113.377  166.792    3.086
  333.250    0.191    0.506  112.947  166.494    2.938
  333.500    0.168    0.531  115.460  166.299    2.823
  333.750    0.183    0.520  118.034  167.147    2.728
  334.000    0.211    0.504  118.918  170.292    2.670
  334.250    0.224    0.501  119.114  172.703    2.665
  334.500    0.230    0.496  121.438  172.614    2.724
  334.750    0.232    0.479  120.007  169.292    2.838
  335.000    0.232    0.446  114.195  165.862    3.065
  335.250    0.228    0.414  107.883  165.041    3.371
  335.500    0.218    0.403  104.637  166.202    3.802
  335.750    0.211    0.403  101.642  165.903    4.191
  336.000    0.214    0.411   94.766  164.354    4.681
  336.250    0.228    0.426   85.888  162.596    5.093
  336.500    0.229    0.441   74.820  160.105    5.397
  336.750    0.205    0.484   58.119  156.365    5.611
  337.000    0.280    0.603   67.077  158.256    5.792
  337.250    0.389    0.603   82.668  163.799    5.932
  337.500    0.332    0.522   79.860  165.167    5.919
  337.750    0.300    0.428   74.424  156.837    5.927
  338.000    0.296    0.411   72.931  154.040    5.880
  338.250    0.300    0.414   75.943  153.006    5.715
  338.500    0.287    0.423   81.208  151.565    5.595
  338.750    0.270    0.427   82.343  150.849    5.467
  339.000    0.251    0.417   78.096  150.861    5.363
  339.250    0.247    0.401   71.596  151.398    5.252
  339.500    0.261    0.427   65.784  152.346    5.189
  339.750    0.291    0.446   60.348  153.718    5.100
  340.000    0.324    0.439   56.726  154.565    4.864
  340.250    0.337    0.422   55.546  156.040    4.647
  340.500    0.347    0.403   60.686  157.619    4.415
  340.750    0.340    0.393   63.385  158.781    4.171
  341.000    0.317    0.404   63.395  159.005    4.045
  341.250    0.313    0.418   61.212  158.704    4.121
  341.500    0.314    0.426   58.718  158.093    4.189
  341.750    0.303    0.419   61.542  157.691    4.259
  342.000    0.293    0.421   65.555  157.704    4.405
  342.250    0.291    0.408   71.697  157.717    4.562
  342.500    0.288    0.417   80.216  157.208    4.780
  342.750    0.281    0.430   87.296  156.700    4.934
  343.000    0.271    0.414   94.251  156.299    5.006
  343.250    0.256    0.412   96.575  158.085    4.967
  343.500    0.256    0.430   94.331  161.541    4.853
  343.750    0.255    0.437   93.963  160.720    4.761
  344.000    0.247    0.415   91.532  157.189    4.760
  344.250    0.252    0.402   88.097  155.950    4.820
  344.500    0.261    0.409   97.681  155.965    4.918
  344.750    0.252    0.415  110.018  157.647    5.087
  345.000    0.236    0.414  115.345  160.373    5.180
  345.250    0.226    0.410  114.290  163.622    5.197
  345.500    0.228    0.413  102.909  166.556    5.157
  345.750    0.232    0.424   94.594  168.655    5.077
  346.000    0.242    0.435   89.345  161.681    4.933
  346.250    0.259    0.424   95.301  152.726    4.652
  346.500    0.265    0.429  101.441  155.453    4.312
  346.750    0.252    0.478  108.270  161.412    3.960
  347.000    0.226    0.520  109.905  165.806    3.678
  347.250    0.204    0.500  110.916  166.552    3.309
  347.500    0.182    0.481  109.486  165.834    2.977
  347.750    0.188    0.489  108.554  165.534    2.801
  348.000    0.212    0.508  112.630  166.697    2.707
  348.250    0.240    0.496   99.372  168.066    2.650
  348.500    0.258    0.474   88.303  167.766    2.689
  348.750    0.270    0.458   80.176  163.818    2.910
  349.000    0.290    0.441   70.923  158.825    3.268
  349.250    0.300    0.428   63.984  156.649    3.798
  349.500    0.299    0.417   60.802  155.726    4.678
  349.750    0.300    0.409   59.245  155.634    5.763
  350.000    0.308    0.415   59.692  155.544    7.978
  350.250    0.312    0.424   60.765  155.975   10.879
  350.500    0.317    0.410   60.648  156.510   10.896
  350.750    0.325    0.413   58.153  156.837   10.216
  351.000    0.315    0.461   56.472  157.166    9.330
  351.250    0.299    0.468   55.605  157.388    9.133
