~VERSION INFORMATION
 VERS.                 2.0:   CWLS LOG ASCII STANDARD -VERSION 2.0
 WRAP.                  NO:   ONE LINE PER DEPTH STEP
~WELL INFORMATION BLOCK
#MNEM.UNIT           DATA                    DESCRIPTION OF MNEMONIC
#---------    -------------------            -------------------------------
# Generated from Intellog Unique Number	CS_71_72/WELL/891
WELL.         CAVALIER ENERGY INC            : Well_name    - WELL
LOC .         00/11-08-072-14W4/0            : Location     - LOCATION
UWI .         00/11-08-072-14W4/0            : Uwi          - UNIQUE WELL ID
ENTR.         SP                             : Entered      - ENTERED BY
SRVC.         SCHLUMBERGER                   : Scn          - SERVICE COMPANY
STRT.M        277.368                        : top_depth    - START DEPTH
STOP.M        481.368                        : bot_depth    - STOP DEPTH
STEP.M        0.25                           : increment    - STEP LENGTH
 NULL. -999.2500:NULL Value
~CURVE INFORMATION BLOCK
#MNEM UNIT       ERCB CURVE CODE    CURVE DESCRIPTION
#-----------   ------------------   ----------------------------------
DEPT.M        00 001 00 00         : DEPTH        - DEPTH
GR  .API      00 310 00 00         : GR           - GAMMA RAY
DPHI.V/V      00 890 00 00         : PHID         - DENSITY POROSITY (SANDSTONE)
NPHI.V/V      00 330 00 00         : PHIN         - NEUTRON POROSITY (SANDSTONE)
ILD .OHMM     00 120 00 00         : RESD         - DEEP RESISTIVITY (DIL)
~PARAMETER INFORMATION
#MNEM.UNIT           DATA             DESCRIPTION OF MNEMONIC
#---------         -----------     ------------------------------
GL  .M        606.552              : gl           - GROUND LEVEL ELEVATION
EREF.M        609.6                : kb           - ELEVATION OF DEPTH REFERENCE
DATM.M        606.552              : datum        - DATUM ELEVATION
TDD .M        482.194              : tdd          - TOTAL DEPTH DRILLER
RUN .         ONE                  : Run          - RUN NUMBER
ENG .         BILL                 : Engineer     - RECORDING ENGINEER
WIT .         JIM                  : Witness      - WITNESSED BY
MUD .         GEL                  : Mud_type     - MUD TYPE
MATR.         SANDSTONE            : Logunit      - NEUTRON MATRIX
TMAX.C        23.3333              : BHT          - MAXIMUM RECORDED TEMPERATURE
BHTD.M        482.194              : BHTDEP       - MAXIMUM RECORDED TEMPERATURE
MATR.         1                    : LOGUNIT      - NEUTRON MATRIX
RMT .C        25                   : MDTP         - TEMPERATURE OF MUD
NEUT.         1                    : NEUTRON      - NEUTRON TYPE
RESI.         0                    : RESIST       - RESISTIVITY TYPE
RMC .OHMM     0.25                 : RMC          - RESISTIVITY OF MUD CAKE
RMF .OHMM     0.25                 : RMF          - RESISTIVITY OF MUD FILTRATE
SUFT.C        15                   : SUFT         - SURFACE TEMPERATURE
~A  DEPTH       GR     PHID     PHIN     RESD
# ...
  364.368   99.294    0.224    0.538    4.874
  364.618   92.030    0.225    0.494    5.097
  364.868   91.297    0.234    0.448    5.310
  365.118   89.250    0.245    0.457    5.373
  365.368   89.283    0.234    0.478    5.297
  365.618   90.296    0.224    0.497    5.218
  365.868   90.351    0.279    0.494    5.140
  366.118   89.669    0.263    0.492    5.146
  366.368   89.712    0.214    0.497    5.143
  366.618   91.333    0.211    0.493    5.222
  366.868   85.227    0.237    0.504    5.309
  367.118   74.788    0.219    0.511    5.378
  367.368   68.584    0.220    0.510    5.375
  367.618   66.239    0.270    0.501    5.469
  367.868   63.633    0.311    0.490    5.540
  368.118   64.972    0.298    0.483    5.454
  368.368   67.338    0.290    0.474    5.461
  368.618   70.019    0.296    0.472    5.383
  368.868   71.522    0.319    0.474    5.388
  369.118   70.769    0.316    0.477    5.388
  369.368   69.848    0.323    0.492    5.560
  369.618   67.969    0.318    0.482    5.923
  369.868   64.371    0.320    0.466    6.699
  370.118   60.332    0.323    0.415    8.359
  370.368   57.395    0.087    0.312   10.025
  370.618   54.858    0.076    0.217   11.049
  370.868   55.852    0.057    0.216   12.351
  371.118   58.458    0.062    0.228   11.274
  371.368   61.489    0.073    0.272    9.778
  371.618   63.966    0.091    0.379    7.726
  371.868   64.974    0.134    0.474    6.571
  372.118   65.953    0.291    0.473    6.200
  372.368   66.276    0.289    0.429    6.240
  372.618   61.485    0.276    0.395    6.505
  372.868   60.343    0.153    0.345    7.350
  373.118   65.571    0.144    0.348    8.075
  373.368   67.317    0.226    0.463    9.344
  373.618   61.273    0.267    0.464   10.200
  373.868   52.209    0.217    0.344   10.731
  374.118   52.089    0.060    0.205   10.515
  374.368   58.587    0.032    0.195    8.995
  374.618   63.703    0.046    0.193    7.800
  374.868   73.802    0.084    0.355    6.670
  375.118   80.572    0.180    0.472    6.211
  375.368   86.805    0.266    0.474    6.032
  375.618   95.013    0.256    0.484    5.862
  375.868   99.617    0.239    0.494    5.852
  376.118   91.076    0.215    0.498    5.796
  376.368   87.445    0.205    0.502    5.844
  376.618   85.458    0.205    0.499    5.875
  376.868   86.221    0.223    0.494    5.877
  377.118   85.046    0.223    0.504    5.877
  377.368   83.051    0.228    0.504    5.877
  377.618   79.626    0.248    0.490    5.885
  377.868   80.415    0.260    0.484    5.797
  378.118   85.810    0.251    0.487    5.715
  378.368   86.258    0.245    0.497    5.720
  378.618   82.884    0.235    0.490    5.719
  378.868   83.309    0.265    0.478    5.719
  379.118   86.530    0.256    0.490    5.712
  379.368   89.779    0.228    0.504    5.819
  379.618   83.191    0.234    0.515    6.026
  379.868   79.801    0.261    0.506    6.118
  380.118   81.510    0.288    0.509    6.217
  380.368   79.599    0.256    0.518    6.352
  380.618   74.612    0.263    0.517    6.358
  380.868   71.873    0.249    0.503    6.355
  381.118   69.931    0.237    0.492    6.276
  381.368   74.867    0.241    0.482    6.259
  381.618   77.591    0.250    0.473    6.122
  381.868   81.816    0.275    0.467    6.069
  382.118   85.936    0.274    0.475    6.051
  382.368   86.450    0.255    0.486    5.966
  382.618   87.620    0.257    0.498    5.963
  382.868   85.095    0.263    0.511    5.947
  383.118   82.004    0.253    0.503    5.887
  383.368   81.899    0.258    0.496    5.794
  383.618   81.964    0.257    0.493    5.795
  383.868   83.490    0.264    0.490    5.720
  384.118   85.208    0.251    0.491    5.691
  384.368   85.422    0.238    0.497    5.647
  384.618   84.503    0.230    0.506    5.648
  384.868   82.820    0.233    0.512    5.675
  385.118   81.919    0.250    0.493    5.807
  385.368   80.962    0.245    0.485    6.302
  385.618   76.386    0.232    0.482    6.831
  385.868   67.205    0.219    0.377    7.221
  386.118   61.897    0.189    0.300    7.542
  386.368   68.666    0.119    0.294    7.672
  386.618   71.746    0.080    0.431    7.657
  386.868   72.027    0.162    0.455    7.565
  387.118   73.799    0.240    0.461    6.948
  387.368   76.752    0.257    0.465    6.329
  387.618   78.947    0.260    0.473    6.059
  387.868   80.285    0.251    0.479    5.884
  388.118   79.443    0.257    0.474    5.669
  388.368   77.360    0.273    0.468    5.538
  388.618   77.927    0.265    0.466    5.492
  388.868   79.227    0.264    0.467    5.403
  389.118   79.970    0.280    0.475    5.408
  389.368   80.365    0.284    0.489    5.479
  389.618   81.116    0.289    0.500    5.561
  389.868   80.339    0.282    0.506    5.743
  390.118   78.801    0.287    0.486    5.793
  390.368   78.523    0.278    0.482    5.935
  390.618   80.561    0.258    0.476    5.873
  390.868   82.314    0.249    0.472    5.327
  391.118   85.546    0.245    0.465    4.858
  391.368   88.888    0.265    0.465    4.132
  391.618   92.806    0.287    0.505    3.793
  391.868   96.460    0.280    0.557    3.195
  392.118   99.023    0.259    0.584    2.867
  392.368  100.329    0.271    0.607    2.672
  392.618  102.827    0.290    0.594    2.712
  392.868  103.442    0.283    0.582    2.977
  393.118  101.058    0.279    0.573    3.414
  393.368  100.944    0.271    0.591    3.855
  393.618   98.541    0.250    0.562    4.323
  393.868   95.455    0.237    0.500    4.675
  394.118   93.189    0.250    0.476    5.108
  394.368   91.804    0.257    0.485    5.229
  394.618   90.665    0.240    0.503    5.362
  394.868   90.269    0.204    0.501    5.497
  395.118   90.824    0.218    0.523    5.547
  395.368   92.300    0.237    0.514    5.575
  395.618   90.572    0.246    0.505    5.583
  395.868   86.880    0.240    0.495    5.492
  396.118   84.647    0.239    0.487    5.499
  396.368   83.252    0.209    0.481    5.500
  396.618   82.068    0.191    0.486    5.506
  396.868   83.949    0.175    0.484    5.411
  397.118   85.986    0.181    0.473    5.331
  397.368   85.817    0.193    0.477    5.450
  397.618   83.816    0.217    0.489    5.666
  397.868   76.902    0.218    0.507    6.199
  398.118   72.690    0.197    0.493    6.593
  398.368   69.487    0.161    0.358    6.854
  398.618   73.700    0.084    0.257    6.692
  398.868   77.246    0.110    0.454    6.269
  399.118   73.465    0.190    0.482    5.936
  399.368   64.296    0.291    0.471    5.480
  399.618   59.821    0.307    0.468    4.822
  399.868   57.727    0.319    0.462    4.484
  400.118   58.610    0.322    0.455    4.437
  400.368   59.589    0.325    0.454    4.389
  400.618   60.659    0.327    0.450    4.472
  400.868   59.730    0.318    0.450    4.491
  401.118   58.989    0.309    0.455    4.546
  401.368   60.414    0.311    0.459    4.546
  401.618   61.902    0.315    0.467    4.546
  401.868   65.523    0.313    0.475    4.547
  402.118   66.951    0.309    0.467    4.555
  402.368   67.592    0.318    0.457    4.460
  402.618   68.713    0.310    0.452    4.468
  402.868   68.934    0.306    0.458    4.469
  403.118   69.224    0.306    0.465    4.473
  403.368   68.630    0.310    0.467    4.608
  403.618   69.728    0.295    0.476    4.733
  403.868   71.750    0.280    0.466    4.952
  404.118   73.679    0.257    0.460    5.081
  404.368   76.534    0.226    0.465    5.219
  404.618   78.864    0.202    0.468    5.268
  404.868   81.940    0.193    0.450    5.357
  405.118   82.368    0.228    0.438    5.347
  405.368   82.498    0.230    0.429    5.422
  405.618   82.741    0.211    0.460    5.426
  405.868   84.453    0.223    0.482    5.420
  406.118   84.474    0.229    0.497    5.362
  406.368   82.662    0.217    0.506    5.180
  406.618   80.722    0.244    0.499    5.105
  406.868   76.270    0.280    0.489    4.970
  407.118   73.098    0.292    0.479    4.961
  407.368   70.738    0.283    0.476    4.873
  407.618   71.431    0.265    0.469    4.875
