~VERSION INFORMATION
 VERS.                 2.0:   CWLS LOG ASCII STANDARD -VERSION 2.0
 WRAP.                  NO:   ONE LINE PER DEPTH STEP
~WELL INFORMATION BLOCK
#MNEM.UNIT           DATA                    DESCRIPTION OF MNEMONIC
#---------    -------------------            -------------------------------
# Generated from Intellog Unique Number	CS_69_70/WELL/867
WELL.         MAYNARD EXPLORATION            : Well_name    - WELL
LOC .         00/10-13-070-16W4/0            : Location     - LOCATION
UWI .         00/10-13-070-16W4/0            : Uwi          - UNIQUE WELL ID
ENTR.         SP                             : Entered      - ENTERED BY
SRVC.         SCHLUMBERGER                   : Scn          - SERVICE COMPANY
STRT.M        275                            : top_depth    - START DEPTH
STOP.M        500                            : bot_depth    - STOP DEPTH
STEP.M        0.25                           : increment    - STEP LENGTH
 NULL. -999.2500:NULL Value
~CURVE INFORMATION BLOCK
#MNEM UNIT       ERCB CURVE CODE    CURVE DESCRIPTION
#-----------   ------------------   ----------------------------------
DEPT.M        00 001 00 00         : DEPTH        - DEPTH
GR  .API      00 310 00 00         : GR           - GAMMA RAY
NPHI.V/V      00 330 00 00         : PHIN         - NEUTRON POROSITY (LIMESTONE)
DPHI.V/V      00 890 00 00         : PHID         - DENSITY POROSITY (LIMESTONE)
ILD .OHMM     00 120 00 00         : RESD         - DEEP RESISTIVITY (DIL)
~PARAMETER INFORMATION
#MNEM.UNIT           DATA             DESCRIPTION OF MNEMONIC
#---------         -----------     ------------------------------
GL  .M        570.5                : gl           - GROUND LEVEL ELEVATION
EREF.M        573.7                : kb           - ELEVATION OF DEPTH REFERENCE
DATM.M        570.5                : datum        - DATUM ELEVATION
TDD .M        508                  : tdd          - TOTAL DEPTH DRILLER
RUN .         ONE                  : Run          - RUN NUMBER
ENG .         BILL                 : Engineer     - RECORDING ENGINEER
WIT .         JIM                  : Witness      - WITNESSED BY
MUD .         GEL                  : Mud_type     - MUD TYPE
MATR.         LIMESTONE            : Logunit      - NEUTRON MATRIX
TMAX.C        22                   : BHT          - MAXIMUM RECORDED TEMPERATURE
BHTD.M        508                  : BHTDEP       - MAXIMUM RECORDED TEMPERATURE
MATR.         1                    : LOGUNIT      - NEUTRON MATRIX
RMT .C        25                   : MDTP         - TEMPERATURE OF MUD
NEUT.         1                    : NEUTRON      - NEUTRON TYPE
RESI.         0                    : RESIST       - RESISTIVITY TYPE
RMC .OHMM     0.25                 : RMC          - RESISTIVITY OF MUD CAKE
RMF .OHMM     0.25                 : RMF          - RESISTIVITY OF MUD FILTRATE
SUFT.C        15                   : SUFT         - SURFACE TEMPERATURE
~A  DEPTH       GR     PHIN     PHID     RESD
# ...
  449.000  101.315    0.387    0.174    4.150
  449.250  102.717    0.379    0.172    3.971
  449.500  100.893    0.382    0.172    3.857
  449.750  102.904    0.394    0.186    3.718
  450.000  107.226    0.409    0.203    3.580
  450.250  109.419    0.420    0.214    3.499
  450.500  107.656    0.420    0.215    3.426
  450.750  105.955    0.416    0.208    3.410
  451.000  103.827    0.411    0.197    3.394
  451.250   99.934    0.396    0.193    3.313
  451.500   99.936    0.394    0.189    3.215
  451.750  105.598    0.418    0.206    2.996
  452.000  110.712    0.439    0.226    2.922
  452.250  111.444    0.438    0.237    2.890
  452.500  109.742    0.421    0.239    2.907
  452.750  109.501    0.396    0.226    3.112
  453.000   99.645    0.360    0.189    3.792
  453.250   89.850    0.342    0.095    4.954
  453.500   82.489    0.326    0.061    6.713
  453.750   78.718    0.313    0.055    8.194
  454.000   77.807    0.305    0.070   10.216
  454.250   79.878    0.311    0.095   12.073
  454.500   75.864    0.310    0.148   13.448
  454.750   70.755    0.297    0.156   13.547
  455.000   66.923    0.283    0.169   13.048
  455.250   65.282    0.291    0.200   12.452
  455.500   64.676    0.303    0.256   11.651
  455.750   65.348    0.311    0.246   10.850
  456.000   66.202    0.315    0.238   10.024
  456.250   67.360    0.315    0.233    9.649
  456.500   69.249    0.317    0.238    9.723
  456.750   69.919    0.323    0.236   10.034
  457.000   71.200    0.328    0.230   10.706
  457.250   70.654    0.324    0.228   11.524
  457.500   70.413    0.320    0.231   12.212
  457.750   70.171    0.318    0.233   12.883
  458.000   69.017    0.319    0.233   13.481
  458.250   66.829    0.314    0.232   13.973
  458.500   64.701    0.308    0.220   14.456
  458.750   64.034    0.303    0.206   14.677
  459.000   64.158    0.300    0.200   14.604
  459.250   64.707    0.306    0.193   14.057
  459.500   65.744    0.309    0.177   13.689
  459.750   66.538    0.301    0.175   13.306
  460.000   67.148    0.300    0.172   13.028
  460.250   68.062    0.312    0.158   12.808
  460.500   70.561    0.316    0.145   12.768
  460.750   71.414    0.310    0.133   12.744
  461.000   73.424    0.306    0.125   12.597
  461.250   75.434    0.305    0.144   11.992
  461.500   77.992    0.304    0.162   11.036
  461.750   83.410    0.309    0.181   10.153
  462.000   90.227    0.317    0.204    9.426
  462.250   94.611    0.324    0.234    8.167
  462.500   92.544    0.330    0.259    7.227
  462.750   86.035    0.333    0.266    6.753
  463.000   79.160    0.325    0.256    6.492
  463.250   69.609    0.309    0.251    6.386
  463.500   65.534    0.301    0.256    6.329
  463.750   62.493    0.297    0.263    6.281
  464.000   65.234    0.312    0.254    6.281
  464.250   72.173    0.322    0.234    6.495
  464.500   80.512    0.333    0.210    6.774
  464.750   86.417    0.331    0.192    7.036
  465.000   91.044    0.320    0.175    7.208
  465.250   94.088    0.308    0.162    7.234
  465.500   97.498    0.300    0.153    7.193
  465.750   99.265    0.302    0.145    7.218
  466.000   99.632    0.308    0.138    7.325
  466.250   99.087    0.315    0.131    7.481
  466.500   97.385    0.320    0.124    7.662
  466.750   90.998    0.321    0.126    8.006
  467.000   86.497    0.319    0.156    8.342
  467.250   82.543    0.312    0.163    8.629
  467.500   77.738    0.307    0.181    8.990
  467.750   73.298    0.301    0.197    9.326
  468.000   71.292    0.302    0.206    9.564
  468.250   73.910    0.308    0.209    9.703
  468.500   79.998    0.314    0.202    9.704
  468.750   82.434    0.317    0.199    9.492
  469.000   83.227    0.320    0.203    8.830
  469.250   82.742    0.318    0.204    8.094
  469.500   84.570    0.314    0.209    7.416
  469.750   85.546    0.309    0.219    6.844
  470.000   81.471    0.305    0.225    6.337
  470.250   77.457    0.313    0.220    5.929
  470.500   76.424    0.317    0.215    5.701
  470.750   78.921    0.307    0.221    5.505
  471.000   79.593    0.301    0.224    5.350
  471.250   78.378    0.292    0.225    5.171
  471.500   76.250    0.284    0.222    5.065
  471.750   72.844    0.275    0.221    5.058
  472.000   65.666    0.174    0.221    5.198
  472.250   61.469    0.152    0.209    5.288
  472.500   60.437    0.125    0.136    5.469
  472.750   71.149    0.126    0.131    5.526
  473.000   83.930    0.190    0.166    5.404
  473.250   93.181    0.258    0.202    5.029
  473.500   99.269    0.368    0.182    4.735
  473.750  103.530    0.401    0.141    4.596
  474.000  102.985    0.418    0.117    4.654
  474.250   98.119    0.395    0.133    4.770
  474.500   94.166    0.341    0.151    4.950
  474.750   93.194    0.324    0.170    5.122
  475.000   96.665    0.322    0.186    5.507
  475.250  101.839    0.329    0.207    5.884
  475.500  106.101    0.337    0.194    6.302
  475.750  106.894    0.343    0.170    6.499
  476.000  102.697    0.334    0.163    6.753
  476.250   97.831    0.321    0.159    6.909
  476.500   97.164    0.318    0.157    6.820
  476.750   98.505    0.325    0.156    6.575
  477.000   99.481    0.327    0.156    6.330
  477.250   97.657    0.328    0.161    6.159
  477.500   98.755    0.326    0.168    6.144
  477.750  100.826    0.324    0.159    6.201
  478.000  102.045    0.327    0.153    6.292
  478.250   99.187    0.333    0.159    6.358
  478.500   94.869    0.329    0.166    6.506
  478.750   92.923    0.325    0.137    6.678
  479.000   90.917    0.319    0.117    6.843
  479.250   90.311    0.312    0.099    6.990
  479.500   97.007    0.305    0.131    7.098
  479.750  104.737    0.303    0.153    7.106
  480.000  103.765    0.304    0.159    7.033
  480.250   97.561    0.308    0.178    6.617
  480.500   89.835    0.318    0.194    6.216
  480.750   84.238    0.312    0.205    5.906
  481.000   79.311    0.305    0.198    5.686
  481.250   76.392    0.296    0.213    5.515
  481.500   75.056    0.292    0.229    5.385
  481.750   74.510    0.291    0.239    5.320
  482.000   74.817    0.297    0.228    5.198
  482.250   76.583    0.292    0.212    5.141
  482.500   79.324    0.294    0.207    5.019
  482.750   79.022    0.298    0.203    4.979
  483.000   77.928    0.301    0.196    4.939
  483.250   77.078    0.302    0.191    4.907
  483.500   76.290    0.304    0.194    4.899
  483.750   76.657    0.304    0.199    4.883
  484.000   77.085    0.306    0.204    4.860
  484.250   77.696    0.306    0.209    4.836
  484.500   78.124    0.306    0.211    4.844
  484.750   78.796    0.306    0.198    4.845
  485.000   78.858    0.304    0.189    4.870
  485.250   78.374    0.302    0.203    4.830
  485.500   77.706    0.306    0.214    4.798
  485.750   76.856    0.310    0.225    4.766
  486.000   77.467    0.313    0.232    4.709
  486.250   78.260    0.315    0.238    4.636
  486.500   76.984    0.317    0.234    4.555
  486.750   75.769    0.318    0.231    4.523
  487.000   74.737    0.319    0.229    4.564
  487.250   74.252    0.319    0.221    4.655
  487.500   74.072    0.320    0.209    4.778
  487.750   75.595    0.322    0.202    4.860
  488.000   78.822    0.325    0.200    4.976
  488.250   81.319    0.326    0.200    5.074
  488.500   81.686    0.325    0.193    5.173
  488.750   80.228    0.324    0.186    5.256
  489.000   79.074    0.316    0.178    5.297
  489.250   79.320    0.311    0.174    5.314
  489.500   79.808    0.307    0.186    5.307
  489.750   80.115    0.305    0.201    5.266
  490.000   79.812    0.304    0.213    5.210
  490.250   80.362    0.312    0.218    5.137
  490.500   83.407    0.312    0.204    5.113
  490.750   85.661    0.306    0.198    5.122
  491.000   83.107    0.302    0.193    5.139
  491.250   78.424    0.299    0.188    5.188
  491.500   76.052    0.300    0.188    5.230
  491.750   79.401    0.298    0.195    5.386
  492.000   83.602    0.296    0.196    5.746
  492.250   87.316    0.296    0.186    6.009
