~VERSION INFORMATION
 VERS.                 2.0:   CWLS LOG ASCII STANDARD -VERSION 2.0
 WRAP.                  NO:   ONE LINE PER DEPTH STEP
~WELL INFORMATION BLOCK
#MNEM.UNIT           DATA                    DESCRIPTION OF MNEMONIC
#---------    -------------------            -------------------------------
# Generated from Intellog Unique Number	CS_69_70/WELL/2878
WELL.         AEC FISHER 10-27-69-03 W4M     : Well_name    - WELL
LOC .         00/10-27-069-03W4/0            : Location     - LOCATION
UWI .         00/10-27-069-03W4/0            : Uwi          - UNIQUE WELL ID
ENTR.         ANDERSEN                       : Entered      - ENTERED BY
SRVC.         SCHLUMBERGER                   : Scn          - SERVICE COMPANY
STRT.M        365                            : top_depth    - START DEPTH
STOP.M        605                            : bot_depth    - STOP DEPTH
STEP.M        0.25                           : increment    - STEP LENGTH
 NULL. -999.2500:NULL Value
~CURVE INFORMATION BLOCK
#MNEM UNIT       ERCB CURVE CODE    CURVE DESCRIPTION
#-----------   ------------------   ----------------------------------
DEPT.M        00 001 00 00         : DEPTH        - DEPTH
ILD .OHMM     00 120 00 00         : RESD         - DEEP RESISTIVITY (DIL)
GR  .API      00 310 00 00         : GR           - GAMMA RAY
CALI.MM       00 280 01 00         : CAL          - CALIPER
NPHI.V/V      00 330 00 00         : PHIN         - NEUTRON POROSITY (SANDSTONE)
DPHI.V/V      00 890 00 00         : PHID         - DENSITY POROSITY (SANDSTONE)
~PARAMETER INFORMATION
#MNEM.UNIT           DATA             DESCRIPTION OF MNEMONIC
#---------         -----------     ------------------------------
GL  .M        707                  : gl           - GROUND LEVEL ELEVATION
EREF.M        710.3                : kb           - ELEVATION OF DEPTH REFERENCE
DATM.M        710.3                : datum        - DATUM ELEVATION
TDD .M        612                  : tdd          - TOTAL DEPTH DRILLER
RUN .         ONE                  : Run          - RUN NUMBER
ENG .         BILL                 : Engineer     - RECORDING ENGINEER
WIT .         JIM                  : Witness      - WITNESSED BY
MUD .         GEL                  : Mud_type     - MUD TYPE
MATR.         SANDSTONE            : Logunit      - NEUTRON MATRIX
TMAX.C        25                   : BHT          - MAXIMUM RECORDED TEMPERATURE
BHTD.M        612                  : BHTDEP       - MAXIMUM RECORDED TEMPERATURE
MATR.         1                    : LOGUNIT      - NEUTRON MATRIX
RMT .C        22                   : MDTP         - TEMPERATURE OF MUD
NEUT.         1                    : NEUTRON      - NEUTRON TYPE
RESI.         0                    : RESIST       - RESISTIVITY TYPE
RMC .OHMM     2.54                 : RMC          - RESISTIVITY OF MUD CAKE
RMF .OHMM     4.82                 : RMF          - RESISTIVITY OF MUD FILTRATE
SUFT.C        15                   : SUFT         - SURFACE TEMPERATURE
~A  DEPTH     RESD       GR      CAL     PHIN     PHID
# ...
  401.500    9.465   33.549  154.333    0.366    0.324
  401.750    9.308   39.847  155.326    0.360    0.326
  402.000    9.319   54.112  155.380    0.360    0.308
  402.250    9.335   67.815  154.474    0.375    0.246
  402.500    9.350   73.543  153.568    0.381    0.230
  402.750    9.369   76.411  152.662    0.376    0.247
  403.000    9.385   86.120  151.766    0.374    0.262
  403.250    9.229   91.279  151.810    0.365    0.270
  403.500    9.075   91.874  153.762    0.373    0.270
  403.750    8.928   93.609  155.693    0.382    0.262
  404.000    9.278   90.787  156.686    0.386    0.252
  404.250    9.638   83.978  157.678    0.380    0.259
  404.500    9.833   73.181  157.722    0.383    0.291
  404.750   10.032   69.790  156.826    0.398    0.302
  405.000   10.434   65.265  156.859    0.407    0.305
  405.250   10.451   61.867  156.902    0.414    0.308
  405.500   10.464   64.748  155.996    0.411    0.302
  405.750   10.676   68.191  156.061    0.404    0.298
  406.000   10.694   67.660  157.043    0.398    0.298
  406.250   10.516   68.249  157.097    0.405    0.300
  406.500   10.537   68.839  157.140    0.414    0.308
  406.750   10.362   66.593  157.183    0.418    0.312
  407.000   10.186   68.321  157.215    0.411    0.319
  407.250    9.842   75.758  156.331    0.409    0.319
  407.500    9.674   80.347  157.324    0.410    0.301
  407.750    9.173   82.075  157.367    0.405    0.291
  408.000    9.021   81.532  157.410    0.394    0.280
  408.250    8.709   82.134  157.453    0.405    0.269
  408.500    8.408   86.153  157.507    0.424    0.273
  408.750    8.422   83.894  157.529    0.442    0.279
  409.000    8.432   80.503  157.583    0.453    0.270
  409.250    8.603   74.833  157.637    0.462    0.264
  409.500   10.174   73.150  157.680    0.455    0.255
  409.750   12.946   74.322  157.713    0.373    0.238
  410.000   15.884   77.759  156.839    0.340    0.235
  410.250   15.916   79.500  156.871    0.419    0.250
  410.500   14.805   78.969  156.904    0.458    0.269
  410.750   13.777   78.989  156.969    0.449    0.291
  411.000   12.820   79.014  157.012    0.438    0.300
  411.250   12.151   80.180  157.033    0.437    0.295
  411.500   11.517   81.914  157.088    0.441    0.288
  411.750   10.916   85.358  157.120    0.452    0.285
  412.000   10.351   87.669  157.174    0.460    0.282
  412.250    9.993   87.688  158.156    0.450    0.272
  412.500    9.648   86.575  158.221    0.451    0.266
  412.750    9.314   88.310  158.253    0.471    0.269
  413.000    9.160   87.196  158.296    0.459    0.277
  413.250    8.682   85.513  159.289    0.435    0.285
  413.500    8.382   92.381  160.281    0.433    0.290
  413.750    8.092   93.546  161.274    0.466    0.269
  414.000    7.812   93.002  164.187    0.460    0.267
  414.250    7.542   94.168  161.382    0.431    0.275
  414.500    7.282   93.624  158.577    0.430    0.280
  414.750    7.030   94.796  156.733    0.423    0.287
  415.000    7.867   93.682  155.805    0.404    0.291
  415.250    8.479   94.847  154.899    0.395    0.285
  415.500    8.811   94.880  155.891    0.414    0.274
  415.750    9.330   94.899  156.884    0.428    0.278
  416.000    9.519   93.216  156.938    0.422    0.269
  416.250    9.712   92.673  156.981    0.435    0.266
  416.500    9.732   93.838  156.075    0.440    0.269
  416.750    9.570   97.288  155.169    0.434    0.272
  417.000    9.240   97.883  153.324    0.434    0.277
  417.250    8.917   97.340  153.368    0.438    0.283
  417.500    8.768   97.935  153.400    0.431    0.273
  417.750    8.623   97.961  153.465    0.431    0.253
  418.000    8.637   91.722  154.457    0.443    0.238
  418.250    8.651   86.621  154.501    0.443    0.249
  418.500    8.355   83.230  154.533    0.434    0.270
  418.750    7.775   84.401  154.576    0.431    0.273
  419.000    7.369   92.971  154.630    0.439    0.270
  419.250    6.735  104.389  154.684    0.448    0.281
  419.500    6.623   95.871  154.728    0.440    0.291
  419.750    6.634   89.062  154.771    0.436    0.279
  420.000    7.022   84.537  154.836    0.445    0.267
  420.250    7.430   80.570  154.857    0.458    0.267
  420.500    7.865   80.602  154.890    0.464    0.255
  420.750    8.332   82.337  154.933    0.458    0.256
  421.000    8.346   84.072  155.009    0.440    0.261
  421.250    8.057   82.958  155.030    0.393    0.289
  421.500    7.634   68.745  155.095    0.386    0.289
  421.750    7.507   57.379  155.128    0.399    0.312
  422.000    7.382   44.304  155.160    0.399    0.348
  422.250    7.130   42.051  155.203    0.393    0.357
  422.500    7.142   44.932  155.257    0.399    0.363
  422.750    7.153   43.242  155.311    0.408    0.362
  423.000    7.034   42.129  154.405    0.399    0.359
  423.250    7.046   42.725  154.438    0.394    0.358
  423.500    7.058   45.612  154.502    0.393    0.357
  423.750    7.069   47.909  154.524    0.396    0.356
  424.000    7.081   51.922  154.589    0.405    0.353
  424.250    7.092   58.214  154.621    0.409    0.353
  424.500    7.104   63.366  154.665    0.416    0.351
  424.750    7.251   62.836  154.708    0.408    0.350
  425.000    7.263   64.564  154.751    0.408    0.347
  425.250    7.275   66.299  153.845    0.416    0.341
  425.500    7.287   66.894  153.888    0.411    0.327
  425.750    7.305   69.198  153.931    0.397    0.314
  426.000    7.311   77.205  153.975    0.401    0.298
  426.250    7.323   81.218  154.029    0.424    0.289
  426.500    7.335   76.687  153.123    0.420    0.302
  426.750    7.084   73.865  152.216    0.410    0.319
  427.000    7.093   75.600  152.260    0.417    0.336
  427.250    6.851   76.202  152.303    0.431    0.341
  427.500    6.862   72.234  152.346    0.429    0.336
  427.750    6.748   69.412  152.389    0.419    0.341
  428.000    6.762   69.451  153.414    0.424    0.343
  428.250    6.773   70.047  153.436    0.430    0.344
  428.500    6.660   70.066  152.541    0.429    0.343
  428.750    6.668   71.231  152.573    0.420    0.338
  429.000    6.930   72.397  152.616    0.404    0.306
  429.250    6.941   74.701  153.620    0.385    0.288
  429.500    6.953   77.588  153.652    0.383    0.270
  429.750    6.964   76.468  153.717    0.388    0.260
  430.000    6.726   72.507  153.749    0.402    0.283
  430.250    6.614   67.406  153.793    0.415    0.312
  430.500    6.386   63.445  153.836    0.425    0.334
  430.750    6.280   65.756  153.879    0.431    0.345
  431.000    6.175   65.775  153.922    0.426    0.354
  431.250    6.073   63.529  153.976    0.421    0.358
  431.500    5.972   62.986  154.020    0.432    0.356
  431.750    5.984   65.860  154.063    0.438    0.348
  432.000    5.991   69.303  153.157    0.425    0.334
  432.250    6.001   72.747  153.200    0.429    0.323
  432.500    5.901   75.627  153.243    0.447    0.323
  432.750    5.702   76.792  154.236    0.454    0.325
  433.000    5.711   75.116  155.250    0.459    0.321
  433.250    5.614   74.003  155.282    0.464    0.304
  433.500    5.521   75.168  155.347    0.452    0.300
  433.750    5.431   75.187  155.369    0.431    0.286
  434.000    5.341   75.213  155.412    0.412    0.264
  434.250    5.350   79.796  155.466    0.406    0.253
  434.500    5.259   83.815  155.520    0.416    0.261
  434.750    5.267   78.715  154.614    0.415    0.281
  435.000    5.280   70.197  153.708    0.400    0.293
  435.250    5.289   55.990  153.751    0.391    0.307
  435.500    5.201   58.294  152.845    0.383    0.314
  435.750    5.115   58.320  152.878    0.383    0.323
  436.000    4.938   56.630  152.921    0.389    0.330
  436.250    4.680   54.385  153.913    0.400    0.330
  436.500    4.518   56.119  156.826    0.411    0.330
  436.750    4.524   56.139  157.819    0.414    0.330
  437.000    4.368   53.323  157.873    0.408    0.334
  437.250    4.297   52.780  157.894    0.405    0.339
  437.500    4.304   51.666  157.959    0.412    0.339
  437.750    4.231   53.407  157.981    0.412    0.342
