~VERSION INFORMATION
 VERS.                 2.0:   CWLS LOG ASCII STANDARD -VERSION 2.0
 WRAP.                  NO:   ONE LINE PER DEPTH STEP
~WELL INFORMATION BLOCK
#MNEM.UNIT           DATA                    DESCRIPTION OF MNEMONIC
#---------    -------------------            -------------------------------
# Generated from Intellog Unique Number	CW_76_78/WELL/2579
WELL.         10-23-078-23W4                 : Well_name    - WELL
LOC .         00/10-23-078-23W4/0            : Location     - LOCATION
UWI .         00/10-23-078-23W4/0            : Uwi          - UNIQUE WELL ID
ENTR.         MAX                            : Entered      - ENTERED BY
SRVC.         SCHLUMBERGER                   : Scn          - SERVICE COMPANY
STRT.M        207.264                        : top_depth    - START DEPTH
STOP.M        493.764                        : bot_depth    - STOP DEPTH
STEP.M        0.25                           : increment    - STEP LENGTH
 NULL. -999.2500:NULL Value
~CURVE INFORMATION BLOCK
#MNEM UNIT       ERCB CURVE CODE    CURVE DESCRIPTION
#-----------   ------------------   ----------------------------------
DEPT.M        00 001 00 00         : DEPTH        - DEPTH
ILD .OHMM     00 120 00 00         : RESD         - DEEP RESISTIVITY (DIL)
NPHI.V/V      00 330 00 00         : PHIN         - NEUTRON POROSITY (SANDSTONE)
DPHI.V/V      00 890 00 00         : PHID         - DENSITY POROSITY (SANDSTONE)
CALI.MM       00 280 01 00         : CAL          - CALIPER
GR  .API      00 310 00 00         : GR           - GAMMA RAY
~PARAMETER INFORMATION
#MNEM.UNIT           DATA             DESCRIPTION OF MNEMONIC
#---------         -----------     ------------------------------
GL  .M        566.623              : gl           - GROUND LEVEL ELEVATION
EREF.M        570.159              : kb           - ELEVATION OF DEPTH REFERENCE
DATM.M        566.623              : datum        - DATUM ELEVATION
TDD .M        495.91               : tdd          - TOTAL DEPTH DRILLER
RUN .         ONE                  : Run          - RUN NUMBER
ENG .         BILL                 : Engineer     - RECORDING ENGINEER
WIT .         JIM                  : Witness      - WITNESSED BY
MUD .         GEL                  : Mud_type     - MUD TYPE
MATR.         SANDSTONE            : Logunit      - NEUTRON MATRIX
TMAX.C        21.6667              : BHT          - MAXIMUM RECORDED TEMPERATURE
BHTD.M        495.91               : BHTDEP       - MAXIMUM RECORDED TEMPERATURE
RMT .C        14.4444              : MDTP         - TEMPERATURE OF MUD
MUDD.KG/M     9000                 : MWT          - MUD DENSITY
NEUT.         1                    : NEUTRON      - NEUTRON TYPE
RESI.         0                    : RESIST       - RESISTIVITY TYPE
RM  .OHMM     6                    : RM           - RESISTIVITY OF MUD
RMC .OHMM     4.35                 : RMC          - RESISTIVITY OF MUD CAKE
RMF .OHMM     7.02                 : RMF          - RESISTIVITY OF MUD FILTRATE
SUFT.C        -6.66667             : SUFT         - SURFACE TEMPERATURE
~A  DEPTH     RESD     PHIN     PHID      CAL       GR
# ...
  243.764    3.059    0.675    0.220  204.219   93.543
  244.014    3.059    0.675    0.208  204.170   94.691
  244.264    3.110    0.681    0.228  204.623   94.673
  244.514    3.283    0.636    0.229  204.594   93.468
  244.764    3.528    0.543    0.229  205.048   85.213
  245.014    4.115    0.485    0.232  206.995   72.246
  245.264    4.423    0.427    0.216  208.953   55.456
  245.514    5.549    0.409    0.197  209.411   48.074
  245.764    8.979    0.432    0.208  208.869   47.466
  246.014   13.884    0.449    0.282  204.846   47.733
  246.264   16.491    0.461    0.299  201.315   48.887
  246.514   16.934    0.466    0.301  200.265   51.801
  246.764   14.238    0.455    0.297  199.244   56.778
  247.014   13.597    0.442    0.295  197.706   59.110
  247.264   10.921    0.425    0.279  199.156   63.790
  247.514   10.335    0.390    0.242  200.615   68.475
  247.764    9.345    0.391    0.190  201.567   73.746
  248.014    8.222    0.455    0.141  203.524   77.543
  248.264    7.851    0.472    0.192  207.967   80.167
  248.514    7.851    0.447    0.239  207.425   82.202
  248.764    7.767    0.425    0.248  198.914   84.237
  249.014    7.979    0.413    0.251  198.367   86.861
  249.264    9.564    0.404    0.241  200.828   89.779
  249.514    9.912    0.414    0.237  203.268   92.109
  249.764   10.364    0.426    0.231  204.728   94.729
  250.014   10.079    0.439    0.221  206.681   98.523
  250.264    9.366    0.494    0.242  212.612  100.859
  250.514    7.661    0.499    0.227  208.594  101.718
  250.764    6.991    0.464    0.212  206.557  100.221
  251.014    5.719    0.478    0.206  206.005   93.434
  251.264    4.722    0.513    0.187  205.981   92.228
  251.514    4.468    0.544    0.276  206.439   92.502
  251.764    3.622    0.562    0.274  206.893   91.590
  252.014    3.490    0.584    0.268  206.854   90.397
  252.264    3.243    0.615    0.264  203.821   88.309
  252.514    3.013    0.625    0.261  203.787   82.698
  252.764    2.700    0.633    0.264  204.738   82.968
  253.014    2.700    0.622    0.269  206.193   81.475
  253.264    2.483    0.660    0.277  213.126   79.099
  253.514    2.482    0.653    0.292  217.569   76.719
  253.764    3.058    0.610    0.304  210.054   71.697
  254.014    4.772    0.585    0.323  205.025   59.318
  254.264   10.911    0.539    0.333  203.496   47.531
  254.514   33.985    0.494    0.336  201.460   44.560
  254.764   46.269    0.473    0.340  199.926   44.243
  255.014   46.653    0.455    0.342  199.394   44.243
  255.264   44.149    0.437    0.341  199.349   44.197
  255.514   33.281    0.439    0.337  199.310   43.879
  255.764   28.494    0.447    0.333  199.266   43.562
  256.014   26.471    0.450    0.335  199.226   42.947
  256.264   25.745    0.466    0.342  199.182   42.924
  256.514   25.483    0.484    0.339  199.143   43.486
  256.764   25.246    0.475    0.339  198.112   43.460
  257.014   25.692    0.472    0.347  194.582   43.440
  257.264   25.909    0.455    0.341  194.537   42.531
  257.514   25.423    0.418    0.349  194.991   42.214
  257.764   25.176    0.408    0.355  194.459   43.370
  258.014   24.932    0.421    0.334  194.917   45.400
  258.264   24.466    0.437    0.321  195.376   46.850
  258.514   22.938    0.440    0.299  197.328   47.706
  258.764   21.507    0.458    0.263  197.777   48.565
  259.014   19.985    0.461    0.214  199.232   51.186
  259.264   18.403    0.366    0.185  200.188   54.103
  259.514   16.490    0.365    0.155  201.150   55.551
  259.764   14.909    0.440    0.203  200.608   58.765
  260.014   13.237    0.496    0.253  202.062   58.151
  260.264   11.860    0.485    0.287  202.516   50.775
  260.514   11.533    0.481    0.336  198.991   48.102
  260.764   11.952    0.504    0.332  198.951   49.840
  261.014   13.321    0.534    0.334  198.907   53.938
  261.264   14.448    0.529    0.332  198.369   58.914
  261.514   13.304    0.523    0.322  196.831   61.829
  261.764   10.686    0.512    0.318  194.302   64.453
  262.014    9.663    0.494    0.311  193.759   70.020
  262.264    8.736    0.501    0.302  195.219   82.349
  262.514    7.413    0.541    0.290  198.661   89.090
  262.764    5.638    0.565    0.281  200.613   93.479
  263.014    4.872    0.559    0.257  200.574   89.041
  263.264    4.171    0.534    0.241  200.529   86.959
  263.514    4.019    0.509    0.224  199.494   85.462
  263.764    4.203    0.539    0.238  197.463   81.025
  264.014    4.993    0.525    0.258  196.422   74.534
  264.264    6.985    0.522    0.298  199.376   59.803
  264.514    8.843    0.510    0.310  195.845   50.953
  264.764    9.945    0.469    0.302  195.313   49.160
  265.014   10.884    0.439    0.289  196.255   50.024
  265.264   11.487    0.426    0.276  197.719   52.939
  265.514   11.797    0.440    0.258  200.170   57.916
  265.764   11.682    0.446    0.248  201.122   56.716
  266.014   11.153    0.429    0.246  200.086   55.219
  266.264   11.153    0.429    0.249  198.050   56.667
  266.514   10.939    0.475    0.309  195.520   56.641
  266.764   10.350    0.503    0.314  194.983   52.503
  267.014   11.328    0.489    0.329  194.939   48.353
  267.264   13.213    0.490    0.335  195.402   46.568
  267.514   15.839    0.478    0.326  195.353   45.663
  267.764   17.652    0.455    0.325  195.309   44.460
  268.014   19.497    0.462    0.323  195.279   44.431
  268.264   20.954    0.483    0.315  195.240   44.416
  268.514   20.954    0.507    0.321  194.687   43.796
  268.764   22.091    0.514    0.342  194.150   43.779
  269.014   23.533    0.500    0.348  194.111   43.461
  269.264   23.949    0.467    0.341  194.574   44.023
  269.514   23.718    0.452    0.334  194.535   46.350
  269.764   22.237    0.452    0.327  194.486   50.447
  270.014   20.663    0.442    0.330  194.954   53.659
  270.264   17.693    0.439    0.323  196.404   56.283
  270.514   13.956    0.465    0.312  198.356   59.495
  270.764   12.058    0.449    0.299  198.810   62.409
  271.014   10.323    0.449    0.296  197.775   65.033
  271.264    9.334    0.474    0.297  195.738   68.242
  271.514    8.440    0.501    0.294  194.708   70.280
  271.764    7.771    0.509    0.277  195.161   72.607
  272.014    7.488    0.494    0.263  195.620   71.993
  272.264    7.415    0.459    0.257  200.063   68.443
  272.514    7.478    0.443    0.264  201.014   66.949
  272.764    7.541    0.436    0.255  204.964   72.217
  273.014    7.400    0.463    0.258  211.892   74.252
  273.264    7.131    0.489    0.265  209.363   77.164
  273.514    6.686    0.509    0.257  203.337   78.323
  273.764    6.561    0.464    0.252  201.804   80.947
  274.014    7.936    0.437    0.247  207.745   83.862
  274.264    8.225    0.438    0.248  217.666   81.777
  274.514    9.681    0.441    0.251  221.611   78.810
  274.764   10.311    0.415    0.255  210.610   77.319
  275.014   11.388    0.392    0.246  205.586   74.940
  275.264   12.464    0.380    0.234  199.072   70.802
  275.514   14.016    0.405    0.262  195.547   65.188
  275.764   14.396    0.398    0.290  195.004   62.812
  276.014   13.999    0.389    0.285  194.970   67.494
  276.264   12.657    0.410    0.266  195.424   71.288
  276.514   10.641    0.432    0.247  195.384   71.850
  276.764    9.887    0.442    0.259  194.349   72.421
  277.014    9.442    0.456    0.244  192.308   72.983
  277.264    9.098    0.480    0.241  191.272   74.425
  277.514    9.005    0.465    0.243  191.238   74.404
  277.764    8.841    0.444    0.265  195.680   73.205
  278.014    8.755    0.455    0.256  194.142   71.420
  278.264    8.909    0.459    0.259  196.095   71.099
  278.514    9.066    0.446    0.270  196.055   72.544
  278.764    9.143    0.426    0.273  196.016   74.582
  279.014    9.136    0.399    0.266  199.951   79.264
  279.264    9.136    0.445    0.250  201.400   87.182
  279.514    8.956    0.449    0.246  202.860   84.800
  279.764    8.953    0.445    0.257  205.809   81.545
  280.014    8.472    0.477    0.259  205.764   77.104
