~VERSION INFORMATION
 VERS.                 2.0:   CWLS LOG ASCII STANDARD -VERSION 2.0
 WRAP.                  NO:   ONE LINE PER DEPTH STEP
~WELL INFORMATION BLOCK
#MNEM.UNIT           DATA                    DESCRIPTION OF MNEMONIC
#---------    -------------------            -------------------------------
# Generated from Intellog Unique Number	CW_79_81/WELL/2472
WELL.         10-23-081-20W4                 : Well_name    - WELL
LOC .         00/10-23-081-20W4/0            : Location     - LOCATION
UWI .         00/10-23-081-20W4/0            : Uwi          - UNIQUE WELL ID
ENTR.         MAX                            : Entered      - ENTERED BY
SRVC.         SCHLUMBERGER                   : Scn          - SERVICE COMPANY
STRT.M        182.88                         : top_depth    - START DEPTH
STOP.M        405.13                         : bot_depth    - STOP DEPTH
STEP.M        0.25                           : increment    - STEP LENGTH
 NULL. -999.2500:NULL Value
~CURVE INFORMATION BLOCK
#MNEM UNIT       ERCB CURVE CODE    CURVE DESCRIPTION
#-----------   ------------------   ----------------------------------
DEPT.M        00 001 00 00         : DEPTH        - DEPTH
ILD .OHMM     00 120 00 00         : RESD         - DEEP RESISTIVITY (DIL)
NPHI.V/V      00 330 00 00         : PHIN         - NEUTRON POROSITY (SANDSTONE)
DPHI.V/V      00 890 00 00         : PHID         - DENSITY POROSITY (SANDSTONE)
GR  .API      00 310 00 00         : GR           - GAMMA RAY
CALI.MM       00 280 01 00         : CAL          - CALIPER
~PARAMETER INFORMATION
#MNEM.UNIT           DATA             DESCRIPTION OF MNEMONIC
#---------         -----------     ------------------------------
GL  .M        582.778              : gl           - GROUND LEVEL ELEVATION
EREF.M        586.13               : kb           - ELEVATION OF DEPTH REFERENCE
DATM.M        582.778              : datum        - DATUM ELEVATION
TDD .M        414.223              : tdd          - TOTAL DEPTH DRILLER
RUN .         ONE                  : Run          - RUN NUMBER
ENG .         BILL                 : Engineer     - RECORDING ENGINEER
WIT .         JIM                  : Witness      - WITNESSED BY
MUD .         GEL                  : Mud_type     - MUD TYPE
MATR.         SANDSTONE            : Logunit      - NEUTRON MATRIX
TMAX.C        25.5556              : BHT          - MAXIMUM RECORDED TEMPERATURE
BHTD.M        414.223              : BHTDEP       - MAXIMUM RECORDED TEMPERATURE
MATR.         1                    : LOGUNIT      - NEUTRON MATRIX
RMT .C        11.6667              : MDTP         - TEMPERATURE OF MUD
NEUT.         1                    : NEUTRON      - NEUTRON TYPE
RESI.         0                    : RESIST       - RESISTIVITY TYPE
RMC .OHMM     3.8                  : RMC          - RESISTIVITY OF MUD CAKE
RMF .OHMM     2.57                 : RMF          - RESISTIVITY OF MUD FILTRATE
SUFT.C        -20                  : SUFT         - SURFACE TEMPERATURE
~A  DEPTH     RESD     PHIN     PHID       GR      CAL
# ...
  219.380    4.765    0.553    0.273   87.930  176.913
  219.630    5.300    0.532    0.290   76.605  174.397
  219.880    6.084    0.485    0.314   62.273  169.332
  220.130    8.019    0.468    0.335   54.841  162.939
  220.380   10.852    0.479    0.340   54.623  162.164
  220.630   12.928    0.476    0.341   56.492  162.191
  220.880   13.528    0.480    0.338   57.844  162.223
  221.130   13.206    0.481    0.337   58.445  162.259
  221.380   12.654    0.477    0.337   58.697  162.294
  221.630   12.027    0.470    0.337   59.739  162.249
  221.880   11.542    0.472    0.338   60.242  161.876
  222.130   11.068    0.470    0.341   58.873  161.910
  222.380   10.954    0.478    0.344   58.894  161.652
  222.630   11.134    0.479    0.344   59.956  161.490
  222.880   11.579    0.472    0.343   61.363  161.325
  223.130   12.436    0.464    0.344   61.986  160.585
  223.380   13.322    0.451    0.344   61.526  160.616
  223.630   14.179    0.458    0.346   61.313  160.258
  223.880   15.391    0.458    0.348   60.583  160.196
  224.130   16.335    0.455    0.348   60.488  160.231
  224.380   16.602    0.452    0.348   61.201  160.364
  224.630   16.338    0.458    0.345   62.018  160.800
  224.880   16.271    0.492    0.349   62.518  160.835
  225.130   16.703    0.511    0.356   62.536  161.254
  225.380   17.227    0.508    0.358   61.861  161.678
  225.630   18.118    0.505    0.360   60.263  161.907
  225.880   19.475    0.508    0.360   58.606  162.041
  226.130   21.524    0.504    0.357   58.906  162.562
  226.380   23.973    0.508    0.365   59.168  163.005
  226.630   26.283    0.529    0.376   58.493  163.431
  226.880   27.461    0.548    0.384   56.259  163.560
  227.130   27.377    0.563    0.389   54.776  163.198
  227.380   25.809    0.573    0.391   54.853  162.641
  227.630   22.748    0.566    0.389   56.090  162.682
  227.880   23.104    0.523    0.380   57.556  162.721
  228.130   23.629    0.485    0.368   56.883  162.755
  228.380   24.041    0.468    0.357   55.686  162.198
  228.630   24.428    0.470    0.349   55.589  161.838
  228.880   24.794    0.477    0.341   56.883  161.773
  229.130   25.087    0.464    0.333   58.433  161.506
  229.380   25.313    0.461    0.332   57.971  161.959
  229.630   25.436    0.474    0.334   56.369  161.986
  229.880   25.348    0.470    0.341   55.462  162.315
  230.130   24.919    0.476    0.342   55.945  162.543
  230.380   24.107    0.496    0.339   57.701  162.474
  230.630   22.564    0.510    0.345   59.713  162.126
  230.880   20.744    0.523    0.346   59.255  162.161
  231.130   19.089    0.512    0.346   60.199  162.191
  231.380   17.264    0.508    0.346   60.973  162.227
  231.630   15.993    0.514    0.344   61.340  162.262
  231.880   15.229    0.524    0.340   61.184  162.296
  232.130   14.436    0.521    0.339   60.656  162.336
  232.380   13.759    0.515    0.343   61.400  162.371
  232.630   13.632    0.505    0.341   66.054  161.618
  232.880   13.944    0.507    0.336   67.928  161.454
  233.130   14.290    0.513    0.334   69.338  161.686
  233.380   14.429    0.522    0.332   71.210  161.919
  233.630   14.226    0.537    0.317   73.182  161.569
  233.880   13.709    0.520    0.293   73.683  161.597
  234.130   12.756    0.516    0.283   72.777  161.631
  234.380   11.263    0.528    0.288   70.136  161.665
  234.630   10.135    0.544    0.313   67.146  161.698
  234.880    9.423    0.551    0.339   64.675  161.635
  235.130    8.869    0.537    0.330   63.071  161.280
  235.380    8.009    0.514    0.320   64.255  160.827
  235.630    7.347    0.517    0.307   65.482  160.458
  235.880    7.060    0.507    0.295   66.960  160.406
  236.130    6.983    0.493    0.292   67.674  160.636
  236.380    7.088    0.476    0.297   67.344  161.163
  236.630    7.338    0.454    0.293   66.669  161.984
  236.880    7.803    0.447    0.283   64.090  162.026
  237.130    8.155    0.459    0.281   62.905  162.054
  237.380    8.366    0.465    0.298   60.424  162.381
  237.630    8.537    0.468    0.320   55.930  163.005
  237.880    8.691    0.466    0.336   51.842  164.116
  238.130    8.877    0.462    0.339   53.822  166.689
  238.380    9.038    0.464    0.339   55.531  169.582
  238.630    9.067    0.470    0.332   55.319  166.476
  238.880    9.050    0.473    0.327   55.628  165.137
  239.130    9.017    0.481    0.325   55.417  164.782
  239.380    8.952    0.496    0.323   55.033  164.821
  239.630    8.741    0.517    0.320   56.648  164.941
  239.880    8.481    0.516    0.325   58.843  165.378
  240.130    8.260    0.504    0.331   58.629  166.199
  240.380    8.063    0.492    0.337   57.028  166.726
  240.630    7.922    0.488    0.341   54.386  166.567
  240.880    7.843    0.490    0.343   50.875  165.915
  241.130    7.822    0.480    0.346   45.920  165.557
  241.380    7.885    0.461    0.340   43.051  165.592
  241.630    8.222    0.449    0.329   42.141  165.237
  241.880    8.974    0.422    0.309   42.102  164.586
  242.130    9.508    0.391    0.288   46.058  163.835
  242.380    9.464    0.372    0.277   53.255  163.085
  242.630    8.967    0.391    0.297   58.925  162.341
  242.880    8.263    0.442    0.348   58.220  162.377
  243.130    8.041    0.456    0.347   55.696  162.799
  243.380    7.940    0.460    0.355   54.211  163.226
  243.630    7.922    0.464    0.358   53.421  163.457
  243.880    7.990    0.468    0.354   52.340  163.491
  244.130    8.214    0.465    0.350   48.676  163.449
  244.380    8.407    0.454    0.345   45.323  163.072
  244.630    8.530    0.448    0.342   44.183  163.113
  244.880    8.629    0.442    0.341   43.566  163.143
  245.130    8.675    0.434    0.339   43.009  162.977
  245.380    8.673    0.420    0.336   42.394  162.718
  245.630    8.651    0.396    0.337   41.855  162.762
  245.880    8.552    0.394    0.341   41.393  162.797
  246.130    8.456    0.406    0.343   40.950  162.435
  246.380    8.241    0.414    0.344   40.160  162.372
  246.630    7.924    0.420    0.342   39.832  162.408
  246.880    7.550    0.428    0.340   39.853  162.441
  247.130    7.096    0.435    0.338   39.088  162.482
  247.380    6.709    0.419    0.340   38.629  162.517
  247.630    6.613    0.406    0.340   40.033  162.155
  247.880    6.635    0.423    0.339   42.312  162.093
  248.130    6.801    0.439    0.338   43.838  162.322
  248.380    7.195    0.439    0.337   43.918  162.647
  248.630    8.017    0.424    0.334   42.891  162.688
  248.880    7.983    0.426    0.328   43.378  162.723
  249.130    7.887    0.430    0.326   41.547  162.757
  249.380    7.886    0.439    0.328   40.062  162.793
  249.630    8.021    0.443    0.329   39.503  162.828
  249.880    8.262    0.439    0.327   39.755  162.861
  250.130    8.530    0.435    0.326   39.672  162.899
  250.380    8.789    0.433    0.331   38.006  162.937
  250.630    9.096    0.435    0.320   35.478  162.971
  250.880    9.222    0.415    0.301   32.605  163.296
  251.130    9.140    0.378    0.284   30.888  163.918
  251.380    8.819    0.341    0.275   31.139  164.443
  251.630    8.167    0.342    0.275   34.058  164.007
  251.880    7.843    0.377    0.291   36.973  163.633
  252.130    7.716    0.416    0.307   39.306  163.670
  252.380    7.612    0.459    0.331   41.643  163.408
  252.630    7.579    0.469    0.348   44.210  162.852
  252.880    7.594    0.447    0.352   46.602  162.103
  253.130    7.567    0.439    0.342   47.255  161.199
  253.380    7.598    0.450    0.331   44.626  160.413
  253.630    7.596    0.463    0.327   42.095  160.450
  253.880    7.571    0.480    0.342   39.742  160.779
  254.130    7.553    0.476    0.354   38.952  161.206
  254.380    7.551    0.454    0.356   39.897  161.535
  254.630    7.549    0.442    0.354   41.542  161.566
  254.880    7.547    0.470    0.353   42.140  161.608
  255.130    7.513    0.481    0.354   42.161  161.231
  255.380    7.505    0.486    0.357   41.312  161.477
  255.630    7.487    0.497    0.362   40.290  161.709
