~VERSION INFORMATION
 VERS.                 2.0:   CWLS LOG ASCII STANDARD -VERSION 2.0
 WRAP.                  NO:   ONE LINE PER DEPTH STEP
~WELL INFORMATION BLOCK
#MNEM.UNIT           DATA                    DESCRIPTION OF MNEMONIC
#---------    -------------------            -------------------------------
# Generated from Intellog Unique Number	CN_94_101/WELL/3782
WELL.         10-25-095-18W4                 : Well_name    - WELL
LOC .         00/10-25-095-18W4/0            : Location     - LOCATION
UWI .         00/10-25-095-18W400            : Uwi          - UNIQUE WELL ID
ENTR.         T                              : Entered      - ENTERED BY
SRVC.         SCHLUMBERGER                   : Scn          - SERVICE COMPANY
DATE.         04/12/92                       : Date         - LOG DATE
STRT.M        200                            : top_depth    - START DEPTH
STOP.M        394.75                         : bot_depth    - STOP DEPTH
STEP.M        0.25                           : increment    - STEP LENGTH
 NULL. -999.2500:NULL Value
~CURVE INFORMATION BLOCK
#MNEM UNIT       ERCB CURVE CODE    CURVE DESCRIPTION
#-----------   ------------------   ----------------------------------
DEPT.M        00 001 00 00         : DEPTH        - DEPTH
GR  .API      00 310 00 00         : GR           - GAMMA RAY
CALI.MM       00 280 01 00         : CAL          - CALIPER
NPHI.V/V      00 330 00 00         : PHIN         - NEUTRON POROSITY (SANDSTONE)
DPHI.V/V      00 890 00 00         : PHID         - DENSITY POROSITY (SANDSTONE)
ILD .OHMM     00 120 00 00         : RESD         - DEEP RESISTIVITY (DIL)
~PARAMETER INFORMATION
#MNEM.UNIT           DATA             DESCRIPTION OF MNEMONIC
#---------         -----------     ------------------------------
GL  .M        665                  : gl           - GROUND LEVEL ELEVATION
EREF.M        668                  : kb           - ELEVATION OF DEPTH REFERENCE
DATM.M        668                  : datum        - DATUM ELEVATION
TDD .M        399                  : tdd          - TOTAL DEPTH DRILLER
RUN .         0.000000             : Run          - RUN NUMBER
MUD .         GEL                  : Mud_type     - MUD TYPE
MATR.         SANDSTONE            : Logunit      - NEUTRON MATRIX
TMAX.C        15                   : BHT          - MAXIMUM RECORDED TEMPERATURE
BHTD.M        253.4                : BHTDEP       - MAXIMUM RECORDED TEMPERATURE
RMT .C        17.3                 : MDTP         - TEMPERATURE OF MUD
MUDD.KG/M     1130                 : MWT          - MUD DENSITY
NEUT.         1                    : NEUTRON      - NEUTRON TYPE
RESI.         0                    : RESIST       - RESISTIVITY TYPE
RM  .OHMM     8.25                 : RM           - RESISTIVITY OF MUD
RMC .OHMM     7.89                 : RMC          - RESISTIVITY OF MUD CAKE
RMF .OHMM     3.5                  : RMF          - RESISTIVITY OF MUD FILTRATE
SUFT.C        4                    : SUFT         - SURFACE TEMPERATURE
BTZC.MM       0                    : BITZC        - BIT SIZE CONSTANT
MDW .KG/M     0                    : MDW          - MUD WEIGHT
~A  DEPTH       GR      CAL     PHIN     PHID     RESD
# ...
  273.000  106.695  177.686    0.506    0.235    4.121
  273.250  101.674  177.686    0.501    0.225    3.966
  273.500  100.418  167.355    0.482    0.222    3.966
  273.750  103.556  164.256    0.500    0.247    3.891
  274.000  105.439  168.388    0.562    0.281    3.674
  274.250  103.556  167.355    0.560    0.286    3.745
  274.500   99.791  168.388    0.545    0.294    3.891
  274.750   98.536  168.388    0.508    0.286    4.448
  275.000   96.429  166.322    0.481    0.250    4.895
  275.250   89.496  162.190    0.438    0.225    5.086
  275.500   85.084  163.223    0.441    0.200    5.086
  275.750   86.345  163.223    0.456    0.215    5.086
  276.000   94.538  165.289    0.473    0.236    4.711
  276.250   98.950  166.322    0.476    0.235    4.622
  276.500  100.840  166.322    0.479    0.242    4.448
  276.750   98.950  171.488    0.483    0.255    4.534
  277.000   91.387  161.157    0.485    0.286    4.895
  277.250   84.454  162.190    0.477    0.334    4.990
  277.500   86.345  168.388    0.464    0.330    4.895
  277.750   90.756  169.421    0.478    0.279    4.802
  278.000   92.017  173.554    0.451    0.257    4.802
  278.250   87.605  173.755    0.412    0.266    4.802
  278.500   86.975  172.718    0.421    0.297    4.802
  278.750   89.496  164.419    0.443    0.326    4.990
  279.000   84.454  162.344    0.444    0.328    4.990
  279.250   81.933  166.494    0.449    0.305    4.990
  279.500   83.824  164.419    0.473    0.286    4.990
  279.750   86.345  167.531    0.466    0.230    4.895
  280.000   86.345  160.270    0.458    0.154    4.448
  280.250   87.605  166.494    0.478    0.182    4.042
  280.500   98.950  170.643    0.495    0.231    3.891
  280.750  107.143  172.718    0.544    0.231    3.604
  281.000  105.882  171.680    0.540    0.212    3.469
  281.250  105.439  171.680    0.533    0.193    3.536
  281.500  104.184  172.718    0.528    0.213    3.536
  281.750  101.674  168.568    0.522    0.245    3.674
  282.000   99.791  166.494    0.513    0.261    3.817
  282.250  102.929  167.531    0.508    0.261    3.966
  282.500  105.625  169.421    0.498    0.251    4.042
  282.750  103.750  172.521    0.478    0.244    4.121
  283.000  100.000  173.554    0.464    0.246    4.200
  283.250   98.750  174.587    0.454    0.247    4.121
  283.500  106.250  166.322    0.478    0.245    3.966
  283.750  105.809  160.124    0.495    0.241    3.817
  284.000   99.585  169.421    0.530    0.246    3.817
  284.250   95.851  169.421    0.507    0.255    3.891
  284.500   93.983  168.388    0.496    0.264    4.121
  284.750   92.116  173.554    0.478    0.259    4.448
  285.000   92.355  173.554    0.464    0.250    5.086
  285.250   89.876  163.223    0.448    0.265    5.597
  285.500   87.397  161.157    0.446    0.266    6.042
  285.750   83.058  161.157    0.458    0.261    5.815
  286.000   82.438  167.355    0.476    0.228    5.705
  286.250   81.818  172.521    0.482    0.167    5.597
  286.500   88.636  169.606    0.491    0.122    5.386
  286.750   95.455  166.494    0.482    0.164    5.184
  287.000  109.091  171.680    0.479    0.212    5.086
  287.250  112.810  172.718    0.492    0.210    4.895
  287.500  113.430  172.718    0.502    0.200    5.086
  287.750  111.570  171.680    0.503    0.200    4.802
  288.000  111.570  168.568    0.483    0.198    4.622
  288.250  108.471  171.680    0.483    0.193    4.534
  288.500  106.612  165.456    0.510    0.203    4.534
  288.750  105.372  170.643    0.515    0.210    4.448
  289.000  104.752  160.270    0.520    0.215    4.042
  289.250  105.992  167.531    0.541    0.232    3.817
  289.500  109.091  168.568    0.587    0.249    3.604
  289.750  110.331  168.568    0.571    0.261    3.403
  290.000  110.166  167.531    0.528    0.267    3.213
  290.250  108.921  167.531    0.580    0.272    3.034
  290.500  108.299  166.494    0.572    0.285    2.920
  290.750  108.299  158.195    0.540    0.296    2.810
  291.000  108.299  167.531    0.482    0.289    2.757
  291.250  107.054  166.494    0.477    0.296    2.757
  291.500  106.432  164.419    0.507    0.301    2.757
  291.750  104.564  163.382    0.554    0.295    2.810
  292.000  100.830  166.494    0.552    0.286    2.757
  292.250   97.718  166.494    0.510    0.282    2.865
  292.500   92.739  166.494    0.481    0.295    3.152
  292.750   87.759  160.270    0.458    0.301    3.536
  293.000   80.913  160.270    0.454    0.319    3.966
  293.250   79.046  161.307    0.466    0.305    4.534
  293.500   79.668  161.307    0.438    0.279    5.086
  293.750   76.556  160.270    0.405    0.202    6.042
  294.000   66.598  161.307    0.329    0.136    5.705
  294.250   56.017  161.307    0.387    0.198    7.898
  294.500   55.394  159.232    0.390    0.292    8.050
  294.750   58.506  159.232    0.394    0.286    8.206
  295.000   65.975  162.344    0.410    0.272    7.898
  295.250   76.556  173.755    0.449    0.276    7.898
  295.500   89.004  176.867    0.451    0.286    7.177
  295.750   90.871  179.979    0.442    0.285    6.399
  296.000   91.494  163.382    0.432    0.276    6.042
  296.250   90.871  172.718    0.410    0.275    5.386
  296.500   89.627  177.905    0.419    0.279    5.927
  296.750   84.025  173.755    0.449    0.274    6.399
  297.000   76.556  176.867    0.456    0.266    7.041
  297.250   80.290  174.793    0.466    0.255    6.399
  297.500   88.382  176.867    0.486    0.250    5.705
  297.750   90.871  174.793    0.478    0.260    5.386
  298.000   92.739  174.793    0.456    0.276    5.386
  298.250   90.871  168.568    0.444    0.300    5.705
  298.500   87.137  165.456    0.415    0.300    7.177
  298.750   79.668  159.232    0.421    0.274    8.364
  299.000   71.577  160.270    0.424    0.261    8.206
  299.250   67.842  159.232    0.431    0.279    8.206
  299.500   67.220  159.232    0.443    0.303    8.050
  299.750   66.598  159.232    0.448    0.292    7.898
  300.000   65.353  158.195    0.419    0.264    7.898
  300.250   66.598  159.232    0.409    0.233    7.748
  300.500   69.710  162.344    0.431    0.241    7.601
  300.750   74.689  158.195    0.449    0.261    6.648
  301.000   77.801  161.307    0.476    0.280    5.597
  301.250   83.402  166.494    0.479    0.286    4.802
  301.500   91.494  160.270    0.531    0.277    3.891
  301.750   98.340  161.307    0.533    0.267    3.674
  302.000  100.830  174.793    0.513    0.254    3.745
  302.250   98.963  173.755    0.453    0.245    3.817
  302.500   99.585  172.718    0.454    0.236    4.121
  302.750  100.830  170.643    0.456    0.226    4.364
  303.000   95.228  172.718    0.453    0.222    4.990
  303.250   93.983  172.718    0.449    0.222    5.086
  303.500   93.361  169.606    0.449    0.226    5.386
  303.750   94.606  177.905    0.433    0.226    5.491
  304.000   98.963  178.942    0.418    0.235    5.386
  304.250   97.718  169.606    0.468    0.259    5.386
  304.500   99.585  162.344    0.511    0.269    4.802
  304.750   98.963  162.344    0.513    0.256    4.281
  305.000   93.595  161.307    0.490    0.244    4.990
  305.250   88.636  163.382    0.424    0.217    5.927
  305.500   78.099  161.307    0.326    0.139    7.601
  305.750   69.421  159.232    0.398    0.154    7.601
  306.000   72.521  159.232    0.482    0.206    7.601
  306.250   79.339  163.382    0.483    0.241    7.177
  306.500   86.777  168.568    0.483    0.241    7.041
  306.750   90.496  170.643    0.482    0.232    6.908
  307.000   92.355  170.643    0.449    0.207    7.601
  307.250   88.017  165.456    0.394    0.178    8.050
  307.500   76.860  161.307    0.398    0.193    8.364
  307.750   75.000  161.307    0.408    0.213    8.526
  308.000   76.240  160.270    0.428    0.246    8.526
  308.250   78.719  161.307    0.431    0.281    8.526
  308.500   79.339  160.270    0.432    0.287    8.206
  308.750   78.719  158.195    0.436    0.291    7.898
  309.000   79.959  159.232    0.446    0.284    7.316
  309.250   77.479  159.232    0.418    0.250    7.316
