~VERSION INFORMATION
 VERS.                 2.0:   CWLS LOG ASCII STANDARD -VERSION 2.0
 WRAP.                  NO:   ONE LINE PER DEPTH STEP
~WELL INFORMATION BLOCK
#MNEM.UNIT           DATA                    DESCRIPTION OF MNEMONIC
#---------    -------------------            -------------------------------
# Generated from Intellog Unique Number	CS_71_72/WELL/917
WELL.         ET AL KIRBY EX                 : Well_name    - WELL
LOC .         00/12-21-071-04W4/0            : Location     - LOCATION
UWI .         00/12-21-071-04W4/0            : Uwi          - UNIQUE WELL ID
ENTR.         SP                             : Entered      - ENTERED BY
SRVC.         SCHLUMBERGER                   : Scn          - SERVICE COMPANY
STRT.M        290                            : top_depth    - START DEPTH
STOP.M        505                            : bot_depth    - STOP DEPTH
STEP.M        0.25                           : increment    - STEP LENGTH
 NULL. -999.2500:NULL Value
~CURVE INFORMATION BLOCK
#MNEM UNIT       ERCB CURVE CODE    CURVE DESCRIPTION
#-----------   ------------------   ----------------------------------
DEPT.M        00 001 00 00         : DEPTH        - DEPTH
ILD .OHMM     00 120 00 00         : RESD         - DEEP RESISTIVITY (DIL)
DPHI.V/V      00 890 00 00         : PHID         - DENSITY POROSITY (LIMESTONE)
NPHI.V/V      00 330 00 00         : PHIN         - NEUTRON POROSITY (LIMESTONE)
GR  .API      00 310 00 00         : GR           - GAMMA RAY
~PARAMETER INFORMATION
#MNEM.UNIT           DATA             DESCRIPTION OF MNEMONIC
#---------         -----------     ------------------------------
GL  .M        674.8                : gl           - GROUND LEVEL ELEVATION
EREF.M        678.4                : kb           - ELEVATION OF DEPTH REFERENCE
DATM.M        674.8                : datum        - DATUM ELEVATION
TDD .M        523.5                : tdd          - TOTAL DEPTH DRILLER
RUN .         ONE                  : Run          - RUN NUMBER
ENG .         BILL                 : Engineer     - RECORDING ENGINEER
WIT .         JIM                  : Witness      - WITNESSED BY
MUD .         GEL                  : Mud_type     - MUD TYPE
MATR.         LIMESTONE            : Logunit      - NEUTRON MATRIX
TMAX.C        17.5                 : BHT          - MAXIMUM RECORDED TEMPERATURE
BHTD.M        523.5                : BHTDEP       - MAXIMUM RECORDED TEMPERATURE
MATR.         1                    : LOGUNIT      - NEUTRON MATRIX
RMT .C        25                   : MDTP         - TEMPERATURE OF MUD
NEUT.         1                    : NEUTRON      - NEUTRON TYPE
RESI.         0                    : RESIST       - RESISTIVITY TYPE
RMC .OHMM     0.25                 : RMC          - RESISTIVITY OF MUD CAKE
RMF .OHMM     0.25                 : RMF          - RESISTIVITY OF MUD FILTRATE
SUFT.C        15                   : SUFT         - SURFACE TEMPERATURE
~A  DEPTH     RESD     PHID     PHIN       GR
  290.000    3.360    0.319    0.544   77.024
  290.250    3.065    0.328    0.537   75.946
  290.500    3.095    0.336    0.532   75.480
  290.750    3.132    0.334    0.531   75.566
  291.000    3.122    0.327    0.556   76.017
  291.250    3.101    0.322    0.573   75.430
  291.500    3.062    0.325    0.585   74.354
  291.750    3.040    0.317    0.588   74.315
  292.000    3.065    0.308    0.596   74.829
  292.250    3.131    0.301    0.587   77.424
  292.500    3.228    0.299    0.569   80.139
  292.750    3.348    0.295    0.549   82.305
  293.000    3.413    0.295    0.574   83.247
  293.250    3.351    0.298    0.577   80.765
  293.500    3.158    0.294    0.570   78.647
  293.750    3.095    0.292    0.554   77.997
  294.000    3.102    0.288    0.541   78.511
  294.250    3.181    0.282    0.548   79.148
  294.500    3.255    0.289    0.539   78.864
  294.750    3.382    0.281    0.538   77.849
  295.000    3.494    0.257    0.543   77.017
  295.250    3.685    0.240    0.522   76.430
  295.500    3.814    0.239    0.524   76.209
  295.750    3.970    0.246    0.514   76.478
  296.000    4.124    0.246    0.501   77.727
  296.250    4.253    0.237    0.497   78.975
  296.500    4.231    0.244    0.512   79.732
  296.750    4.108    0.260    0.528   80.000
  297.000    3.974    0.270    0.528   83.389
  297.250    3.807    0.277    0.535   87.145
  297.500    3.621    0.280    0.540   89.739
  297.750    3.437    0.284    0.541   88.539
  298.000    3.324    0.284    0.533   80.185
  298.250    3.351    0.280    0.535   76.721
  298.500    3.515    0.275    0.525   76.683
  298.750    3.777    0.272    0.516   78.297
  299.000    3.961    0.274    0.522   81.075
  299.250    3.890    0.276    0.535   83.608
  299.500    3.784    0.274    0.530   83.937
  299.750    3.829    0.266    0.540   80.907
  300.000    4.061    0.257    0.474   79.522
  300.250    4.307    0.256    0.451   79.299
  300.500    4.458    0.249    0.441   79.692
  300.750    4.520    0.247    0.430   78.125
  301.000    3.974    0.268    0.481   77.354
  301.250    3.937    0.288    0.520   77.439
  301.500    3.681    0.297    0.507   78.871
  301.750    3.468    0.287    0.516   80.181
  302.000    3.367    0.282    0.523   80.632
  302.250    4.036    0.279    0.495   78.027
  302.500    4.920    0.276    0.462   73.951
  302.750    5.842    0.291    0.433   68.775
  303.000    6.556    0.292    0.441   64.883
  303.250    7.125    0.293    0.450   64.419
  303.500    7.431    0.298    0.445   65.544
  303.750    7.379    0.301    0.437   66.302
  304.000    6.965    0.310    0.436   63.330
  304.250    6.636    0.304    0.448   63.230
  304.500    6.999    0.295    0.454   65.091
  304.750    7.452    0.292    0.444   64.196
  305.000    7.400    0.298    0.436   62.692
  305.250    6.971    0.331    0.433   64.062
  305.500    6.832    0.328    0.433   66.044
  305.750    7.371    0.315    0.427   66.558
  306.000    7.906    0.311    0.417   63.951
  306.250    8.513    0.330    0.412   61.222
  306.500    8.422    0.337    0.407   60.390
  306.750    9.137    0.324    0.408   60.965
  307.000   10.139    0.314    0.417   59.215
  307.250   10.633    0.307    0.431   56.731
  307.500    9.980    0.302    0.445   55.961
  307.750    9.744    0.274    0.441   56.171
  308.000   11.376    0.153    0.418   56.436
  308.250   12.984    0.127    0.398   56.526
  308.500   14.876    0.161    0.349   56.425
  308.750   16.884    0.247    0.338   55.653
  309.000   18.875    0.316    0.308   53.109
  309.250   20.710    0.380    0.282   49.952
  309.500   19.659    0.424    0.313   47.283
  309.750   18.175    0.403    0.336   44.860
  310.000   16.772    0.385    0.358   47.882
  310.250   15.832    0.367    0.392   47.111
  310.500   15.255    0.351    0.424   47.748
  310.750   14.979    0.332    0.437   49.239
  311.000   14.793    0.325    0.422   49.753
  311.250   14.607    0.331    0.414   49.228
  311.500   14.615    0.338    0.410   48.028
  311.750   14.734    0.337    0.410   47.440
  312.000   14.797    0.333    0.429   48.626
  312.250   14.806    0.332    0.442   48.406
  312.500   15.124    0.334    0.449   46.168
  312.750   15.801    0.339    0.447   44.480
  313.000   17.078    0.337    0.424   44.502
  313.250   20.547    0.324    0.407   46.301
  313.500   25.095    0.262    0.423   47.119
  313.750   29.022    0.168    0.376   44.636
  314.000   30.552   -0.010    0.291   41.541
  314.250   28.621   -0.009    0.175   38.999
  314.500   25.629    0.018    0.131   38.286
  314.750   22.649    0.277    0.149   39.412
  315.000   19.866    0.322    0.197   41.698
  315.250   17.003    0.340    0.402   44.722
  315.500   15.427    0.345    0.410   46.947
  315.750   14.562    0.347    0.418   48.136
  316.000   14.352    0.348    0.405   47.913
  316.250   13.804    0.346    0.408   49.409
  316.500   11.705    0.346    0.433   50.961
  316.750    9.757    0.347    0.412   50.801
  317.000    7.616    0.340    0.395   54.494
  317.250    6.184    0.269    0.463   70.915
  317.500    4.469    0.250    0.482   80.910
  317.750    4.363    0.246    0.504   91.579
  318.000    4.253    0.249    0.522   96.803
  318.250    4.059    0.256    0.508  100.253
  318.500    3.832    0.269    0.497   98.138
  318.750    3.741    0.277    0.492   98.099
  319.000    3.585    0.285    0.502   99.653
  319.250    3.474    0.290    0.516   99.312
  319.500    3.589    0.289    0.524   98.235
  319.750    4.326    0.282    0.514   96.912
  320.000    5.117    0.265    0.476   96.508
  320.250    6.551    0.239    0.440   93.963
  320.500    7.986    0.231    0.415   88.910
  320.750    9.201    0.268    0.384   81.958
  321.000    9.759    0.298    0.328   70.848
  321.250    9.857    0.341    0.318   58.762
  321.500    9.642    0.376    0.349   53.524
  321.750    9.118    0.369    0.372   56.549
  322.000    8.671    0.359    0.392   59.998
  322.250    8.325    0.346    0.398   63.631
  322.500    8.174    0.332    0.399   67.088
  322.750    8.102    0.314    0.400   68.327
  323.000    8.031    0.300    0.394   69.699
  323.250    7.930    0.300    0.398   63.974
  323.500    7.801    0.322    0.395   58.858
  323.750    7.866    0.341    0.391   55.944
  324.000    7.914    0.321    0.399   60.435
  324.250    8.008    0.266    0.386   67.126
  324.500    8.211    0.233    0.374   72.658
  324.750    8.356    0.215    0.373   75.863
  325.000    8.282    0.241    0.392   76.498
  325.250    7.878    0.285    0.399   72.178
  325.500    7.719    0.308    0.403   66.086
  325.750    7.480    0.334    0.401   59.564
  326.000    7.304    0.354    0.395   50.166
  326.250    7.281    0.350    0.390   45.725
  326.500    7.299    0.342    0.394   51.928
  326.750    7.275    0.333    0.410   55.256
  327.000    7.266    0.324    0.424   56.141
  327.250    7.243    0.321    0.426   56.286
  327.500    7.247    0.315    0.422   58.023
  327.750    7.319    0.308    0.425   61.353
  328.000    7.406    0.297    0.412   63.452
  328.250    7.594    0.287    0.418   65.985
  328.500    7.684    0.277    0.397   66.071
  328.750    7.821    0.268    0.386   67.564
  329.000    7.898    0.259    0.382   70.772
  329.250    7.948    0.252    0.407   73.791
  329.500    7.982    0.251    0.411   76.933
  329.750    7.956    0.247    0.400   79.530
  330.000    7.916    0.242    0.414   81.818
  330.250    7.788    0.245    0.435   84.107
  330.500    7.604    0.246    0.450   85.841
  330.750    7.438    0.244    0.461   87.150
  331.000    7.276    0.245    0.465   87.356
  331.250    7.145    0.252    0.467   86.649
  331.500    7.055    0.264    0.465   83.246
  331.750    6.967    0.283    0.451   79.295
  332.000    6.931    0.295    0.434   72.774
  332.250    6.909    0.307    0.415   64.291
  332.500    6.927    0.308    0.383   54.895
  332.750    6.943    0.287    0.394   57.187
  333.000    6.869    0.270    0.401   60.512
  333.250    6.821    0.263    0.391   65.555
