~VERSION INFORMATION
 VERS.                 2.0:   CWLS LOG ASCII STANDARD -VERSION 2.0
 WRAP.                  NO:   ONE LINE PER DEPTH STEP
~WELL INFORMATION BLOCK
#MNEM.UNIT           DATA                    DESCRIPTION OF MNEMONIC
#---------    -------------------            -------------------------------
# Generated from Intellog Unique Number	CW_82_90/WELL/2593
WELL.         IOE GODIN LAKE 11-31           : Well_name    - WELL
LOC .         00/11-31-082-01W5/0            : Location     - LOCATION
UWI .         00/11-31-082-01W5/0            : Uwi          - UNIQUE WELL ID
ENTR.         JJ                             : Entered      - ENTERED BY
SRVC.         SCHLUMBERGER                   : Scn          - SERVICE COMPANY
DATE.         5 MAR 66                       : Date         - LOG DATE
STRT.M        304.8                          : top_depth    - START DEPTH
STOP.M        432.8                          : bot_depth    - STOP DEPTH
STEP.M        0.25                           : increment    - STEP LENGTH
 NULL. -999.2500:NULL Value
~CURVE INFORMATION BLOCK
#MNEM UNIT       ERCB CURVE CODE    CURVE DESCRIPTION
#-----------   ------------------   ----------------------------------
DEPT.M        00 001 00 00         : DEPTH        - DEPTH
DELT.US/F     00 520 00 00         : DELT         - SONIC TRAVEL TIME
ILD .OHMM     00 120 00 00         : RESD         - DEEP RESISTIVITY (DIL)
CALI.MM       00 280 01 00         : CAL          - CALIPER
GR  .API      00 310 00 00         : GR           - GAMMA RAY
~PARAMETER INFORMATION
#MNEM.UNIT           DATA             DESCRIPTION OF MNEMONIC
#---------         -----------     ------------------------------
GL  .M        558.698              : gl           - GROUND LEVEL ELEVATION
EREF.M        561.746              : kb           - ELEVATION OF DEPTH REFERENCE
DATM.M        561.746              : datum        - DATUM ELEVATION
TDD .M        446.532              : tdd          - TOTAL DEPTH DRILLER
RUN .         ONE                  : Run          - RUN NUMBER
ENG .         CRAIN                : Engineer     - RECORDING ENGINEER
WIT .         BYRNES               : Witness      - WITNESSED BY
BASE.         S.L.                 : Branch       - HOME BASE OF LOGGING UNIT
MUD .         GEL                  : Mud_type     - MUD TYPE
MATR.         SANDSTONE            : Logunit      - NEUTRON MATRIX
TMAX.C        26.1111              : BHT          - MAXIMUM RECORDED TEMPERATURE
BHTD.M        445.313              : BHTDEP       - MAXIMUM RECORDED TEMPERATURE
RMT .C        14.4444              : MDTP         - TEMPERATURE OF MUD
MUDD.KG/M     1116                 : MWT          - MUD DENSITY
NEUT.         1                    : NEUTRON      - NEUTRON TYPE
RESI.         0                    : RESIST       - RESISTIVITY TYPE
RM  .OHMM     3.64                 : RM           - RESISTIVITY OF MUD
RMC .OHMM     4.56                 : RMC          - RESISTIVITY OF MUD CAKE
RMF .OHMM     4.2                  : RMF          - RESISTIVITY OF MUD FILTRATE
SUFT.C        5                    : SUFT         - SURFACE TEMPERATURE
~A  DEPTH     DELT     RESD      CAL       GR
  304.800  418.379   12.031  205.710   49.245
  305.050  419.433   11.475  205.951   46.857
  305.300  419.013   10.857  205.772   51.278
  305.550  418.456   10.033  205.802   54.393
  305.800  418.033    9.415  205.409   55.909
  306.050  419.830    8.859  204.910   51.472
  306.300  418.734    8.242  204.733   48.982
  306.550  419.321    7.644  204.761   51.551
  306.800  425.618    7.109  205.218   52.115
  307.050  431.718    6.657  206.514   54.131
  307.300  429.212    6.266  209.624   59.951
  307.550  415.816    6.246  213.250   58.815
  307.800  419.224    6.330  221.544   62.833
  308.050  415.106    6.559  222.222   67.202
  308.300  423.356    7.096  222.568   71.670
  308.550  427.771    7.737  222.381   72.487
  308.800  425.936    7.883  221.882   69.397
  309.050  424.105    7.884  221.596   71.064
  309.300  425.093    7.597  220.571   71.278
  309.550  430.454    7.309  219.855   70.342
  309.800  437.829    7.310  217.985   67.705
  310.050  446.146    7.559  216.845   66.868
  310.300  451.909    7.891  212.748   70.686
  310.550  446.511    8.449  211.718   70.301
  310.800  445.146    9.070  211.959   64.661
  311.050  436.858   10.020  213.155   68.228
  311.300  430.655   11.115  211.388   68.793
  311.550  431.445   12.396  209.726   66.406
  311.800  423.426   14.130  208.270   62.267
  312.050  415.472   15.246  208.626   57.526
  312.300  397.373   14.484  209.612   53.289
  312.550  380.011   12.525  210.059   52.903
  312.800  350.615   11.102  211.892   56.369
  313.050  341.184    9.432  213.087   55.284
  313.300  362.139    8.071  210.893   61.854
  313.550  401.915    7.268  209.441   71.127
  313.800  422.670    7.599  210.958   73.794
  314.050  428.968    9.169  217.023   78.663
  314.300  427.403   11.523  211.757   80.882
  314.550  422.276   13.092  210.622   78.843
  314.800  410.695   14.806  211.719   72.951
  315.050  402.541   15.777  211.744   62.657
  315.300  399.834   14.912  213.046   56.967
  315.550  389.798   13.180  212.341   58.532
  315.800  403.897   11.159  212.368   53.793
  316.050  409.054    9.179  213.988   53.458
  316.300  419.050    7.530  220.161   60.678
  316.550  430.863    7.180  224.647   62.694
  316.800  417.333    7.635  225.309   63.111
  317.050  423.902    8.256  226.190   66.027
  317.300  429.462    8.938  227.172   69.345
  317.550  399.865    9.331  231.862   63.954
  317.800  410.265    9.477  232.742   66.522
  318.050  407.894    9.417  224.194   62.983
  318.300  411.908    9.253  221.362   61.998
  318.550  426.678    9.399  224.785   62.661
  318.800  439.365    9.730  226.727   66.730
  319.050  414.271   10.454  226.222   70.198
  319.300  408.740   11.177  224.982   71.564
  319.550  380.085   11.674  222.687   68.876
  319.800  397.880   11.180  222.083   63.185
  320.050  406.060   10.974  221.375   64.102
  320.300  406.042   11.636  221.722   69.020
  320.550  424.241   12.133  222.806   71.937
  320.800  419.649   12.175  223.897   72.153
  321.050  416.875   12.073  223.610   68.213
  321.300  406.839   11.806  222.690   63.323
  321.550  401.845   11.312  223.992   63.888
  321.800  398.736   10.818  225.719   69.810
  322.050  405.371   10.469  226.497   72.876
  322.300  404.407   10.284  226.734   76.394
  322.550  406.073   10.224  226.656   69.553
  322.800  405.651   10.163  226.477   69.767
  323.050  407.446   10.227  226.190   75.137
  323.300  407.156   10.352  226.114   72.449
  323.550  408.012   10.559  226.257   72.413
  323.800  410.415   11.262  226.601   73.379
  324.050  410.731   12.027  226.211   72.443
  324.300  414.880   13.349  226.238   72.157
  324.550  415.734   15.331  224.999   66.366
  324.800  418.203   17.231  223.440   67.932
  325.050  421.547   19.131  221.780   58.538
  325.300  425.761   20.639  219.902   56.852
  325.550  428.567   21.548  219.405   56.866
  325.800  433.590   22.890  219.647   53.878
  326.050  421.202   24.563  217.347   46.386
  326.300  414.124   25.060  215.999   51.356
  326.550  416.725   21.986  215.928   49.169
  326.800  409.516   19.924  216.172   49.734
  327.050  403.245   18.935  216.517   50.399
  327.300  398.989   17.863  216.763   52.164
  327.550  402.736   17.225  216.578   50.528
  327.800  401.102   16.813  216.717   53.896
  328.050  400.880   16.010  217.280   52.310
  328.300  396.963   15.206  217.306   53.826
  328.550  400.979   15.661  216.281   62.898
  328.800  400.825   17.396  215.467   59.310
  329.050  403.429   19.894  215.074   56.171
  329.300  400.988   22.764  214.574   61.191
  329.550  399.087   25.634  213.012   57.150
  329.800  394.498   29.721  209.231   50.410
  330.050  390.914   32.920  206.084   50.225
  330.300  389.282   34.655  205.903   48.486
  330.550  389.265   34.120  205.723   47.401
  330.800  392.474   28.508  203.957   51.169
  331.050  384.722   22.546  201.971   53.386
  331.300  364.135   17.780  200.311   56.703
  331.550  357.999   14.046  198.961   57.018
  331.800  375.457   11.117  196.026   58.584
  332.050  388.143    9.550  194.258   60.801
  332.300  395.047    8.437  194.710   63.267
  332.550  388.239    7.778  194.212   64.733
  332.800  398.169    8.089  193.506   68.201
  333.050  403.798    9.081  191.837   77.924
  333.300  393.761   10.898  188.796   69.432
  333.550  386.349   13.376  188.829   63.541
  333.800  378.061   15.111  188.966   69.060
  334.050  369.976   15.525  188.892   63.720
  334.300  336.681   14.927  189.026   58.831
  334.550  299.758   13.360  188.959   53.891
  334.800  319.704   10.885  188.563   53.757
  335.050  349.194    9.339  188.279   60.876
  335.300  391.392    9.134  187.885   68.249
  335.550  422.363    9.795  187.915   65.159
  335.800  422.815   10.292  187.624   65.174
  336.050  424.476   10.293  187.442   65.088
  336.300  391.584   10.089  192.664   56.847
  336.550  340.679    9.801  195.980   51.055
  336.800  335.347    9.039  196.965   56.175
  337.050  349.515    8.153  197.314   60.242
  337.300  385.526    7.390  197.984   59.107
  337.550  402.918    7.103  198.962   65.176
  337.800  407.737    7.207  200.800   66.842
  338.050  412.023    7.394  200.089   66.256
  338.300  412.608    7.478  200.012   68.473
  338.550  410.506    7.706  203.431   62.584
  338.800  406.115    8.182  206.112   61.196
  339.050  402.199    8.534  207.204   66.465
  339.300  400.971    8.845  207.340   73.736
  339.550  410.092    9.301  207.374   68.947
  339.800  414.175    9.652  207.722   65.609
  340.050  414.089   10.252  208.066   68.376
  340.300  408.556   11.058  208.205   72.897
  340.550  407.530   11.575  207.915   71.709
  340.800  404.351   11.928  207.099   66.468
  341.050  401.641   12.094  206.601   63.731
  341.300  396.382   12.281  205.996   65.346
  341.550  378.952   12.365  204.970   61.908
  341.800  385.251   12.263  204.576   64.324
  342.050  386.914   11.955  205.348   70.546
  342.300  390.122   11.749  205.378   71.961
  342.550  392.454   11.421  202.551   67.671
  342.800  388.334   11.195  198.873   70.338
  343.050  388.788   11.011  195.937   74.407
  343.300  393.271   10.929  199.464   67.565
  343.550  395.202   10.951  201.088   68.381
  343.800  403.452   10.973  199.210   71.648
  344.050  402.625   11.160  197.014   76.269
  344.300  383.516   11.677  193.443   73.829
  344.550  370.792   12.339  187.013   65.837
  344.800  361.832   13.207  181.643   60.546
  345.050  358.115   14.467  179.028   51.303
  345.300  371.475   16.305  178.420   52.019
  345.550  376.296   19.216  177.603   55.937
  345.800  380.444   25.635  176.898   62.457
  346.050  358.039   34.324  176.606   62.221
  346.300  301.017   42.786  176.538   52.477
  346.550  275.586   48.111  176.140   46.486
  346.800  249.553   47.782  176.063   42.097
  347.050  234.004   39.405  176.094   39.560
  347.300  226.122   32.246  176.024   47.331
  347.550  194.844   21.578  176.052   42.842
  347.800  218.823   15.513  175.872   37.151
  348.050  236.550   13.678  175.691   33.813
