~VERSION INFORMATION
 VERS.                 2.0:   CWLS LOG ASCII STANDARD -VERSION 2.0
 WRAP.                  NO:   ONE LINE PER DEPTH STEP
~WELL INFORMATION BLOCK
#MNEM.UNIT           DATA                    DESCRIPTION OF MNEMONIC
#---------    -------------------            -------------------------------
# Generated from Intellog Unique Number	CW_70_72/WELL/1033
NULL.         -999.25                        : NULL_VALUE
WELL.         CHIEFCO ET AL SMITH 10-09      : Well_name    - WELL              
LOC .         10-09-071-26W4                 : Location     - LOCATION          
UWI .         00/10-09-071-26W4/0            : Uwi          - UNIQUE WELL ID    
ENTR.         JAYE                           : Entered      - ENTERED BY        
SRVC.         SCHLUMBERGER                   : Scn          - SERVICE COMPANY   
DATE.         7 JAN 76                       : Date         - LOG DATE          
STRT.M        432.816                        : top_depth    - START DEPTH       
STOP.M        691.816                        : bot_depth    - STOP DEPTH        
STEP.M        0.25                           : increment    - STEP LENGTH       
~CURVE INFORMATION BLOCK
#MNEM UNIT       ERCB CURVE CODE    CURVE DESCRIPTION
#-----------   ------------------   ----------------------------------
DEPT.M        00 001 00 00         : DEPTH        - DEPTH                       
DPHI.V/V      00 890 00 00         : PHID         - DENSITY POROSITY (SANDSTONE)
NPHI.V/V      00 330 00 00         : PHIN         - NEUTRON POROSITY (SANDSTONE)
GR  .API      00 310 00 00         : GR           - GAMMA RAY                   
CALI.MM       00 280 01 00         : CAL          - CALIPER                     
ILD .OHMM     00 120 00 00         : RESD         - DEEP RESISTIVITY (DLL)      
~PARAMETER INFORMATION       
#MNEM.UNIT           DATA             DESCRIPTION OF MNEMONIC
#---------         -----------     ------------------------------
GL  .M        622.365              : gl           - GROUND LEVEL ELEVATION      
EREF.M        625.45               : kb           - ELEVATION OF DEPTH REFERENCE
DATM.M        622.365              : datum        - DATUM ELEVATION             
TDD .M        708.965              : tdd          - TOTAL DEPTH DRILLER         
RUN .         ONE                  : Run          - RUN NUMBER                  
ENG .         MCDONALD             : Engineer     - RECORDING ENGINEER          
WIT .         GARDINER             : Witness      - WITNESSED BY                
BASE.         EDM                  : Branch       - HOME BASE OF LOGGING UNIT   
MUD .         GEL CHEM             : Mud_type     - MUD TYPE                    
MATR.         SANDSTONE            : Logunit      - NEUTRON MATRIX              
TMAX.C        28.3333              : BHT          - MAXIMUM RECORDED TEMPERATURE
BHTD.M        709.27               : BHTDEP       - MAXIMUM RECORDED TEMPERATURE
RMT .C        21.6667              : MDTP         - TEMPERATURE OF MUD          
MUDD.KG/M     0                    : MWT          - MUD DENSITY                 
NEUT.         1                    : NEUTRON      - NEUTRON TYPE                
RESI.         1                    : RESIST       - RESISTIVITY TYPE            
RM  .OHMM     3.34                 : RM           - RESISTIVITY OF MUD          
RMC .OHMM     2.63                 : RMC          - RESISTIVITY OF MUD CAKE     
RMF .OHMM     2.81                 : RMF          - RESISTIVITY OF MUD FILTRATE 
SUFT.C        0                    : SUFT         - SURFACE TEMPERATURE         
~A  DEPTH     PHID     PHIN       GR      CAL     RESD
# ...
  651.816    0.061    0.255   77.285  177.510   11.257
  652.066    0.086    0.330   83.583  177.532    9.233
  652.316    0.108    0.342   86.891  177.558    8.058
  652.566    0.090    0.295   82.940  177.168    9.123
  652.816    0.074    0.262   73.012  176.060   10.123
  653.066    0.047    0.231   70.647  175.049   11.031
  653.316    0.096    0.268   76.398  174.039   11.825
  653.566    0.138    0.295   81.412  173.137   12.492
  653.816    0.179    0.318   86.552  173.367   10.724
  654.066    0.178    0.334   90.043  174.216    9.256
  654.316    0.153    0.350   93.475  175.276    8.271
  654.566    0.132    0.366   96.781  177.676    7.863
  654.816    0.142    0.376  100.640  179.459    7.653
  655.066    0.139    0.369  102.972  180.307    7.684
  655.316    0.121    0.338   99.265  180.953    7.784
  655.566    0.114    0.316   90.251  181.390    8.031
  655.816    0.110    0.318   89.473  181.724    8.424
  656.066    0.106    0.334   92.538  182.060    8.948
  656.316    0.096    0.335   91.089  182.288    9.733
  656.566    0.084    0.317   82.136  182.730   10.133
  656.816    0.055    0.283   71.902  182.440   10.323
  657.066    0.033    0.271   74.845  182.259   10.177
  657.316    0.057    0.327   79.008  182.078   10.015
  657.566    0.061    0.356   80.913  182.101    9.730
  657.816    0.073    0.380   86.112  182.125    9.300
  658.066    0.101    0.335   88.019  182.049    8.776
  658.316    0.069    0.300   87.850  182.178    8.343
  658.566    0.031    0.308   87.743  182.096    8.530
  658.816    0.025    0.304   85.866  181.812    9.312
  659.066    0.017    0.296   83.379  181.529   10.409
  659.316    0.045    0.297   87.602  181.760   10.469
  659.566    0.063    0.309   97.132  181.886    9.474
  659.816    0.083    0.327  114.776  182.532    8.104
  660.066    0.133    0.416  119.365  182.863    7.007
  660.316    0.082    0.428  121.332  184.542    6.059
  660.566    0.055    0.430  106.645  185.701    5.952
  660.816    0.043    0.403   97.754  180.872    6.392
  661.066    0.006    0.394   93.621  177.386    7.042
  661.316    0.078    0.389   75.885  175.757    8.030
  661.566    0.206    0.381   66.261  174.958    8.977
  661.816    0.245    0.370   65.238  174.256    9.346
  662.066    0.230    0.351   67.632  173.668    9.332
  662.316    0.218    0.340   68.196  173.277    9.084
  662.566    0.206    0.328   68.515  172.991    8.510
  662.816    0.198    0.324   69.200  173.220    7.929
  663.066    0.209    0.325   75.560  173.555    7.361
  663.316    0.191    0.320   80.942  174.094    6.972
  663.566    0.166    0.313   87.058  175.047    6.556
  663.816    0.156    0.302   91.706  175.589    6.289
  664.066    0.150    0.289   97.516  176.234    6.066
  664.316    0.133    0.294  103.203  177.703    5.787
  664.566    0.108    0.313   91.567  175.354    5.633
  664.816    0.129    0.335   77.369  171.866    5.463
  665.066    0.172    0.322   66.525  166.519    5.366
  665.316    0.167    0.293   63.124  163.031    5.261
  665.566    0.163    0.294   65.273  163.572    5.084
  665.816    0.158    0.304   68.582  166.078    4.904
  666.066    0.146    0.314   67.132  169.302    4.696
  666.316    0.172    0.326   66.537  171.807    4.504
  666.566    0.195    0.334   69.846  172.038    4.337
  666.816    0.197    0.338   72.240  171.858    4.138
  667.066    0.189    0.341   74.694  171.880    3.976
  667.316    0.196    0.349   79.710  172.009    3.863
  667.566    0.184    0.350   85.946  172.549    3.788
  667.816    0.169    0.345   95.660  172.780    4.053
  668.066    0.144    0.339  107.386  174.251    4.481
  668.316    0.103    0.352  117.587  176.032    5.111
  668.566    0.080    0.365  106.196  176.985    5.713
  668.816    0.049    0.378   97.730  177.632    5.991
  669.066   -0.013    0.395  101.832  178.070    5.907
  669.316    0.001    0.368   99.834  178.610    5.656
  669.566    0.149    0.343  103.083  178.737    5.426
  669.816    0.125    0.324  110.111  178.454    5.427
  670.066    0.113    0.345  116.225  178.165    5.559
  670.316    0.101    0.364  114.044  177.363    5.852
  670.566    0.083    0.358  101.493  175.529    6.194
  670.816    0.095    0.320   88.392  173.384    6.484
  671.066    0.107    0.308   81.819  171.549    6.738
  671.316    0.120    0.278   84.639  174.260    6.940
  671.566    0.095    0.261   93.927  177.281    7.057
  671.816    0.074    0.273   99.368  178.337    7.098
  672.066    0.075    0.281   99.993  177.225    7.010
  672.316    0.074    0.288   97.812  174.254    6.911
  672.566    0.062    0.296   99.473  172.731    6.727
  672.816    0.054    0.309  102.050  173.686    6.476
  673.066    0.068    0.312   99.746  175.155    6.123
  673.316    0.052    0.327  103.787  177.660    5.917
  673.566    0.051    0.364  109.719  177.271    5.801
  673.816    0.071    0.359  105.097  174.815    5.657
  674.066    0.096    0.341   92.912  173.291    5.496
  674.316    0.128    0.323   83.044  173.007    5.244
  674.566    0.151    0.311   89.463  173.032    5.058
  674.816    0.135    0.302   93.262  173.263    4.852
  675.066    0.118    0.304   92.726  174.008    4.646
  675.316    0.111    0.302   90.605  176.098    4.416
  675.566    0.107    0.298   90.985  177.881    4.213
  675.816    0.100    0.288   92.830  178.734    4.086
  676.066    0.093    0.297   95.468  179.478    4.147
  676.316    0.120    0.317  100.240  180.333    4.248
  676.566    0.115    0.327  109.344  180.973    4.359
  676.816    0.098    0.380  119.790  181.618    4.337
  677.066    0.088    0.430  122.794  181.954    3.896
  677.316    0.067    0.467  122.990  182.493    3.806
  677.566    0.073    0.403  111.415  182.726    3.856
  677.816    0.101    0.337  112.345  182.337    4.052
  678.066    0.107    0.356  117.056  182.157    4.257
  678.316    0.095    0.386  121.097  182.282    4.506
  678.566    0.084    0.388  122.391  182.822    4.857
  678.816    0.109    0.371  119.969  183.157    4.876
  679.066    0.101    0.362  115.833  183.804    4.232
  679.316    0.036    0.395  108.832  184.137    3.593
  679.566    0.008    0.399  110.799  183.955    3.372
  679.816   -0.013    0.401  118.561  183.465    3.417
  680.066    0.003    0.418  121.319  182.869    3.676
  680.316    0.048    0.454  123.896  182.173    4.035
  680.566    0.086    0.439  126.230  181.679    4.527
  680.816    0.093    0.392  129.296  181.392    4.861
  681.066    0.066    0.389  132.480  181.418    4.647
  681.316    0.088    0.414  129.383  181.028    3.917
  681.566    0.063    0.432  121.652  180.639    3.326
  681.816    0.037    0.463  132.036  179.943    3.054
  682.066    0.071    0.476  136.746  179.347    2.794
  682.316    0.080    0.451  135.541  179.163    2.627
  682.566    0.046    0.422  128.723  179.497    2.590
  682.816    0.031    0.414  130.324  180.245    2.843
  683.066    0.062    0.420  135.768  182.236    3.161
  683.316    0.081    0.435  138.589  183.395    3.482
  683.566    0.076    0.448  140.311  184.038    3.619
  683.816    0.080    0.458  140.754  183.961    3.446
  684.066    0.096    0.472  137.107  183.363    2.942
  684.316    0.104    0.488  133.218  182.254    2.001
  684.566    0.059    0.493  127.498  181.452    1.740
  684.816    0.030    0.473  124.158  181.165    1.718
  685.066    0.003    0.442  125.331  181.090    1.942
  685.316    0.065    0.423  125.347  180.804    2.280
  685.566    0.032    0.425  126.275  180.721    2.544
  685.816    0.075    0.435  126.106  180.850    2.869
  686.066    0.058    0.450  124.962  180.771    3.149
  686.316    0.016    0.461  121.195  180.588    3.297
  686.566    0.026    0.474  123.589  180.305    3.157
  686.816    0.088    0.468  123.482  180.224    2.837
  687.066    0.085    0.461  121.604  180.147    2.672
  687.316    0.068    0.474  120.033  180.171    2.663
  687.566    0.044    0.501  120.474  180.402    2.813
  687.816    0.018    0.536  123.417  180.943    3.005
  688.066    0.059    0.530  123.676  181.691    3.322
