~VERSION INFORMATION
 VERS.                 2.0:   CWLS LOG ASCII STANDARD -VERSION 2.0
 WRAP.                  NO:   ONE LINE PER DEPTH STEP
~WELL INFORMATION BLOCK
#MNEM.UNIT           DATA                    DESCRIPTION OF MNEMONIC
#---------    -------------------            -------------------------------
# Generated from Intellog Unique Number	CS_73_76/WELL/3247
WELL.         HOME HB DEVENISH               : Well_name    - WELL
LOC .         00/10-29-075-08W4/0            : Location     - LOCATION
UWI .         00/10-29-075-08W4/0            : Uwi          - UNIQUE WELL ID
ENTR.         SP                             : Entered      - ENTERED BY
SRVC.         SCHLUMBERGER                   : Scn          - SERVICE COMPANY
STRT.M        262.128                        : top_depth    - START DEPTH
STOP.M        490.378                        : bot_depth    - STOP DEPTH
STEP.M        0.25                           : increment    - STEP LENGTH
 NULL. -999.2500:NULL Value
~CURVE INFORMATION BLOCK
#MNEM UNIT       ERCB CURVE CODE    CURVE DESCRIPTION
#-----------   ------------------   ----------------------------------
DEPT.M        00 001 00 00         : DEPTH        - DEPTH
GR  .API      00 310 00 00         : GR           - GAMMA RAY
DPHI.V/V      00 890 00 00         : PHID         - DENSITY POROSITY (SANDSTONE)
NPHI.V/V      00 330 00 00         : PHIN         - NEUTRON POROSITY (SANDSTONE)
ILD .OHMM     00 120 00 00         : RESD         - DEEP RESISTIVITY (DIL)
~PARAMETER INFORMATION
#MNEM.UNIT           DATA             DESCRIPTION OF MNEMONIC
#---------         -----------     ------------------------------
GL  .M        662.33               : gl           - GROUND LEVEL ELEVATION
EREF.M        665.378              : kb           - ELEVATION OF DEPTH REFERENCE
DATM.M        662.33               : datum        - DATUM ELEVATION
TDD .M        498.348              : tdd          - TOTAL DEPTH DRILLER
RUN .         ONE                  : Run          - RUN NUMBER
ENG .         BILL                 : Engineer     - RECORDING ENGINEER
WIT .         JIM                  : Witness      - WITNESSED BY
MUD .         GEL                  : Mud_type     - MUD TYPE
MATR.         SANDSTONE            : Logunit      - NEUTRON MATRIX
TMAX.C        16.6667              : BHT          - MAXIMUM RECORDED TEMPERATURE
BHTD.M        498.348              : BHTDEP       - MAXIMUM RECORDED TEMPERATURE
MATR.         1                    : LOGUNIT      - NEUTRON MATRIX
RMT .C        25                   : MDTP         - TEMPERATURE OF MUD
NEUT.         1                    : NEUTRON      - NEUTRON TYPE
RESI.         0                    : RESIST       - RESISTIVITY TYPE
RMC .OHMM     0.25                 : RMC          - RESISTIVITY OF MUD CAKE
RMF .OHMM     0.25                 : RMF          - RESISTIVITY OF MUD FILTRATE
SUFT.C        15                   : SUFT         - SURFACE TEMPERATURE
~A  DEPTH       GR     PHID     PHIN     RESD
# ...
  436.128   80.487    0.212    0.508    6.682
  436.378   68.432    0.272    0.511    8.641
  436.628   46.052    0.299    0.471   12.418
  436.878   40.867    0.314    0.451   23.656
  437.128   38.091    0.298    0.420   26.592
  437.378   37.053    0.275    0.420   28.521
  437.628   37.282    0.271    0.457   29.003
  437.878   38.356    0.301    0.483   30.828
  438.128   39.321    0.316    0.462   31.695
  438.378   39.953    0.302    0.436   33.624
  438.628   40.588    0.294    0.421   35.722
  438.878   41.564    0.287    0.420   38.498
  439.128   42.646    0.299    0.429   43.167
  439.378   41.676    0.299    0.439   46.748
  439.628   40.101    0.295    0.439   47.470
  439.878   39.276    0.298    0.422   50.928
  440.128   38.770    0.301    0.422   52.227
  440.378   37.142    0.297    0.427   49.700
  440.628   36.374    0.288    0.428   46.321
  440.878   36.924    0.297    0.416   42.892
  441.128   36.907    0.306    0.411   41.375
  441.378   36.906    0.304    0.409   43.956
  441.628   36.489    0.300    0.409   51.368
  441.878   34.576    0.305    0.425   56.218
  442.128   32.620    0.311    0.422   62.987
  442.378   30.999    0.318    0.414   68.212
  442.628   30.881    0.303    0.421   70.292
  442.878   31.486    0.308    0.426   67.627
  443.128   32.060    0.307    0.428   61.208
  443.378   32.741    0.304    0.422   44.395
  443.628   32.701    0.310    0.415   33.697
  443.878   31.735    0.313    0.413   27.330
  444.128   30.747    0.315    0.415   22.268
  444.378   30.271    0.308    0.417   18.340
  444.628   30.455    0.293    0.406   15.871
  444.878   32.195    0.281    0.393   13.207
  445.128   34.558    0.288    0.384   11.424
  445.378   37.279    0.302    0.399    9.948
  445.628   40.515    0.308    0.414    8.942
  445.878   45.495    0.298    0.414    8.108
  446.128   48.522    0.290    0.423    7.856
  446.378   51.113    0.287    0.458    7.618
  446.628   50.557    0.286    0.469    7.537
  446.878   47.795    0.293    0.449    7.486
  447.128   46.982    0.295    0.437    7.485
  447.378   47.829    0.287    0.430    7.490
  447.628   49.365    0.275    0.448    7.505
  447.878   49.357    0.293    0.459    7.634
  448.128   49.417    0.288    0.456    7.621
  448.378   48.752    0.268    0.446    7.783
  448.628   49.715    0.236    0.431    8.182
  448.878   51.236    0.225    0.439    9.699
  449.128   51.131    0.252    0.481   11.820
  449.378   48.081    0.283    0.469   15.400
  449.628   42.880    0.293    0.456   20.385
  449.878   36.447    0.302    0.445   28.102
  450.128   33.504    0.310    0.431   30.240
  450.378   35.076    0.317    0.423   27.484
  450.628   37.590    0.315    0.435   21.878
  450.878   41.463    0.319    0.441   17.580
  451.128   45.425    0.316    0.446   14.844
  451.378   51.600    0.306    0.456   11.935
  451.628   54.967    0.298    0.475   10.712
  451.878   58.304    0.289    0.494   10.066
  452.128   58.827    0.298    0.519   10.015
  452.378   52.913    0.305    0.494   10.124
  452.628   48.774    0.313    0.470   10.269
  452.878   48.110    0.301    0.459    9.757
  453.128   49.325    0.288    0.471    9.065
  453.378   48.763    0.299    0.477    8.290
  453.628   49.824    0.303    0.486    7.534
  453.878   53.226    0.298    0.492    6.685
  454.128   56.210    0.290    0.476    6.317
  454.378   59.103    0.283    0.453    5.791
  454.628   61.342    0.283    0.464    5.535
  454.878   63.958    0.283    0.499    5.958
  455.128   65.093    0.271    0.519    6.454
  455.378   64.175    0.282    0.535    7.697
  455.628   59.776    0.300    0.516    8.752
  455.878   51.982    0.310    0.486    8.831
  456.128   53.219    0.293    0.477    7.603
  456.378   57.216    0.278    0.468    6.360
  456.628   59.015    0.292    0.498    5.471
  456.878   58.881    0.280    0.480    5.083
  457.128   59.168    0.268    0.471    5.063
  457.378   62.569    0.264    0.490    5.169
  457.628   64.976    0.265    0.490    5.222
  457.878   65.960    0.249    0.473    5.479
  458.128   65.938    0.265    0.465    5.992
  458.378   66.302    0.274    0.509    6.317
  458.628   67.117    0.277    0.527    7.009
  458.878   63.695    0.281    0.487    8.578
  459.128   56.203    0.262    0.472   10.947
  459.378   57.599    0.255    0.496   14.868
  459.628   59.058    0.270    0.513   16.725
  459.878   51.348    0.279    0.483   12.485
  460.128   48.295    0.287    0.442    9.542
  460.378   61.217    0.289    0.420    7.740
  460.628   80.743    0.209    0.380    6.349
  460.878   93.913    0.191    0.485    5.663
  461.128  119.535    0.175    0.500    5.149
  461.378  119.158    0.174    0.507    4.971
  461.628  119.703    0.181    0.523    4.822
  461.878  124.126    0.190    0.541    4.674
  462.128  123.485    0.199    0.555    4.651
  462.378  122.072    0.205    0.568    4.735
  462.628  122.043    0.204    0.569    4.934
  462.878  121.927    0.204    0.563    5.127
  463.128  118.404    0.194    0.557    5.627
  463.378  110.050    0.181    0.519    6.277
  463.628  102.433    0.169    0.455    7.161
  463.878   98.599    0.184    0.440    7.717
  464.128   94.122    0.200    0.433    7.977
  464.378   89.616    0.216    0.439    8.052
  464.628   86.640    0.259    0.431    7.939
  464.878   86.855    0.252    0.417    7.625
  465.128   90.310    0.227    0.415    7.369
  465.378   92.887    0.204    0.421    7.298
  465.628   94.632    0.185    0.421    7.065
  465.878   97.294    0.185    0.416    6.983
  466.128   99.563    0.184    0.411    6.842
  466.378  101.517    0.179    0.406    6.856
  466.628  101.487    0.176    0.405    6.849
  466.878  102.344    0.169    0.416    7.378
  467.128  104.740    0.173    0.440    7.815
  467.378  102.638    0.194    0.474    8.919
  467.628   89.764    0.230    0.496   10.684
  467.878   59.455    0.283    0.483   14.036
  468.128   46.069    0.297    0.458   16.418
  468.378   40.122    0.293    0.427   17.362
  468.628   40.006    0.280    0.415   17.094
  468.878   43.529    0.293    0.423   17.099
  469.128   47.066    0.304    0.430   17.095
  469.378   48.304    0.299    0.439   17.385
  469.628   50.843    0.304    0.446   18.086
  469.878   53.378    0.308    0.460   18.805
  470.128   53.249    0.300    0.483   19.145
  470.378   40.251    0.290    0.436   18.624
  470.628   42.650    0.278    0.422   18.094
  470.878   48.076    0.269    0.419   17.867
  471.128   54.346    0.261    0.432   17.777
  471.378   55.607    0.272    0.445   18.110
  471.628   53.994    0.278    0.449   18.449
  471.878   53.216    0.290    0.438   18.927
  472.128   52.073    0.285    0.450   19.119
  472.378   47.882    0.267    0.448   18.623
  472.628   45.098    0.282    0.448   12.489
  472.878   44.543    0.301    0.451    8.548
  473.128   45.046    0.307    0.453    5.908
  473.378   46.510    0.315    0.448    4.640
  473.628   59.189    0.261    0.438    4.677
  473.878   73.293    0.228    0.435    5.191
  474.128   88.794    0.195    0.477    5.352
  474.378  110.074    0.161    0.517    5.552
  474.628  115.778    0.145    0.545    5.669
  474.878  118.359    0.140    0.507    5.550
  475.128  120.371    0.135    0.494    5.499
  475.378  116.706    0.138    0.490    5.343
  475.628  113.917    0.150    0.485    5.341
  475.878  112.035    0.140    0.479    5.426
  476.128  113.346    0.130    0.487    5.780
  476.378  116.198    0.150    0.495    6.117
  476.628  119.402    0.144    0.503    6.829
  476.878  117.746    0.156    0.515    8.032
  477.128  110.800    0.147    0.508    8.697
  477.378  100.564    0.148    0.492   10.372
  477.628   87.503    0.145    0.481   11.500
  477.878   74.685    0.138    0.491   12.347
  478.128   65.442    0.203    0.463   12.696
  478.378   58.325    0.265    0.417   11.557
  478.628   56.848    0.286    0.385    9.808
  478.878   58.526    0.276    0.384    8.920
  479.128   59.841    0.279    0.406    7.879
  479.378   63.061    0.276    0.426    6.963
