~VERSION INFORMATION
 VERS.                 2.0:   CWLS LOG ASCII STANDARD -VERSION 2.0
 WRAP.                  NO:   ONE LINE PER DEPTH STEP
~WELL INFORMATION BLOCK
#MNEM.UNIT           DATA                    DESCRIPTION OF MNEMONIC
#---------    -------------------            -------------------------------
# Generated from Intellog Unique Number	CS_77_79/WELL/954
WELL.         MESA PORTAGE                   : Well_name    - WELL
LOC .         00/10-14-078-18W4/0            : Location     - LOCATION
UWI .         00/10-14-078-18W4/0            : Uwi          - UNIQUE WELL ID
ENTR.         JHS                            : Entered      - ENTERED BY
SRVC.         SCHLUMBERGER                   : Scn          - SERVICE COMPANY
STRT.M        179.832                        : top_depth    - START DEPTH
STOP.M        380.832                        : bot_depth    - STOP DEPTH
STEP.M        0.25                           : increment    - STEP LENGTH
 NULL. -999.2500:NULL Value
~CURVE INFORMATION BLOCK
#MNEM UNIT       ERCB CURVE CODE    CURVE DESCRIPTION
#-----------   ------------------   ----------------------------------
DEPT.M        00 001 00 00         : DEPTH        - DEPTH
GR  .API      00 310 00 00         : GR           - GAMMA RAY
DPHI.V/V      00 890 00 00         : PHID         - DENSITY POROSITY (SANDSTONE)
NPHI.V/V      00 330 00 00         : PHIN         - NEUTRON POROSITY (SANDSTONE)
ILD .OHMM     00 120 00 00         : RESD         - DEEP RESISTIVITY (DIL)
~PARAMETER INFORMATION
#MNEM.UNIT           DATA             DESCRIPTION OF MNEMONIC
#---------         -----------     ------------------------------
GL  .M        551.139              : gl           - GROUND LEVEL ELEVATION
EREF.M        554.553              : kb           - ELEVATION OF DEPTH REFERENCE
DATM.M        554.553              : datum        - DATUM ELEVATION
TDD .M        390.144              : tdd          - TOTAL DEPTH DRILLER
RUN .         ONE                  : Run          - RUN NUMBER
ENG .         BILL                 : Engineer     - RECORDING ENGINEER
WIT .         JIM                  : Witness      - WITNESSED BY
MUD .         GEL                  : Mud_type     - MUD TYPE
MATR.         SANDSTONE            : Logunit      - NEUTRON MATRIX
TMAX.C        60                   : BHT          - MAXIMUM RECORDED TEMPERATURE
BHTD.M        390.144              : BHTDEP       - MAXIMUM RECORDED TEMPERATURE
MATR.         1                    : LOGUNIT      - NEUTRON MATRIX
RMT .C        25                   : MDTP         - TEMPERATURE OF MUD
NEUT.         1                    : NEUTRON      - NEUTRON TYPE
RESI.         0                    : RESIST       - RESISTIVITY TYPE
RMC .OHMM     0.25                 : RMC          - RESISTIVITY OF MUD CAKE
RMF .OHMM     0.25                 : RMF          - RESISTIVITY OF MUD FILTRATE
SUFT.C        15                   : SUFT         - SURFACE TEMPERATURE
~A  DEPTH       GR     PHID     PHIN     RESD
# ...
  266.832   62.777    0.301    0.620    9.684
  267.082   64.754    0.301    0.620    9.309
  267.332   65.852    0.312    0.620    8.753
  267.582   68.921    0.309    0.621    8.505
  267.832   72.912    0.291    0.622    8.245
  268.082   76.266    0.270    0.623    8.172
  268.332   78.547    0.251    0.624    7.928
  268.582   78.497    0.227    0.626    7.708
  268.832   81.626    0.212    0.627    7.337
  269.082   87.820    0.227    0.628    7.123
  269.332   87.900    0.248    0.627    6.918
  269.582   83.792    0.254    0.627    6.595
  269.832   81.152    0.232    0.627    6.388
  270.082   83.332    0.264    0.626    6.346
  270.332   85.173    0.248    0.627    6.351
  270.582   88.659    0.226    0.627    6.305
  270.832   90.547    0.187    0.627    6.242
  271.082   91.089    0.180    0.625    6.117
  271.332   92.385    0.208    0.625    6.234
  271.582   94.189    0.223    0.625    6.155
  271.832   93.895    0.237    0.625    6.084
  272.082   92.182    0.232    0.624    6.057
  272.332   94.058    0.221    0.623    6.057
  272.582   97.207    0.219    0.621    6.256
  272.832   97.099    0.237    0.618    6.474
  273.082   93.282    0.223    0.553    6.800
  273.332   88.064    0.260    0.535    6.814
  273.582   80.538    0.253    0.566    6.826
  273.832   84.032    0.244    0.596    6.727
  274.082   88.561    0.252    0.615    6.684
  274.332   90.136    0.266    0.620    6.342
  274.582   92.919    0.301    0.623    6.010
  274.832   92.042    0.330    0.624    5.681
  275.082   87.669    0.365    0.623    5.590
  275.332   85.636    0.399    0.622    5.670
  275.582   86.559    0.374    0.621    5.726
  275.832   87.660    0.383    0.620    5.917
  276.082   87.081    0.343    0.621    6.256
  276.332   81.701    0.268    0.621    6.312
  276.582   82.345    0.243    0.624    6.318
  276.832   87.293    0.217    0.624    6.268
  277.082   89.056    0.240    0.625    6.077
  277.332   92.540    0.232    0.625    6.093
  277.582   94.875    0.212    0.626    6.132
  277.832   96.309    0.243    0.627    6.341
  278.082   90.921    0.221    0.626    6.726
  278.332   90.888    0.237    0.616    7.510
  278.582   90.324    0.220    0.604    8.540
  278.832   86.834    0.236    0.461    9.980
  279.082   85.065    0.231    0.438   11.315
  279.332   79.621    0.209    0.430   11.851
  279.582   73.911    0.139    0.430   11.522
  279.832   66.953    0.086    0.443   11.170
  280.082   74.581    0.095    0.465    9.981
  280.332   84.009    0.251    0.494    9.603
  280.582   88.746    0.250    0.514    8.462
  280.832   92.977    0.263    0.527    8.198
  281.082   92.626    0.222    0.533    8.260
  281.332   91.047    0.210    0.552    8.374
  281.582   89.855    0.230    0.576    8.300
  281.832   92.262    0.218    0.608    8.056
  282.082   94.162    0.201    0.619    7.669
  282.332   93.716    0.210    0.621    7.602
  282.582   95.584    0.201    0.621    7.378
  282.832   96.056    0.211    0.622    7.399
  283.082   96.254    0.205    0.624    7.408
  283.332   97.236    0.192    0.626    7.423
  283.582   95.127    0.201    0.627    7.681
  283.832   93.075    0.210    0.627    7.673
  284.082   92.437    0.227    0.627    7.287
  284.332   94.898    0.226    0.626    6.743
  284.582   96.820    0.217    0.626    5.991
  284.832   96.771    0.228    0.623    5.251
  285.082   96.141    0.221    0.611    4.195
  285.332   96.418    0.211    0.587    2.888
  285.582   97.830    0.229    0.539    2.147
  285.832  102.216    0.252    0.521    1.644
  286.082  104.137    0.222    0.523    1.431
  286.332  102.471    0.215    0.582    1.443
  286.582  101.763    0.215    0.610    1.753
  286.832  101.129    0.216    0.618    2.475
  287.082   99.397    0.223    0.620    3.293
  287.332   95.908    0.222    0.620    4.801
  287.582   95.066    0.211    0.621    5.393
  287.832   94.809    0.209    0.625    5.869
  288.082   93.067    0.230    0.625    6.086
  288.332   91.469    0.231    0.625    6.268
  288.582   92.785    0.227    0.623    6.732
  288.832   94.043    0.289    0.622    7.276
  289.082   94.135    0.322    0.616    7.988
  289.332   91.514    0.269    0.616    8.406
  289.582   84.152    0.277    0.432    8.198
  289.832   77.856    0.288    0.424    7.599
  290.082   80.118    0.291    0.438    7.169
  290.332   82.347    0.276    0.502    6.965
  290.582   83.244    0.266    0.577    6.898
  290.832   85.991    0.259    0.607    7.766
  291.082   85.497    0.280    0.624    8.913
  291.332   80.303    0.224    0.626   10.605
  291.582   77.666    0.127    0.625   11.993
  291.832   75.608    0.097    0.617   12.139
  292.082   76.501    0.085    0.584   11.598
  292.332   79.071    0.117    0.551   10.315
  292.582   81.226    0.211    0.560    9.091
  292.832   80.778    0.274    0.581    8.702
  293.082   81.953    0.273    0.597    8.349
  293.332   84.708    0.277    0.614    8.210
  293.582   84.576    0.266    0.622    8.230
  293.832   83.120    0.272    0.625    8.239
  294.082   86.043    0.273    0.627    8.412
  294.332   90.364    0.264    0.626    8.414
  294.582   89.986    0.278    0.622    8.426
  294.832   87.981    0.261    0.616    8.199
  295.082   85.932    0.258    0.616    7.785
  295.332   82.716    0.243    0.617    7.575
  295.582   83.685    0.219    0.619    7.354
  295.832   88.021    0.208    0.621    7.148
  296.082   90.681    0.212    0.625    7.178
  296.332   91.558    0.213    0.626    7.023
  296.582   96.385    0.202    0.628    7.045
  296.832   99.509    0.199    0.628    7.055
  297.082   97.638    0.200    0.630    7.065
  297.332   95.625    0.193    0.630    7.067
  297.582   94.528    0.221    0.628    7.210
  297.832   95.210    0.215    0.618    7.373
  298.082   99.029    0.249    0.567    7.367
  298.332  100.057    0.200    0.529    7.377
  298.582   97.907    0.234    0.507    7.389
  298.832   96.342    0.240    0.516    7.273
  299.082   97.811    0.241    0.546    7.216
  299.332   98.731    0.212    0.590    6.991
  299.582   97.669    0.242    0.615    6.877
  299.832   98.899    0.258    0.628    6.877
  300.082  100.034    0.228    0.631    7.032
  300.332   96.558    0.204    0.626    7.129
  300.582   93.326    0.217    0.606    7.213
  300.832   95.556    0.207    0.550    7.320
  301.082   99.447    0.200    0.525    7.563
  301.332   99.579    0.217    0.510    7.592
  301.582  101.172    0.219    0.496    7.484
  301.832  102.735    0.246    0.485    7.493
  302.082  100.943    0.210    0.484    7.489
  302.332   93.185    0.204    0.491    7.380
  302.582   90.573    0.192    0.500    7.231
  302.832  101.293    0.191    0.521    7.254
  303.082   98.235    0.187    0.570    7.177
  303.332   94.034    0.192    0.595    6.998
  303.582   93.463    0.156    0.613    7.011
  303.832   96.471    0.196    0.617    7.149
  304.082  100.304    0.211    0.619    7.314
  304.332  103.953    0.184    0.619    7.190
  304.582  100.969    0.206    0.621    6.843
  304.832   99.575    0.204    0.622    6.498
  305.082   99.166    0.228    0.622    6.031
  305.332   97.475    0.220    0.621    5.578
  305.582   98.124    0.213    0.619    5.434
  305.832  100.527    0.231    0.603    5.583
  306.082   99.295    0.240    0.574    6.079
  306.332   98.576    0.242    0.521    6.597
  306.582  100.268    0.253    0.498    7.105
  306.832  100.020    0.236    0.485    7.852
  307.082   96.818    0.263    0.463    8.590
  307.332   95.763    0.253    0.446    8.516
  307.582   95.601    0.185    0.427    8.235
  307.832   94.555    0.205    0.423    7.881
  308.082   91.689    0.212    0.430    7.562
  308.332   91.160    0.224    0.474    7.430
  308.582   89.684    0.204    0.495    7.561
  308.832   84.356    0.231    0.515    7.833
  309.082   80.050    0.222    0.546    8.721
  309.332   75.306    0.205    0.590    9.567
  309.582   71.164    0.217    0.611   10.552
  309.832   64.345    0.148    0.625   12.199
  310.082   61.730    0.114    0.627   14.394
