~VERSION INFORMATION
 VERS.                 2.0:   CWLS LOG ASCII STANDARD -VERSION 2.0
 WRAP.                  NO:   ONE LINE PER DEPTH STEP
~WELL INFORMATION BLOCK
#MNEM.UNIT           DATA                    DESCRIPTION OF MNEMONIC
#---------    -------------------            -------------------------------
# Generated from Intellog Unique Number	CS_77_79/WELL/1024
WELL.         DOME COWPAR                    : Well_name    - WELL
LOC .         00/16-11-079-03W4/0            : Location     - LOCATION
UWI .         00/16-11-079-03W4/0            : Uwi          - UNIQUE WELL ID
ENTR.         JHS                            : Entered      - ENTERED BY
SRVC.         SCHLUMBERGER                   : Scn          - SERVICE COMPANY
STRT.M        120                            : top_depth    - START DEPTH
STOP.M        360                            : bot_depth    - STOP DEPTH
STEP.M        0.25                           : increment    - STEP LENGTH
 NULL. -999.2500:NULL Value
~CURVE INFORMATION BLOCK
#MNEM UNIT       ERCB CURVE CODE    CURVE DESCRIPTION
#-----------   ------------------   ----------------------------------
DEPT.M        00 001 00 00         : DEPTH        - DEPTH
DPHI.V/V      00 890 00 00         : PHID         - DENSITY POROSITY (LIMESTONE)
NPHI.V/V      00 330 00 00         : PHIN         - NEUTRON POROSITY (LIMESTONE)
GR  .API      00 310 00 00         : GR           - GAMMA RAY
ILD .OHMM     00 120 00 00         : RESD         - DEEP RESISTIVITY (DIL)
RHOB.KG/M3    00 350 00 00         : DENS         - BULK DENSITY
~PARAMETER INFORMATION
#MNEM.UNIT           DATA             DESCRIPTION OF MNEMONIC
#---------         -----------     ------------------------------
GL  .M        525.3                : gl           - GROUND LEVEL ELEVATION
EREF.M        528.7                : kb           - ELEVATION OF DEPTH REFERENCE
DATM.M        528.7                : datum        - DATUM ELEVATION
TDD .M        365                  : tdd          - TOTAL DEPTH DRILLER
RUN .         ONE                  : Run          - RUN NUMBER
ENG .         BILL                 : Engineer     - RECORDING ENGINEER
WIT .         JIM                  : Witness      - WITNESSED BY
MUD .         GEL                  : Mud_type     - MUD TYPE
MATR.         LIMESTONE            : Logunit      - NEUTRON MATRIX
TMAX.C        24                   : BHT          - MAXIMUM RECORDED TEMPERATURE
BHTD.M        365                  : BHTDEP       - MAXIMUM RECORDED TEMPERATURE
MATR.         1                    : LOGUNIT      - NEUTRON MATRIX
RMT .C        25                   : MDTP         - TEMPERATURE OF MUD
NEUT.         1                    : NEUTRON      - NEUTRON TYPE
RESI.         0                    : RESIST       - RESISTIVITY TYPE
RMC .OHMM     0.25                 : RMC          - RESISTIVITY OF MUD CAKE
RMF .OHMM     0.25                 : RMF          - RESISTIVITY OF MUD FILTRATE
SUFT.C        15                   : SUFT         - SURFACE TEMPERATURE
~A  DEPTH     PHID     PHIN       GR     RESD     DENS
# ...
  339.000    0.308    0.317   46.594    1.982 2183.320
  339.250    0.270    0.287   41.706    1.982 2247.670
  339.500    0.250    0.251   42.304    1.946 2282.940
  339.750    0.250    0.257   47.782    1.876 2282.910
  340.000    0.297    0.306   45.335    1.775 2201.880
  340.250    0.312    0.340   47.763    1.711 2176.920
  340.500    0.318    0.346   60.558    1.560 2166.500
  340.750    0.326    0.334   67.253    1.476 2151.930
  341.000    0.332    0.322   63.585    1.423 2141.510
  341.250    0.323    0.308   52.600    1.397 2158.090
  341.500    0.315    0.302   46.492    1.397 2170.510
  341.750    0.313    0.308   54.408    1.397 2174.640
  342.000    0.319    0.322   59.886    1.424 2164.220
  342.250    0.339    0.324   57.437    1.424 2130.950
  342.500    0.340    0.325   48.892    1.425 2128.840
  342.750    0.337    0.325   41.563    1.399 2132.950
  343.000    0.335    0.319   42.775    1.373 2137.080
  343.250    0.329    0.323   49.472    1.374 2147.440
  343.500    0.339    0.342   55.559    1.374 2130.780
  343.750    0.336    0.328   53.715    1.400 2134.910
  344.000    0.321    0.321   53.710    1.427 2161.870
  344.250    0.313    0.314   55.527    1.454 2174.300
  344.500    0.313    0.316   55.514    1.481 2174.270
  344.750    0.322    0.321   58.556    1.454 2159.690
  345.000    0.332    0.324   56.716    1.428 2143.040
  345.250    0.339    0.322   51.220    1.402 2130.550
  345.500    0.345    0.324   46.332    1.351 2120.130
  345.750    0.343    0.332   43.273    1.352 2124.240
  346.000    0.351    0.335   38.386    1.327 2109.680
  346.250    0.373    0.379   36.546    1.327 2072.270
  346.500    0.354    0.360   38.363    1.352 2105.460
  346.750    0.333    0.349   36.526    1.378 2140.730
  347.000    0.320    0.354   46.272    1.404 2163.540
  347.250    0.306    0.346   49.920    1.405 2186.340
  347.500    0.301    0.335   52.349    1.405 2194.620
  347.750    0.304    0.332   49.900    1.405 2190.430
  348.000    0.311    0.322   58.425    1.432 2177.930
  348.250    0.321    0.317   57.196    1.406 2161.290
  348.500    0.327    0.311   48.650    1.380 2150.870
  348.750    0.325    0.310   43.758    1.355 2154.990
  349.000    0.316    0.308   43.142    1.356 2169.490
  349.250    0.312    0.304   41.301    1.356 2175.690
  349.500    0.311    0.303   37.634    1.356 2177.740
  349.750    0.320    0.310   38.231    1.357 2163.160
  350.000    0.327    0.321   40.053    1.357 2150.670
  350.250    0.327    0.317   43.092    1.357 2150.640
  350.500    0.315    0.309   49.789    1.383 2171.370
  350.750    0.283    0.309   60.754    1.517    0.000
  351.000    0.196    0.322  121.106    1.826    0.000
  351.250    0.118    0.336  127.800    2.282    0.000
  351.500    0.123    0.382  129.621    2.798    0.000
  351.750    0.116    0.404  130.221    3.560    0.000
  352.000    0.132    0.420  120.454    4.447    0.000
  352.250    0.190    0.406  114.349    5.255    0.000
  352.500    0.160    0.376  116.775    5.661    0.000
  352.750    0.148    0.333  113.109    6.097    0.000
  353.000    0.156    0.309  107.611    6.691    0.000
  353.250    0.155    0.301  102.114    6.945    0.000
  353.500    0.132    0.293   97.227    7.076    0.000
  353.750    0.114    0.292  105.143    7.077    0.000
  354.000    0.108    0.293  106.351    6.949    0.000
  354.250    0.126    0.297   98.413    6.698    0.000
  354.500    0.154    0.295  108.771    6.337    0.000
  354.750    0.147    0.298  119.126    5.887    0.000
  355.000    0.128    0.302  129.481    5.467    0.000
  355.250    0.113    0.286  138.617    4.985    0.000
  355.500    0.100    0.278   78.245    4.630    0.000
  355.750    0.165    0.273   67.867    4.300    0.000
  356.000    0.172    0.269   64.810    3.994    0.000
  356.250    0.091    0.277   75.166    3.710    0.000
  356.500    0.101    0.286   69.058    3.321    0.000
  356.750    0.142    0.296   56.851    3.027    0.000
  357.000    0.170    0.296   59.892    2.760    0.000
  357.250    0.217    0.303   58.053    2.564    0.000
  357.500    0.295    0.320   50.725    2.471    0.000
  357.750    0.268    0.333   48.277    2.426    0.000
  358.000    0.195    0.310   51.314    2.383    0.000
  358.250    0.132    0.272   54.964    2.427    0.000
  358.500    0.102    0.205   64.099    2.922    0.000
  358.750    0.022    0.146   59.210    3.517    0.000
  359.000    0.000    0.152   47.616    5.191    0.000
  359.250    0.000    0.161   33.582    7.949    0.000
  359.500    0.032    0.159   40.280   12.174    0.000
  359.750    0.018    0.143   51.855   15.780    0.000
  360.000    0.015    0.130   57.941   20.081    0.000
