~VERSION INFORMATION
 VERS.                 2.0:   CWLS LOG ASCII STANDARD -VERSION 2.0
 WRAP.                  NO:   ONE LINE PER DEPTH STEP
~WELL INFORMATION BLOCK
#MNEM.UNIT           DATA                    DESCRIPTION OF MNEMONIC
#---------    -------------------            -------------------------------
# Generated from Intellog Unique Number	CN_94_101/WELL/2789
WELL.         NORTHSTAR ENERGYN CORP.        : Well_name    - WELL
LOC .         00/11-35-094-16W4/0            : Location     - LOCATION
UWI .         00/11-35-094-16W400            : Uwi          - UNIQUE WELL ID
ENTR.         JOETTE                         : Entered      - ENTERED BY
SRVC.         SCHLUMBERGER                   : Scn          - SERVICE COMPANY
DATE.         07/06/92                       : Date         - LOG DATE
STRT.M        150                            : top_depth    - START DEPTH
STOP.M        290                            : bot_depth    - STOP DEPTH
STEP.M        0.25                           : increment    - STEP LENGTH
 NULL. -999.2500:NULL Value
~CURVE INFORMATION BLOCK
#MNEM UNIT       ERCB CURVE CODE    CURVE DESCRIPTION
#-----------   ------------------   ----------------------------------
DEPT.M        00 001 00 00         : DEPTH        - DEPTH
GR  .API      00 310 00 00         : GR           - GAMMA RAY
NPHI.V/V      00 330 00 00         : PHIN         - NEUTRON POROSITY (SANDSTONE)
DPHI.V/V      00 890 00 00         : PHID         - DENSITY POROSITY (SANDSTONE)
ILD .OHMM     00 120 00 00         : RESD         - DEEP RESISTIVITY (DIL)
~PARAMETER INFORMATION
#MNEM.UNIT           DATA             DESCRIPTION OF MNEMONIC
#---------         -----------     ------------------------------
GL  .M        538.7                : gl           - GROUND LEVEL ELEVATION
EREF.M        542.3                : kb           - ELEVATION OF DEPTH REFERENCE
DATM.M        542.3                : datum        - DATUM ELEVATION
TDD .M        300                  : tdd          - TOTAL DEPTH DRILLER
RUN .         ONE                  : Run          - RUN NUMBER
ENG .         BILL                 : Engineer     - RECORDING ENGINEER
WIT .         JIM                  : Witness      - WITNESSED BY
MUD .         GEL                  : Mud_type     - MUD TYPE
MATR.         SANDSTONE            : Logunit      - NEUTRON MATRIX
TMAX.C        15                   : BHT          - MAXIMUM RECORDED TEMPERATURE
BHTD.M        300                  : BHTDEP       - MAXIMUM RECORDED TEMPERATURE
RMT .C        15                   : MDTP         - TEMPERATURE OF MUD
MUDD.KG/M     1055                 : MWT          - MUD DENSITY
NEUT.         1                    : NEUTRON      - NEUTRON TYPE
RESI.         0                    : RESIST       - RESISTIVITY TYPE
RM  .OHMM     0.25                 : RM           - RESISTIVITY OF MUD
RMC .OHMM     0.25                 : RMC          - RESISTIVITY OF MUD CAKE
RMF .OHMM     0.25                 : RMF          - RESISTIVITY OF MUD FILTRATE
SUFT.C        4                    : SUFT         - SURFACE TEMPERATURE
~A  DEPTH       GR     PHIN     PHID     RESD
# ...
  193.500   96.077    0.432    0.260    9.330
  193.750   90.861    0.436    0.276    8.708
  194.000   93.893    0.452    0.269    8.416
  194.250   99.297    0.479    0.262    8.133
  194.500  104.702    0.489    0.252    7.868
  194.750  103.598    0.478    0.254    7.610
  195.000   96.080    0.446    0.265    7.637
  195.250   92.015    0.433    0.267    7.806
  195.500   86.236    0.412    0.264    8.588
  195.750   89.855    0.401    0.201    9.447
  196.000   96.434    0.404    0.175   10.595
  196.250  100.052    0.425    0.173    9.879
  196.500  106.655    0.468    0.208    8.710
  196.750  106.726    0.509    0.233    6.889
  197.000  102.098    0.493    0.262    4.872
  197.250   95.144    0.468    0.269    4.980
  197.500   90.563    0.430    0.285    4.993
  197.750   92.983    0.484    0.286    4.488
  198.000   98.387    0.565    0.285    3.059
  198.250  103.204    0.587    0.286    2.747
  198.500  103.299    0.556    0.291    3.199
  198.750  101.631    0.527    0.290    3.584
  199.000   99.963    0.492    0.283    3.868
  199.250   98.272    0.462    0.270    4.584
  199.500   94.819    0.437    0.268    5.042
  199.750   90.214    0.426    0.220    6.086
  200.000   87.371    0.421    0.200    6.695
  200.250   96.888    0.420    0.228    7.648
  200.500  104.618    0.438    0.236    8.268
  200.750  106.474    0.446    0.231    8.451
  201.000  111.315    0.470    0.236    8.167
  201.250  116.085    0.497    0.255    7.347
  201.500  114.417    0.483    0.252    6.714
  201.750  109.225    0.453    0.247    7.126
  202.000  105.208    0.437    0.242    7.991
  202.250  105.302    0.439    0.246    8.783
  202.500  106.008    0.443    0.255   10.033
  202.750  105.515    0.430    0.251   11.450
  203.000  104.411    0.412    0.231   11.932
  203.250  100.370    0.413    0.222   11.531
  203.500   93.416    0.409    0.227   11.572
  203.750   92.335    0.397    0.229   12.282
  204.000   96.565    0.407    0.219   12.775
  204.250   98.985    0.412    0.226   12.820
  204.500  102.064    0.409    0.242   12.402
  204.750  103.333    0.400    0.244   11.563
  205.000  105.753    0.395    0.240   10.791
  205.250  108.808    0.401    0.224   10.632
  205.500  107.728    0.414    0.222   10.858
  205.750  104.862    0.421    0.236   11.738
  206.000  101.432    0.413    0.240   12.220
  206.250  100.352    0.413    0.241   12.274
  206.500   98.684    0.419    0.241   11.852
  206.750   96.452    0.433    0.240   11.051
  207.000   98.285    0.438    0.240   10.514
  207.250  101.904    0.433    0.239   10.341
  207.500  101.411    0.425    0.236   10.386
  207.750   98.005    0.416    0.230   10.423
  208.000   99.861    0.408    0.221   10.451
  208.250   99.345    0.400    0.218   11.092
  208.500   95.938    0.394    0.216   11.537
  208.750   95.422    0.394    0.211   13.435
  209.000   96.691    0.388    0.197   15.333
  209.250   97.960    0.380    0.170   16.853
  209.500   96.292    0.353    0.158   17.902
  209.750   85.814    0.297    0.126   17.002
  210.000   78.249    0.295    0.107   16.417
  210.250   83.630    0.355    0.165   14.769
  210.500   96.670    0.413    0.223   14.014
  210.750   96.764    0.437    0.240   12.617
  211.000   90.985    0.427    0.260   12.183
  211.250   89.905    0.431    0.273   11.370
  211.500   90.586    0.455    0.285   10.602
  211.750   97.189    0.428    0.281   10.427
  212.000   99.610    0.405    0.276    9.920
  212.250  100.879    0.405    0.288    9.765
  212.500   96.862    0.415    0.306    9.791
  212.750   94.019    0.420    0.302   10.008
  213.000   97.050    0.425    0.288   11.029
  213.250   92.446    0.382    0.255   11.472
  213.500   87.230    0.347    0.215   12.631
  213.750   79.101    0.311    0.155   13.643
  214.000   73.885    0.292    0.087   15.008
  214.250   65.757    0.277    0.058   16.511
  214.500   55.842    0.285    0.015   18.843
  214.750   56.524    0.298    0.005   23.595
  215.000   70.739    0.341    0.018   25.484
  215.250   82.604    0.358    0.065   13.420
  215.500   98.605    0.390    0.110    9.148
  215.750  102.224    0.452    0.138    7.925
  216.000  105.843    0.457    0.154    7.389
  216.250  105.350    0.465    0.188    6.771
  216.500  109.579    0.475    0.219    6.671
  216.750  115.548    0.484    0.212    6.688
  217.000  120.928    0.479    0.201    6.718
  217.250  108.711    0.467    0.211    6.994
  217.500  108.759    0.452    0.222    7.288
  217.750  108.853    0.447    0.228    7.581
  218.000  108.360    0.442    0.233    7.742
  218.250  101.430    0.423    0.237    7.913
  218.500  104.437    0.417    0.243    8.088
  218.750  106.341    0.410    0.238    8.282
  219.000  105.213    0.401    0.161    8.465
  219.250  104.157    0.398    0.140    8.653
  219.500  106.601    0.410    0.152    8.844
  219.750  113.744    0.476    0.205    8.876
  220.000  116.188    0.486    0.219    8.899
  220.250  116.282    0.458    0.233    8.616
  220.500  116.376    0.452    0.223    8.182
  220.750  112.359    0.436    0.212    7.497
  221.000  104.230    0.427    0.205    7.239
  221.250  106.674    0.452    0.218    6.750
  221.500  112.642    0.480    0.231    6.535
  221.750  116.285    0.473    0.251    6.428
  222.000  111.656    0.462    0.248    6.450
  222.250  104.115    0.474    0.204    6.473
  222.500  102.447    0.474    0.194    6.616
  222.750  107.828    0.478    0.217    6.769
  223.000  115.582    0.488    0.237    6.675
  223.250  116.875    0.472    0.239    6.565
  223.500  119.295    0.461    0.242    6.588
  223.750  119.413    0.481    0.237    7.260
  224.000  108.911    0.465    0.186    7.699
  224.250  104.306    0.452    0.189    8.164
  224.500  106.727    0.460    0.219    8.337
  224.750  111.544    0.461    0.240    8.214
  225.000  115.162    0.452    0.240    7.801
  225.250  111.732    0.414    0.231    7.553
  225.500  104.167    0.405    0.192    7.720
  225.750   97.213    0.395    0.129    8.187
  226.000  101.419    0.403    0.111    8.681
  226.250  108.586    0.421    0.124    9.038
  226.500  106.918    0.436    0.162    9.409
  226.750  110.560    0.428    0.192    9.442
  227.000  113.568    0.422    0.207    9.134
  227.250  116.036    0.414    0.211    8.517
  227.500  114.368    0.405    0.210    7.941
  227.750  115.637    0.420    0.211    8.117
  228.000  117.494    0.438    0.220    8.450
  228.250  116.437    0.445    0.215    8.637
  228.500  112.372    0.457    0.211    8.203
  228.750  106.029    0.461    0.224    7.238
  229.000  109.624    0.472    0.235    6.151
  229.250  115.616    0.474    0.240    5.329
  229.500  121.608    0.467    0.234    4.965
  229.750  119.329    0.463    0.221    5.079
  230.000  115.312    0.447    0.210    5.395
  230.250  107.747    0.372    0.206    5.711
  230.500   92.546    0.336    0.202    6.288
  230.750   74.995    0.314    0.156    7.040
  231.000   63.929    0.290    0.147    8.350
  231.250   59.888    0.290    0.228   11.880
  231.500   63.554    0.298    0.289   14.863
  231.750   63.649    0.281    0.349   18.628
  232.000   61.393    0.272    0.363   17.691
  232.250   63.814    0.272    0.348   16.181
  232.500   68.607    0.291    0.325   14.556
  232.750   66.352    0.281    0.294   14.316
  233.000   62.335    0.263    0.328   14.659
  233.250   64.215    0.244    0.349   16.140
  233.500   62.524    0.216    0.367   16.774
  233.750   57.919    0.201    0.390   19.499
  234.000   59.212    0.191    0.403   23.972
  234.250   59.917    0.190    0.407   28.383
  234.500   60.575    0.199    0.387   33.051
  234.750   60.082    0.229    0.316   33.783
  235.000   58.391    0.256    0.225   35.823
  235.250   52.612    0.264    0.155   39.409
  235.500   43.872    0.248    0.120   44.158
  235.750   46.316    0.230    0.234   51.376
  236.000   49.958    0.223    0.304   56.468
  236.250   50.640    0.228    0.380   64.559
  236.500   48.972    0.241    0.404   72.338
  236.750   53.765    0.278    0.392   79.579
