~VERSION INFORMATION
 VERS.                 2.0:   CWLS LOG ASCII STANDARD -VERSION 2.0
 WRAP.                  NO:   ONE LINE PER DEPTH STEP
~WELL INFORMATION BLOCK
#MNEM.UNIT           DATA                    DESCRIPTION OF MNEMONIC
#---------    -------------------            -------------------------------
# Generated from Intellog Unique Number	CS_69_70/WELL/869
WELL.         BOW VALLEY EXPLORATION         : Well_name    - WELL
LOC .         00/10-18-069-13W4/0            : Location     - LOCATION
UWI .         00/10-18-069-13W4/0            : Uwi          - UNIQUE WELL ID
ENTR.         SP                             : Entered      - ENTERED BY
SRVC.         SCHLUMBERGER                   : Scn          - SERVICE COMPANY
STRT.M        243.840                        : top_depth    - START DEPTH
STOP.M        441.590                        : bot_depth    - STOP DEPTH
STEP.M        0.25                           : increment    - STEP LENGTH
 NULL. -999.2500:NULL Value
~CURVE INFORMATION BLOCK
#MNEM UNIT       ERCB CURVE CODE    CURVE DESCRIPTION
#-----------   ------------------   ----------------------------------
DEPT.M        00 001 00 00         : DEPTH        - DEPTH
GR  .API      00 310 00 00         : GR           - GAMMA RAY
DPHI.V/V      00 890 00 00         : PHID         - DENSITY POROSITY (SANDSTONE)
NPHI.V/V      00 330 00 00         : PHIN         - NEUTRON POROSITY (SANDSTONE)
ILD .OHMM     00 120 00 00         : RESD         - DEEP RESISTIVITY (DIL)
~PARAMETER INFORMATION
#MNEM.UNIT           DATA             DESCRIPTION OF MNEMONIC
#---------         -----------     ------------------------------
GL  .M        547.421              : gl           - GROUND LEVEL ELEVATION
EREF.M        550.469              : kb           - ELEVATION OF DEPTH REFERENCE
DATM.M        547.421              : datum        - DATUM ELEVATION
TDD .M        445.008              : tdd          - TOTAL DEPTH DRILLER
RUN .         ONE                  : Run          - RUN NUMBER
ENG .         BILL                 : Engineer     - RECORDING ENGINEER
WIT .         JIM                  : Witness      - WITNESSED BY
MUD .         GEL                  : Mud_type     - MUD TYPE
MATR.         SANDSTONE            : Logunit      - NEUTRON MATRIX
TMAX.C        25                   : BHT          - MAXIMUM RECORDED TEMPERATURE
BHTD.M        441.96               : BHTDEP       - MAXIMUM RECORDED TEMPERATURE
MATR.         1                    : LOGUNIT      - NEUTRON MATRIX
RMT .C        25                   : MDTP         - TEMPERATURE OF MUD
NEUT.         1                    : NEUTRON      - NEUTRON TYPE
RESI.         0                    : RESIST       - RESISTIVITY TYPE
RMC .OHMM     0.25                 : RMC          - RESISTIVITY OF MUD CAKE
RMF .OHMM     0.25                 : RMF          - RESISTIVITY OF MUD FILTRATE
SUFT.C        15                   : SUFT         - SURFACE TEMPERATURE
~A  DEPTH       GR     PHID     PHIN     RESD
# ...
  330.840   85.165    0.268    0.410    3.366
  331.090   89.920    0.272    0.413    3.330
  331.340   95.783    0.253    0.423    3.184
  331.590   99.638    0.243    0.436    3.085
  331.840  100.863    0.251    0.455    2.960
  332.090   99.502    0.266    0.472    2.835
  332.340   92.162    0.278    0.457    2.731
  332.590   87.167    0.290    0.431    2.664
  332.840   84.498    0.290    0.418    2.595
  333.090   82.717    0.281    0.417    2.580
  333.340   81.565    0.292    0.425    2.587
  333.590   80.490    0.301    0.434    2.588
  333.840   79.421    0.312    0.440    2.595
  334.090   77.674    0.318    0.438    2.602
  334.340   76.831    0.320    0.435    2.582
  334.590   76.396    0.316    0.435    2.557
  334.840   75.516    0.313    0.424    2.527
  335.090   74.116    0.316    0.420    2.515
  335.340   73.288    0.300    0.417    2.518
  335.590   73.059    0.290    0.414    2.532
  335.840   73.594    0.296    0.414    2.543
  336.090   73.958    0.314    0.424    2.534
  336.340   74.036    0.323    0.432    2.531
  336.590   74.780    0.313    0.421    2.535
  336.840   75.926    0.310    0.412    2.571
  337.090   77.099    0.308    0.414    2.594
  337.340   78.933    0.302    0.423    2.650
  337.590   81.501    0.294    0.428    2.708
  337.840   84.582    0.283    0.432    2.784
  338.090   86.578    0.275    0.440    2.823
  338.340   87.670    0.294    0.451    2.854
  338.590   86.958    0.305    0.454    2.921
  338.840   84.802    0.311    0.444    3.071
  339.090   84.877    0.307    0.436    3.206
  339.340   88.379    0.288    0.434    3.379
  339.590   90.996    0.262    0.429    3.547
  339.840   91.614    0.232    0.422    3.680
  340.090   91.396    0.239    0.414    3.768
  340.340   92.164    0.257    0.423    3.700
  340.590   94.539    0.269    0.436    3.580
  340.840   95.776    0.277    0.449    3.385
  341.090   94.136    0.286    0.456    3.208
  341.340   93.581    0.287    0.465    3.139
  341.590   96.484    0.268    0.465    3.209
  341.840   97.154    0.249    0.447    3.350
  342.090   96.592    0.234    0.440    3.457
  342.340   95.338    0.237    0.444    3.536
  342.590   95.118    0.230    0.438    3.630
  342.840   97.084    0.226    0.445    3.707
  343.090  101.098    0.226    0.446    3.768
  343.340  101.688    0.236    0.435    3.823
  343.590  100.564    0.238    0.433    3.848
  343.840   98.543    0.244    0.436    3.892
  344.090   96.529    0.254    0.424    3.923
  344.340   94.980    0.259    0.410    3.968
  344.590   94.452    0.249    0.397    4.044
  344.840   96.100    0.239    0.401    4.159
  345.090   99.776    0.227    0.416    4.293
  345.340  104.039    0.214    0.428    4.458
  345.590  109.184    0.216    0.424    4.589
  345.840  111.475    0.219    0.427    4.672
  346.090  114.604    0.226    0.432    4.681
  346.340  116.160    0.235    0.422    4.804
  346.590  110.759    0.241    0.414    4.523
  346.840  101.050    0.237    0.427    4.428
  347.090   97.144    0.232    0.444    4.225
  347.340   95.964    0.227    0.452    4.071
  347.590   95.165    0.241    0.428    3.879
  347.840   94.349    0.250    0.416    3.693
  348.090   92.943    0.258    0.410    3.569
  348.340   91.478    0.269    0.423    3.473
  348.590   91.213    0.249    0.433    3.377
  348.840   93.547    0.273    0.440    3.321
  349.090   93.844    0.292    0.441    3.274
  349.340   91.181    0.308    0.443    3.273
  349.590   90.041    0.290    0.444    3.346
  349.840   89.526    0.262    0.448    3.408
  350.090   91.129    0.242    0.452    3.548
  350.340   94.166    0.243    0.449    3.705
  350.590   96.927    0.239    0.444    3.962
  350.840  100.179    0.231    0.439    4.147
  351.090  102.236    0.223    0.435    4.289
  351.340  101.428    0.218    0.430    4.311
  351.590   99.648    0.240    0.426    4.301
  351.840   96.684    0.256    0.437    4.272
  352.090   95.343    0.263    0.440    4.258
  352.340   97.109    0.271    0.433    4.290
  352.590   99.263    0.265    0.443    4.341
  352.840  100.890    0.236    0.443    4.458
  353.090  102.214    0.224    0.427    4.621
  353.340  102.944    0.211    0.422    4.814
  353.590  101.698    0.198    0.422    5.040
  353.840   99.164    0.212    0.421    5.269
  354.090   96.741    0.215    0.428    5.422
  354.340   98.277    0.210    0.432    5.521
  354.590  101.281    0.206    0.426    5.511
  354.840  102.806    0.205    0.419    5.397
  355.090  102.188    0.212    0.409    5.203
  355.340  100.237    0.228    0.418    5.076
  355.590   99.246    0.225    0.427    4.867
  355.840   99.477    0.221    0.414    4.612
  356.090  100.573    0.230    0.404    4.149
  356.340  103.287    0.241    0.417    3.528
  356.590  108.053    0.247    0.430    2.922
  356.840  111.909    0.253    0.499    2.499
  357.090  113.592    0.245    0.518    2.229
  357.340  114.235    0.250    0.526    2.027
  357.590  111.623    0.259    0.513    1.848
  357.840  110.515    0.266    0.516    1.841
  358.090  110.168    0.269    0.528    1.990
  358.340  108.624    0.258    0.515    2.214
  358.590  105.999    0.252    0.494    2.428
  358.840  102.576    0.242    0.473    2.720
  359.090  100.417    0.233    0.459    3.072
  359.340   98.730    0.238    0.444    3.417
  359.590   98.136    0.248    0.428    3.630
  359.840   99.081    0.244    0.424    3.781
  360.090   99.464    0.237    0.422    3.933
  360.340   98.714    0.229    0.413    3.962
  360.590   97.620    0.233    0.407    3.853
  360.840   97.010    0.241    0.403    3.716
  361.090   96.121    0.251    0.414    3.596
  361.340   94.655    0.258    0.430    3.419
  361.590   91.730    0.267    0.446    3.287
  361.840   88.841    0.272    0.457    3.186
  362.090   85.907    0.279    0.463    3.121
  362.340   83.230    0.284    0.460    3.071
  362.590   80.165    0.257    0.451    3.026
  362.840   80.471    0.253    0.467    2.962
  363.090   80.468    0.273    0.452    2.903
  363.340   78.794    0.289    0.432    2.837
  363.590   76.665    0.313    0.424    2.818
  363.840   73.328    0.325    0.413    3.101
  364.090   70.559    0.292    0.401    3.863
  364.340   69.706    0.265    0.387    5.353
  364.590   69.266    0.238    0.360    6.433
  364.840   68.200    0.143    0.225    7.309
  365.090   65.639    0.098    0.185    8.034
  365.340   63.892    0.075    0.225    7.759
  365.590   62.739    0.175    0.276    4.839
  365.840   62.609    0.223    0.315    3.756
  366.090   62.755    0.277    0.352    3.161
  366.340   63.086    0.296    0.388    2.735
  366.590   63.500    0.314    0.411    2.553
  366.840   63.976    0.329    0.407    2.458
  367.090   62.170    0.323    0.399    2.417
  367.340   62.536    0.319    0.396    2.403
  367.590   63.431    0.323    0.399    2.414
  367.840   64.410    0.327    0.404    2.457
  368.090   65.489    0.326    0.402    2.524
  368.340   65.791    0.310    0.384    2.591
  368.590   65.060    0.293    0.374    2.659
  368.840   64.526    0.291    0.386    2.688
  369.090   64.882    0.322    0.401    2.694
  369.340   66.783    0.330    0.411    2.675
  369.590   70.629    0.321    0.407    2.643
  369.840   73.248    0.318    0.403    2.570
  370.090   75.629    0.326    0.403    2.525
  370.340   78.342    0.329    0.404    2.467
  370.590   81.458    0.322    0.400    2.465
  370.840   84.074    0.321    0.393    2.636
  371.090   85.477    0.313    0.388    2.824
  371.340   85.437    0.290    0.397    3.250
  371.590   83.197    0.261    0.399    3.730
  371.840   75.684    0.142    0.254    4.364
  372.090   70.587    0.147    0.239    4.579
  372.340   70.654    0.215    0.276    4.026
  372.590   73.937    0.262    0.320    3.439
  372.840   76.966    0.300    0.377    3.129
  373.090   79.330    0.315    0.408    2.849
  373.340   80.451    0.324    0.416    2.723
  373.590   80.329    0.334    0.423    2.689
  373.840   80.190    0.325    0.429    2.714
  374.090   79.642    0.316    0.431    2.747
