~VERSION INFORMATION
 VERS.                 2.0:   CWLS LOG ASCII STANDARD -VERSION 2.0
 WRAP.                  NO:   ONE LINE PER DEPTH STEP
~WELL INFORMATION BLOCK
#MNEM.UNIT           DATA                    DESCRIPTION OF MNEMONIC
#---------    -------------------            -------------------------------
# Generated from Intellog Unique Number	CC_80_83/WELL/920
WELL.         PARAMOUNT RES.                 : Well_name    - WELL
LOC .         00/14-20-081-06W4/0            : Location     - LOCATION
UWI .         00/14-20-081-06W4/0            : Uwi          - UNIQUE WELL ID
ENTR.         TIM                            : Entered      - ENTERED BY
SRVC.         SCHLUMBERGER                   : Scn          - SERVICE COMPANY
STRT.M        65                             : top_depth    - START DEPTH
STOP.M        280                            : bot_depth    - STOP DEPTH
STEP.M        0.25                           : increment    - STEP LENGTH
 NULL. -999.2500:NULL Value
~CURVE INFORMATION BLOCK
#MNEM UNIT       ERCB CURVE CODE    CURVE DESCRIPTION
#-----------   ------------------   ----------------------------------
DEPT.M        00 001 00 00         : DEPTH        - DEPTH
GR  .API      00 310 00 00         : GR           - GAMMA RAY
NPHI.V/V      00 330 00 00         : PHIN         - NEUTRON POROSITY (SANDSTONE)
DPHI.V/V      00 890 00 00         : PHID         - DENSITY POROSITY (SANDSTONE)
ILD .OHMM     00 120 00 00         : RESD         - DEEP RESISTIVITY (DIL)
~PARAMETER INFORMATION
#MNEM.UNIT           DATA             DESCRIPTION OF MNEMONIC
#---------         -----------     ------------------------------
GL  .M        500.9                : gl           - GROUND LEVEL ELEVATION
EREF.M        504                  : kb           - ELEVATION OF DEPTH REFERENCE
DATM.M        504                  : datum        - DATUM ELEVATION
TDD .M        278                  : tdd          - TOTAL DEPTH DRILLER
RUN .         ONE                  : Run          - RUN NUMBER
ENG .         BILL                 : Engineer     - RECORDING ENGINEER
WIT .         JIM                  : Witness      - WITNESSED BY
MUD .         GEL                  : Mud_type     - MUD TYPE
MATR.         SANDSTONE            : Logunit      - NEUTRON MATRIX
TMAX.C        18                   : BHT          - MAXIMUM RECORDED TEMPERATURE
BHTD.M        278                  : BHTDEP       - MAXIMUM RECORDED TEMPERATURE
MATR.         1                    : LOGUNIT      - NEUTRON MATRIX
RMT .C        11                   : MDTP         - TEMPERATURE OF MUD
NEUT.         1                    : NEUTRON      - NEUTRON TYPE
RESI.         6                    : RESIST       - RESISTIVITY TYPE
RMC .OHMM     7                    : RMC          - RESISTIVITY OF MUD CAKE
RMF .OHMM     5                    : RMF          - RESISTIVITY OF MUD FILTRATE
SUFT.C        4                    : SUFT         - SURFACE TEMPERATURE
~A  DEPTH       GR     PHIN     PHID     RESD
   65.000  102.311    0.446    0.261   19.505
   65.250   96.152    0.439    0.265   20.585
   65.500   99.106    0.436    0.265   22.122
   65.750  100.224    0.440    0.265   22.497
   66.000  101.320    0.448    0.272   22.879
   66.250  104.857    0.458    0.280   22.840
   66.500  107.207    0.455    0.280   22.801
   66.750  109.534    0.433    0.249   22.772
   67.000  107.629    0.460    0.235   22.733
   67.250  100.865    0.474    0.234   22.268
   67.500   95.310    0.486    0.240   21.832
   67.750   98.265    0.467    0.250   21.385
   68.000  104.825    0.484    0.253   20.930
   68.250  109.593    0.487    0.250   20.519
   68.500  108.247    0.472    0.249   20.493
   68.750   96.065    0.458    0.250   20.083
   69.000   92.928    0.451    0.251   19.672
   69.250   89.233    0.442    0.255   19.655
   69.500   83.700    0.435    0.271   19.262
   69.750   77.541    0.428    0.279   19.229
   70.000   72.613    0.423    0.290   19.196
   70.250   65.849    0.421    0.295   19.155
   70.500   59.712    0.415    0.303   19.123
   70.750   54.180    0.408    0.314   19.455
   71.000   49.230    0.395    0.324   19.777
   71.250   58.230    0.379    0.332   20.122
   71.500   69.604    0.369    0.310   20.070
   71.750   64.699    0.375    0.306   20.045
   72.000   59.144    0.378    0.327   19.274
   72.250   63.308    0.380    0.337   18.896
   72.500   74.077    0.380    0.345   18.502
   72.750   65.522    0.384    0.346   18.486
   73.000   58.780    0.388    0.324   19.151
   73.250   52.644    0.392    0.312   20.590
   73.500   45.880    0.393    0.311   21.313
   73.750   39.743    0.370    0.317   21.286
   74.000   40.256    0.357    0.324   21.250
   74.250   44.398    0.358    0.329   21.223
   74.500   55.212    0.358    0.330   20.024
   74.750   75.095    0.354    0.337   20.007
   75.000   73.190    0.357    0.294   19.238
   75.250   67.612    0.369    0.308   18.852
   75.500   63.289    0.379    0.316   18.135
   75.750   62.617    0.387    0.313   18.097
   76.000   65.549    0.384    0.289   17.408
   76.250   75.131    0.383    0.254   17.386
   76.500   82.922    0.380    0.250   17.038
   76.750   88.273    0.380    0.247   16.697
   77.000   90.600    0.379    0.251   16.348
   77.250   78.418    0.382    0.263   16.633
   77.500   71.653    0.393    0.279   17.239
   77.750   59.448    0.401    0.329   18.526
   78.000   51.498    0.411    0.336   19.544
   78.250   51.407    0.405    0.340   20.264
   78.500   53.711    0.403    0.337   20.994
   78.750   56.062    0.405    0.338   21.332
   79.000   59.598    0.408    0.344   21.305
   79.250   63.739    0.410    0.349   21.250
   79.500   67.880    0.399    0.342   21.232
   79.750   72.044    0.385    0.329   21.196
   80.000   72.490    0.381    0.331   20.772
   80.250   71.817    0.390    0.336   20.736
   80.500   71.144    0.417    0.337   20.701
   80.750   71.053    0.443    0.331   20.666
   81.000   71.567    0.459    0.316   21.017
   81.250   72.662    0.464    0.306   21.355
   81.500   73.199    0.460    0.294   21.328
   81.750   73.712    0.429    0.289   21.282
   82.000   73.599    0.421    0.293   21.255
   82.250   74.717    0.433    0.291   20.838
   82.500   75.253    0.434    0.293   19.669
   82.750   77.581    0.434    0.297   18.566
   83.000   80.513    0.430    0.300   17.868
   83.250   84.049    0.425    0.303   16.865
   83.500   87.004    0.429    0.299   15.926
   83.750   92.332    0.430    0.291   16.196
   84.000   91.054    0.429    0.287   16.772
   84.250   77.035    0.426    0.295   17.064
   84.500   70.271    0.417    0.303   18.009
   84.750   64.739    0.404    0.305   19.006
   85.000   59.766    0.406    0.313   19.691
   85.250   57.884    0.404    0.320   20.772
   85.500   59.002    0.400    0.325   21.529
   85.750   61.329    0.397    0.334   22.314
   86.000   64.889    0.389    0.341   23.088
   86.250   69.007    0.386    0.346   23.489
   86.500   70.103    0.379    0.348   23.909
   86.750   70.639    0.382    0.347   23.858
   87.000   71.175    0.409    0.340   23.827
   87.250   72.271    0.415    0.332   22.902
   87.500   73.389    0.440    0.329   22.040
   87.750   73.880    0.451    0.327   21.193
   88.000   73.835    0.461    0.320   20.387
   88.250   73.116    0.464    0.312   19.987
   88.500   70.584    0.441    0.301   19.219
   88.750   67.470    0.415    0.293   18.480
   89.000   64.379    0.390    0.303   18.464
   89.250   60.661    0.389    0.328   17.755
   89.500   56.315    0.386    0.337   17.399
   89.750   56.201    0.384    0.346   16.423
   90.000   59.133    0.380    0.337   15.792
   90.250   63.275    0.377    0.329   15.197
   90.500   64.438    0.374    0.323   14.626
   90.750   66.743    0.381    0.328   13.799
   91.000   67.257    0.390    0.334   13.534
   91.250   67.770    0.394    0.336   14.811
   91.500   68.284    0.400    0.325   15.357
   91.750   64.565    0.406    0.315   16.511
   92.000   60.242    0.405    0.307   18.406
   92.250   58.338    0.380    0.298   19.084
   92.500   59.433    0.353    0.274   20.141
   92.750   59.970    0.338    0.242   20.466
   93.000   61.065    0.362    0.224   20.440
   93.250   62.161    0.397    0.265   20.405
   93.500   62.697    0.398    0.293   20.370
   93.750   63.188    0.393    0.318   20.344
   94.000   63.142    0.385    0.336   19.920
   94.250   63.051    0.378    0.343   19.529
   94.500   64.147    0.385    0.341   19.138
   94.750   65.265    0.393    0.330   18.410
   95.000   67.011    0.398    0.319   17.377
   95.250   69.897    0.400    0.310   16.402
   95.500   71.666    0.401    0.304   15.792
   95.750   74.597    0.398    0.293   14.633
   96.000   79.343    0.403    0.270   13.564
   96.250   86.507    0.408    0.258   12.337
   96.500   92.485    0.416    0.219   11.650
   96.750  104.486    0.422    0.197   12.074
   97.000  109.231    0.431    0.229   13.975
   97.250  107.931    0.437    0.260   15.312
   97.500  104.817    0.430    0.337   17.396
   97.750   99.890    0.411    0.353   19.061
   98.000   93.730    0.405    0.354   20.116
   98.250   86.989    0.399    0.353   20.074
   98.500   81.457    0.391    0.350   19.672
   98.750   76.484    0.390    0.346   19.277
   99.000   73.997    0.390    0.345   18.891
   99.250   74.511    0.393    0.343   18.173
   99.500   83.511    0.398    0.339   17.482
   99.750   89.466    0.411    0.315   16.817
  100.000   97.840    0.426    0.306   15.873
  100.250  102.608    0.424    0.297   15.263
  100.500  107.308    0.417    0.285   15.250
  100.750  106.054    0.413    0.281   15.218
  101.000  102.312    0.418    0.277   15.470
  101.250   98.571    0.428    0.282   16.033
  101.500   95.480    0.433    0.287   16.611
  101.750   91.762    0.436    0.292   17.530
  102.000   78.325    0.429    0.304   18.169
  102.250   72.188    0.410    0.329   19.175
  102.500   63.633    0.388    0.335   20.229
  102.750   49.614    0.386    0.342   20.966
  103.000   47.081    0.382    0.343   21.313
  103.250   46.968    0.379    0.330   22.493
  103.500   48.691    0.383    0.320   22.865
  103.750   50.459    0.388    0.312   23.253
  104.000   52.786    0.394    0.317   23.224
  104.250   53.905    0.395    0.321   22.758
  104.500   51.954    0.393    0.317   22.302
  104.750   53.723    0.390    0.319   21.855
  105.000   57.864    0.387    0.334   21.015
  105.250   63.214    0.385    0.335   20.216
  105.500   69.774    0.381    0.322   19.447
  105.750   79.379    0.382    0.313   18.364
  106.000   84.729    0.389    0.300   17.349
  106.250   90.684    0.396    0.298   16.376
  106.500   93.011    0.403    0.297   15.464
  106.750   97.130    0.412    0.295   14.882
  107.000  100.062    0.420    0.290   13.789
  107.250  102.435    0.430    0.280   12.542
  107.500  102.321    0.439    0.269   12.070
  107.750  102.207    0.444    0.261   10.777
  108.000  102.766    0.448    0.256    9.994
  108.250  105.698    0.454    0.250    9.614
