~VERSION INFORMATION
 VERS.                 2.0:   CWLS LOG ASCII STANDARD -VERSION 2.0
 WRAP.                  NO:   ONE LINE PER DEPTH STEP
~WELL INFORMATION BLOCK
#MNEM.UNIT           DATA                    DESCRIPTION OF MNEMONIC
#---------    -------------------            -------------------------------
# Generated from Intellog Unique Number	CS_73_76/WELL/3230
WELL.         HOME OIL COMPANY LIMITED       : Well_name    - WELL
LOC .         00/10-06-076-07W4/0            : Location     - LOCATION
UWI .         00/10-06-076-07W4/0            : Uwi          - UNIQUE WELL ID
ENTR.         SP                             : Entered      - ENTERED BY
SRVC.         SCHLUMBERGER                   : Scn          - SERVICE COMPANY
STRT.M        237.744                        : top_depth    - START DEPTH
STOP.M        459.994                        : bot_depth    - STOP DEPTH
STEP.M        0.25                           : increment    - STEP LENGTH
 NULL. -999.2500:NULL Value
~CURVE INFORMATION BLOCK
#MNEM UNIT       ERCB CURVE CODE    CURVE DESCRIPTION
#-----------   ------------------   ----------------------------------
DEPT.M        00 001 00 00         : DEPTH        - DEPTH
GR  .API      00 310 00 00         : GR           - GAMMA RAY
DPHI.V/V      00 890 00 00         : PHID         - DENSITY POROSITY (SANDSTONE)
NPHI.V/V      00 330 00 00         : PHIN         - NEUTRON POROSITY (SANDSTONE)
ILD .OHMM     00 120 00 00         : RESD         - DEEP RESISTIVITY (DIL)
~PARAMETER INFORMATION
#MNEM.UNIT           DATA             DESCRIPTION OF MNEMONIC
#---------         -----------     ------------------------------
GL  .M        647.669              : gl           - GROUND LEVEL ELEVATION
EREF.M        651.51               : kb           - ELEVATION OF DEPTH REFERENCE
DATM.M        647.669              : datum        - DATUM ELEVATION
TDD .M        488.899              : tdd          - TOTAL DEPTH DRILLER
RUN .         ONE                  : Run          - RUN NUMBER
ENG .         BILL                 : Engineer     - RECORDING ENGINEER
WIT .         JIM                  : Witness      - WITNESSED BY
MUD .         GEL                  : Mud_type     - MUD TYPE
MATR.         SANDSTONE            : Logunit      - NEUTRON MATRIX
TMAX.C        15                   : BHT          - MAXIMUM RECORDED TEMPERATURE
BHTD.M        488.899              : BHTDEP       - MAXIMUM RECORDED TEMPERATURE
MATR.         1                    : LOGUNIT      - NEUTRON MATRIX
RMT .C        25                   : MDTP         - TEMPERATURE OF MUD
NEUT.         1                    : NEUTRON      - NEUTRON TYPE
RESI.         0                    : RESIST       - RESISTIVITY TYPE
RMC .OHMM     0.25                 : RMC          - RESISTIVITY OF MUD CAKE
RMF .OHMM     0.25                 : RMF          - RESISTIVITY OF MUD FILTRATE
SUFT.C        15                   : SUFT         - SURFACE TEMPERATURE
~A  DEPTH       GR     PHID     PHIN     RESD
# ...
  281.244  113.906    0.171    0.474    9.584
  281.494  108.707    0.173    0.468   10.182
  281.744  107.563    0.191    0.467   10.647
  281.994  108.783    0.188    0.461   11.090
  282.244  110.653    0.198    0.442   11.595
  282.494  108.656    0.187    0.429   11.592
  282.744  108.772    0.184    0.424   11.594
  282.994  108.821    0.182    0.408   11.593
  283.244  106.204    0.192    0.399   11.593
  283.494  103.700    0.189    0.398   11.599
  283.744  101.732    0.177    0.392   11.403
  283.994  100.957    0.170    0.385   11.380
  284.244  106.602    0.178    0.392   11.375
  284.494  109.203    0.177    0.402   11.222
  284.744  108.798    0.160    0.412   10.898
  284.994  109.931    0.153    0.426   10.134
  285.244  110.202    0.169    0.437    9.251
  285.494  106.252    0.173    0.441    8.515
  285.744  101.034    0.165    0.446    7.967
  285.994   92.371    0.179    0.448    7.784
  286.244   85.460    0.188    0.435    7.977
  286.494   83.129    0.206    0.437    8.269
  286.744   83.669    0.224    0.445    7.784
  286.994   82.039    0.212    0.446    8.453
  287.244   86.988    0.214    0.439    8.576
  287.494   86.062    0.207    0.444    8.697
  287.744   86.180    0.223    0.456    9.083
  287.994   85.762    0.223    0.466   10.168
  288.244   85.294    0.207    0.465   10.658
  288.494   89.138    0.191    0.446    9.958
  288.744   91.198    0.167    0.422    9.095
  288.994   91.504    0.164    0.406    7.600
  289.244   98.378    0.164    0.407    6.766
  289.494  105.608    0.163    0.442    5.421
  289.744  110.042    0.158    0.467    4.918
  289.994  112.640    0.159    0.482    4.566
  290.244  113.738    0.157    0.462    4.119
  290.494  113.245    0.167    0.453    3.645
  290.744  113.007    0.185    0.464    3.455
  290.994  109.130    0.187    0.473    3.246
  291.244  101.588    0.189    0.482    3.216
  291.494   95.235    0.203    0.499    3.361
  291.744   88.495    0.219    0.508    3.608
  291.994   79.426    0.229    0.516    4.410
  292.244   74.632    0.243    0.425    4.643
  292.494   70.999    0.247    0.401    4.778
  292.744   67.913    0.236    0.397    4.770
  292.994   65.776    0.251    0.403    4.777
  293.244   65.230    0.265    0.412    4.663
  293.494   64.616    0.264    0.413    4.590
  293.744   65.877    0.258    0.402    4.593
  293.994   69.581    0.252    0.407    4.593
  294.244   70.373    0.250    0.406    4.536
  294.494   70.498    0.254    0.415    4.420
  294.744   69.475    0.271    0.412    4.338
  294.994   68.140    0.259    0.415    4.253
  295.244   66.308    0.252    0.422    4.252
  295.494   66.957    0.257    0.429    4.335
  295.744   68.966    0.258    0.429    4.382
  295.994   71.138    0.267    0.416    4.411
  296.244   70.390    0.251    0.406    4.564
  296.494   68.996    0.247    0.408    4.710
  296.744   67.050    0.257    0.412    4.973
  296.994   70.305    0.264    0.412    5.212
  297.244   71.343    0.267    0.412    5.324
  297.494   69.261    0.270    0.416    4.934
  297.744   65.860    0.272    0.410    4.644
  297.994   67.698    0.265    0.419    4.392
  298.244   71.117    0.277    0.421    4.581
  298.494   72.785    0.281    0.425    4.720
  298.744   73.797    0.266    0.429    5.016
  298.994   76.454    0.253    0.427    5.327
  299.244   77.710    0.250    0.426    5.658
  299.494   75.695    0.267    0.433    5.981
  299.744   73.722    0.258    0.432    6.089
  299.994   72.366    0.258    0.418    5.871
  300.244   71.756    0.263    0.406    5.510
  300.494   72.292    0.267    0.407    5.729
  300.744   71.813    0.259    0.429    6.113
  300.994   64.947    0.265    0.446    6.308
  301.244   62.949    0.272    0.451    5.789
  301.494   62.696    0.256    0.440    5.558
  301.744   63.723    0.256    0.423    5.133
  301.994   63.482    0.263    0.414    5.092
  302.244   61.695    0.251    0.413    4.820
  302.494   61.306    0.253    0.417    4.668
  302.744   62.025    0.262    0.428    4.758
  302.994   65.112    0.254    0.442    4.858
  303.244   66.718    0.244    0.441    4.629
  303.494   66.195    0.235    0.434    4.621
  303.744   67.999    0.234    0.431    4.665
  303.994   69.824    0.240    0.431    4.882
  304.244   73.063    0.244    0.436    5.048
  304.494   75.148    0.249    0.433    5.413
  304.744   75.438    0.242    0.421    6.141
  304.994   74.293    0.238    0.416    6.570
  305.244   72.212    0.258    0.420    6.317
  305.494   71.413    0.250    0.424    5.950
  305.744   72.205    0.256    0.427    5.495
  305.994   73.246    0.244    0.419    5.505
  306.244   73.615    0.239    0.416    5.554
  306.494   73.247    0.245    0.410    5.735
  306.744   72.874    0.243    0.406    5.738
  306.994   72.032    0.229    0.395    5.576
  307.244   71.412    0.239    0.396    5.411
  307.494   69.255    0.252    0.406    4.811
  307.744   68.675    0.259    0.413    4.625
  307.994   67.755    0.266    0.412    4.651
  308.244   68.361    0.269    0.414    4.807
  308.494   70.364    0.270    0.410    4.847
  308.744   70.774    0.255    0.409    5.013
  308.994   70.747    0.264    0.417    5.018
  309.244   70.697    0.246    0.417    5.017
  309.494   69.596    0.255    0.416    5.097
  309.744   69.346    0.255    0.423    5.112
  309.994   68.305    0.264    0.418    5.114
  310.244   68.868    0.271    0.426    5.095
  310.494   69.532    0.256    0.432    5.358
  310.744   70.071    0.245    0.434    5.510
  310.994   71.988    0.237    0.440    5.872
  311.244   74.678    0.247    0.449    6.086
  311.494   77.160    0.243    0.443    6.180
  311.744   79.953    0.231    0.439    5.804
  311.994   80.281    0.237    0.431    5.580
  312.244   78.784    0.245    0.435    5.320
  312.494   75.781    0.249    0.446    5.168
  312.744   73.517    0.245    0.428    4.902
  312.994   71.854    0.265    0.423    4.830
  313.244   72.696    0.259    0.432    4.887
  313.494   73.660    0.247    0.443    5.214
  313.744   74.897    0.247    0.451    5.585
  313.994   74.767    0.253    0.457    5.704
  314.244   76.477    0.262    0.440    5.509
  314.494   80.846    0.190    0.443    5.575
  314.744   87.457    0.166    0.448    5.640
  314.994   94.294    0.159    0.441    6.103
  315.244   99.825    0.162    0.438    6.987
  315.494  102.037    0.173    0.447    7.626
  315.744   99.431    0.180    0.455    7.612
  315.994   95.120    0.191    0.461    7.340
  316.244   89.046    0.207    0.458    6.740
  316.494   84.393    0.225    0.448    6.427
  316.744   83.564    0.222    0.436    6.259
  316.994   85.026    0.223    0.446    6.394
  317.244   86.431    0.198    0.442    6.951
  317.494   87.701    0.184    0.439    7.861
  317.744   89.310    0.224    0.449    8.315
  317.994   87.069    0.232    0.455    8.300
  318.244   89.481    0.224    0.441    8.484
  318.494   92.134    0.239    0.437    8.613
  318.744   90.760    0.229    0.443    8.580
  318.994   92.354    0.233    0.452    8.127
  319.244   95.703    0.225    0.457    7.529
  319.494   99.678    0.203    0.457    6.748
  319.744  101.945    0.178    0.473    5.580
  319.994  101.538    0.171    0.493    4.944
  320.244  100.673    0.174    0.511    4.438
  320.494  100.101    0.158    0.501    4.467
  320.744  101.305    0.147    0.476    4.469
  320.994  107.262    0.148    0.459    4.484
  321.244  111.462    0.136    0.475    4.552
  321.494  114.064    0.121    0.492    4.549
  321.744  111.973    0.112    0.467    4.541
  321.994  110.990    0.123    0.453    4.389
  322.244  111.681    0.137    0.463    4.348
  322.494  110.895    0.142    0.470    4.301
  322.744  111.279    0.138    0.455    4.229
  322.994  113.028    0.131    0.453    4.310
  323.244  113.323    0.162    0.461    4.298
  323.494  109.723    0.185    0.473    4.422
  323.744  107.834    0.198    0.490    4.650
  323.994  102.536    0.187    0.502    5.066
  324.244   99.356    0.167    0.456    5.457
  324.494   99.683    0.153    0.436    5.874
