~VERSION INFORMATION
 VERS.                 2.0:   CWLS LOG ASCII STANDARD -VERSION 2.0
 WRAP.                  NO:   ONE LINE PER DEPTH STEP
~WELL INFORMATION BLOCK
#MNEM.UNIT           DATA                    DESCRIPTION OF MNEMONIC
#---------    -------------------            -------------------------------
# Generated from Intellog Unique Number	CS_73_76/WELL/3243
WELL.         SIEBENS OIL GAS LID.           : Well_name    - WELL
LOC .         00/10-26-076-09W4/0            : Location     - LOCATION
UWI .         00/10-26-076-09W4/0            : Uwi          - UNIQUE WELL ID
ENTR.         SP                             : Entered      - ENTERED BY
SRVC.         SCHLUMBERGER                   : Scn          - SERVICE COMPANY
STRT.M        240.792                        : top_depth    - START DEPTH
STOP.M        463.042                        : bot_depth    - STOP DEPTH
STEP.M        0.25                           : increment    - STEP LENGTH
 NULL. -999.2500:NULL Value
~CURVE INFORMATION BLOCK
#MNEM UNIT       ERCB CURVE CODE    CURVE DESCRIPTION
#-----------   ------------------   ----------------------------------
DEPT.M        00 001 00 00         : DEPTH        - DEPTH
GR  .API      00 310 00 00         : GR           - GAMMA RAY
DPHI.V/V      00 890 00 00         : PHID         - DENSITY POROSITY (SANDSTONE)
NPHI.V/V      00 330 00 00         : PHIN         - NEUTRON POROSITY (SANDSTONE)
ILD .OHMM     00 120 00 00         : RESD         - DEEP RESISTIVITY (DIL)
~PARAMETER INFORMATION
#MNEM.UNIT           DATA             DESCRIPTION OF MNEMONIC
#---------         -----------     ------------------------------
GL  .M        650.748              : gl           - GROUND LEVEL ELEVATION
EREF.M        654.406              : kb           - ELEVATION OF DEPTH REFERENCE
DATM.M        650.748              : datum        - DATUM ELEVATION
TDD .M        473.659              : tdd          - TOTAL DEPTH DRILLER
RUN .         ONE                  : Run          - RUN NUMBER
ENG .         BILL                 : Engineer     - RECORDING ENGINEER
WIT .         JIM                  : Witness      - WITNESSED BY
MUD .         GEL                  : Mud_type     - MUD TYPE
MATR.         SANDSTONE            : Logunit      - NEUTRON MATRIX
TMAX.C        15.5556              : BHT          - MAXIMUM RECORDED TEMPERATURE
BHTD.M        473.659              : BHTDEP       - MAXIMUM RECORDED TEMPERATURE
MATR.         1                    : LOGUNIT      - NEUTRON MATRIX
RMT .C        25                   : MDTP         - TEMPERATURE OF MUD
NEUT.         1                    : NEUTRON      - NEUTRON TYPE
RESI.         0                    : RESIST       - RESISTIVITY TYPE
RMC .OHMM     0.25                 : RMC          - RESISTIVITY OF MUD CAKE
RMF .OHMM     0.25                 : RMF          - RESISTIVITY OF MUD FILTRATE
SUFT.C        15                   : SUFT         - SURFACE TEMPERATURE
~A  DEPTH       GR     PHID     PHIN     RESD
# ...
  327.792  102.061    0.237    0.556    2.791
  328.042  101.192    0.236    0.541    2.721
  328.292  101.910    0.234    0.551    2.784
  328.542  102.321    0.231    0.560    2.869
  328.792  103.366    0.248    0.561    3.032
  329.042  103.683    0.227    0.547    3.302
  329.292  103.795    0.229    0.537    3.747
  329.542  102.112    0.253    0.548    4.318
  329.792   98.983    0.265    0.556    5.015
  330.042   94.211    0.257    0.545    5.829
  330.292   90.090    0.248    0.521    6.344
  330.542   90.383    0.237    0.497    6.745
  330.792   91.683    0.247    0.490    6.707
  331.042   93.040    0.239    0.469    6.518
  331.292   97.169    0.226    0.458    6.032
  331.542   98.746    0.213    0.478    5.580
  331.792  100.109    0.217    0.487    5.042
  332.042  100.516    0.226    0.486    4.557
  332.292  101.505    0.220    0.498    4.104
  332.542  102.507    0.228    0.512    3.704
  332.792  101.873    0.227    0.529    3.264
  333.042  102.065    0.224    0.544    2.856
  333.292  102.521    0.238    0.558    2.767
  333.542  102.418    0.252    0.568    2.921
  333.792   98.215    0.265    0.583    3.084
  334.042   93.385    0.262    0.589    3.601
  334.292   87.496    0.278    0.571    4.237
  334.542   82.415    0.297    0.529    5.131
  334.792   79.524    0.300    0.501    6.502
  335.042   78.047    0.293    0.482    7.192
  335.292   79.176    0.283    0.488    7.797
  335.542   81.166    0.281    0.489    8.064
  335.792   83.038    0.287    0.498    7.881
  336.042   83.317    0.279    0.510    7.667
  336.292   85.239    0.271    0.519    7.151
  336.542   87.967    0.258    0.523    6.965
  336.792   91.561    0.248    0.510    6.759
  337.042   92.676    0.251    0.497    6.826
  337.292   92.957    0.251    0.501    6.883
  337.542   92.325    0.246    0.498    6.891
  337.792   93.714    0.245    0.494    6.896
  338.042   95.831    0.262    0.502    6.901
  338.292   91.509    0.266    0.488    6.893
  338.542   88.913    0.258    0.494    7.064
  338.792   89.362    0.261    0.488    6.914
  339.042   90.323    0.253    0.485    7.058
  339.292   91.163    0.264    0.489    7.053
  339.542   91.711    0.267    0.493    7.056
  339.792   92.713    0.261    0.504    7.060
  340.042   93.791    0.231    0.516    7.065
  340.292   95.320    0.240    0.512    7.069
  340.542   95.359    0.246    0.514    7.070
  340.792   95.413    0.247    0.506    7.062
  341.042   96.075    0.249    0.503    7.042
  341.292   94.402    0.263    0.501    7.218
  341.542   94.191    0.272    0.493    7.367
  341.792   94.519    0.257    0.497    7.612
  342.042   92.016    0.257    0.494    7.686
  342.292   91.178    0.237    0.494    7.790
  342.542   88.206    0.217    0.474    7.808
  342.792   90.949    0.200    0.453    7.611
  343.042   94.533    0.205    0.464    7.524
  343.292   96.699    0.231    0.506    7.166
  343.542   97.234    0.234    0.532    6.854
  343.792   97.831    0.235    0.527    6.655
  344.042   96.858    0.232    0.509    6.259
  344.292   95.835    0.232    0.493    6.152
  344.542   95.152    0.233    0.486    5.934
  344.792   96.344    0.233    0.483    5.908
  345.042   99.034    0.221    0.489    5.848
  345.292  100.179    0.211    0.491    5.762
  345.542  100.916    0.211    0.494    5.539
  345.792   99.640    0.221    0.503    5.178
  346.042   99.546    0.219    0.502    4.314
  346.292  101.352    0.214    0.503    3.669
  346.542  100.738    0.233    0.516    3.113
  346.792  101.763    0.254    0.541    2.661
  347.042  102.026    0.260    0.569    2.276
  347.292  100.619    0.271    0.597    2.042
  347.542   97.599    0.271    0.613    2.041
  347.792   94.615    0.269    0.615    2.150
  348.042   91.377    0.288    0.596    2.236
  348.292   91.264    0.290    0.580    2.519
  348.542   90.597    0.277    0.561    2.729
  348.792   90.317    0.263    0.542    3.283
  349.042   88.461    0.257    0.500    3.854
  349.292   86.478    0.275    0.478    4.466
  349.542   85.547    0.285    0.466    5.005
  349.792   83.851    0.298    0.444    5.359
  350.042   82.412    0.312    0.425    5.797
  350.292   80.391    0.323    0.439    6.025
  350.542   79.144    0.308    0.458    6.412
  350.792   78.121    0.298    0.467    6.490
  351.042   78.253    0.298    0.467    6.774
  351.292   78.605    0.290    0.462    6.893
  351.542   78.759    0.292    0.459    6.980
  351.792   74.822    0.295    0.458    6.983
  352.042   69.726    0.303    0.465    6.905
  352.292   64.486    0.319    0.471    6.780
  352.542   62.958    0.330    0.478    6.623
  352.792   61.996    0.345    0.482    6.551
  353.042   60.189    0.358    0.474    6.418
  353.292   60.820    0.364    0.473    6.435
  353.542   62.307    0.354    0.463    6.439
  353.792   62.859    0.348    0.460    6.432
  354.042   61.774    0.341    0.453    6.573
  354.292   61.154    0.333    0.446    6.570
  354.542   62.083    0.327    0.451    6.577
  354.792   62.428    0.325    0.454    6.581
  355.042   59.996    0.335    0.451    6.506
  355.292   58.785    0.344    0.457    6.479
  355.542   59.385    0.341    0.456    6.368
  355.792   60.195    0.347    0.467    6.236
  356.042   58.660    0.356    0.458    6.248
  356.292   57.679    0.356    0.447    6.260
  356.542   58.858    0.346    0.448    6.131
  356.792   60.122    0.352    0.447    6.148
  357.042   60.710    0.349    0.436    6.153
  357.292   59.743    0.355    0.435    6.158
  357.542   59.444    0.349    0.434    6.164
  357.792   59.914    0.352    0.437    6.289
  358.042   60.402    0.349    0.451    6.319
  358.292   61.255    0.340    0.465    6.403
  358.542   60.957    0.351    0.465    6.396
  358.792   60.111    0.354    0.447    6.543
  359.042   61.223    0.346    0.441    6.535
  359.292   61.231    0.338    0.449    6.539
  359.542   61.179    0.330    0.452    6.543
  359.792   60.584    0.342    0.447    6.547
  360.042   61.263    0.341    0.450    6.549
  360.292   61.897    0.342    0.456    6.547
  360.542   61.841    0.351    0.456    6.434
  360.792   61.684    0.348    0.455    6.445
  361.042   60.652    0.345    0.460    6.451
  361.292   60.411    0.352    0.463    6.454
  361.542   61.609    0.353    0.461    6.460
  361.792   63.022    0.347    0.461    6.463
  362.042   64.549    0.348    0.460    6.397
  362.292   62.239    0.351    0.467    6.356
  362.542   61.326    0.349    0.468    6.357
  362.792   61.035    0.345    0.468    6.366
  363.042   59.985    0.341    0.473    6.379
  363.292   59.455    0.332    0.463    6.492
  363.542   59.459    0.336    0.459    6.776
  363.792   59.450    0.332    0.456    6.984
  364.042   57.154    0.316    0.436    6.876
  364.292   59.289    0.297    0.413    6.721
  364.542   63.031    0.295    0.420    6.282
  364.792   65.739    0.331    0.441    6.104
  365.042   65.989    0.349    0.456    5.952
  365.292   64.383    0.339    0.465    6.270
  365.542   63.048    0.316    0.473    6.476
  365.792   61.783    0.313    0.457    6.509
  366.042   61.239    0.337    0.449    6.507
  366.292   62.231    0.344    0.445    6.658
  366.542   62.495    0.362    0.443    6.794
  366.792   62.426    0.354    0.439    6.892
  367.042   62.949    0.346    0.434    6.932
  367.292   62.507    0.338    0.441    6.802
  367.542   62.081    0.333    0.449    6.726
  367.792   61.909    0.324    0.446    6.701
  368.042   61.925    0.332    0.440    6.574
  368.292   61.310    0.340    0.450    6.504
  368.542   60.595    0.342    0.463    6.441
  368.792   61.762    0.339    0.450    6.341
  369.042   62.798    0.341    0.441    6.288
  369.292   63.799    0.341    0.436    6.228
  369.542   64.819    0.337    0.450    6.135
  369.792   64.696    0.336    0.472    6.020
  370.042   63.680    0.342    0.476    5.914
  370.292   62.309    0.337    0.475    5.840
  370.542   60.469    0.330    0.462    5.786
  370.792   59.523    0.336    0.464    5.716
  371.042   59.528    0.342    0.466    5.712
