~VERSION INFORMATION
 VERS.                 2.0:   CWLS LOG ASCII STANDARD -VERSION 2.0
 WRAP.                  NO:   ONE LINE PER DEPTH STEP
~WELL INFORMATION BLOCK
#MNEM.UNIT           DATA                    DESCRIPTION OF MNEMONIC
#---------    -------------------            -------------------------------
# Generated from Intellog Unique Number	CC_80_83/WELL/2409
NULL.         -999.25                        : NULL_VALUE
WELL.         PEX HOUSE                      : Well_name    - WELL
LOC .         11-26-080-16W4                 : Location     - LOCATION          
UWI .         00/11-26-080-16W4/0            : Uwi          - UNIQUE WELL ID    
ENTR.         DW                             : Entered      - ENTERED BY        
SRVC.         SCHLUMBERGER                   : Scn          - SERVICE COMPANY   
DATE.         13 FEB 82                      : Date         - LOG DATE
STRT.M        152                            : top_depth    - START DEPTH       
STOP.M        385.096                        : bot_depth    - STOP DEPTH        
STEP.M        0.3                            : increment    - STEP LENGTH       
~CURVE INFORMATION BLOCK
#MNEM UNIT       ERCB CURVE CODE    CURVE DESCRIPTION
#-----------   ------------------   ----------------------------------
DEPT.M        00 001 00 00         : DEPTH        - DEPTH                       
DPHI.V/V      00 890 00 00         : PHID         - DENSITY POROSITY (LIMESTONE)
NPHI.V/V      00 330 00 00         : PHIN         - NEUTRON POROSITY (LIMESTONE)
GR  .API      00 310 00 00         : GR           - GAMMA RAY                   
ILD .OHMM     00 120 00 00         : RESD         - DEEP RESISTIVITY (DIL)      
~PARAMETER INFORMATION       
#MNEM.UNIT           DATA             DESCRIPTION OF MNEMONIC
#---------         -----------     ------------------------------
GL  .M        566.17               : gl           - GROUND LEVEL ELEVATION      
EREF.M        569.97               : kb           - ELEVATION OF DEPTH REFERENCE
DATM.M        569.97               : datum        - DATUM ELEVATION             
TDD .M        380                  : tdd          - TOTAL DEPTH DRILLER         
RUN .         ONE                  : Run          - RUN NUMBER                  
ENG .         BILL                 : Engineer     - RECORDING ENGINEER          
WIT .         JIM                  : Witness      - WITNESSED BY                
MUD .         GEL                  : Mud_type     - MUD TYPE                    
MATR.         LIMESTONE            : Logunit      - NEUTRON MATRIX              
TMAX.C        19.4                 : BHT          - MAXIMUM RECORDED TEMPERATURE
BHTD.M        380                  : BHTDEP       - MAXIMUM RECORDED TEMPERATURE
MATR.         1                    : LOGUNIT      - NEUTRON MATRIX              
RMT .C        25                   : MDTP         - TEMPERATURE OF MUD          
NEUT.         1                    : NEUTRON      - NEUTRON TYPE                
RESI.         0                    : RESIST       - RESISTIVITY TYPE            
RMC .OHMM     0.25                 : RMC          - RESISTIVITY OF MUD CAKE     
RMF .OHMM     0.25                 : RMF          - RESISTIVITY OF MUD FILTRATE 
SUFT.C        15                   : SUFT         - SURFACE TEMPERATURE         
~A  DEPTH     PHID     PHIN       GR     RESD
# ...
  204.201    0.310    0.475   53.503    9.552
  204.501    0.315    0.468   55.988    9.372
  204.801    0.330    0.407   55.372    9.553
  205.101    0.311    0.396   55.998   10.509
  205.401    0.308    0.386   59.101   11.343
  205.701    0.292    0.385   61.586   12.243
  206.001    0.269    0.446   62.831   12.012
  206.301    0.310    0.405   61.595   11.563
  206.601    0.328    0.390   54.780   10.713
  206.901    0.328    0.409   54.785   10.511
  207.201    0.319    0.447   54.789   10.313
  207.501    0.319    0.421   51.695   10.714
  207.801    0.308    0.438   61.618   11.131
  208.101    0.308    0.438   64.102   11.346
  208.401    0.315    0.435   60.387   11.132
  208.701    0.290    0.467   51.714   10.922
  209.001    0.138    0.326   47.380   11.566
  209.301    0.172    0.267   46.144   14.268
  209.601    0.295    0.331   46.769   15.999
  209.901    0.346    0.441   51.114   17.601
  210.201    0.336    0.425   55.457   17.941
  210.501    0.325    0.410   57.940   16.623
  210.801    0.316    0.443   54.225   16.309
  211.101    0.323    0.426   54.850   14.825
  211.401    0.325    0.428   61.053   12.727
  211.701    0.324    0.412   61.679   12.019
  212.001    0.309    0.412   61.683   11.136
  212.301    0.296    0.463   68.506   11.351
  212.601    0.276    0.497   77.189   12.487
  212.901    0.189    0.462  124.303   14.828
  213.201    0.049    0.510  134.226   18.292
  213.501    0.046    0.530  101.378   19.743
  213.801    0.060    0.441   99.524   23.000
  214.101    0.149    0.441   99.528   26.794
  214.401    0.164    0.472   92.714   29.478
  214.701    0.168    0.484  108.835   30.625
  215.001    0.184    0.468   90.244   30.047
  215.301    0.208    0.456   74.131   28.923
  215.601    0.224    0.472   85.296   30.049
  215.901    0.229    0.495   85.299   28.925
  216.201    0.261    0.473   62.988   28.379
  216.501    0.279    0.469   51.836   27.317
  216.801    0.310    0.441   46.881   25.310
  217.101    0.324    0.423   48.127   22.572
  217.401    0.330    0.423   48.751   21.317
  217.701    0.332    0.408   47.515   20.915
  218.001    0.334    0.438   45.041   20.520
  218.301    0.337    0.447   45.664   20.520
  218.601    0.336    0.426   48.149   19.753
  218.901    0.340    0.413   45.054   19.380
  219.201    0.351    0.423   47.539   18.654
  219.501    0.349    0.443   51.263   17.957
  219.801    0.345    0.451   51.266   17.618
  220.101    0.344    0.447   46.932   17.618
  220.401    0.337    0.443   43.838   16.638
  220.701    0.336    0.426   45.703   16.324
  221.001    0.344    0.434   48.187   16.016
  221.301    0.352    0.448   51.291   16.017
  221.601    0.347    0.447   51.915   16.017
  221.901    0.347    0.426   51.300   15.715
  222.201    0.351    0.433   50.066   15.715
  222.501    0.345    0.432   46.970   15.418
  222.801    0.271    0.396   48.215   15.716
  223.101    0.280    0.411   50.078   16.642
  223.401    0.345    0.438   50.084   17.290
  223.701    0.309    0.446   49.468   16.964
  224.001    0.284    0.137   47.613   17.291
  224.301    0.001    0.127   41.419   20.144
  224.601    0.165    0.180   43.904   27.337
  224.901    0.202    0.250   48.247   37.815
  225.201    0.333    0.414   48.871   35.712
  225.501    0.312    0.449   43.917   26.823
  225.801    0.321    0.426   48.262   21.334
  226.101    0.347    0.457   49.505   16.332
  226.401    0.355    0.453   45.171   15.721
  226.701    0.332    0.445   42.078   14.847
  227.001    0.320    0.453   46.421   15.134
  227.301    0.323    0.457   47.664   15.134
  227.601    0.335    0.453   45.809   15.134
  227.901    0.342    0.429   43.335   15.426
  228.201    0.348    0.428   45.200   15.135
  228.501    0.351    0.443   42.104   14.569
  228.801    0.343    0.458   38.390   14.569
  229.101    0.343    0.472   38.395   14.570
  229.401    0.346    0.483   43.358   14.851
  229.701    0.350    0.475   46.463   14.851
  230.001    0.353    0.459   42.748   14.851
  230.301    0.358    0.443   42.132   14.852
  230.601    0.352    0.413   43.998   14.572
  230.901    0.343    0.430   44.622   14.572
  231.201    0.341    0.486   42.767   14.027
  231.501    0.345    0.475   41.532   14.027
  231.801    0.333    0.469   41.538   14.028
  232.101    0.320    0.433   41.541   14.298
  232.401    0.321    0.427   42.166   14.855
  232.701    0.330    0.444   43.409   15.433
  233.001    0.325    0.476   46.514   15.731
  233.301    0.337    0.474   47.139   15.732
  233.601    0.343    0.460   45.286   16.035
  233.901    0.341    0.449   45.288   15.732
  234.201    0.336    0.443   45.913   15.733
  234.501    0.335    0.438   46.537   15.733
  234.801    0.315    0.445   46.541   15.734
  235.101    0.322    0.440   46.546   15.734
  235.401    0.326    0.415   52.131   16.038
  235.701    0.306    0.412   55.235   16.347
  236.001    0.311    0.466   53.378   16.984
  236.301    0.317    0.463   49.045   16.984
  236.601    0.318    0.452   50.910   17.312
  236.901    0.331    0.434   50.294   17.312
  237.201    0.333    0.434   49.678   17.646
  237.501    0.328    0.429   47.824   18.687
  237.801    0.325    0.442   48.448   20.169
  238.101    0.315    0.449   51.552   20.170
  238.401    0.297    0.444   55.276   19.048
  238.701    0.303    0.434   57.761   17.649
  239.001    0.306    0.425   58.385   16.988
  239.301    0.305    0.430   55.290   16.668
  239.601    0.303    0.417   52.816   15.741
  239.901    0.291    0.397   56.539   15.444
  240.201    0.275    0.400   58.403   15.152
  240.501    0.281    0.435   59.028   15.444
  240.801    0.301    0.430   58.413   14.310
  241.101    0.311    0.438   56.557   14.040
  241.401    0.313    0.409   55.322   14.311
  241.701    0.311    0.412   59.047   14.587
  242.001    0.283    0.451   60.291   15.447
  242.301    0.183    0.463   49.758   16.048
  242.601    0.039    0.192   43.563   18.695
  242.901    0.051    0.187   40.469   25.861
  243.201    0.136    0.244   46.052   27.386
  243.501    0.265    0.343   49.777   26.361
  243.801    0.302    0.429   52.262   22.629
  244.101    0.311    0.433   55.986   15.158
  244.401    0.313    0.428   57.229   14.044
  244.701    0.306    0.443   52.276   13.519
  245.001    0.306    0.424   53.520   13.519
  245.301    0.313    0.425   56.005   13.013
  245.601    0.314    0.458   56.628   13.264
  245.901    0.324    0.469   57.252   13.264
  246.201    0.313    0.455   62.837   12.768
  246.501    0.321    0.425   62.841   12.768
  246.801    0.312    0.446   59.747   13.015
  247.101    0.292    0.428   59.131   13.522
  247.401    0.313    0.438   60.377   13.783
  247.701    0.289    0.445   62.240   13.523
  248.001    0.270    0.446   67.823   13.016
  248.301    0.266    0.443   77.745   12.060
  248.601    0.265    0.443   77.131    8.719
  248.901    0.267    0.448   75.897    6.935
  249.201    0.272    0.499   74.042    6.549
  249.501    0.278    0.501   70.326    6.804
  249.801    0.291    0.476   66.612    7.205
  250.101    0.287    0.453   64.136    7.927
  250.401    0.301    0.455   56.083    9.594
  250.701    0.293    0.421   54.848   10.758
  251.001    0.288    0.450   60.432   10.758
  251.301    0.288    0.475   64.775    9.968
  251.601    0.263    0.467   66.021    8.890
  251.901    0.286    0.475   67.266    8.395
  252.201    0.304    0.452   69.128    8.081
  252.501    0.274    0.457   71.613    8.557
  252.801    0.281    0.477   71.618    9.237
  253.101    0.299    0.494   64.183    9.781
  253.401    0.289    0.496   53.650    9.781
  253.701    0.250    0.475   49.936    9.597
  254.001    0.250    0.472   57.378    9.416
  254.301    0.288    0.461   64.203    9.416
  254.601    0.283    0.461   67.925   10.359
  254.901    0.278    0.459   74.129   10.969
  255.201    0.268    0.440   75.374   10.559
  255.501    0.245    0.428   76.619   10.360
  255.801    0.259    0.462   76.624    9.064
  256.101    0.303    0.492   74.768    7.931
