~VERSION INFORMATION
 VERS.                 2.0:   CWLS LOG ASCII STANDARD -VERSION 2.0
 WRAP.                  NO:   ONE LINE PER DEPTH STEP
~WELL INFORMATION BLOCK
#MNEM.UNIT           DATA                    DESCRIPTION OF MNEMONIC
#---------    -------------------            -------------------------------
# Generated from Intellog Unique Number	CC_84_87/WELL/1184
NULL.         -999.25                        : NULL_VALUE
WELL.         PCI PCEJ HANGST                : Well_name    - WELL              
LOC .         10-08-084-09W4                 : Location     - LOCATION          
UWI .         00/10-08-084-09W400            : Uwi          - UNIQUE WELL ID    
ENTR.         RJA                            : Entered      - ENTERED BY        
SRVC.         SCHLUMBERGER                   : Scn          - SERVICE COMPANY   
DATE.         17 MAR 85                      : Date         - LOG DATE
STRT.M        175                            : top_depth    - START DEPTH       
STOP.M        475.892                        : bot_depth    - STOP DEPTH        
STEP.M        0.3                            : increment    - STEP LENGTH       
~CURVE INFORMATION BLOCK
#MNEM UNIT       ERCB CURVE CODE    CURVE DESCRIPTION
#-----------   ------------------   ----------------------------------
DEPT.M        00 001 00 00         : DEPTH        - DEPTH                       
DPHI.V/V      00 890 00 00         : PHID         - DENSITY POROSITY (LIMESTONE)
NPHI.V/V      00 330 00 00         : PHIN         - NEUTRON POROSITY (LIMESTONE)
GR  .API      00 310 00 00         : GR           - GAMMA RAY                   
ILD .OHMM     00 120 00 00         : RESD         - DEEP RESISTIVITY (DIL)      
~PARAMETER INFORMATION       
#MNEM.UNIT           DATA             DESCRIPTION OF MNEMONIC
#---------         -----------     ------------------------------
GL  .M        716.37               : gl           - GROUND LEVEL ELEVATION      
EREF.M        719.37               : kb           - ELEVATION OF DEPTH REFERENCE
DATM.M        719.37               : datum        - DATUM ELEVATION             
TDD .M        488                  : tdd          - TOTAL DEPTH DRILLER         
RUN .         ONE                  : Run          - RUN NUMBER                  
ENG .         BILL                 : Engineer     - RECORDING ENGINEER          
WIT .         JIM                  : Witness      - WITNESSED BY                
MUD .         GEL                  : Mud_type     - MUD TYPE                    
MATR.         LIMESTONE            : Logunit      - NEUTRON MATRIX              
TMAX.C        19                   : BHT          - MAXIMUM RECORDED TEMPERATURE
BHTD.M        488                  : BHTDEP       - MAXIMUM RECORDED TEMPERATURE
MATR.         1                    : LOGUNIT      - NEUTRON MATRIX              
RMT .C        25                   : MDTP         - TEMPERATURE OF MUD          
NEUT.         1                    : NEUTRON      - NEUTRON TYPE                
RESI.         0                    : RESIST       - RESISTIVITY TYPE            
RMC .OHMM     0.25                 : RMC          - RESISTIVITY OF MUD CAKE     
RMF .OHMM     0.25                 : RMF          - RESISTIVITY OF MUD FILTRATE 
SUFT.C        4                    : SUFT         - SURFACE TEMPERATURE         
~A  DEPTH     PHID     PHIN       GR     RESD
# ...
  227.201    0.280    0.509   90.874    6.077
  227.501    0.270    0.466   92.049    6.308
  227.801    0.282    0.472   93.841    6.308
  228.101    0.290    0.459   96.853    5.964
  228.401    0.285    0.471  101.078    5.745
  228.701    0.261    0.500   98.014    5.534
  229.001    0.256    0.487   93.734    5.233
  229.301    0.257    0.494   97.341    5.041
  229.601    0.266    0.524   99.140    4.947
  229.901    0.274    0.503   92.425    4.947
  230.201    0.281    0.504   87.549    4.855
  230.501    0.279    0.490   86.295    4.765
  230.801    0.265    0.501   90.522    4.505
  231.101    0.275    0.498   94.141    4.340
  231.401    0.292    0.505   92.890    4.340
  231.701    0.297    0.513   95.890    4.505
  232.001    0.275    0.473   94.650    4.505
  232.301    0.274    0.449   92.810    4.505
  232.601    0.264    0.436   95.817    4.421
  232.901    0.267    0.437   95.783    4.339
  233.201    0.279    0.481   87.857    4.180
  233.501    0.276    0.509   86.620    4.103
  233.801    0.258    0.526   89.018    4.180
  234.101    0.251    0.544   92.629    4.421
  234.401    0.260    0.499  102.317    4.504
  234.701    0.273    0.504   99.854    4.420
  235.001    0.285    0.520   99.221    4.339
  235.301    0.299    0.521  102.229    3.951
  235.601    0.305    0.519  111.308    3.878
  235.901    0.289    0.537  107.013    3.806
  236.201    0.267    0.543  104.564    3.736
  236.501    0.271    0.537  103.332    3.599
  236.801    0.283    0.546  105.119    3.532
  237.101    0.276    0.551  106.302    3.532
  237.401    0.265    0.495  108.102    3.532
  237.701    0.264    0.511  102.596    3.598
  238.001    0.275    0.520  100.147    3.666
  238.301    0.281    0.520  101.934    3.735
  238.601    0.279    0.502  103.734    3.666
  238.901    0.258    0.510  104.306    3.666
  239.201    0.258    0.542  103.071    3.598
  239.501    0.282    0.545  103.039    3.531
  239.801    0.270    0.522  104.831    3.531
  240.101    0.273    0.514  102.974    3.597
  240.401    0.278    0.522   98.093    3.734
  240.701    0.272    0.549   90.775    3.876
  241.001    0.271    0.536   90.143    3.949
  241.301    0.271    0.515   99.828    3.949
  241.601    0.273    0.526  102.232    3.876
  241.901    0.279    0.554   98.553    3.734
  242.201    0.281    0.542   99.743    3.665
  242.501    0.279    0.539  100.929    3.664
  242.801    0.277    0.559   97.856    3.664
  243.101    0.271    0.546   95.397    3.664
  243.401    0.263    0.537   97.805    3.664
  243.701    0.258    0.552  105.064    3.596
  244.001    0.257    0.553  101.995    3.530
  244.301    0.271    0.520   97.108    3.464
  244.601    0.291    0.540   94.656    3.400
  244.901    0.279    0.569   95.232    3.464
  245.201    0.275    0.516   97.026    3.464
  245.501    0.287    0.533   97.603    3.464
  245.801    0.292    0.570   98.789    3.529
  246.101    0.268    0.583   93.898    3.663
  246.401    0.270    0.506   91.442    3.732
  246.701    0.280    0.512   95.667    3.803
  247.001    0.279    0.545  100.485    3.595
  247.301    0.290    0.583  100.465    3.529
  247.601    0.316    0.597  100.437    3.336
  247.901    0.296    0.577   96.762    3.214
  248.201    0.238    0.600   80.945    3.096
  248.501    0.197    0.604   65.742    3.463
  248.801    0.216    0.295   51.144    3.947
  249.101    0.240    0.375   91.792    4.333
  249.401    0.292    0.577   91.754    4.253
  249.701    0.297    0.608   91.121    3.946
  250.001    0.287    0.556   95.341    3.528
  250.301    0.281    0.531   97.131    3.335
  250.601    0.266    0.496   95.285    3.462
  250.901    0.253    0.499   93.431    3.662
  251.201    0.241    0.490   94.015    4.020
  251.501    0.233    0.495   98.841    4.096
  251.801    0.235    0.505  100.637    3.801
  252.101    0.245    0.505   96.953    3.801
  252.401    0.251    0.487   96.329    3.945
  252.701    0.251    0.476   95.077    4.251
  253.001    0.251    0.489   93.841    4.331
  253.301    0.259    0.500   96.239    4.172
  253.601    0.265    0.515  104.700    3.872
  253.901    0.261    0.547  106.504    3.661
  254.201    0.254    0.489  104.650    3.526
  254.501    0.249    0.483   98.551    3.729
  254.801    0.260    0.501   96.701    4.094
  255.101    0.254    0.524   99.102    4.330
  255.401    0.253    0.508   97.246    4.330
  255.701    0.260    0.524   99.651    4.094
  256.001    0.245    0.528   98.398    4.018
  256.301    0.247    0.478   94.727    4.330
  256.601    0.260    0.481   92.279    4.666
  256.901    0.265    0.507   89.205    4.935
  257.201    0.268    0.498   89.178    4.934
  257.501    0.258    0.481   94.617    4.665
  257.801    0.255    0.538  101.271    4.018
  258.101    0.246    0.567   84.242    3.870
  258.401    0.279    0.465   63.571    4.249
  258.701    0.334    0.486   60.506    6.174
  259.001    0.353    0.499   68.366   11.017
  259.301    0.323    0.447   73.793   15.711
  259.601    0.311    0.458   75.596   15.419
  259.901    0.287    0.447   77.989   14.309
  260.201    0.255    0.433   80.999   11.223
  260.501    0.261    0.421   82.796    9.486
  260.801    0.301    0.424   76.087    9.138
  261.101    0.337    0.433   73.015   11.434
  261.401    0.340    0.422   74.800   12.321
  261.701    0.333    0.445   76.002   15.416
  262.001    0.337    0.444   81.433   17.245
  262.301    0.340    0.428   88.082   15.706
  262.601    0.316    0.427   93.517   14.040
  262.901    0.267    0.438   85.591   13.029
  263.201    0.272    0.426   78.890   11.647
  263.501    0.308    0.430   66.719   12.787
  263.801    0.336    0.429   60.614   13.524
  264.100    0.300    0.370   70.303   15.704
  264.400    0.286    0.388   69.053   16.608
  264.700    0.355    0.436   59.923   16.608
  265.000    0.528    0.559   53.217   17.565
  265.300    0.445    0.605   88.404   19.648
  265.600    0.345    0.431   94.443   21.571
  265.900    0.336    0.431   91.982   23.682
  266.200    0.333    0.438   88.313   25.047
  266.500    0.336    0.412   84.037   21.976
  266.800    0.343    0.416  105.256   15.124
  267.100    0.311    0.441  100.372   11.008
  267.400    0.246    0.479   74.843    9.659
  267.700    0.297    0.488   53.562    9.132
  268.000    0.312    0.404   48.679   13.023
  268.300    0.299    0.341   56.542   16.602
  268.600    0.276    0.337   71.076   17.559
  268.900    0.246    0.358   81.979   15.406
  269.200    0.229    0.388   86.201   12.312
  269.500    0.249    0.431   71.596   10.602
  269.800    0.274    0.419   67.932   11.640
  270.100    0.296    0.391   72.757   12.779
  270.400    0.235    0.384   87.910   13.771
  270.700    0.217    0.396   92.131   12.542
  271.000    0.292    0.448   82.990   11.639
  271.300    0.312    0.434   74.462   12.081
  271.600    0.327    0.422   70.186   14.293
  271.900    0.327    0.407   74.406   17.229
  272.200    0.311    0.405   78.625   19.272
  272.500    0.321    0.411   78.600   17.884
  272.800    0.323    0.421   73.708   16.908
  273.100    0.316    0.427   68.217   16.595
  273.400    0.329    0.414   63.941   16.595
  273.700    0.345    0.423   66.938   17.882
  274.000    0.322    0.423   69.337   19.268
  274.300    0.310    0.402   68.105   19.268
  274.600    0.307    0.392   65.646   18.911
  274.900    0.291    0.390   72.287   18.217
  275.200    0.265    0.389   75.905   16.592
  275.500    0.270    0.425   75.878   15.397
  275.800    0.300    0.449   70.386   14.288
  276.100    0.334    0.407   74.000   17.222
  276.400    0.331    0.412   77.608   21.150
  276.700    0.323    0.415   75.151   23.659
  277.000    0.326    0.396   79.369   24.559
  277.300    0.334    0.413   82.987   22.789
  277.600    0.335    0.431   84.178   21.953
  277.900    0.334    0.448   75.647   20.756
  278.200    0.344    0.456   65.903   20.371
  278.500    0.346    0.432   65.264   21.545
  278.800    0.340    0.427   70.703   21.544
  279.100    0.331    0.430   80.378   19.623
