~VERSION INFORMATION
 VERS.                 2.0:   CWLS LOG ASCII STANDARD -VERSION 2.0
 WRAP.                  NO:   ONE LINE PER DEPTH STEP
~WELL INFORMATION BLOCK
#MNEM.UNIT           DATA                    DESCRIPTION OF MNEMONIC
#---------    -------------------            -------------------------------
# Generated from Intellog Unique Number	CS_73_76/WELL/3255
WELL.         HOME OIL COMPANY LIMITED       : Well_name    - WELL
LOC .         00/11-01-076-06W4/0            : Location     - LOCATION
UWI .         00/11-01-076-06W4/0            : Uwi          - UNIQUE WELL ID
ENTR.         SP                             : Entered      - ENTERED BY
SRVC.         SCHLUMBERGER                   : Scn          - SERVICE COMPANY
STRT.M        182                            : top_depth    - START DEPTH
STOP.M        415                            : bot_depth    - STOP DEPTH
STEP.M        0.25                           : increment    - STEP LENGTH
 NULL. -999.2500:NULL Value
~CURVE INFORMATION BLOCK
#MNEM UNIT       ERCB CURVE CODE    CURVE DESCRIPTION
#-----------   ------------------   ----------------------------------
DEPT.M        00 001 00 00         : DEPTH        - DEPTH
ILD .OHMM     00 120 00 00         : RESD         - DEEP RESISTIVITY (DIL)
DPHI.V/V      00 890 00 00         : PHID         - DENSITY POROSITY (LIMESTONE)
NPHI.V/V      00 330 00 00         : PHIN         - NEUTRON POROSITY (LIMESTONE)
GR  .API      00 310 00 00         : GR           - GAMMA RAY
~PARAMETER INFORMATION
#MNEM.UNIT           DATA             DESCRIPTION OF MNEMONIC
#---------         -----------     ------------------------------
GL  .M        595.55               : gl           - GROUND LEVEL ELEVATION
EREF.M        599.05               : kb           - ELEVATION OF DEPTH REFERENCE
DATM.M        595.55               : datum        - DATUM ELEVATION
TDD .M        423                  : tdd          - TOTAL DEPTH DRILLER
RUN .         ONE                  : Run          - RUN NUMBER
ENG .         BILL                 : Engineer     - RECORDING ENGINEER
WIT .         JIM                  : Witness      - WITNESSED BY
MUD .         GEL                  : Mud_type     - MUD TYPE
MATR.         LIMESTONE            : Logunit      - NEUTRON MATRIX
TMAX.C        20.5                 : BHT          - MAXIMUM RECORDED TEMPERATURE
BHTD.M        423                  : BHTDEP       - MAXIMUM RECORDED TEMPERATURE
MATR.         1                    : LOGUNIT      - NEUTRON MATRIX
RMT .C        25                   : MDTP         - TEMPERATURE OF MUD
NEUT.         1                    : NEUTRON      - NEUTRON TYPE
RESI.         0                    : RESIST       - RESISTIVITY TYPE
RMC .OHMM     0.25                 : RMC          - RESISTIVITY OF MUD CAKE
RMF .OHMM     0.25                 : RMF          - RESISTIVITY OF MUD FILTRATE
SUFT.C        15                   : SUFT         - SURFACE TEMPERATURE
~A  DEPTH     RESD     PHID     PHIN       GR
# ...
  269.000    6.425    0.299    0.505   76.622
  269.250    7.456    0.318    0.480   65.701
  269.500   10.038    0.318    0.457   59.029
  269.750   11.649    0.318    0.438   51.143
  270.000   12.092    0.325    0.440   52.367
  270.250   12.553    0.333    0.456   53.591
  270.500   13.278    0.317    0.467   52.993
  270.750   13.530    0.319    0.475   53.001
  271.000   13.533    0.326    0.479   53.012
  271.250   14.050    0.332    0.451   51.804
  271.500   14.316    0.329    0.446   54.245
  271.750   14.588    0.308    0.451   55.467
  272.000   15.145    0.311    0.452   53.656
  272.250   15.721    0.282    0.435   54.271
  272.500   17.256    0.221    0.429   54.281
  272.750   18.592    0.153    0.426   52.466
  273.000   20.030    0.000    0.157   47.617
  273.250   19.667    0.000    0.159   43.982
  273.500   17.275    0.039    0.200   44.600
  273.750   14.895    0.118    0.230   47.644
  274.000   13.328    0.224    0.277   51.295
  274.250   12.378    0.266    0.372   54.343
  274.500   11.930    0.330    0.440   55.565
  274.750   11.933    0.341    0.439   57.396
  275.000   11.936    0.341    0.460   57.405
  275.250   11.720    0.332    0.466   56.201
  275.500   11.088    0.343    0.466   54.994
  275.750   10.107    0.341    0.455   56.219
  276.000    8.715    0.338    0.449   58.051
  276.250    7.944    0.326    0.450   59.881
  276.500    7.377    0.307    0.455   62.320
  276.750    6.725    0.255    0.432   64.150
  277.000    6.245    0.251    0.448   66.588
  277.250    5.693    0.259    0.461   70.243
  277.500    5.287    0.256    0.471   72.678
  277.750    5.096    0.266    0.480   76.938
  278.000    5.097    0.271    0.490   75.126
  278.250    5.194    0.279    0.506   73.920
  278.500    5.393    0.293    0.487   74.537
  278.750    5.394    0.267    0.488   75.153
  279.000    5.811    0.255    0.506   75.161
  279.250    6.146    0.268    0.507   72.133
  279.500    6.746    0.272    0.476   70.323
  279.750    7.405    0.273    0.474   69.723
  280.000    7.545    0.271    0.476   71.555
  280.250    7.688    0.264    0.479   72.171
  280.500    7.690    0.252    0.483   70.965
  280.750    7.984    0.252    0.491   70.365
  281.000    8.288    0.266    0.481   70.375
  281.250    8.446    0.283    0.471   70.992
  281.500    8.607    0.275    0.473   70.393
  281.750    8.608    0.282    0.467   70.403
  282.000    8.611    0.266    0.457   70.412
  282.250    8.300    0.252    0.446   71.636
  282.500    8.000    0.252    0.448   71.644
  282.750    7.710    0.249    0.456   72.867
  283.000    7.431    0.245    0.446   74.698
  283.250    7.433    0.242    0.452   74.708
  283.500    7.435    0.241    0.453   74.717
  283.750    7.437    0.251    0.456   75.332
  284.000    7.440    0.243    0.466   76.557
  284.250    7.441    0.250    0.474   78.388
  284.500    7.443    0.253    0.473   78.397
  284.750    7.308    0.259    0.467   78.405
  285.000    7.311    0.250    0.464   79.023
  285.250    7.177    0.239    0.467   78.423
  285.500    7.048    0.242    0.463   79.042
  285.750    7.050    0.251    0.467   79.052
  286.000    7.051    0.263    0.477   79.057
  286.250    7.053    0.267    0.489   81.496
  286.500    6.926    0.249    0.482   83.934
  286.750    6.927    0.233    0.474   86.979
  287.000    6.433    0.228    0.479   84.559
  287.250    6.086    0.226    0.482   86.999
  287.500    5.652    0.239    0.484   89.437
  287.750    5.347    0.232    0.482   90.662
  288.000    5.251    0.223    0.485   90.063
  288.250    5.155    0.217    0.478   88.856
  288.500    4.969    0.222    0.487   88.867
  288.750    4.701    0.212    0.476   89.484
  289.000    4.285    0.227    0.491   90.099
  289.250    3.979    0.211    0.502   90.106
  289.500    3.495    0.217    0.510   90.725
  289.750    3.246    0.244    0.504   91.341
  290.000    3.015    0.255    0.511   90.740
  290.250    2.906    0.267    0.564   89.537
  290.500    2.906    0.266    0.557   89.546
  290.750    3.017    0.274    0.546   91.376
  291.000    3.075    0.267    0.555   93.206
  291.250    3.133    0.250    0.546   94.431
  291.500    3.134    0.243    0.542   94.438
  291.750    3.135    0.247    0.556   91.412
  292.000    3.194    0.248    0.535   90.206
  292.250    3.378    0.257    0.523   87.786
  292.500    3.920    0.283    0.543   84.153
  292.750    4.722    0.261    0.552   80.517
  293.000    5.087    0.252    0.538   77.490
  293.250    5.903    0.253    0.522   75.677
  293.500    6.601    0.265    0.479   75.687
  293.750    6.981    0.269    0.492   75.694
  294.000    7.521    0.196    0.467   72.667
  294.250    7.955    0.120    0.451   69.032
  294.500    8.258    0.128    0.344   70.862
  294.750    8.573    0.180    0.410   78.767
  295.000    8.900    0.284    0.442   97.601
  295.250    9.239    0.281    0.445  140.730
  295.500    9.590    0.269    0.439  157.742
  295.750    9.956    0.263    0.457  140.140
  296.000   10.336    0.263    0.479  124.359
  296.250   10.731    0.248    0.487  103.721
  296.500   10.934    0.258    0.482   90.368
  296.750   11.142    0.276    0.469   68.514
  297.000   11.355    0.277    0.453   57.591
  297.250   11.357    0.293    0.450   53.350
  297.500   11.361    0.303    0.454   52.751
  297.750   11.364    0.311    0.451   54.582
  298.000   11.157    0.321    0.445   53.984
  298.250   10.754    0.320    0.445   52.172
  298.500   10.558    0.308    0.449   47.323
  298.750   10.368    0.305    0.450   49.152
  299.000   10.372    0.316    0.449   50.376
  299.250   10.184    0.311    0.449   49.778
  299.500   10.186    0.310    0.459   47.360
  299.750   10.188    0.310    0.448   45.546
  300.000   10.191    0.301    0.438   43.733
  300.250   10.007    0.309    0.411   43.134
  300.500   10.009    0.315    0.414   44.357
  300.750    9.829    0.309    0.421   46.188
  301.000    9.831    0.308    0.424   47.412
  301.250    9.833    0.316    0.433   49.243
  301.500    9.654    0.330    0.426   49.862
  301.750    9.134    0.332    0.421   51.084
  302.000    8.968    0.320    0.424   50.484
  302.250    8.485    0.331    0.425   49.279
  302.500    8.331    0.341    0.429   48.074
  302.750    8.030    0.337    0.435   48.694
  303.000    7.884    0.330    0.426   49.308
  303.250    7.742    0.336    0.417   49.928
  303.500    7.601    0.333    0.424   49.932
  303.750    7.463    0.342    0.437   49.940
  304.000    7.465    0.342    0.446   49.343
  304.250    7.330    0.350    0.434   48.745
  304.500    7.197    0.349    0.443   47.541
  304.750    7.198    0.340    0.448   46.942
  305.000    7.068    0.340    0.453   47.559
  305.250    7.070    0.337    0.452   48.781
  305.500    7.073    0.332    0.436   49.396
  305.750    7.074    0.330    0.431   48.799
  306.000    7.077    0.339    0.439   48.201
  306.250    7.078    0.335    0.441   46.995
  306.500    7.081    0.347    0.431   47.004
  306.750    7.082    0.348    0.433   48.834
  307.000    7.084    0.348    0.436   49.450
  307.250    6.956    0.346    0.440   49.460
  307.500    6.957    0.347    0.442   49.472
  307.750    6.960    0.342    0.445   49.478
  308.000    6.961    0.339    0.440   49.488
  308.250    6.964    0.340    0.442   50.105
  308.500    6.965    0.338    0.452   50.721
  308.750    6.967    0.346    0.461   51.337
  309.000    6.969    0.357    0.452   51.343
  309.250    6.971    0.353    0.449   52.569
  309.500    6.974    0.344    0.461   53.791
  309.750    6.975    0.346    0.472   53.803
  310.000    6.977    0.355    0.467   53.203
  310.250    6.979    0.350    0.453   51.389
  310.500    6.981    0.356    0.458   51.399
  310.750    6.854    0.353    0.460   52.621
  311.000    6.606    0.356    0.457   54.453
  311.250    6.486    0.351    0.455   56.891
  311.500    6.136    0.345    0.455   58.722
  311.750    5.699    0.355    0.466   61.162
  312.000    5.391    0.355    0.474   63.599
  312.250    5.007    0.343    0.482   67.255
