~VERSION INFORMATION
 VERS.                 2.0:   CWLS LOG ASCII STANDARD -VERSION 2.0
 WRAP.                  NO:   ONE LINE PER DEPTH STEP
~WELL INFORMATION BLOCK
#MNEM.UNIT           DATA                    DESCRIPTION OF MNEMONIC
#---------    -------------------            -------------------------------
# Generated from Intellog Unique Number	CW_73_75/WELL/1045
WELL.         L56 ET AL MARTIN 11-28         : Well_name    - WELL
LOC .         00/11-28-074-23W4/0            : Location     - LOCATION
UWI .         00/11-28-074-23W4/0            : Uwi          - UNIQUE WELL ID
ENTR.         JAYE                           : Entered      - ENTERED BY
SRVC.         SCHLUMBERGER                   : Scn          - SERVICE COMPANY
DATE.         1 JAN 76                       : Date         - LOG DATE
STRT.M        396.24                         : top_depth    - START DEPTH
STOP.M        624.74                         : bot_depth    - STOP DEPTH
STEP.M        0.25                           : increment    - STEP LENGTH
 NULL. -999.2500:NULL Value
~CURVE INFORMATION BLOCK
#MNEM UNIT       ERCB CURVE CODE    CURVE DESCRIPTION
#-----------   ------------------   ----------------------------------
DEPT.M        00 001 00 00         : DEPTH        - DEPTH
ILD .OHMM     00 120 00 00         : RESD         - DEEP RESISTIVITY (DIL)
DPHI.V/V      00 890 00 00         : PHID         - DENSITY POROSITY (SANDSTONE)
NPHI.V/V      00 330 00 00         : PHIN         - NEUTRON POROSITY (SANDSTONE)
GR  .API      00 310 00 00         : GR           - GAMMA RAY
CALI.MM       00 280 01 00         : CAL          - CALIPER
~PARAMETER INFORMATION
#MNEM.UNIT           DATA             DESCRIPTION OF MNEMONIC
#---------         -----------     ------------------------------
GL  .M        691.896              : gl           - GROUND LEVEL ELEVATION
EREF.M        695.249              : kb           - ELEVATION OF DEPTH REFERENCE
DATM.M        691.896              : datum        - DATUM ELEVATION
TDD .M        636.422              : tdd          - TOTAL DEPTH DRILLER
RUN .         ONE                  : Run          - RUN NUMBER
MATR.         SANDSTONE            : Logunit      - NEUTRON MATRIX
TMAX.C        22.2222              : BHT          - MAXIMUM RECORDED TEMPERATURE
BHTD.M        637.032              : BHTDEP       - MAXIMUM RECORDED TEMPERATURE
RMT .C        26.6667              : MDTP         - TEMPERATURE OF MUD
MUDD.KG/M     0                    : MWT          - MUD DENSITY
NEUT.         1                    : NEUTRON      - NEUTRON TYPE
RESI.         0                    : RESIST       - RESISTIVITY TYPE
RM  .OHMM     1.11                 : RM           - RESISTIVITY OF MUD
RMC .OHMM     0                    : RMC          - RESISTIVITY OF MUD CAKE
RMF .OHMM     1.02                 : RMF          - RESISTIVITY OF MUD FILTRATE
SUFT.C        -17.7778             : SUFT         - SURFACE TEMPERATURE
~A  DEPTH     RESD     PHID     PHIN       GR      CAL
# ...
  432.740    6.180    0.216    0.393   68.878  159.447
  432.990    6.171    0.222    0.377   60.195  156.520
  433.240    6.128    0.232    0.357   59.686  153.901
  433.490    6.085    0.211    0.335   69.668  152.214
  433.740    5.977    0.184    0.357   77.700  153.521
  433.990    5.860    0.188    0.372   81.094  156.069
  434.240    5.735    0.187    0.374   84.125  156.549
  434.490    5.593    0.185    0.370   90.388  156.618
  434.740    5.474    0.164    0.364   93.600  156.996
  434.990    5.445    0.165    0.373   91.992  159.645
  435.240    5.457    0.157    0.380   91.849  158.058
  435.490    5.409    0.170    0.403   90.670  158.749
  435.740    5.303    0.179    0.407   79.913  159.333
  435.990    5.191    0.193    0.404   68.851  153.099
  436.240    5.062    0.218    0.407   59.191  151.512
  436.490    4.927    0.246    0.399   54.352  151.272
  436.740    4.717    0.285    0.408   43.778  151.547
  436.990    4.419    0.295    0.394   43.024  151.926
  437.240    4.178    0.284    0.390   47.884  152.406
  437.490    4.060    0.277    0.385   52.620  152.783
  437.740    4.024    0.262    0.381   56.078  153.164
  437.990    4.018    0.258    0.395   56.789  153.645
  438.240    4.019    0.260    0.408   55.060  153.815
  438.490    4.006    0.280    0.404   56.869  153.158
  438.740    3.992    0.272    0.390   57.093  153.124
  438.990    4.052    0.279    0.412   57.255  152.885
  439.240    4.188    0.319    0.432   65.286  153.464
  439.490    4.282    0.275    0.444   78.075  153.536
  439.740    4.299    0.198    0.434   96.050  153.396
  439.990    4.154    0.162    0.510  109.633  153.363
  440.240    3.712    0.130    0.560  114.004  153.946
  440.490    3.341    0.169    0.542  112.214  155.974
  440.740    2.985    0.113    0.527  114.572  157.698
  440.990    2.761    0.170    0.541  116.502  160.143
  441.240    2.678    0.212    0.549  117.335  162.173
  441.490    2.693    0.216    0.550  118.901  161.415
  441.740    2.789    0.231    0.531  120.649  160.757
  441.990    2.914    0.198    0.529  120.384  162.583
  442.240    3.119    0.198    0.511  113.898  169.366
  442.490    3.386    0.254    0.453  109.973  172.325
  442.740    3.812    0.227    0.429  106.963  168.053
  442.990    4.340    0.220    0.455  103.892  167.090
  443.240    4.535    0.265    0.481  104.602  178.212
  443.490    4.463    0.242    0.475  105.741  187.058
  443.740    4.281    0.208    0.476  105.597  171.221
  443.990    4.197    0.254    0.497  103.321  182.960
  444.240    4.199    0.276    0.519   98.786  194.596
  444.490    4.254    0.289    0.473   94.068  195.183
  444.740    4.357    0.215    0.405   95.511  187.193
  444.990    4.520    0.187    0.421   98.053  159.578
  445.240    4.680    0.209    0.455   94.310  157.579
  445.490    4.794    0.195    0.481   87.274  159.198
  445.740    4.910    0.272    0.479   79.507  163.294
  445.990    4.993    0.231    0.446   75.277  169.044
  446.240    5.068    0.220    0.449   78.672  158.988
  446.490    5.088    0.220    0.446   82.616  156.060
  446.740    5.126    0.204    0.432   81.437  157.984
  446.990    5.128    0.223    0.430   80.499  160.534
  447.240    5.130    0.252    0.444   78.832  161.944
  447.490    5.122    0.264    0.460   75.884  160.258
  447.740    5.077    0.271    0.453   68.543  157.123
  447.990    5.005    0.258    0.434   70.474  155.639
  448.240    4.784    0.247    0.410   80.823  156.533
  448.490    4.474    0.206    0.442   89.464  157.636
  448.740    4.168    0.210    0.466   88.772  158.428
  448.990    3.814    0.220    0.441   78.626  159.324
  449.240    3.534    0.240    0.449   82.509  159.289
  449.490    3.390    0.245    0.491   84.013  152.538
  449.740    3.403    0.261    0.458   83.931  150.433
  449.990    3.467    0.249    0.449   85.252  151.538
  450.240    3.590    0.255    0.448   77.180  156.461
  450.490    3.898    0.300    0.445   64.105  157.457
  450.740    4.156    0.299    0.440   56.459  156.908
  450.990    4.149    0.304    0.430   52.716  156.458
  451.240    4.105    0.297    0.429   53.610  158.175
  451.490    4.003    0.294    0.428   55.785  158.659
  451.740    3.904    0.274    0.427   59.547  157.490
  451.990    3.841    0.268    0.426   65.016  152.597
  452.240    3.815    0.252    0.428   71.400  151.635
  452.490    3.809    0.228    0.440   76.381  155.215
  452.740    3.789    0.204    0.470   79.716  159.001
  452.990    3.777    0.213    0.501   80.122  164.130
  453.240    3.799    0.228    0.484   76.930  171.016
  453.490    3.834    0.239    0.445   73.798  171.497
  453.740    3.906    0.215    0.444   72.313  157.517
  453.990    4.001    0.218    0.445   72.109  151.800
  454.240    4.098    0.201    0.441   72.576  154.966
  454.490    4.267    0.208    0.438   73.591  160.612
  454.740    4.532    0.214    0.446   74.791  163.572
  454.990    4.668    0.216    0.458   71.658  163.022
  455.240    4.720    0.240    0.464   66.270  160.094
  455.490    4.748    0.223    0.452   66.128  155.101
  455.740    4.715    0.182    0.459   70.498  155.885
  455.990    4.631    0.179    0.487   73.284  159.884
  456.240    4.508    0.186    0.495   70.151  174.103
  456.490    4.404    0.210    0.488   72.693  164.876
  456.740    4.333    0.257    0.473   74.930  173.103
  456.990    4.288    0.239    0.453   75.641  162.533
  457.240    4.273    0.262    0.466   72.448  152.684
  457.490    4.244    0.291    0.468   74.318  152.335
  457.740    4.222    0.300    0.457   80.031  153.129
  457.990    4.208    0.286    0.469   78.303  156.294
  458.240    4.186    0.268    0.469   77.855  157.088
  458.490    4.180    0.288    0.458   76.736  155.090
  458.740    4.173    0.297    0.453   75.129  151.850
  458.990    4.152    0.241    0.444   80.904  150.988
  459.240    4.146    0.196    0.460   88.141  153.126
  459.490    4.139    0.209    0.495   96.600  164.762
  459.740    4.156    0.197    0.511   96.760  172.371
  459.990    4.202    0.226    0.501   91.616  175.538
  460.240    4.281    0.228    0.489   88.973  169.408
  460.490    4.417    0.203    0.456   90.049  161.316
  460.740    4.666    0.193    0.437   91.066  158.695
  460.990    4.762    0.177    0.455   92.082  160.521
  461.240    4.790    0.141    0.457   91.086  163.893
  461.490    4.774    0.154    0.496   89.235  165.925
  461.740    4.681    0.170    0.499   87.079  166.404
  461.990    4.614    0.216    0.483   81.445  166.578
  462.240    4.541    0.283    0.443   73.922  164.168
  462.490    4.501    0.290    0.415   71.461  157.935
  462.740    4.527    0.282    0.434   71.561  155.007
  462.990    4.637    0.302    0.417   65.014  154.556
  463.240    4.836    0.286    0.415   59.380  155.660
  463.490    4.999    0.277    0.430   60.520  154.073
  463.740    5.092    0.281    0.433   61.108  153.935
  463.990    5.150    0.269    0.429   62.064  155.037
  464.240    5.199    0.254    0.435   72.047  157.169
  464.490    5.257    0.266    0.448   76.236  157.549
  464.740    5.307    0.269    0.470   78.045  151.625
  464.990    5.328    0.285    0.491   77.718  148.699
  465.240    5.272    0.284    0.547   76.539  148.247
  465.490    4.762    0.340    0.603   74.746  160.713
  465.740    4.029    0.333    0.580   72.837  174.520
  465.990    3.101    0.313    0.483   64.642  169.525
  466.240    2.996    0.298    0.487   62.425  155.752
  466.490    3.137    0.298    0.494   64.966  153.645
  466.740    3.393    0.304    0.489   68.423  151.137
  466.990    3.842    0.291    0.475   71.208  146.553
  467.240    4.405    0.282    0.471   79.422  145.175
  467.490    4.611    0.272    0.471   82.024  146.795
  467.740    4.530    0.263    0.473   83.651  150.273
  467.990    4.353    0.252    0.473   84.972  155.196
  468.240    4.191    0.241    0.473   86.355  154.849
  468.490    4.057    0.239    0.490   84.503  152.333
  468.740    4.007    0.227    0.457   86.374  151.887
  468.990    3.986    0.223    0.447   85.682  159.185
