~VERSION INFORMATION
 VERS.                 2.0:   CWLS LOG ASCII STANDARD -VERSION 2.0
 WRAP.                  NO:   ONE LINE PER DEPTH STEP
~WELL INFORMATION BLOCK
#MNEM.UNIT           DATA                    DESCRIPTION OF MNEMONIC
#---------    -------------------            -------------------------------
# Generated from Intellog Unique Number	CS_77_79/WELL/945
WELL.         DOME PETROLEUM LIMITED         : Well_name    - WELL
LOC .         00/10-11-077-16W4/0            : Location     - LOCATION
UWI .         00/10-11-077-16W4/0            : Uwi          - UNIQUE WELL ID
ENTR.         SP                             : Entered      - ENTERED BY
SRVC.         SCHLUMBERGER                   : Scn          - SERVICE COMPANY
STRT.M        310                            : top_depth    - START DEPTH
STOP.M        545                            : bot_depth    - STOP DEPTH
STEP.M        0.25                           : increment    - STEP LENGTH
 NULL. -999.2500:NULL Value
~CURVE INFORMATION BLOCK
#MNEM UNIT       ERCB CURVE CODE    CURVE DESCRIPTION
#-----------   ------------------   ----------------------------------
DEPT.M        00 001 00 00         : DEPTH        - DEPTH
DPHI.V/V      00 890 00 00         : PHID         - DENSITY POROSITY (LIMESTONE)
NPHI.V/V      00 330 00 00         : PHIN         - NEUTRON POROSITY (LIMESTONE)
GR  .API      00 310 00 00         : GR           - GAMMA RAY
ILD .OHMM     00 120 00 00         : RESD         - DEEP RESISTIVITY (DIL)
~PARAMETER INFORMATION
#MNEM.UNIT           DATA             DESCRIPTION OF MNEMONIC
#---------         -----------     ------------------------------
GL  .M        703                  : gl           - GROUND LEVEL ELEVATION
EREF.M        706.8                : kb           - ELEVATION OF DEPTH REFERENCE
DATM.M        703                  : datum        - DATUM ELEVATION
TDD .M        552                  : tdd          - TOTAL DEPTH DRILLER
RUN .         ONE                  : Run          - RUN NUMBER
ENG .         BILL                 : Engineer     - RECORDING ENGINEER
WIT .         JIM                  : Witness      - WITNESSED BY
MUD .         GEL                  : Mud_type     - MUD TYPE
MATR.         LIMESTONE            : Logunit      - NEUTRON MATRIX
TMAX.C        26                   : BHT          - MAXIMUM RECORDED TEMPERATURE
BHTD.M        552                  : BHTDEP       - MAXIMUM RECORDED TEMPERATURE
MATR.         1                    : LOGUNIT      - NEUTRON MATRIX
RMT .C        25                   : MDTP         - TEMPERATURE OF MUD
NEUT.         1                    : NEUTRON      - NEUTRON TYPE
RESI.         0                    : RESIST       - RESISTIVITY TYPE
RMC .OHMM     0.25                 : RMC          - RESISTIVITY OF MUD CAKE
RMF .OHMM     0.25                 : RMF          - RESISTIVITY OF MUD FILTRATE
SUFT.C        15                   : SUFT         - SURFACE TEMPERATURE
~A  DEPTH     PHID     PHIN       GR     RESD
# ...
  397.000    0.338    0.389   42.855    9.713
  397.250    0.338    0.394   42.864    9.717
  397.500    0.356    0.395   42.268    9.719
  397.750    0.366    0.391   43.487    9.541
  398.000    0.352    0.387   42.891    9.543
  398.250    0.337    0.386   41.086    9.545
  398.500    0.349    0.391   41.092    9.548
  398.750    0.355    0.395   41.100    9.549
  399.000    0.355    0.396   41.108    9.375
  399.250    0.349    0.395   41.118    9.377
  399.500    0.347    0.395   41.727    9.379
  399.750    0.345    0.392   41.736    9.381
  400.000    0.344    0.389   42.353    9.210
  400.250    0.345    0.389   42.358    9.212
  400.500    0.334    0.392   42.366    9.214
  400.750    0.332    0.399   42.375    9.217
  401.000    0.334    0.401   42.385    9.218
  401.250    0.338    0.403   42.996    9.221
  401.500    0.330    0.404   43.010    9.223
  401.750    0.330    0.405   43.018    9.224
  402.000    0.335    0.402   43.025    9.056
  402.250    0.342    0.399   43.035    9.059
  402.500    0.354    0.396   43.042    9.060
  402.750    0.364    0.400   43.653    9.063
  403.000    0.362    0.398   43.660    9.237
  403.250    0.356    0.394   43.669    9.413
  403.500    0.343    0.393   44.282    9.594
  403.750    0.335    0.392   44.294    9.595
  404.000    0.333    0.391   44.905    9.779
  404.250    0.331    0.389   44.914    9.781
  404.500    0.332    0.391   45.526    9.783
  404.750    0.341    0.392   46.138    9.786
  405.000    0.338    0.397   46.757    9.973
  405.250    0.336    0.399   46.764    9.976
  405.500    0.341    0.399   46.769    9.978
  405.750    0.341    0.397   47.384    9.981
  406.000    0.337    0.394   47.390    9.983
  406.250    0.330    0.393   47.399    9.800
  406.500    0.329    0.392   47.409    9.621
  406.750    0.331    0.393   47.420    9.444
  407.000    0.334    0.395   47.424    9.271
  407.250    0.337    0.400   47.432    8.932
  407.500    0.344    0.403   46.836    8.290
  407.750    0.353    0.404   50.476    7.694
  408.000    0.349    0.404   53.508    6.878
  408.250    0.346    0.419   55.936    6.149
  408.500    0.341    0.435   60.179    5.925
  408.750    0.332    0.446   63.209    5.926
  409.000    0.321    0.453   68.059    5.927
  409.250    0.314    0.458   69.882    6.155
  409.500    0.301    0.459   71.704    6.392
  409.750    0.297    0.458   73.528    6.393
  410.000    0.301    0.451   74.139    6.515
  410.250    0.313    0.445   73.544    6.639
  410.500    0.319    0.439   72.343    6.767
  410.750    0.332    0.437   72.960    7.159
  411.000    0.326    0.441   74.176    7.297
  411.250    0.320    0.443   75.996    7.298
  411.500    0.310    0.442   79.028    7.164
  411.750    0.286    0.431   82.668    7.033
  412.000    0.249    0.424   80.861    7.035
  412.250    0.229    0.417   77.845    6.778
  412.500    0.225    0.407   73.620    6.654
  412.750    0.217    0.413   73.023    6.656
  413.000    0.232    0.419   72.425    6.533
  413.250    0.254    0.425   73.040    6.535
  413.500    0.230    0.429   75.470    6.536
  413.750    0.248    0.434   77.289    6.417
  414.000    0.259    0.430   79.113    6.183
  414.250    0.265    0.425   80.935    6.070
  414.500    0.281    0.420   80.342    5.958
  414.750    0.286    0.421   80.353    5.849
  415.000    0.286    0.432   81.569    5.636
  415.250    0.270    0.432   83.996    5.533
  415.500    0.264    0.430   85.816    5.330
  415.750    0.261    0.426   88.852    5.041
  416.000    0.267    0.427   90.072    4.948
  416.250    0.272    0.432   89.472    4.767
  416.500    0.267    0.435   87.668    4.769
  416.750    0.250    0.433   87.068    4.770
  417.000    0.241    0.425   85.868    4.771
  417.250    0.242    0.415   83.459    4.862
  417.500    0.259    0.410   82.860    5.049
  417.750    0.271    0.414   81.057    5.546
  418.000    0.272    0.415   79.853    5.867
  418.250    0.277    0.420   78.651    6.445
  418.500    0.282    0.425   78.059    6.568
  418.750    0.295    0.426   76.860    6.569
  419.000    0.306    0.425   74.445    6.449
  419.250    0.311    0.422   73.242    6.099
  419.500    0.318    0.419   71.434    5.555
  419.750    0.313    0.417   69.023    4.608
  420.000    0.319    0.416   66.007    3.822
  420.250    0.333    0.440   62.993    2.997
  420.500    0.333    0.449   63.606    2.679
  420.750    0.316    0.467   69.662    2.487
  421.000    0.291    0.486   81.769    2.396
  421.250    0.288    0.503   85.405    2.396
  421.500    0.288    0.520   92.672    2.353
  421.750    0.292    0.518   92.077    2.353
  422.000    0.297    0.518   92.690    2.354
  422.250    0.302    0.530   94.513    2.354
  422.500    0.306    0.538   95.730    2.399
  422.750    0.307    0.538   96.346    2.538
  423.000    0.303    0.538   93.937    2.587
  423.250    0.301    0.534   91.526    2.686
  423.500    0.294    0.523   89.719    2.896
  423.750    0.286    0.512   88.514    3.007
  424.000    0.275    0.503   84.289    3.242
  424.250    0.270    0.492   82.483    3.561
  424.500    0.275    0.480   83.705    3.767
  424.750    0.281    0.473   82.502    4.138
  425.000    0.276    0.461   81.301    4.461
  425.250    0.276    0.449   79.492    4.900
  425.500    0.291    0.433   78.291    5.088
  425.750    0.291    0.422   78.299    5.801
  426.000    0.301    0.415   78.912    6.254
  426.250    0.310    0.415   79.530    7.404
  426.500    0.305    0.418   78.931    7.833
  426.750    0.293    0.410   76.519    8.134
  427.000    0.287    0.397   72.292    8.289
  427.250    0.277    0.390   66.859    8.138
  427.500    0.275    0.378   64.446    7.840
  427.750    0.286    0.374   61.430    7.010
  428.000    0.317    0.378   59.625    6.753
  428.250    0.330    0.389   59.636    6.629
  428.500    0.345    0.396   59.037    6.757
  428.750    0.350    0.403   58.439    6.758
  429.000    0.357    0.406   58.450    6.760
  429.250    0.352    0.403   59.063    6.761
  429.500    0.352    0.400   59.675    6.638
  429.750    0.357    0.400   59.684    6.640
  430.000    0.366    0.413   59.089    6.767
  430.250    0.369    0.423   58.489    7.026
  430.500    0.357    0.419   56.690    7.160
  430.750    0.354    0.417   56.093    7.162
  431.000    0.350    0.411   56.102    7.299
  431.250    0.346    0.411   56.109    7.439
  431.500    0.338    0.408   56.115    7.725
  431.750    0.334    0.404   56.729    7.583
  432.000    0.330    0.406   56.736    7.585
  432.250    0.328    0.409   58.561    7.446
  432.500    0.329    0.414   59.777    7.732
  432.750    0.352    0.424   60.994    7.881
  433.000    0.349    0.432   61.003    8.031
  433.250    0.347    0.435   59.803    8.185
  433.500    0.349    0.438   59.205    8.660
  433.750    0.356    0.438   58.610    8.825
  434.000    0.367    0.435   58.018    8.827
  434.250    0.380    0.431   57.422    8.831
  434.500    0.385    0.425   58.034    8.669
  434.750    0.378    0.418   58.041    8.352
  435.000    0.373    0.414   59.259    8.354
  435.250    0.365    0.404   60.475    7.898
  435.500    0.365    0.401   61.691    7.330
  435.750    0.367    0.398   62.909    6.804
  436.000    0.368    0.398   64.737    6.679
  436.250    0.365    0.399   65.348    6.681
  436.500    0.367    0.400   64.749    6.683
  436.750    0.374    0.399   62.946    6.683
  437.000    0.375    0.399   61.741    6.561
  437.250    0.368    0.403   61.147    6.441
  437.500    0.364    0.404   61.153    6.443
  437.750    0.352    0.408   61.169    6.444
  438.000    0.353    0.412   61.782    6.326
  438.250    0.348    0.415   62.393    6.210
  438.500    0.345    0.415   62.399    6.097
  438.750    0.365    0.416   62.408    5.985
  439.000    0.354    0.416   61.809    5.875
  439.250    0.348    0.416   61.821    5.877
  439.500    0.355    0.417   61.827    5.770
  439.750    0.361    0.420   62.439    5.663
  440.000    0.367    0.421   64.874    5.665
  440.250    0.367    0.423   66.093    5.561
