~VERSION INFORMATION
 VERS.                 2.0:   CWLS LOG ASCII STANDARD -VERSION 2.0
 WRAP.                  NO:   ONE LINE PER DEPTH STEP
~WELL INFORMATION BLOCK
#MNEM.UNIT           DATA                    DESCRIPTION OF MNEMONIC
#---------    -------------------            -------------------------------
# Generated from Intellog Unique Number	CW_82_90/WELL/1028
WELL.         SUNLITE CANPUAC GR 11-17       : Well_name    - WELL
LOC .         00/11-17-084-20W4/0            : Location     - LOCATION
UWI .         00/11-17-084-20W4/0            : Uwi          - UNIQUE WELL ID
ENTR.         JAYE                           : Entered      - ENTERED BY
SRVC.         SCHLUMBERGER                   : Scn          - SERVICE COMPANY
DATE.         25 MAR 74                      : Date         - LOG DATE
STRT.M        198.12                         : top_depth    - START DEPTH
STOP.M        390.12                         : bot_depth    - STOP DEPTH
STEP.M        0.25                           : increment    - STEP LENGTH
 NULL. -999.2500:NULL Value
~CURVE INFORMATION BLOCK
#MNEM UNIT       ERCB CURVE CODE    CURVE DESCRIPTION
#-----------   ------------------   ----------------------------------
DEPT.M        00 001 00 00         : DEPTH        - DEPTH
CALI.MM       00 280 01 00         : CAL          - CALIPER
GR  .API      00 310 00 00         : GR           - GAMMA RAY
NPHI.V/V      00 330 00 00         : PHIN         - NEUTRON POROSITY (SANDSTONE)
DPHI.V/V      00 890 00 00         : PHID         - DENSITY POROSITY (SANDSTONE)
ILD .OHMM     00 120 00 00         : RESD         - DEEP RESISTIVITY (DIL)
~PARAMETER INFORMATION
#MNEM.UNIT           DATA             DESCRIPTION OF MNEMONIC
#---------         -----------     ------------------------------
GL  .M        622.402              : gl           - GROUND LEVEL ELEVATION
EREF.M        625.45               : kb           - ELEVATION OF DEPTH REFERENCE
DATM.M        622.402              : datum        - DATUM ELEVATION
TDD .M        401.117              : tdd          - TOTAL DEPTH DRILLER
RUN .         ONE                  : Run          - RUN NUMBER
ENG .         CHAUDHARY            : Engineer     - RECORDING ENGINEER
WIT .         FYFFE                : Witness      - WITNESSED BY
BASE.         EDMONTON             : Branch       - HOME BASE OF LOGGING UNIT
MUD .         GEL                  : Mud_type     - MUD TYPE
MATR.         SANDSTONE            : Logunit      - NEUTRON MATRIX
TMAX.C        23.3333              : BHT          - MAXIMUM RECORDED TEMPERATURE
BHTD.M        401.117              : BHTDEP       - MAXIMUM RECORDED TEMPERATURE
RMT .C        14.4444              : MDTP         - TEMPERATURE OF MUD
MUDD.KG/M     8800                 : MWT          - MUD DENSITY
NEUT.         1                    : NEUTRON      - NEUTRON TYPE
RESI.         0                    : RESIST       - RESISTIVITY TYPE
RM  .OHMM     5.66                 : RM           - RESISTIVITY OF MUD
RMC .OHMM     0                    : RMC          - RESISTIVITY OF MUD CAKE
RMF .OHMM     0                    : RMF          - RESISTIVITY OF MUD FILTRATE
SUFT.C        -17.7778             : SUFT         - SURFACE TEMPERATURE
~A  DEPTH      CAL       GR     PHIN     PHID     RESD
  198.120  218.203   85.049    0.622    0.248    3.503
  198.370  219.244   82.661    0.637    0.252    3.646
  198.620  220.596   85.481    0.664    0.247    3.690
  198.870  220.702   88.241    0.658    0.255    3.798
  199.120  222.158   90.141    0.662    0.254    3.887
  199.370  223.613   90.327    0.655    0.248    3.942
  199.620  225.899   88.981    0.614    0.238    3.989
  199.870  226.940   85.858    0.614    0.245    3.948
  200.120  223.311   84.695    0.644    0.251    3.822
  200.370  221.861   84.820    0.658    0.237    3.652
  200.620  224.355   86.843    0.653    0.235    3.433
  200.870  224.151   87.090    0.632    0.227    3.299
  201.120  221.974   85.254    0.683    0.211    3.241
  201.370  218.761   85.072    0.673    0.192    3.133
  201.620  218.453   86.912    0.690    0.172    3.077
  201.870  219.286   90.284    0.707    0.199    3.057
  202.120  220.430   93.043    0.678    0.224    3.117
  202.370  219.914   94.638    0.643    0.221    3.196
  202.620  219.087   94.456    0.620    0.209    3.272
  202.870  219.194   94.396    0.607    0.218    3.299
  203.120  219.923   94.030    0.608    0.223    3.332
  203.370  220.652   93.909    0.645    0.218    3.342
  203.620  219.618   95.504    0.696    0.231    3.308
  203.870  218.272   95.567    0.699    0.231    3.256
  204.120  217.133   94.650    0.756    0.227    3.217
  204.370  216.722   93.794    0.763    0.215    3.209
  204.620  216.517   93.612    0.770    0.221    3.205
  204.870  216.312   93.736    0.767    0.225    3.214
  205.120  215.381   93.002    0.739    0.217    3.217
  205.370  214.347   89.695    0.717    0.239    3.423
  205.620  212.275   84.672    0.698    0.234    4.392
  205.870  209.995   76.463    0.670    0.247    5.389
  206.120  208.441   67.764    0.638    0.253    7.351
  206.370  207.511   62.558    0.604    0.278   11.437
  206.620  200.665   57.045    0.468    0.289   19.055
  206.870  194.443   52.512    0.512    0.288   29.701
  207.120  191.333   52.331    0.544    0.316   43.709
  207.370  189.365   52.945    0.540    0.317   52.267
  207.620  187.708   51.905    0.532    0.302   55.825
  207.870  186.984   51.784    0.561    0.301   55.672
  208.120  185.639   53.196    0.587    0.293   50.977
  208.370  184.604   54.239    0.542    0.285   42.787
  208.620  183.777   56.017    0.538    0.289   35.388
  208.870  181.602   56.816    0.549    0.314   31.458
  209.120  180.048   57.062    0.550    0.316   30.453
  209.370  177.664   57.187    0.537    0.318   31.050
  209.620  176.318   55.963    0.542    0.313   30.118
  209.870  174.454   55.046    0.535    0.313   28.254
  210.120  174.145   53.883    0.497    0.311   26.405
  210.370  173.733   52.782    0.482    0.311   25.326
  210.620  172.906   52.294    0.493    0.327   24.791
  210.870  172.495   52.602    0.493    0.318   26.427
  211.120  172.393   53.032    0.487    0.309   28.437
  211.370  172.189   53.586    0.510    0.317   29.428
  211.620  172.191   54.445    0.505    0.328   30.179
  211.870  172.921   55.489    0.507    0.331   30.480
  212.120  173.132   56.532    0.511    0.339   30.564
  212.370  173.446   57.576    0.507    0.341   30.656
  212.620  173.761   58.129    0.514    0.326   31.025
  212.870  173.660   57.150    0.510    0.319   31.925
  213.120  173.766   55.559    0.492    0.330   33.163
  213.370  174.080   55.806    0.469    0.336   33.687
  213.620  174.602   56.482    0.472    0.323   30.972
  213.870  175.123   58.261    0.489    0.324   26.721
  214.120  174.919   59.794    0.493    0.325   16.308
  214.370  175.441   63.166    0.512    0.325   10.619
  214.620  176.170   66.721    0.537    0.315    6.838
  214.870  179.078   75.914    0.596    0.277    4.976
  215.120  181.675   82.840    0.630    0.214    4.747
  215.370  184.583   89.704    0.699    0.234    4.228
  215.620  183.860   93.750    0.696    0.233    3.937
  215.870  187.910   93.691    0.684    0.222    3.700
  216.120  189.884   93.019    0.697    0.225    3.556
  216.370  189.472   91.978    0.669    0.221    3.519
  216.620  188.334   91.123    0.628    0.208    3.601
  216.870  188.856   91.430    0.608    0.208    4.181
  217.120  189.688   93.209    0.674    0.216    4.962
  217.370  190.106   90.147    0.711    0.237    6.228
  217.620  189.591   80.284    0.723    0.251    8.322
  217.870  186.792   70.359    0.728    0.272   11.650
  218.120  182.230   63.804    0.533    0.295   19.303
  218.370  176.837   57.189    0.538    0.322   27.372
  218.620  171.964   53.269    0.524    0.336   34.351
  218.870  171.241   50.820    0.515    0.340   34.965
  219.120  171.347   51.312    0.524    0.334   34.351
  219.370  171.454   53.213    0.492    0.331   33.067
  219.620  170.834   54.134    0.457    0.332   31.894
  219.870  170.318   52.420    0.456    0.329   31.398
  220.120  169.907   48.255    0.472    0.326   31.718
  220.370  169.702   47.644    0.498    0.345   32.527
  220.620  169.394   48.504    0.540    0.349   32.974
  220.870  169.501   49.241    0.533    0.346   32.947
  221.120  169.296   49.916    0.514    0.337   32.492
  221.370  168.884   50.654    0.511    0.346   31.986
  221.620  168.679   51.023    0.511    0.342   32.250
  221.870  168.993   53.292    0.515    0.346   33.382
  222.120  170.449   54.948    0.533    0.343   34.621
  222.370  171.075   54.828    0.548    0.343   34.956
  222.620  171.597   53.297    0.536    0.340   36.044
  222.870  171.807   52.625    0.506    0.335   36.757
  223.120  172.018   53.913    0.507    0.328   36.995
  223.370  171.709   54.957    0.512    0.320   36.281
  223.620  171.401   56.123    0.516    0.328   32.490
  223.870  170.677   59.188    0.534    0.320   24.765
  224.120  170.576   62.070    0.528    0.316   18.123
  224.370  170.787   64.584    0.519    0.320   11.670
  224.620  171.205   69.243    0.521    0.311    7.799
  224.870  172.038   72.859    0.566    0.296    6.308
  225.120  173.182   76.047    0.603    0.273    6.688
  225.370  173.808   73.721    0.639    0.297    7.649
  225.620  173.499   68.330    0.617    0.325    9.545
  225.870  173.814   61.102    0.594    0.330   12.383
  226.120  174.129   56.569    0.538    0.322   28.325
  226.370  174.339   55.284    0.542    0.321   31.393
  226.620  175.068   53.754    0.548    0.322   31.135
  226.870  175.590   58.781    0.534    0.322   28.457
  227.120  176.111   59.701    0.533    0.330   23.929
  227.370  176.841   63.134    0.525    0.328   18.825
  227.620  177.985   66.384    0.494    0.317   15.029
  227.870  178.922   69.143    0.460    0.305   12.662
  228.120  179.340   77.662    0.458    0.269   12.034
  228.370  179.862   78.889    0.476    0.275   12.710
  228.620  180.176   74.418    0.479    0.280   13.649
  228.870  180.594   73.562    0.494    0.287   15.671
  229.120  180.286   69.703    0.518    0.297   17.206
  229.370  180.185   63.577    0.521    0.310   19.110
  229.620  180.084   60.761    0.517    0.322   20.367
  229.870  179.983   61.191    0.486    0.317   22.161
  230.120  179.882   62.541    0.489    0.307   23.276
  230.370  180.197   61.072    0.480    0.321   23.908
  230.620  180.199   60.032    0.464    0.312   24.200
  230.870  180.203   58.625    0.459    0.314   24.129
  231.120  180.309   57.156    0.475    0.324   24.159
  231.370  180.623   56.116    0.487    0.333   24.177
  231.620  180.730   55.750    0.489    0.343   24.429
  231.870  180.837   61.205    0.479    0.340   24.764
  232.120  180.944   63.964    0.477    0.340   25.537
  232.370  180.947   61.883    0.494    0.343   26.228
  232.620  180.846   59.188    0.510    0.343   26.999
  232.870  180.952   57.168    0.516    0.340   27.318
  233.120  180.956   56.925    0.483    0.337   27.911
  233.370  180.959   57.539    0.499    0.333   28.142
  233.620  181.065   58.644    0.517    0.325   27.601
  233.870  181.068   60.913    0.526    0.322   27.116
  234.120  181.175   63.182    0.491    0.326   26.204
  234.370  181.385   63.613    0.490    0.337   24.855
