~VERSION INFORMATION
 VERS.                 2.0:   CWLS LOG ASCII STANDARD -VERSION 2.0
 WRAP.                  NO:   ONE LINE PER DEPTH STEP
~WELL INFORMATION BLOCK
#MNEM.UNIT           DATA                    DESCRIPTION OF MNEMONIC
#---------    -------------------            -------------------------------
# Generated from Intellog Unique Number	CN_91_93/WELL/3241
WELL.         PARAMOUNT RESOURCES LTD.       : Well_name    - WELL
LOC .         00/10-18-092-20W4/0            : Location     - LOCATION
UWI .         00/10-18-092-20W4/0            : Uwi          - UNIQUE WELL ID
ENTR.         JOETTE                         : Entered      - ENTERED BY
SRVC.         COMPUTALOG                     : Scn          - SERVICE COMPANY
DATE.         04/14/92                       : Date         - LOG DATE
STRT.M        90                             : top_depth    - START DEPTH
STOP.M        230                            : bot_depth    - STOP DEPTH
STEP.M        0.25                           : increment    - STEP LENGTH
 NULL. -999.2500:NULL Value
~CURVE INFORMATION BLOCK
#MNEM UNIT       ERCB CURVE CODE    CURVE DESCRIPTION
#-----------   ------------------   ----------------------------------
DEPT.M        00 001 00 00         : DEPTH        - DEPTH
CALI.MM       00 280 01 00         : CAL          - CALIPER
GR  .API      00 310 00 00         : GR           - GAMMA RAY
NPHI.V/V      00 330 00 00         : PHIN         - NEUTRON POROSITY (SANDSTONE)
DPHI.V/V      00 890 00 00         : PHID         - DENSITY POROSITY (SANDSTONE)
ILD .OHMM     00 120 00 00         : RESD         - DEEP RESISTIVITY (DIL)
~PARAMETER INFORMATION
#MNEM.UNIT           DATA             DESCRIPTION OF MNEMONIC
#---------         -----------     ------------------------------
GL  .M        533.15               : gl           - GROUND LEVEL ELEVATION
EREF.M        536.95               : kb           - ELEVATION OF DEPTH REFERENCE
DATM.M        536.95               : datum        - DATUM ELEVATION
TDD .M        230.7                : tdd          - TOTAL DEPTH DRILLER
RUN .         ONE                  : Run          - RUN NUMBER
ENG .         BILL                 : Engineer     - RECORDING ENGINEER
WIT .         JIM                  : Witness      - WITNESSED BY
MUD .         GEL                  : Mud_type     - MUD TYPE
MATR.         SANDSTONE            : Logunit      - NEUTRON MATRIX
TMAX.C        119                  : BHT          - MAXIMUM RECORDED TEMPERATURE
BHTD.M        230.7                : BHTDEP       - MAXIMUM RECORDED TEMPERATURE
RMT .C        12                   : MDTP         - TEMPERATURE OF MUD
MUDD.KG/M     1070                 : MWT          - MUD DENSITY
NEUT.         1                    : NEUTRON      - NEUTRON TYPE
RESI.         0                    : RESIST       - RESISTIVITY TYPE
RM  .OHMM     3                    : RM           - RESISTIVITY OF MUD
RMC .OHMM     3                    : RMC          - RESISTIVITY OF MUD CAKE
RMF .OHMM     3                    : RMF          - RESISTIVITY OF MUD FILTRATE
SUFT.C        4                    : SUFT         - SURFACE TEMPERATURE
~A  DEPTH      CAL       GR     PHIN     PHID     RESD
# ...
  199.500  229.913  101.515    0.407    0.165    8.918
  199.750  228.961  100.342    0.424    0.171    9.450
  200.000  229.030   99.178    0.463    0.192   10.205
  200.250  229.117   98.628    0.504    0.151   11.022
  200.500  230.190   97.454    0.437    0.108   11.678
  200.750  231.263   95.096    0.372    0.048   11.909
  201.000  231.315   90.920    0.422    0.113   11.912
  201.250  230.398   84.927    0.389    0.176   11.252
  201.500  229.446   89.186    0.389    0.190   11.044
  201.750  227.541   98.274    0.419    0.182   10.839
  202.000  227.593  101.339    0.445    0.158   11.055
  202.250  227.662  103.779    0.426    0.168   11.938
  202.500  230.761  106.241    0.430    0.177   13.142
  202.750  230.848  105.680    0.294    0.146   14.466
  203.000  229.878   94.265    0.248    0.023   15.623
  203.250  226.970   90.079    0.275   -0.026   15.935
  203.500  226.018   88.915    0.311    0.048   15.938
  203.750  225.065   83.535    0.342    0.130   15.347
  204.000  224.148   84.189    0.350    0.178   15.061
  204.250  223.196   89.653    0.335    0.180   14.783
  204.500  221.309   96.321    0.329    0.185   14.789
  204.750  221.343   97.568    0.368    0.180   15.079
  205.000  220.408   98.825    0.373    0.168   15.978
  205.250  219.456  100.674    0.379    0.170   16.610
  205.500  218.521  102.522    0.331    0.163   16.934
  205.750  218.625  103.779    0.298    0.149   16.943
  206.000  220.685  103.800    0.303    0.133   16.952
  206.250  221.758  103.852    0.384    0.134   16.959
  206.500  221.845  103.291    0.421    0.160   16.965
  206.750  222.884  102.720    0.391    0.182   16.972
  207.000  222.988  100.954    0.377    0.188   17.305
  207.250  223.039  100.393    0.378    0.197   17.314
  207.500  224.095  100.434    0.359    0.184   17.997
  207.750  224.199   99.281    0.333    0.185   18.350
  208.000  224.251   96.300    0.359    0.200   18.714
  208.250  224.320   91.522    0.392    0.218   18.019
  208.500  225.376   88.562    0.406    0.224   17.022
  208.750  225.463   89.216    0.361    0.214   16.704
  209.000  225.515   90.452    0.315    0.196   16.396
  209.250  225.619   91.699    0.306    0.216   16.399
  209.500  225.653   91.148    0.340    0.240   16.406
  209.750  225.740   89.964    0.440    0.208   15.796
  210.000  225.826   85.196    0.433    0.114   14.924
  210.250  225.861   87.648    0.294    0.013   14.645
  210.500  224.926   88.281    0.309   -0.014   14.100
  210.750  224.995   68.442    0.357    0.035   13.575
  211.000  225.082   68.483    0.381    0.074   13.071
  211.250  225.168   77.562    0.384    0.120   12.585
  211.500  225.238   90.255    0.383    0.137   12.351
  211.750  225.307   98.138    0.397    0.142   12.125
  212.000  225.411   99.998    0.430    0.142   12.127
  212.250  226.467   98.845    0.452    0.150   12.133
  212.500  227.523   98.263    0.452    0.166   12.137
  212.750  228.579   99.520    0.391    0.183   11.912
  213.000  229.669  101.961    0.332    0.149   11.469
  213.250  229.738  103.820    0.322    0.084   11.922
  213.500  229.808  105.056    0.361    0.024   12.158
  213.750  228.855  105.098    0.411    0.046   12.399
  214.000  226.916   93.693    0.447    0.152   12.402
  214.250  224.995   94.939    0.462    0.143   12.174
  214.500  225.064  100.403    0.477    0.140   11.945
  214.750  226.137  101.649    0.493    0.137   11.503
  215.000  227.211  103.498    0.421    0.175   11.507
  215.250  228.267  102.937    0.401    0.145   11.961
  215.500  228.336  102.387    0.333    0.113   12.434
  215.750  228.405  104.235    0.300    0.041   12.678
  216.000  228.474  101.857    0.365    0.092   12.683
  216.250  227.557   96.487    0.456    0.179   12.212
  216.500  228.647   97.120    0.457    0.166   11.318
  216.750  229.686  106.209    0.422    0.152   10.489
  217.000  231.763  108.068    0.395    0.140   10.292
  217.250  233.875  105.700    0.399    0.125   10.101
  217.500  233.927  105.741    0.411    0.129   10.303
  217.750  233.997  106.988    0.445    0.139   10.305
  218.000  233.096  108.837    0.473    0.158   10.711
  218.250  233.131  111.299    0.451    0.177   10.925
  218.500  232.196  112.524    0.420    0.188   10.928
  218.750  230.274  115.578    0.388    0.194   10.933
  219.000  229.339  113.220    0.362    0.190   10.729
  219.250  228.387  109.637    0.335    0.162   10.530
  219.500  228.491  110.301    0.373    0.159   10.534
  219.750  228.543  112.140    0.413    0.155   10.540
  220.000  228.595  113.989    0.355    0.158   11.825
  220.250  229.703  113.428    0.334    0.257   15.171
  220.500  229.737   91.771    0.346    0.342   43.488
  220.750  228.820   41.788    0.341    0.343   75.795
  221.000  228.872   26.768    0.345    0.345   81.858
  221.250  226.933   24.410    0.361    0.356   97.285
  221.500  225.029   24.462    0.382    0.380  111.278
  221.750  225.063   24.493    0.377    0.383  117.902
  222.000  225.132   25.127    0.385    0.378  137.479
  222.250  225.236   26.976    0.390    0.387  154.256
  222.500  225.288   31.245    0.371    0.372  183.327
  222.750  224.336   32.481    0.352    0.355  230.753
  223.000  223.436   30.113    0.344    0.339  274.296
  223.250  223.505   29.562    0.331    0.319  279.681
  223.500  224.561   29.011    0.341    0.353  279.766
  223.750  225.651   29.032    0.375    0.359  279.879
  224.000  226.690   29.676    0.365    0.366  274.712
  224.250  230.793   30.320    0.340    0.365  264.501
  224.500  235.883   32.179    0.327    0.331  259.566
  224.750  241.976   32.813    0.346    0.336  254.748
  225.000  239.033   34.091    0.353    0.356  291.417
  225.250  233.078   33.519    0.368    0.372  320.812
  225.500  227.105   31.753    0.368    0.373  339.909
  225.750  223.176   30.601    0.373    0.368  346.617
  226.000  222.223   30.632    0.368    0.363  321.201
  226.250  222.293   31.286    0.406    0.373  286.499
  226.500  222.414   31.307    0.411    0.405  260.432
  226.750  222.448   31.348    0.386    0.396  227.892
  227.000  222.535   31.390    0.387    0.384  211.181
  227.250  222.604   30.226    0.392    0.385  207.262
  227.500  222.656   30.268    0.388    0.390  207.387
  227.750  222.760   30.309    0.386    0.390  211.416
  228.000  222.794   29.167    0.383    0.381  211.523
  228.250  222.881   28.585    0.360    0.356  211.587
  228.500  222.933   28.035    0.365    0.369  211.672
  228.750  221.998   28.679    0.366    0.327  203.826
  229.000  222.085   31.140    0.091    0.281  200.063
  229.250  221.150   32.366    0.091    0.206  200.103
  229.500  220.215   33.623    0.092    0.211  216.133
  229.750  218.276   33.654    0.092    0.214  216.221
  230.000  218.328   36.126    0.093    0.209  216.286
