~VERSION INFORMATION
 VERS.                 2.0:   CWLS LOG ASCII STANDARD -VERSION 2.0
 WRAP.                  NO:   ONE LINE PER DEPTH STEP
~WELL INFORMATION BLOCK
#MNEM.UNIT           DATA                    DESCRIPTION OF MNEMONIC
#---------    -------------------            -------------------------------
# Generated from Intellog Unique Number	CC_80_83/WELL/2408
NULL.         -999.25                        : NULL_VALUE
WELL.         CHEVRON BP GRAND RAPIDS        : Well_name    - WELL
LOC .         11-25-083-17W4                 : Location     - LOCATION          
UWI .         00/11-25-083-17W400            : Uwi          - UNIQUE WELL ID    
ENTR.         DW                             : Entered      - ENTERED BY        
SRVC.         SCHLUMBERGER                   : Scn          - SERVICE COMPANY   
DATE.         26 JAN 73                      : Date         - LOG DATE
STRT.M        91.44                          : top_depth    - START DEPTH       
STOP.M        280.415                        : bot_depth    - STOP DEPTH        
STEP.M        0.3048                         : increment    - STEP LENGTH       
~CURVE INFORMATION BLOCK
#MNEM UNIT       ERCB CURVE CODE    CURVE DESCRIPTION
#-----------   ------------------   ----------------------------------
DEPT.M        00 001 00 00         : DEPTH        - DEPTH                       
DPHI.V/V      00 890 00 00         : PHID         - DENSITY POROSITY (LIMESTONE)
NPHI.V/V      00 330 00 00         : PHIN         - NEUTRON POROSITY (LIMESTONE)
GR  .API      00 310 00 00         : GR           - GAMMA RAY                   
ILD .OHMM     00 120 00 00         : RESD         - DEEP RESISTIVITY (DIL)      
~PARAMETER INFORMATION       
#MNEM.UNIT           DATA             DESCRIPTION OF MNEMONIC
#---------         -----------     ------------------------------
GL  .M        510.388              : gl           - GROUND LEVEL ELEVATION      
EREF.M        513.588              : kb           - ELEVATION OF DEPTH REFERENCE
DATM.M        513.588              : datum        - DATUM ELEVATION             
TDD .M        321.259              : tdd          - TOTAL DEPTH DRILLER         
RUN .         ONE                  : Run          - RUN NUMBER                  
ENG .         BILL                 : Engineer     - RECORDING ENGINEER          
WIT .         JIM                  : Witness      - WITNESSED BY                
MUD .         GEL                  : Mud_type     - MUD TYPE                    
MATR.         LIMESTONE            : Logunit      - NEUTRON MATRIX              
TMAX.C        26.1111              : BHT          - MAXIMUM RECORDED TEMPERATURE
BHTD.M        321.259              : BHTDEP       - MAXIMUM RECORDED TEMPERATURE
MATR.         1                    : LOGUNIT      - NEUTRON MATRIX              
RMT .C        25                   : MDTP         - TEMPERATURE OF MUD          
NEUT.         1                    : NEUTRON      - NEUTRON TYPE                
RESI.         0                    : RESIST       - RESISTIVITY TYPE            
RMC .OHMM     0.25                 : RMC          - RESISTIVITY OF MUD CAKE     
RMF .OHMM     0.25                 : RMF          - RESISTIVITY OF MUD FILTRATE 
SUFT.C        15                   : SUFT         - SURFACE TEMPERATURE         
~A  DEPTH     PHID     PHIN       GR     RESD
# ...
  197.509    0.234    0.540   77.434    7.046
  197.814    0.265    0.553   76.845    7.047
  198.119    0.240    0.543   75.075    7.048
  198.424    0.307    0.536   69.762    7.446
  198.729    0.323    0.585   66.811    8.778
  199.033    0.360    0.548   65.632    9.797
  199.338    0.363    0.500   65.634   12.425
  199.643    0.255    0.473   60.911   13.867
  199.948    0.284    0.447   58.551   13.868
  200.252    0.297    0.423   60.324   12.659
  200.557    0.283    0.497   67.413   11.142
  200.862    0.267    0.553   69.777    9.986
  201.167    0.245    0.568   69.189    9.629
  201.472    0.249    0.573   66.237    9.631
  201.776    0.276    0.479   62.106    9.810
  202.081    0.274    0.534   61.517   10.365
  202.386    0.261    0.567   62.700   10.557
  202.691    0.285    0.555   64.474   10.368
  202.996    0.266    0.476   66.837   10.181
  203.300    0.258    0.454   70.974    9.818
  203.605    0.219    0.518   70.975    9.819
  203.910    0.216    0.548   66.843   10.001
  204.215    0.233    0.517   66.255   10.375
  204.520    0.272    0.501   67.438   11.369
  204.824    0.272    0.503   67.440   13.403
  205.129    0.247    0.443   66.261   16.998
  205.434    0.184    0.401   61.538   23.619
  205.739    0.132    0.246   57.996   32.820
  206.044    0.094    0.175   54.455   32.230
  206.348    0.000    0.175   55.047   25.890
  206.653    0.051    0.224   62.726   14.698
  206.958    0.097    0.326   70.406   10.201
  207.263    0.219    0.416   68.636    8.978
  207.568    0.239    0.497   65.094    8.657
  207.872    0.252    0.519   69.230    8.502
  208.177    0.214    0.559   72.185    8.503
  208.482    0.223    0.580   72.187    7.762
  208.787    0.258    0.598   73.960    6.708
  209.092    0.233    0.612   79.278    6.468
  209.396    0.254    0.583   79.870    6.588
  209.701    0.231    0.571   76.329    7.353
  210.006    0.240    0.596   72.197    8.668
  210.311    0.286    0.587   69.836   10.599
  210.615    0.278    0.571   66.295   11.403
  210.920    0.227    0.550   65.115   10.797
  211.225    0.212    0.552   68.070    8.996
  211.530    0.243    0.565   73.978    7.633
  211.835    0.211    0.512   77.522    6.596
  212.139    0.208    0.536   78.706    6.245
  212.444    0.224    0.586   78.117    6.022
  212.749    0.225    0.605   79.300    6.845
  213.054    0.223    0.565   81.074    7.231
  213.359    0.192    0.600   81.666    7.924
  213.663    0.211    0.581   81.077    8.372
  213.968    0.209    0.575   78.718    8.222
  214.273    0.190    0.602   76.947    7.644
  214.578    0.203    0.591   80.493    7.506
  214.883    0.211    0.574   82.857    6.978
  215.187    0.187    0.573   83.449    6.729
  215.492    0.188    0.586   85.223    6.608
  215.797    0.211    0.598   88.768    6.731
  216.102    0.222    0.605   91.132    6.982
  216.407    0.228    0.590   91.134    7.377
  216.711    0.227    0.591   87.002    8.385
  217.016    0.203    0.537   80.508    9.530
  217.321    0.166    0.491   79.329   11.652
  217.626    0.141    0.479   79.921   12.311
  217.931    0.178    0.484   81.104   11.871
  218.235    0.188    0.448   77.563   11.036
  218.540    0.200    0.499   76.384    9.713
  218.845    0.222    0.469   78.157    8.866
  219.150    0.234    0.488   81.703    8.395
  219.455    0.204    0.525   83.476    8.551
  219.759    0.216    0.546   82.887    8.870
  220.064    0.221    0.504   76.393    9.899
  220.369    0.219    0.443   72.851   10.651
  220.674    0.212    0.414   71.081   10.653
  220.979    0.205    0.436   70.493   10.656
  221.283    0.225    0.442   74.038   10.657
  221.588    0.224    0.433   74.040   10.855
  221.893    0.200    0.418   69.317   11.056
  222.198    0.210    0.408   66.366   11.261
  222.502    0.248    0.436   69.912   11.898
  222.807    0.219    0.488   70.505   11.900
  223.112    0.214    0.516   69.915   11.902
  223.417    0.241    0.499   66.965   12.346
  223.722    0.209    0.507   65.785   16.240
  224.026    0.211    0.516   53.385   26.599
  224.331    0.137    0.407   45.119   33.123
  224.636    0.014    0.207   47.483   36.967
  224.941    0.054    0.283   54.572   35.646
  225.246    0.106    0.344   60.480   32.539
  225.550    0.157    0.382   59.891   30.808
  225.855    0.107    0.326   58.712   30.255
  226.160    0.026    0.229   63.438   23.863
  226.465    0.049    0.240   68.755   16.562
  226.770    0.072    0.378   76.435   10.685
  227.074    0.123    0.435   77.027    9.577
  227.379    0.239    0.445   76.438    9.579
  227.684    0.227    0.455   77.621   10.121
  227.989    0.250    0.463   77.623   10.498
  228.294    0.247    0.435   75.854   10.694
  228.598    0.222    0.446   72.902   10.892
  228.903    0.222    0.479   70.542   10.696
  229.208    0.194    0.475   75.859   10.504
  229.513    0.165    0.443   79.404    9.946
  229.818    0.192    0.467   78.816    9.591
  230.122    0.224    0.485   74.684    9.248
  230.427    0.225    0.475   71.733    8.917
  230.732    0.191    0.500   67.601    8.443
  231.037    0.181    0.512   69.965    8.141
  231.342    0.166    0.488   70.557    7.569
  231.646    0.186    0.522   70.559    7.299
  231.951    0.234    0.542   74.105    7.299
  232.256    0.241    0.522   80.603    7.168
  232.561    0.193    0.529   88.282    6.787
  232.865    0.216    0.562   91.236    5.655
  233.170    0.221    0.551   81.790    5.257
  233.475    0.205    0.486   80.019    4.712
  233.780    0.193    0.457   87.699    4.461
  234.085    0.206    0.466   97.150    4.381
  234.389    0.221    0.495  100.105    4.463
  234.694    0.214    0.522   98.335    4.715
  234.999    0.187    0.529   94.203    5.765
  235.304    0.171    0.476   87.118    7.049
  235.609    0.175    0.492   78.852   10.732
  235.913    0.188    0.505   69.405   17.901
  236.218    0.194    0.417   67.044   23.549
  236.523    0.109    0.359   71.180   23.986
  236.828    0.064    0.322   81.222   22.299
  237.133    0.097    0.378   83.586   19.270
  237.437    0.217    0.440   80.635   16.653
  237.742    0.190    0.468   76.503   14.927
  238.047    0.173    0.482   74.733   14.393
  238.352    0.184    0.465   73.554   14.395
  238.657    0.196    0.462   57.020   16.663
  238.961    0.233    0.460   49.935   21.523
  239.266    0.260    0.584   39.897   24.913
  239.571    0.318    0.585   34.584   41.555
  239.876    0.295    0.438   31.043   55.673
  240.181    0.304    0.423   29.863   61.005
  240.485    0.303    0.427   29.866   66.849
  240.790    0.290    0.483   31.048   71.930
  241.095    0.280    0.463   32.232   70.638
  241.400    0.290    0.451   32.824   65.671
  241.705    0.296    0.438   32.825   57.797
  242.009    0.292    0.467   33.419   49.041
  242.314    0.276    0.498   34.010   42.380
  242.619    0.285    0.475   36.965   36.623
  242.924    0.301    0.456   38.148   32.231
  243.228    0.273    0.474   41.103   25.890
  243.533    0.272    0.485   44.057   20.797
  243.838    0.285    0.490   51.737   14.434
  244.143    0.292    0.457   54.101   11.809
  244.448    0.278    0.469   58.828   10.584
  244.752    0.255    0.488   63.554    8.659
  245.057    0.235    0.481   69.461    7.482
  245.362    0.212    0.461   78.913    6.121
  245.667    0.162    0.452   79.505    5.387
  245.972    0.174    0.470   77.144    4.655
  246.276    0.177    0.469   74.193    4.173
  246.581    0.187    0.482   78.920    3.740
  246.886    0.205    0.507   82.465    3.541
  247.191    0.211    0.563   83.648    3.607
  247.496    0.202    0.542   81.878    4.026
  247.800    0.197    0.549   76.565    4.176
  248.105    0.180    0.589   73.024    4.412
  248.410    0.141    0.516   74.797    4.102
  248.715    0.120    0.432   84.249    3.883
  249.020    0.187    0.512   90.746    3.418
  249.324    0.228    0.543   96.064    3.356
  249.629    0.247    0.584   94.294    3.678
  249.934    0.246    0.603   91.933    4.497
  250.239    0.229    0.510   86.620    5.916
