~VERSION INFORMATION
 VERS.                 2.0:   CWLS LOG ASCII STANDARD -VERSION 2.0
 WRAP.                  NO:   ONE LINE PER DEPTH STEP
~WELL INFORMATION BLOCK
#MNEM.UNIT           DATA                    DESCRIPTION OF MNEMONIC
#---------    -------------------            -------------------------------
# Generated from Intellog Unique Number	CN_94_101/WELL/3721
WELL.         14-09-096-15W4                 : Well_name    - WELL
LOC .         00/14-09-096-15W4/0            : Location     - LOCATION
UWI .         00/14-09-096-15W400            : Uwi          - UNIQUE WELL ID
ENTR.         JOETTE                         : Entered      - ENTERED BY
SRVC.         SCHLUMBERGER                   : Scn          - SERVICE COMPANY
DATE.         08/10/92                       : Date         - LOG DATE
STRT.M        125                            : top_depth    - START DEPTH
STOP.M        335                            : bot_depth    - STOP DEPTH
STEP.M        0.25                           : increment    - STEP LENGTH
 NULL. -999.2500:NULL Value
~CURVE INFORMATION BLOCK
#MNEM UNIT       ERCB CURVE CODE    CURVE DESCRIPTION
#-----------   ------------------   ----------------------------------
DEPT.M        00 001 00 00         : DEPTH        - DEPTH
ILD .OHMM     00 120 00 00         : RESD         - DEEP RESISTIVITY (DIL)
GR  .API      00 310 00 00         : GR           - GAMMA RAY
NPHI.V/V      00 330 00 00         : PHIN         - NEUTRON POROSITY (SANDSTONE)
DPHI.V/V      00 890 00 00         : PHID         - DENSITY POROSITY (SANDSTONE)
~PARAMETER INFORMATION
#MNEM.UNIT           DATA             DESCRIPTION OF MNEMONIC
#---------         -----------     ------------------------------
GL  .M        587.8                : gl           - GROUND LEVEL ELEVATION
EREF.M        591.15               : kb           - ELEVATION OF DEPTH REFERENCE
DATM.M        591.15               : datum        - DATUM ELEVATION
TDD .M        293                  : tdd          - TOTAL DEPTH DRILLER
RUN .         ONE                  : Run          - RUN NUMBER
ENG .         BILL                 : Engineer     - RECORDING ENGINEER
WIT .         JIM                  : Witness      - WITNESSED BY
MUD .         GEL                  : Mud_type     - MUD TYPE
MATR.         SANDSTONE            : Logunit      - NEUTRON MATRIX
TMAX.C        40                   : BHT          - MAXIMUM RECORDED TEMPERATURE
BHTD.M        293                  : BHTDEP       - MAXIMUM RECORDED TEMPERATURE
RMT .C        13                   : MDTP         - TEMPERATURE OF MUD
MUDD.KG/M     1110                 : MWT          - MUD DENSITY
NEUT.         1                    : NEUTRON      - NEUTRON TYPE
RESI.         0                    : RESIST       - RESISTIVITY TYPE
RM  .OHMM     0.304                : RM           - RESISTIVITY OF MUD
RMC .OHMM     0.304                : RMC          - RESISTIVITY OF MUD CAKE
RMF .OHMM     0.614                : RMF          - RESISTIVITY OF MUD FILTRATE
SUFT.C        4                    : SUFT         - SURFACE TEMPERATURE
~A  DEPTH     RESD       GR     PHIN     PHID
# ...
  299.000   25.531   28.129    0.465    0.488
  299.250   25.593   29.449    0.498    0.498
  299.500   26.093   29.489    0.548    0.488
  299.750   30.288   28.910    0.514    0.494
  300.000   27.694   27.739    0.510    0.498
  300.250   27.748   27.161    0.507    0.491
  300.500   29.365   27.242    0.528    0.481
  300.750   31.668   27.269    0.566    0.478
  301.000   31.730   27.337    0.606    0.465
  301.250   31.227   28.010    0.598    0.446
  301.500   36.266   28.697    0.569    0.436
  301.750   38.379   30.609    0.558    0.433
  302.000   42.961   33.759    0.543    0.430
  302.250   49.845   36.896    0.503    0.423
  302.500   70.869   36.331    0.475    0.417
  302.750  104.486   33.289    0.466    0.414
  303.000  206.866   29.008    0.460    0.401
  303.250  106.891   25.965    0.448    0.398
  303.500   63.958   24.175    0.442    0.401
  303.750   40.440   24.229    0.438    0.404
  304.000   30.188   24.283    0.592    0.404
  304.250   44.508   23.099    0.582    0.407
  304.500   84.936   19.423    0.574    0.407
  304.750  184.361   17.000    0.576    0.411
  305.000   59.021   15.829    0.600    0.417
  305.250   85.474   15.870    0.609    0.420
  305.500   50.211   18.442    0.622    0.430
  305.750  128.608   20.959    0.631    0.433
  306.000  154.880   22.858    0.602    0.436
  306.250   71.632   27.260    0.581    0.443
  306.500   45.314   31.030    0.559    0.443
  306.750   37.068   33.548    0.519    0.446
  307.000   26.671   34.868    0.492    0.449
  307.250   25.770   34.275    0.474    0.456
  307.500   28.833   31.852    0.464    0.462
  307.750   28.363   29.429    0.476    0.456
  308.000   16.962   28.258    0.501    0.446
  308.250    9.609   27.693    0.600    0.427
  308.500   11.361   27.761    0.632    0.423
  308.750   16.750   27.815    0.615    0.423
  309.000   20.938   27.855    0.583    0.427
  309.250   25.216   27.923    0.572    0.430
  309.500   28.737   27.950    0.545    0.436
  309.750   29.327   28.017    0.507    0.440
  310.000   26.802   28.704    0.495    0.446
  310.250   22.757   28.745    0.488    0.449
  310.500   21.587   29.405    0.492    0.452
  310.750   23.269   30.078    0.495    0.462
  311.000   24.188   30.751    0.501    0.462
  311.250   20.163   32.044    0.505    0.465
  311.500   10.038   33.364    0.511    0.462
  311.750    8.219   34.051    0.518    0.459
  312.000    8.698   34.091    0.568    0.456
  312.250    9.554   32.274    0.623    0.452
  312.500   13.843   29.245    0.619    0.443
  312.750   15.198   29.312    0.576    0.430
  313.000   18.303   30.578    0.539    0.423
  313.250   23.737   31.884    0.494    0.420
  313.500   18.375   31.938    0.482    0.417
  313.750   13.971   31.373    0.472    0.414
  314.000   12.083   31.441    0.492    0.411
  314.250   10.643   32.087    0.466    0.407
  314.500    9.722   32.168    0.489    0.401
  314.750    8.564   32.815    0.493    0.401
  315.000    7.684   34.754    0.485    0.394
  315.250    6.062   35.400    0.468    0.394
  315.500    4.695   37.325    0.458    0.394
  315.750    5.551   40.462    0.448    0.391
  316.000    6.443   48.581    0.507    0.391
  316.250    8.050   42.442    0.460    0.391
  316.500   11.874   42.496    0.437    0.388
  316.750   15.111   46.266    0.431    0.385
  317.000   18.890   50.035    0.426    0.372
  317.250   21.527   53.186    0.438    0.358
  317.500   20.790   56.983    0.447    0.334
  317.750   19.000   58.249    0.453    0.327
  318.000   18.708   62.059    0.422    0.310
  318.250   19.083   63.325    0.401    0.291
  318.500   20.205   66.489    0.375    0.258
  318.750   20.993   66.529    0.352    0.216
  319.000   22.238   65.358    0.355    0.239
  319.250   22.694   66.651    0.388    0.321
  319.500   23.172   67.311    0.412    0.318
  319.750   22.771   68.617    0.432    0.313
  320.000   22.411   67.419    0.404    0.309
  320.250   22.034   66.234    0.402    0.303
  320.500   20.912   66.908    0.392    0.299
  320.750   20.551   68.200    0.385    0.287
  321.000   19.847   70.126    0.379    0.256
  321.250   19.895   73.290    0.390    0.268
  321.500   19.924   75.808    0.425    0.276
  321.750   19.973   72.779    0.420    0.271
  322.000   20.021   72.200    0.415    0.300
  322.250   20.041   72.873    0.411    0.302
  322.500   19.723   74.799    0.402    0.277
  322.750   19.401   76.105    0.389    0.263
  323.000   18.737   76.751    0.373    0.256
  323.250   18.791   76.819    0.372    0.247
  323.500   18.810   76.240    0.371    0.249
  323.750   18.837   76.294    0.375    0.271
  324.000   21.887   76.968    0.402    0.277
  324.250   20.752   77.022    0.407    0.282
  324.500   20.782   75.851    0.411    0.284
  324.750   21.209   74.653    0.402    0.273
  325.000   21.655   73.495    0.390    0.263
  325.250   22.090   72.903    0.382    0.257
  325.500   22.973   71.126    0.383    0.253
  325.750   23.880   70.534    0.394    0.257
  326.000   25.766   68.757    0.419    0.263
  326.250   27.267   68.178    0.424    0.291
  326.500   28.330   66.374    0.428    0.266
  326.750   30.553   65.190    0.430    0.263
  327.000   36.159   62.148    0.424    0.300
  327.250   39.700   59.092    0.431    0.316
  327.500   42.835   48.618    0.436    0.326
  327.750   39.128   43.098    0.431    0.341
  328.000   21.355   41.914    0.437    0.337
  328.250   14.275   40.110    0.444    0.335
  328.500   11.464   39.558    0.433    0.338
  328.750   10.104   40.837    0.417    0.357
  329.000   11.299   41.538    0.448    0.374
  329.250   12.186   43.423    0.506    0.375
  329.500   11.768   48.431    0.499    0.401
  329.750   11.791   54.678    0.470    0.402
  330.000   12.490   57.828    0.412    0.353
  330.250   12.990   38.065    0.381    0.350
  330.500   13.015   24.481    0.381    0.320
  330.750   12.346   13.402    0.387    0.294
  331.000   12.133   13.456    0.409    0.284
  331.250   11.300   15.987    0.410    0.277
  331.500   10.908   19.757    0.408    0.260
  331.750    9.973   23.513    0.410    0.285
  332.000    9.110   35.347    0.415    0.279
  332.250    7.052   58.948    0.424    0.281
  332.500    6.811   68.924    0.440    0.294
  332.750    8.056   68.992    0.463    0.297
  333.000   12.785   69.652    0.488    0.282
  333.250   26.260   69.692    0.523    0.264
  333.500   38.048   69.746    0.529    0.252
  333.750   35.401   69.814    0.533    0.259
  334.000   32.953   69.854    0.534    0.265
  334.250   30.690   69.922    0.534    0.268
  334.500   30.175   70.609    0.533    0.000
  334.750   29.682   70.649    0.531   -0.001
  335.000   29.212   70.731    0.530    0.011
