~VERSION INFORMATION
 VERS.                 2.0:   CWLS LOG ASCII STANDARD -VERSION 2.0
 WRAP.                  NO:   ONE LINE PER DEPTH STEP
~WELL INFORMATION BLOCK
#MNEM.UNIT           DATA                    DESCRIPTION OF MNEMONIC
#---------    -------------------            -------------------------------
# Generated from Intellog Unique Number	CN_91_93/WELL/3131
WELL.         PARAMOUNT RESOURCES LTD.       : Well_name    - WELL
LOC .         00/11-04-092-18W4/0            : Location     - LOCATION
UWI .         00/11-04-092-18W400            : Uwi          - UNIQUE WELL ID
ENTR.         JOETTE                         : Entered      - ENTERED BY
SRVC.         COMPUTALOG                     : Scn          - SERVICE COMPANY
DATE.         04/12/92                       : Date         - LOG DATE
STRT.M        70                             : top_depth    - START DEPTH
STOP.M        260                            : bot_depth    - STOP DEPTH
STEP.M        0.25                           : increment    - STEP LENGTH
 NULL. -999.2500:NULL Value
~CURVE INFORMATION BLOCK
#MNEM UNIT       ERCB CURVE CODE    CURVE DESCRIPTION
#-----------   ------------------   ----------------------------------
DEPT.M        00 001 00 00         : DEPTH        - DEPTH
CALI.MM       00 280 01 00         : CAL          - CALIPER
GR  .API      00 310 00 00         : GR           - GAMMA RAY
NPHI.V/V      00 330 00 00         : PHIN         - NEUTRON POROSITY (SANDSTONE)
DPHI.V/V      00 890 00 00         : PHID         - DENSITY POROSITY (SANDSTONE)
ILD .OHMM     00 120 00 00         : RESD         - DEEP RESISTIVITY (DIL)
~PARAMETER INFORMATION
#MNEM.UNIT           DATA             DESCRIPTION OF MNEMONIC
#---------         -----------     ------------------------------
GL  .M        520.6                : gl           - GROUND LEVEL ELEVATION
EREF.M        523.6                : kb           - ELEVATION OF DEPTH REFERENCE
DATM.M        523.6                : datum        - DATUM ELEVATION
TDD .M        262.4                : tdd          - TOTAL DEPTH DRILLER
RUN .         ONE                  : Run          - RUN NUMBER
ENG .         BILL                 : Engineer     - RECORDING ENGINEER
WIT .         JIM                  : Witness      - WITNESSED BY
MUD .         GEL                  : Mud_type     - MUD TYPE
MATR.         SANDSTONE            : Logunit      - NEUTRON MATRIX
TMAX.C        19                   : BHT          - MAXIMUM RECORDED TEMPERATURE
BHTD.M        262.4                : BHTDEP       - MAXIMUM RECORDED TEMPERATURE
RMT .C        11.1                 : MDTP         - TEMPERATURE OF MUD
MUDD.KG/M     1090                 : MWT          - MUD DENSITY
NEUT.         1                    : NEUTRON      - NEUTRON TYPE
RESI.         0                    : RESIST       - RESISTIVITY TYPE
RM  .OHMM     3.9                  : RM           - RESISTIVITY OF MUD
RMC .OHMM     3.9                  : RMC          - RESISTIVITY OF MUD CAKE
RMF .OHMM     4.9                  : RMF          - RESISTIVITY OF MUD FILTRATE
SUFT.C        4                    : SUFT         - SURFACE TEMPERATURE
~A  DEPTH      CAL       GR     PHIN     PHID     RESD
# ...
  216.000  146.258   34.578    0.334    0.304  121.996
  216.250  146.250   34.568    0.339    0.301  122.341
  216.500  147.269   35.807    0.342    0.309  125.360
  216.750  147.252   38.912    0.337    0.312  128.333
  217.000  148.275   40.773    0.344    0.309  128.695
  217.250  148.255   43.259    0.361    0.307  131.499
  217.500  148.242   46.990    0.383    0.304  132.244
  217.750  151.339   50.095    0.386    0.290  132.493
  218.000  151.322   48.215    0.395    0.283  132.992
  218.250  152.345   47.577    0.398    0.298  131.263
  218.500  153.372   47.572    0.393    0.313  129.191
  218.750  153.351   46.936    0.382    0.324  127.151
  219.000  153.331   45.679    0.378    0.327  125.380
  219.250  153.319   45.672    0.387    0.317  123.517
  219.500  153.298   45.662    0.383    0.304  123.866
  219.750  153.278   45.650    0.377    0.284  119.761
  220.000  153.269   46.258    0.386    0.288  115.792
  220.250  154.292   46.877    0.389    0.311  102.040
  220.500  154.272   48.114    0.379    0.321   89.752
  220.750  154.259   48.727    0.367    0.316   88.419
  221.000  155.282   49.965    0.356    0.306   92.227
  221.250  156.296   51.202    0.353    0.296   94.325
  221.500  156.284   52.436    0.359    0.289   94.681
  221.750  156.268   49.930    0.361    0.294   96.835
  222.000  156.247   47.429    0.361    0.305   97.200
  222.250  156.231   46.796    0.360    0.312   97.566
  222.500  156.214   46.160    0.365    0.310   99.786
  222.750  156.202   46.150    0.364    0.306  100.162
  223.000  157.216   46.143    0.360    0.303  102.441
  223.250  157.204   46.756    0.355    0.303  104.870
  223.500  156.136   55.472    0.352    0.302  105.166
  223.750  156.132   60.450    0.364    0.292  105.563
  224.000  155.077   61.687    0.379    0.281  102.064
  224.250  155.060   64.794    0.359    0.238   91.557
  224.500  154.005   76.006    0.341    0.213   76.131
  224.750  153.988   97.817    0.373    0.178   50.607
  225.000  153.968  111.522    0.414    0.190   37.607
  225.250  153.952  125.228    0.417    0.211   27.427
  225.500  153.935  125.218    0.376    0.231   18.559
  225.750  154.950  105.882    0.360    0.271   14.053
  226.000  154.937   96.518    0.345    0.290   11.057
  226.250  154.925   99.002    0.355    0.284   10.492
  226.500  154.905  106.473    0.363    0.272   11.351
  226.750  155.931  113.321    0.395    0.235   12.761
  227.000  155.903  107.075    0.399    0.207   15.448
  227.250  155.890  103.327    0.404    0.220   18.354
  227.500  155.878   93.965    0.399    0.235   21.422
  227.750  156.897   90.836    0.391    0.232   22.746
  228.000  156.880   92.696    0.365    0.205   22.853
  228.250  156.860  100.791    0.347    0.197   22.535
  228.500  156.843  103.272    0.329    0.188   22.158
  228.750  155.784  100.771    0.314    0.178   21.849
  229.000  154.736   92.657    0.300    0.215   21.932
  229.250  152.634   85.789    0.281    0.244   22.430
  229.500  151.582   75.178    0.265    0.276   23.817
  229.750  150.531   68.934    0.264    0.311   25.767
  230.000  149.471   62.690    0.266    0.324   31.812
  230.250  149.455   60.184    0.260    0.329   37.796
  230.500  150.473   60.800    0.261    0.339   48.446
  230.750  150.461   62.037    0.268    0.342   62.154
  231.000  150.445   63.274    0.258    0.337   73.845
  231.250  150.428   64.509    0.237    0.334   92.808
  231.500  151.451   66.993    0.229    0.328   96.714
  231.750  151.435   69.474    0.261    0.320   98.915
  232.000  151.418   65.103    0.280    0.308   99.287
  232.250  151.402   55.118    0.298    0.322   97.812
  232.500  152.412   37.652    0.287    0.341   86.196
  232.750  153.443   25.791    0.256    0.357   77.395
  233.000  153.422   27.649    0.241    0.347   77.541
  233.250  154.449   28.891    0.239    0.329   90.502
  233.500  154.429   30.752    0.258    0.322  105.531
  233.750  155.455   33.231    0.283    0.319  127.753
  234.000  155.431   33.224    0.308    0.317  157.726
  234.250  155.419   32.590    0.313    0.316  174.031
  234.500  155.398   28.216    0.313    0.309  184.959
  234.750  155.382   26.334    0.312    0.303  200.102
  235.000  155.369   25.075    0.309    0.299  216.485
  235.250  155.345   24.446    0.307    0.302  257.449
  235.500  155.332   22.564    0.308    0.307  283.795
  235.750  155.320   21.930    0.312    0.310  312.836
  236.000  155.296   21.920    0.311    0.306  338.768
  236.250  155.279   23.781    0.310    0.303  353.359
  236.500  154.224   23.769    0.312    0.305  360.719
  236.750  154.211   23.761    0.322    0.306  362.419
  237.000  153.156   26.866    0.330    0.308  357.370
  237.250  150.022   28.103    0.334    0.312  344.876
  237.500  148.967   27.470    0.336    0.327  327.258
  237.750  152.059   25.587    0.331    0.326  310.540
  238.000  153.086   25.582    0.322    0.317  300.248
  238.250  154.109   25.567    0.316    0.312  290.571
  238.500  155.131   26.184    0.322    0.310  275.467
  238.750  156.154   28.668    0.330    0.309  233.605
  239.000  156.134   30.528    0.326    0.309  194.429
  239.250  156.121   33.009    0.330    0.307  164.727
  239.500  156.101   33.626    0.343    0.306  137.231
  239.750  156.089   35.486    0.336    0.305  120.592
  240.000  155.025   36.718    0.325    0.304  102.266
  240.250  155.013   37.332    0.314    0.302   86.643
  240.500  155.013   38.569    0.328    0.302   70.775
  240.750  154.976   40.432    0.326    0.302   60.019
  241.000  160.150   44.786    0.323    0.295   54.859
  241.250  160.138   57.863    0.324    0.291   51.042
  241.500  160.118   59.105    0.331    0.284   49.397
  241.750  161.140   60.342    0.345    0.274   48.709
  242.000  161.128   52.228    0.362    0.270   48.800
  242.250  161.107   43.487    0.374    0.276   48.984
  242.500  161.091   40.360    0.368    0.261   48.257
  242.750  162.118   40.974    0.355    0.226   45.791
  243.000  162.101   42.211    0.343    0.187   41.077
  243.250  162.085   44.071    0.338    0.215   40.467
  243.500  162.069   47.179    0.330    0.266   41.427
  243.750  162.044   50.910    0.324    0.281   46.573
  244.000  162.023   51.521    0.332    0.283   50.339
  244.250  162.007   54.626    0.351    0.279   50.529
  244.500  162.007   60.852    0.374    0.275   43.660
  244.750  158.865   65.830    0.373    0.271   38.403
  245.000  159.884   68.314    0.363    0.269   33.874
  245.250  159.872   66.434    0.364    0.263   32.690
  245.500  159.851   67.671    0.369    0.259   30.501
  245.750  159.830   70.778    0.362    0.256   30.559
  246.000  159.814   72.639    0.357    0.254   29.546
  246.250  159.794   72.626    0.349    0.251   29.134
  246.500  159.785   72.617    0.356    0.246   28.674
  246.750  159.765   75.722    0.367    0.240   28.275
  247.000  159.748   78.208    0.366    0.245   28.355
  247.250  158.693   75.702    0.360    0.246   27.960
  247.500  158.672   73.822    0.351    0.246   27.570
  247.750  159.695   72.565    0.345    0.250   27.135
  248.000  159.675   71.932    0.347    0.247   26.732
  248.250  159.666   73.169    0.357    0.234   25.822
  248.500  159.642   75.650    0.358    0.223   25.013
  248.750  160.669   75.014    0.358    0.228   24.618
  249.000  160.648   75.007    0.358    0.232   22.948
  249.250  160.628   74.997    0.357    0.234   22.167
  249.500  160.619   76.237    0.359    0.242   21.412
  249.750  160.603   80.591    0.367    0.240   19.226
  250.000  160.582   88.060    0.395    0.228   17.905
  250.250  161.605   94.282    0.400    0.217   16.660
  250.500  161.593   99.262    0.393    0.207   15.242
  250.750  162.611  106.110    0.367    0.195   14.463
  251.000  163.634  112.958    0.359    0.191   14.248
  251.250  164.653  117.936    0.345    0.189   15.129
  251.500  164.632  107.327    0.331    0.192   17.624
  251.750  164.620   97.343    0.320    0.215   23.017
  252.000  164.603   86.108    0.329    0.232   30.088
  252.250  165.626   89.216    0.336    0.258   32.521
