~VERSION INFORMATION
 VERS.                 2.0:   CWLS LOG ASCII STANDARD -VERSION 2.0
 WRAP.                  NO:   ONE LINE PER DEPTH STEP
~WELL INFORMATION BLOCK
#MNEM.UNIT           DATA                    DESCRIPTION OF MNEMONIC
#---------    -------------------            -------------------------------
# Generated from Intellog Unique Number	CS_67_68/WELL/820
WELL.         DOME PETROLEUM LIMITED         : Well_name    - WELL
LOC .         00/11-08-068-01W4/0            : Location     - LOCATION
UWI .         00/11-08-068-01W4/0            : Uwi          - UNIQUE WELL ID
ENTR.         SP                             : Entered      - ENTERED BY
SRVC.         SCHLUMBERGER                   : Scn          - SERVICE COMPANY
STRT.M        380                            : top_depth    - START DEPTH
STOP.M        635                            : bot_depth    - STOP DEPTH
STEP.M        0.25                           : increment    - STEP LENGTH
 NULL. -999.2500:NULL Value
~CURVE INFORMATION BLOCK
#MNEM UNIT       ERCB CURVE CODE    CURVE DESCRIPTION
#-----------   ------------------   ----------------------------------
DEPT.M        00 001 00 00         : DEPTH        - DEPTH
ILD .OHMM     00 120 00 00         : RESD         - DEEP RESISTIVITY (DIL)
DPHI.V/V      00 890 00 00         : PHID         - DENSITY POROSITY (LIMESTONE)
NPHI.V/V      00 330 00 00         : PHIN         - NEUTRON POROSITY (LIMESTONE)
GR  .API      00 310 00 00         : GR           - GAMMA RAY
~PARAMETER INFORMATION
#MNEM.UNIT           DATA             DESCRIPTION OF MNEMONIC
#---------         -----------     ------------------------------
GL  .M        665.82               : gl           - GROUND LEVEL ELEVATION
EREF.M        669.7                : kb           - ELEVATION OF DEPTH REFERENCE
DATM.M        665.82               : datum        - DATUM ELEVATION
TDD .M        634                  : tdd          - TOTAL DEPTH DRILLER
RUN .         ONE                  : Run          - RUN NUMBER
ENG .         BILL                 : Engineer     - RECORDING ENGINEER
WIT .         JIM                  : Witness      - WITNESSED BY
MUD .         GEL                  : Mud_type     - MUD TYPE
MATR.         LIMESTONE            : Logunit      - NEUTRON MATRIX
TMAX.C        25                   : BHT          - MAXIMUM RECORDED TEMPERATURE
BHTD.M        636                  : BHTDEP       - MAXIMUM RECORDED TEMPERATURE
MATR.         1                    : LOGUNIT      - NEUTRON MATRIX
RMT .C        25                   : MDTP         - TEMPERATURE OF MUD
NEUT.         1                    : NEUTRON      - NEUTRON TYPE
RESI.         0                    : RESIST       - RESISTIVITY TYPE
RMC .OHMM     0.25                 : RMC          - RESISTIVITY OF MUD CAKE
RMF .OHMM     0.25                 : RMF          - RESISTIVITY OF MUD FILTRATE
SUFT.C        15                   : SUFT         - SURFACE TEMPERATURE
~A  DEPTH     RESD     PHID     PHIN       GR
# ...
  510.500   10.104    0.336    0.440   80.706
  510.750    9.163    0.329    0.455   82.929
  511.000    8.563    0.326    0.486   86.385
  511.250    7.507    0.327    0.473   89.902
  511.500    6.532    0.315    0.454   92.620
  511.750    4.703    0.301    0.468   95.402
  512.000    3.726    0.295    0.476   97.874
  512.250    3.495    0.291    0.482  100.162
  512.500    3.745    0.296    0.485  102.023
  512.750    4.190    0.291    0.477  103.208
  513.000    4.670    0.283    0.466  103.653
  513.250    4.557    0.279    0.459  103.058
  513.500    4.298    0.287    0.444  102.091
  513.750    3.957    0.290    0.436  103.275
  514.000    3.704    0.277    0.455  107.651
  514.250    3.573    0.260    0.482  113.624
  514.500    3.435    0.254    0.501  118.434
  514.750    3.345    0.247    0.500  119.862
  515.000    3.300    0.243    0.501  120.922
  515.250    3.275    0.239    0.503  121.982
  515.500    3.261    0.238    0.496  123.965
  515.750    3.273    0.236    0.493  125.946
  516.000    3.372    0.236    0.499  126.209
  516.250    4.214    0.252    0.505  121.867
  516.500    6.390    0.268    0.497  109.789
  516.750    8.338    0.280    0.483   92.492
  517.000   10.659    0.293    0.472   87.535
  517.250   13.987    0.307    0.470   84.361
  517.500   16.309    0.319    0.461   82.227
  517.750   17.641    0.321    0.447   80.710
  518.000   17.736    0.327    0.443   80.790
  518.250   16.952    0.332    0.451   82.220
  518.500   15.257    0.316    0.456   87.703
  518.750    9.401    0.295    0.449   91.219
  519.000    6.185    0.279    0.444   93.568
  519.250    5.030    0.270    0.447   93.893
  519.500    4.460    0.270    0.438   93.848
  519.750    4.176    0.263    0.433   93.127
  520.000    3.946    0.256    0.433   92.960
  520.250    3.952    0.262    0.462   97.337
  520.500    4.472    0.276    0.472  101.653
  520.750    4.957    0.285    0.456   99.460
  521.000    5.272    0.278    0.442   96.287
  521.250    5.671    0.268    0.427   95.257
  521.500    5.953    0.265    0.418   94.789
  521.750    6.249    0.264    0.427   94.743
  522.000    6.307    0.269    0.442   94.572
  522.250    6.199    0.271    0.435   94.100
  522.500    5.980    0.269    0.422   93.933
  522.750    5.813    0.269    0.415   94.009
  523.000    5.494    0.271    0.405   94.028
  523.250    4.963    0.271    0.434   92.510
  523.500    4.629    0.271    0.452   94.369
  523.750    4.466    0.269    0.457   97.271
  524.000    4.382    0.268    0.453   99.560
  524.250    4.348    0.269    0.447   99.026
  524.500    4.322    0.272    0.444   98.124
  524.750    4.362    0.276    0.467   96.112
  525.000    4.545    0.278    0.477   93.919
  525.250    4.753    0.280    0.466   92.647
  525.500    4.915    0.284    0.454   93.095
  525.750    5.063    0.286    0.440   94.217
  526.000    5.187    0.285    0.441   95.650
  526.250    5.284    0.281    0.441   97.015
  526.500    5.362    0.282    0.443   98.013
  526.750    5.341    0.283    0.447   97.846
  527.000    5.390    0.281    0.437   97.126
  527.250    5.553    0.277    0.433   97.943
  527.500    5.906    0.272    0.444   98.452
  527.750    6.293    0.268    0.457   96.688
  528.000    6.975    0.265    0.461   96.397
  528.250    7.419    0.264    0.454   98.379
  528.500    8.025    0.269    0.446   95.940
  528.750    8.424    0.286    0.445   91.844
  529.000    9.061    0.298    0.443   84.925
  529.250    9.655    0.306    0.434   79.414
  529.500   10.022    0.314    0.423   76.730
  529.750   10.520    0.318    0.413   77.546
  530.000   10.919    0.320    0.406   77.810
  530.250   11.270    0.322    0.406   75.433
  530.500   11.502    0.328    0.409   73.913
  530.750   11.630    0.329    0.412   74.360
  531.000   11.847    0.322    0.413   75.299
  531.250   11.934    0.315    0.414   76.298
  531.500   11.299    0.310    0.417   77.727
  531.750   10.519    0.308    0.424   80.571
  532.000    9.593    0.309    0.421   83.166
  532.250    7.860    0.310    0.419   85.945
  532.500    6.943    0.300    0.419   88.848
  532.750    5.808    0.283    0.424   92.919
  533.000    5.111    0.267    0.425  100.548
  533.250    4.324    0.252    0.431  104.188
  533.500    3.863    0.246    0.436  107.033
  533.750    3.477    0.243    0.442  108.336
  534.000    3.225    0.248    0.462  109.520
  534.250    2.801    0.252    0.488  109.905
  534.500    2.469    0.263    0.504  108.081
  534.750    2.169    0.271    0.513  103.187
  535.000    2.046    0.280    0.524  100.749
  535.250    2.003    0.291    0.518   99.108
  535.500    1.947    0.299    0.509   98.020
  535.750    1.947    0.302    0.503   97.851
  536.000    1.950    0.307    0.525   98.240
  536.250    1.968    0.311    0.519   99.237
  536.500    1.979    0.309    0.504   99.624
  536.750    2.004    0.302    0.497  100.256
  537.000    2.092    0.295    0.504  101.560
  537.250    2.184    0.289    0.493  102.683
  537.500    2.420    0.283    0.487  101.410
  537.750    2.579    0.281    0.486   98.113
  538.000    2.733    0.285    0.487   97.334
  538.250    2.880    0.289    0.495  102.446
  538.500    3.174    0.288    0.498  109.707
  538.750    3.750    0.282    0.470  103.953
  539.000    4.339    0.277    0.444   96.298
  539.250    4.919    0.271    0.418   96.069
  539.500    5.106    0.261    0.414   97.373
  539.750    4.991    0.254    0.420   98.373
  540.000    4.897    0.249    0.428   97.347
  540.250    4.424    0.246    0.452   96.443
  540.500    3.923    0.250    0.445   98.672
  540.750    3.570    0.257    0.437  100.593
  541.000    3.510    0.244    0.431  102.205
  541.250    3.643    0.243    0.437  103.819
  541.500    3.853    0.254    0.484   99.661
  541.750    4.393    0.280    0.488   90.470
  542.000    5.594    0.299    0.441   86.064
  542.250    7.111    0.299    0.424   86.082
  542.500    7.985    0.295    0.406   88.555
  542.750    8.289    0.295    0.403   85.502
  543.000    8.349    0.297    0.395   84.352
  543.250    8.010    0.299    0.403   84.067
  543.500    7.963    0.282    0.425   84.081
  543.750    8.081    0.271    0.452   83.177
  544.000    8.278    0.259    0.437   81.352
  544.250    8.674    0.247    0.405   77.746
  544.500    9.071    0.230    0.361   74.878
  544.750    9.240    0.204    0.325   73.363
  545.000    9.066    0.223    0.332   74.175
  545.250    9.063    0.266    0.373   78.492
  545.500    9.044    0.264    0.407   82.007
  545.750    8.824    0.259    0.408   85.528
  546.000    8.497    0.257    0.407   87.077
  546.250    8.228    0.267    0.398   87.894
  546.500    8.088    0.277    0.401   88.217
  546.750    7.877    0.280    0.406   89.155
  547.000    7.556    0.275    0.409   90.461
  547.250    7.128    0.274    0.411   91.155
  547.500    6.391    0.277    0.412   89.882
  547.750    4.895    0.277    0.402   86.828
  548.000    4.489    0.265    0.386   90.409
  548.250    4.421    0.250    0.378   95.216
  548.500    4.756    0.239    0.424   98.853
  548.750    6.148    0.232    0.432   93.039
  549.000    7.598    0.229    0.423   87.836
  549.250    9.181    0.232    0.403   83.677
  549.500   10.100    0.236    0.393   84.738
  549.750   10.722    0.251    0.417   82.915
  550.000   11.425    0.266    0.427   79.370
  550.250   11.792    0.256    0.353   74.536
  550.500   12.080    0.135    0.306   69.828
  550.750   12.168    0.120    0.305   66.036
  551.000   11.962    0.239    0.340   67.651
  551.250   11.714    0.284    0.372   69.513
  551.500   10.663    0.310    0.409   70.758
  551.750    9.723    0.318    0.416   71.573
  552.000    9.224    0.323    0.412   73.306
  552.250    8.475    0.326    0.396   76.946
  552.500    7.197    0.306    0.381   82.920
  552.750    5.986    0.288    0.384   88.401
  553.000    5.511    0.273    0.401   91.978
  553.250    5.101    0.277    0.424   84.505
  553.500    5.751    0.294    0.420   75.992
  553.750    6.756    0.308    0.393   72.260
