~VERSION INFORMATION
 VERS.                 2.0:   CWLS LOG ASCII STANDARD -VERSION 2.0
 WRAP.                  NO:   ONE LINE PER DEPTH STEP
~WELL INFORMATION BLOCK
#MNEM.UNIT           DATA                    DESCRIPTION OF MNEMONIC
#---------    -------------------            -------------------------------
# Generated from Intellog Unique Number	CW_76_78/WELL/2584
WELL.         PETROMARK ET AL MARTIN CREEK   : Well_name    - WELL
LOC .         00/11-31-078-05W5/0            : Location     - LOCATION
UWI .         00/11-31-078-05W5/0            : Uwi          - UNIQUE WELL ID
ENTR.         MAX                            : Entered      - ENTERED BY
SRVC.         SCHLUMBERGER                   : Scn          - SERVICE COMPANY
STRT.M        325                            : top_depth    - START DEPTH
STOP.M        570                            : bot_depth    - STOP DEPTH
STEP.M        0.25                           : increment    - STEP LENGTH
 NULL. -999.2500:NULL Value
~CURVE INFORMATION BLOCK
#MNEM UNIT       ERCB CURVE CODE    CURVE DESCRIPTION
#-----------   ------------------   ----------------------------------
DEPT.M        00 001 00 00         : DEPTH        - DEPTH
ILD .OHMM     00 120 00 00         : RESD         - DEEP RESISTIVITY (DIL)
NPHI.V/V      00 330 00 00         : PHIN         - NEUTRON POROSITY (SANDSTONE)
DPHI.V/V      00 890 00 00         : PHID         - DENSITY POROSITY (SANDSTONE)
CALI.MM       00 280 01 00         : CAL          - CALIPER
GR  .API      00 310 00 00         : GR           - GAMMA RAY
~PARAMETER INFORMATION
#MNEM.UNIT           DATA             DESCRIPTION OF MNEMONIC
#---------         -----------     ------------------------------
GL  .M        658.4                : gl           - GROUND LEVEL ELEVATION
EREF.M        662.4                : kb           - ELEVATION OF DEPTH REFERENCE
DATM.M        658.4                : datum        - DATUM ELEVATION
TDD .M        1828                 : tdd          - TOTAL DEPTH DRILLER
RUN .         ONE                  : Run          - RUN NUMBER
ENG .         BILL                 : Engineer     - RECORDING ENGINEER
WIT .         JIM                  : Witness      - WITNESSED BY
MUD .         GEL                  : Mud_type     - MUD TYPE
MATR.         SANDSTONE            : Logunit      - NEUTRON MATRIX
TMAX.C        32                   : BHT          - MAXIMUM RECORDED TEMPERATURE
BHTD.M        1828                 : BHTDEP       - MAXIMUM RECORDED TEMPERATURE
RMT .C        28                   : MDTP         - TEMPERATURE OF MUD
MUDD.KG/M     1170                 : MWT          - MUD DENSITY
NEUT.         1                    : NEUTRON      - NEUTRON TYPE
RESI.         0                    : RESIST       - RESISTIVITY TYPE
RM  .OHMM     0.0926               : RM           - RESISTIVITY OF MUD
RMC .OHMM     0                    : RMC          - RESISTIVITY OF MUD CAKE
RMF .OHMM     0.0867               : RMF          - RESISTIVITY OF MUD FILTRATE
SUFT.C        -20                  : SUFT         - SURFACE TEMPERATURE
~A  DEPTH     RESD     PHIN     PHID      CAL       GR
# ...
  507.500    9.323    0.384    0.218  211.099   61.584
  507.750    9.157    0.379    0.215  211.685   62.222
  508.000    8.671    0.384    0.212  211.781   61.386
  508.250    7.988    0.404    0.222  211.877   61.738
  508.500    7.563    0.408    0.215  211.963   63.277
  508.750    7.229    0.389    0.219  212.038   65.736
  509.000    7.100    0.381    0.235  212.124   67.894
  509.250    6.911    0.402    0.245  212.720   68.246
  509.500    6.911    0.405    0.260  212.795   67.697
  509.750    6.793    0.391    0.254  212.891   65.948
  510.000    6.551    0.390    0.258  212.966   64.492
  510.250    6.494    0.399    0.266  213.062   64.856
  510.500    6.558    0.405    0.251  213.148   67.002
  510.750    6.807    0.408    0.241  213.233   66.753
  511.000    6.873    0.394    0.258  213.830   67.705
  511.250    6.690    0.388    0.260  215.427   69.257
  511.500    6.335    0.382    0.250  218.003   72.022
  511.750    5.944    0.381    0.248  222.602   74.175
  512.000    5.681    0.378    0.251  228.179   75.427
  512.250    5.479    0.415    0.240  239.781   76.372
  512.500    5.284    0.470    0.248  250.882   77.637
  512.750    4.958    0.492    0.271  264.475   79.489
  513.000    4.694    0.489    0.293  272.585   81.054
  513.250    4.611    0.486    0.269  268.669   80.492
  513.500    4.699    0.471    0.253  265.742   79.650
  513.750    5.013    0.478    0.234  265.328   79.988
  514.000    5.300    0.491    0.257  263.412   81.547
  514.250    5.451    0.490    0.294  261.008   81.898
  514.500    6.089    0.463    0.289  258.102   80.755
  514.750    6.148    0.421    0.244  254.686   79.606
  515.000    5.876    0.394    0.215  250.770   79.651
  515.250    5.719    0.432    0.211  247.843   80.003
  515.500    5.618    0.482    0.223  245.917   79.760
  515.750    5.673    0.479    0.228  243.012   79.511
  516.000    5.781    0.462    0.215  241.107   79.863
  516.250    6.001    0.448    0.197  240.182   78.714
  516.500    6.171    0.432    0.232  237.777   76.677
  516.750    6.289    0.425    0.228  234.850   76.128
  517.000    6.292    0.428    0.226  233.435   77.367
  517.250    6.238    0.418    0.224  234.521   75.924
  517.500    6.185    0.409    0.207  238.619   76.569
  517.750    6.187    0.400    0.216  243.207   79.328
  518.000    6.134    0.397    0.211  250.285   82.388
  518.250    5.916    0.431    0.230  263.399   83.933
  518.500    5.706    0.437    0.215  266.986   85.792
  518.750    5.706    0.441    0.216  269.083   87.951
  519.000    5.558    0.460    0.224  274.182   90.097
  519.250    5.459    0.472    0.239  273.746   90.454
  519.500    5.313    0.474    0.260  271.841   88.105
  519.750    5.219    0.448    0.258  270.415   89.650
  520.000    5.270    0.435    0.277  266.009   90.308
  520.250    5.322    0.438    0.271  267.095   86.158
  520.500    5.473    0.476    0.262  271.683   86.215
  520.750    5.628    0.480    0.266  269.768   87.767
  521.000    6.006    0.464    0.265  258.837   88.419
  521.250    6.119    0.440    0.250  251.419   86.063
  521.500    6.123    0.416    0.231  251.005   83.419
  521.750    6.240    0.403    0.193  253.112   80.776
  522.000    6.657    0.402    0.198  254.188   79.020
  522.250    7.368    0.411    0.204  256.296   77.270
  522.500    7.790    0.397    0.194  258.872   75.821
  522.750    7.938    0.385    0.190  260.969   74.665
  523.000    8.393    0.379    0.185  260.544   72.922
  523.250    8.791    0.361    0.188  259.639   72.067
  523.500    9.554    0.340    0.181  260.215   71.218
  523.750    9.915    0.340    0.176  261.322   70.075
  524.000    9.921    0.354    0.189  262.387   69.232
  524.250    9.481    0.361    0.201  263.483   69.584
  524.500    8.191    0.367    0.213  264.069   69.635
  524.750    8.119    0.375    0.215  264.166   69.986
  525.000    8.274    0.378    0.199  264.741   70.632
  525.250    8.829    0.371    0.185  264.826   73.091
  525.500    9.248    0.363    0.178  264.412   75.556
  525.750    9.337    0.354    0.188  264.008   75.894
  526.000    9.172    0.357    0.200  263.582   75.946
  526.250    8.528    0.357    0.221  263.689   76.004
  526.500    7.928    0.348    0.195  264.275   73.654
  526.750    7.647    0.340    0.192  265.350   70.704
  527.000    7.792    0.330    0.189  265.968   68.954
  527.250    7.868    0.332    0.187  265.968   68.699
  527.500    7.658    0.336    0.182  266.608   69.657
  527.750    7.592    0.342    0.175  266.704   71.509
  528.000    7.808    0.346    0.181  267.343   73.968
  528.250    8.031    0.349    0.182  267.375   76.427
  528.500    7.961    0.354    0.188  267.961   77.373
  528.750    7.893    0.357    0.197  268.558   75.923
  529.000    8.193    0.338    0.195  269.654   73.567
  529.250    7.974    0.331    0.194  269.719   73.331
  529.500    7.551    0.352    0.194  270.837   74.283
  529.750    7.283    0.353    0.191  271.923   75.228
  530.000    7.421    0.349    0.194  272.987   77.380
  530.250    7.918    0.341    0.200  274.073   79.846
  530.500    7.923    0.340    0.196  275.160   79.003
  530.750    7.711    0.339    0.184  276.278   79.048
  531.000    7.711    0.344    0.190  277.353   79.393
  531.250    7.718    0.338    0.198  277.939   79.445
  531.500    7.795    0.327    0.206  278.535   79.796
  531.750    7.943    0.341    0.213  277.599   82.255
  532.000    7.875    0.359    0.230  273.182   81.706
  532.250    7.595    0.360    0.226  265.764   79.656
  532.500    7.460    0.325    0.227  259.347   78.213
  532.750    7.464    0.299    0.232  258.932   78.865
  533.000    7.891    0.303    0.197  261.519   79.823
  533.250    7.968    0.308    0.190  260.114   79.862
  533.500    7.899    0.312    0.195  260.200   80.520
  533.750    7.832    0.326    0.219  266.299   81.171
  534.000    7.764    0.341    0.209  270.887   82.430
  534.250    7.839    0.362    0.228  275.464   82.481
  534.500    7.845    0.382    0.239  283.564   82.833
  534.750    7.565    0.390    0.272  282.649   84.691
  535.000    7.229    0.365    0.276  278.733   85.036
  535.250    6.721    0.326    0.272  275.327   84.787
  535.500    6.306    0.333    0.248  273.912   83.945
  535.750    6.138    0.334    0.224  262.982   82.195
  536.000    6.429    0.316    0.223  255.064   79.252
  536.250    7.051    0.327    0.206  254.649   78.703
  536.500    7.455    0.346    0.216  252.744   78.741
  536.750    7.737    0.357    0.234  253.330   79.399
  537.000    7.958    0.348    0.235  254.906   79.451
  537.250    8.260    0.345    0.240  256.503   79.502
  537.500    8.573    0.344    0.216  256.588   76.552
  537.750    8.898    0.340    0.195  254.173   74.496
  538.000   10.032    0.308    0.180  254.769   72.452
  538.250   10.508    0.295    0.162  259.846   71.903
  538.500   10.807    0.306    0.187  265.456   72.862
  538.750   11.530    0.310    0.210  267.553   73.220
  539.000   12.999    0.317    0.225  268.629   71.163
  539.250   15.626    0.335    0.233  268.714   67.607
  539.500   17.455    0.346    0.239  268.800   64.657
  539.750   16.836    0.352    0.239  268.885   62.626
  540.000   14.813    0.346    0.248  268.460   61.458
  540.250   13.771    0.331    0.233  267.045   62.722
  540.500   13.409    0.328    0.234  265.162   63.668
  540.750   13.167    0.328    0.248  264.736   62.525
  541.000   13.419    0.327    0.256  264.332   63.164
  541.250   13.555    0.328    0.268  264.396   65.035
  541.500   13.808    0.333    0.265  264.993   66.881
  541.750   13.943    0.342    0.259  265.068   66.626
  542.000   13.822    0.348    0.243  264.185   64.276
  542.250   13.831    0.316    0.215  261.248   61.639
  542.500   13.836    0.315    0.220  259.332   63.184
  542.750   13.836    0.347    0.246  260.440   65.037
  543.000   13.724    0.355    0.231  261.504   64.188
  543.250   13.986    0.326    0.213  261.590   61.844
  543.500   14.383    0.319    0.209  260.686   58.581
  543.750   15.067    0.293    0.202  258.760   56.538
