~VERSION INFORMATION
 VERS.                 2.0:   CWLS LOG ASCII STANDARD -VERSION 2.0
 WRAP.                  NO:   ONE LINE PER DEPTH STEP
~WELL INFORMATION BLOCK
#MNEM.UNIT           DATA                    DESCRIPTION OF MNEMONIC
#---------    -------------------            -------------------------------
# Generated from Intellog Unique Number	CS_77_79/WELL/956
WELL.         CWWE SOUTH CHRISTINA           : Well_name    - WELL
LOC .         00/10-16-079-09W4/0            : Location     - LOCATION
UWI .         00/10-16-079-09W4/0            : Uwi          - UNIQUE WELL ID
ENTR.         JHS                            : Entered      - ENTERED BY
SRVC.         SCHLUMBERGER                   : Scn          - SERVICE COMPANY
STRT.M        243.84                         : top_depth    - START DEPTH
STOP.M        475.34                         : bot_depth    - STOP DEPTH
STEP.M        0.25                           : increment    - STEP LENGTH
 NULL. -999.2500:NULL Value
~CURVE INFORMATION BLOCK
#MNEM UNIT       ERCB CURVE CODE    CURVE DESCRIPTION
#-----------   ------------------   ----------------------------------
DEPT.M        00 001 00 00         : DEPTH        - DEPTH
RHOB.KG/M3    00 350 00 00         : DENS         - BULK DENSITY
GR  .API      00 310 00 00         : GR           - GAMMA RAY
DPHI.V/V      00 890 00 00         : PHID         - DENSITY POROSITY (SANDSTONE)
NPHI.V/V      00 330 00 00         : PHIN         - NEUTRON POROSITY (SANDSTONE)
ILD .OHMM     00 120 00 00         : RESD         - DEEP RESISTIVITY (DIL)
~PARAMETER INFORMATION
#MNEM.UNIT           DATA             DESCRIPTION OF MNEMONIC
#---------         -----------     ------------------------------
GL  .M        677.601              : gl           - GROUND LEVEL ELEVATION
EREF.M        680.253              : kb           - ELEVATION OF DEPTH REFERENCE
DATM.M        680.253              : datum        - DATUM ELEVATION
TDD .M        478.536              : tdd          - TOTAL DEPTH DRILLER
RUN .         ONE                  : Run          - RUN NUMBER
ENG .         BILL                 : Engineer     - RECORDING ENGINEER
WIT .         JIM                  : Witness      - WITNESSED BY
MUD .         GEL                  : Mud_type     - MUD TYPE
MATR.         SANDSTONE            : Logunit      - NEUTRON MATRIX
TMAX.C        27.2222              : BHT          - MAXIMUM RECORDED TEMPERATURE
BHTD.M        478.536              : BHTDEP       - MAXIMUM RECORDED TEMPERATURE
MATR.         1                    : LOGUNIT      - NEUTRON MATRIX
RMT .C        25                   : MDTP         - TEMPERATURE OF MUD
NEUT.         1                    : NEUTRON      - NEUTRON TYPE
RESI.         0                    : RESIST       - RESISTIVITY TYPE
RMC .OHMM     0.25                 : RMC          - RESISTIVITY OF MUD CAKE
RMF .OHMM     0.25                 : RMF          - RESISTIVITY OF MUD FILTRATE
SUFT.C        15                   : SUFT         - SURFACE TEMPERATURE
~A  DEPTH     DENS       GR     PHID     PHIN     RESD
  243.840    0.000  109.799    0.272    0.571    3.894
  244.090    0.000  109.051    0.257    0.561    3.822
  244.340    0.000  108.088    0.258    0.575    3.824
  244.590    0.000  112.568    0.250    0.608    3.829
  244.840    0.000  115.069    0.273    0.598    3.758
  245.090    0.000  114.247    0.305    0.591    3.686
  245.340    0.000  110.643    0.291    0.604    3.630
  245.590    0.000  109.774    0.283    0.606    3.593
  245.840    0.000  110.526    0.287    0.587    3.555
  246.090    0.000  112.062    0.270    0.605    3.439
  246.340    0.000  112.447    0.275    0.613    3.412
  246.590    0.000  113.525    0.303    0.617    3.305
  246.840    0.000  115.615    0.308    0.617    3.245
  247.090    0.000  115.773    0.311    0.617    3.249
  247.340    0.000  114.142    0.304    0.618    3.250
  247.590    0.000  113.198    0.297    0.618    3.251
  247.840    0.000  111.264    0.301    0.618    3.250
  248.090    0.000  106.599    0.297    0.614    3.256
  248.340    0.000  104.811    0.293    0.609    3.193
  248.590    0.000  103.819    0.298    0.601    3.131
  248.840    0.000  103.802    0.309    0.596    3.142
  249.090    0.000  106.417    0.311    0.599    3.073
  249.340    0.000  110.787    0.285    0.605    3.077
  249.590    0.000  113.565    0.301    0.593    3.016
  249.840    0.000  112.277    0.298    0.595    3.087
  250.090    0.000  107.576    0.288    0.606    3.083
  250.340    0.000  105.025    0.292    0.617    3.084
  250.590    0.000  106.014    0.268    0.600    3.095
  250.840    0.000  106.432    0.261    0.602    3.198
  251.090    0.000  106.669    0.256    0.609    3.231
  251.340    0.000  108.422    0.277    0.614    3.345
  251.590    0.000  108.928    0.288    0.601    3.498
  251.840    0.000  107.203    0.277    0.580    3.710
  252.090    0.000  107.797    0.248    0.564    3.939
  252.340    0.000  112.361    0.242    0.557    4.193
  252.590    0.000  114.707    0.242    0.547    4.361
  252.840    0.000  116.041    0.242    0.552    4.544
  253.090    0.000  112.979    0.257    0.579    4.603
  253.340    0.000  111.096    0.266    0.558    4.606
  253.590    0.000  113.062    0.266    0.550    4.466
  253.840    0.000  115.035    0.244    0.545    4.340
  254.090    0.000  115.862    0.254    0.545    4.106
  254.340    0.000  112.182    0.251    0.576    3.931
  254.590    0.000  108.224    0.241    0.585    3.960
  254.840    0.000  105.147    0.248    0.590    4.076
  255.090    0.000  105.469    0.229    0.556    4.194
  255.340    0.000  111.665    0.209    0.542    4.421
  255.590    0.000  116.395    0.162    0.559    4.646
  255.840    0.000  119.419    0.235    0.538    4.643
  256.090    0.000  119.650    0.254    0.531    4.522
  256.340    0.000  121.013    0.258    0.540    4.390
  256.590    0.000  122.229    0.232    0.569    4.264
  256.840    0.000  118.950    0.231    0.597    4.167
  257.090    0.000  113.376    0.233    0.604    4.314
  257.340    0.000  111.676    0.208    0.610    4.403
  257.590    0.000  109.561    0.243    0.601    4.577
  257.840    0.000  107.231    0.254    0.550    4.719
  258.090    0.000  103.718    0.236    0.520    4.819
  258.340    0.000  104.162    0.227    0.503    4.918
  258.590    0.000  108.284    0.242    0.493    4.912
  258.840    0.000  108.270    0.227    0.522    4.916
  259.090    0.000  104.763    0.241    0.543    4.918
  259.340    0.000   99.999    0.238    0.543    5.065
  259.590    0.000   95.448    0.232    0.519    5.357
  259.840    0.000   92.329    0.232    0.517    5.695
  260.090    0.000   92.113    0.251    0.515    6.079
  260.340    0.000   92.388    0.262    0.500    6.574
  260.590    0.000   90.713    0.259    0.493    6.956
  260.840    0.000   88.970    0.262    0.503    7.551
  261.090    0.000   87.962    0.259    0.503    7.817
  261.340    0.000   85.933    0.272    0.483    8.060
  261.590    0.000   83.467    0.289    0.474    8.305
  261.840    0.000   80.933    0.279    0.456    8.554
  262.090    0.000   83.685    0.292    0.445    8.543
  262.340    0.000   88.220    0.267    0.453    8.493
  262.590    0.000   89.399    0.251    0.490    8.398
  262.840    0.000   86.868    0.247    0.495    8.401
  263.090    0.000   84.012    0.258    0.486    8.434
  263.340    0.000   85.732    0.274    0.467    8.710
  263.590    0.000   88.423    0.287    0.460    9.091
  263.840    0.000   89.506    0.273    0.464    9.204
  264.090    0.000   88.453    0.271    0.473    9.225
  264.340    0.000   85.715    0.274    0.467    8.962
  264.590    0.000   85.410    0.271    0.461    8.701
  264.840    0.000   89.097    0.269    0.480    8.441
  265.090    0.000   88.988    0.263    0.502    8.132
  265.340    0.000   87.708    0.256    0.504    7.808
  265.590    0.000   90.097    0.249    0.501    7.700
  265.840    0.000   93.811    0.263    0.501    7.379
  266.090    0.000   96.096    0.247    0.503    7.270
  266.340    0.000   95.806    0.230    0.494    7.207
  266.590    0.000   94.031    0.246    0.494    7.447
  266.840    0.000   90.947    0.253    0.501    7.664
  267.090    0.000   87.060    0.271    0.486    8.394
  267.340    0.000   82.324    0.290    0.481    8.974
  267.590    0.000   80.939    0.279    0.483    9.390
  267.840    0.000   81.127    0.277    0.474    9.685
  268.090    0.000   77.274    0.255    0.484    9.757
  268.340    0.000   73.698    0.277    0.472    9.339
  268.590    0.000   77.182    0.285    0.441    8.836
  268.840    0.000   85.463    0.260    0.443    8.588
  269.090    0.000   86.110    0.250    0.471    8.522
  269.340    0.000   80.803    0.263    0.484    8.737
  269.590    0.000   79.368    0.273    0.471    9.241
  269.840    0.000   84.504    0.257    0.465    9.659
  270.090    0.000   87.466    0.248    0.486    9.840
  270.340    0.000   88.982    0.245    0.468   10.334
  270.590    0.000   90.029    0.225    0.466   10.341
  270.840    0.000   90.337    0.225    0.469   10.345
  271.090    0.000   92.953    0.216    0.451   10.348
  271.340    0.000   93.648    0.215    0.444   10.349
  271.590    0.000   93.325    0.229    0.453   10.351
  271.840    0.000   95.841    0.247    0.459   10.368
  272.090    0.000   96.747    0.251    0.466   10.089
  272.340    0.000   92.098    0.257    0.464    9.802
  272.590    0.000   89.835    0.256    0.461    8.975
  272.840    0.000   89.722    0.257    0.482    8.087
  273.090    0.000   89.721    0.277    0.500    7.743
  273.340    0.000   87.683    0.259    0.506    7.847
  273.590    0.000   82.996    0.256    0.504    8.759
  273.840    0.000   82.807    0.290    0.566   10.020
  274.090    0.000   88.575    0.309    0.549   12.040
  274.340    0.000   89.682    0.268    0.505   15.558
  274.590    0.000   83.657    0.285    0.453   18.373
  274.840    0.000   64.847    0.272    0.421   20.486
  275.090    0.000   60.978    0.255    0.395   21.248
  275.340    0.000   66.035    0.242    0.384   20.668
  275.590    0.000   74.930    0.242    0.384   19.130
  275.840    0.000   81.862    0.263    0.401   17.733
  276.090    0.000   86.029    0.242    0.437   16.505
  276.340    0.000   90.490    0.266    0.461   15.917
  276.590    0.000   97.189    0.275    0.476   14.261
  276.840    0.000   99.910    0.263    0.477   13.916
  277.090    0.000   97.584    0.259    0.473   14.262
  277.340    0.000   89.506    0.278    0.471   14.507
  277.590    0.000   84.152    0.282    0.458   14.213
  277.840    0.000   81.377    0.287    0.453   13.945
  278.090    0.000   82.356    0.278    0.460   13.973
  278.340    0.000   83.305    0.306    0.541   14.063
  278.590    0.000   83.289    0.324    0.509   14.228
  278.840    0.000   78.350    0.308    0.490   15.302
  279.090    0.000   67.109    0.321    0.490   16.810
  279.340    0.000   57.208    0.338    0.477   19.017
  279.590    0.000   55.225    0.340    0.470   20.677
  279.840    0.000   58.608    0.348    0.479   21.474
  280.090    0.000   60.561    0.344    0.476   22.530
