~VERSION INFORMATION
 VERS.                 2.0:   CWLS LOG ASCII STANDARD -VERSION 2.0
 WRAP.                  NO:   ONE LINE PER DEPTH STEP
~WELL INFORMATION BLOCK
#MNEM.UNIT           DATA                    DESCRIPTION OF MNEMONIC
#---------    -------------------            -------------------------------
# Generated from Intellog Unique Number	CS_73_76/WELL/2182
WELL.         PEX KIRBY                      : Well_name    - WELL
LOC .         00/10-01-074-08W4/0            : Location     - LOCATION
UWI .         00/10-01-074-08W4/0            : Uwi          - UNIQUE WELL ID
ENTR.         SP                             : Entered      - ENTERED BY
SRVC.         SCHLUMBERGER                   : Scn          - SERVICE COMPANY
STRT.M        340                            : top_depth    - START DEPTH
STOP.M        565                            : bot_depth    - STOP DEPTH
STEP.M        0.25                           : increment    - STEP LENGTH
 NULL. -999.2500:NULL Value
~CURVE INFORMATION BLOCK
#MNEM UNIT       ERCB CURVE CODE    CURVE DESCRIPTION
#-----------   ------------------   ----------------------------------
DEPT.M        00 001 00 00         : DEPTH        - DEPTH
DPHI.V/V      00 890 00 00         : PHID         - DENSITY POROSITY (LIMESTONE)
NPHI.V/V      00 330 00 00         : PHIN         - NEUTRON POROSITY (LIMESTONE)
GR  .API      00 310 00 00         : GR           - GAMMA RAY
ILD .OHMM     00 120 00 00         : RESD         - DEEP RESISTIVITY (DIL)
~PARAMETER INFORMATION
#MNEM.UNIT           DATA             DESCRIPTION OF MNEMONIC
#---------         -----------     ------------------------------
GL  .M        725.14               : gl           - GROUND LEVEL ELEVATION
EREF.M        728.54               : kb           - ELEVATION OF DEPTH REFERENCE
DATM.M        725.14               : datum        - DATUM ELEVATION
TDD .M        573                  : tdd          - TOTAL DEPTH DRILLER
RUN .         ONE                  : Run          - RUN NUMBER
ENG .         BILL                 : Engineer     - RECORDING ENGINEER
WIT .         JIM                  : Witness      - WITNESSED BY
MUD .         GEL                  : Mud_type     - MUD TYPE
MATR.         LIMESTONE            : Logunit      - NEUTRON MATRIX
TMAX.C        30                   : BHT          - MAXIMUM RECORDED TEMPERATURE
BHTD.M        573                  : BHTDEP       - MAXIMUM RECORDED TEMPERATURE
MATR.         1                    : LOGUNIT      - NEUTRON MATRIX
RMT .C        25                   : MDTP         - TEMPERATURE OF MUD
NEUT.         1                    : NEUTRON      - NEUTRON TYPE
RESI.         0                    : RESIST       - RESISTIVITY TYPE
RMC .OHMM     0.25                 : RMC          - RESISTIVITY OF MUD CAKE
RMF .OHMM     0.25                 : RMF          - RESISTIVITY OF MUD FILTRATE
SUFT.C        15                   : SUFT         - SURFACE TEMPERATURE
~A  DEPTH     PHID     PHIN       GR     RESD
# ...
  427.000    0.309    0.385   81.147    3.951
  427.250    0.303    0.391   87.910    4.136
  427.500    0.314    0.409   95.287    4.797
  427.750    0.308    0.422   87.910    5.721
  428.000    0.296    0.398   81.147    6.045
  428.250    0.298    0.386   78.074    5.985
  428.500    0.294    0.379   76.230    5.603
  428.750    0.298    0.390   68.238    5.196
  429.000    0.296    0.413   74.385    4.820
  429.250    0.299    0.399   73.156    4.641
  429.500    0.293    0.421   79.918    4.552
  429.750    0.286    0.427   78.689    4.677
  430.000    0.277    0.421   75.615    5.034
  430.250    0.260    0.425   74.385    5.370
  430.500    0.245    0.429   79.303    5.780
  430.750    0.238    0.403   79.303    5.995
  431.000    0.234    0.383   80.533    6.047
  431.250    0.243    0.371   78.689    6.043
  431.500    0.243    0.365   85.451    6.268
  431.750    0.253    0.367   82.992    6.321
  432.000    0.242    0.361   86.066    6.376
  432.250    0.237    0.367   76.230    6.552
  432.500    0.243    0.381   79.303    6.795
  432.750    0.251    0.380   76.230    6.854
  433.000    0.272    0.380   77.459    6.722
  433.250    0.268    0.373   81.147    6.471
  433.500    0.251    0.381   78.689    5.892
  433.750    0.271    0.378   76.844    5.465
  434.000    0.277    0.384   73.770    4.793
  434.250    0.267    0.395   74.385    4.126
  434.500    0.265    0.394   75.615    3.792
  434.750    0.232    0.411   80.533    3.517
  435.000    0.228    0.417   86.680    3.292
  435.250    0.225    0.417   90.984    3.082
  435.500    0.241    0.406   89.754    2.940
  435.750    0.243    0.405   93.443    2.778
  436.000    0.236    0.398   94.057    2.675
  436.250    0.239    0.417   92.828    2.527
  436.500    0.234    0.442   97.131    2.433
  436.750    0.240    0.427   98.361    2.364
  437.000    0.247    0.423   97.746    2.452
  437.250    0.250    0.449  103.893    2.715
  437.500    0.246    0.461   97.131    3.090
  437.750    0.242    0.442   98.975    3.584
  438.000    0.235    0.439   95.287    4.196
  438.250    0.229    0.435   95.902    5.243
  438.500    0.220    0.428   96.516    6.430
  438.750    0.204    0.434   89.754    6.669
  439.000    0.218    0.421   90.369    6.726
  439.250    0.231    0.408   92.828    6.722
  439.500    0.219    0.418   90.369    7.169
  439.750    0.218    0.401   90.369    6.837
  440.000    0.210    0.396   87.910    6.400
  440.250    0.210    0.389   84.836    6.219
  440.500    0.221    0.392   82.992    6.216
  440.750    0.232    0.400   81.762    6.629
  441.000    0.236    0.385   78.074    7.339
  441.250    0.236    0.379   81.147    7.975
  441.500    0.231    0.352   76.844    8.745
  441.750    0.205    0.323   80.533    8.904
  442.000    0.132    0.303   68.853    8.981
  442.250    0.004    0.227   60.861    8.486
  442.500    0.087    0.234   49.795    7.798
  442.750    0.189    0.276   54.713    7.233
  443.000    0.235    0.324   63.320    6.403
  443.250    0.220    0.392   78.689    5.884
  443.500    0.211    0.407   82.377    5.508
  443.750    0.231    0.403   86.066    5.303
  444.000    0.236    0.400   88.525    5.300
  444.250    0.241    0.409   92.213    5.345
  444.500    0.247    0.408   94.057    5.491
  444.750    0.211    0.423   93.443    5.540
  445.000    0.192    0.436   91.598    5.536
  445.250    0.203    0.417   86.680    5.429
  445.500    0.192    0.402   90.369    5.227
  445.750    0.223    0.413   87.295    4.671
  446.000    0.258    0.395   90.369    3.984
  446.250    0.237    0.386   87.910    3.243
  446.500    0.217    0.386   92.213    2.641
  446.750    0.199    0.386   87.910    2.252
  447.000    0.215    0.390   89.754    1.994
  447.250    0.244    0.414   92.828    1.901
  447.500    0.236    0.430   95.902    1.991
  447.750    0.250    0.458   98.975    2.143
  448.000    0.245    0.451   97.746    2.286
  448.250    0.227    0.429   90.984    2.484
  448.500    0.216    0.405   92.213    2.699
  448.750    0.216    0.385   89.754    2.799
  449.000    0.238    0.397   95.902    3.013
  449.250    0.240    0.416   96.516    3.244
  449.500    0.231    0.443   88.525    3.492
  449.750    0.228    0.405   88.525    3.795
  450.000    0.228    0.394   89.139    4.048
  450.250    0.217    0.405   89.139    4.440
  450.500    0.227    0.411   86.066    4.691
  450.750    0.240    0.428   82.377    5.050
  451.000    0.250    0.413   81.147    5.238
  451.250    0.259    0.393   77.459    5.383
  451.500    0.251    0.392   74.385    5.378
  451.750    0.228    0.387   79.303    5.324
  452.000    0.221    0.393   81.147    5.222
  452.250    0.218    0.400   80.533    5.122
  452.500    0.223    0.405   78.689    5.070
  452.750    0.243    0.399   82.992    5.067
  453.000    0.258    0.414   86.066    5.158
  453.250    0.257    0.401   87.295    5.301
  453.500    0.251    0.390   79.918    5.396
  453.750    0.235    0.398   82.377    5.544
  454.000    0.223    0.377   84.836    5.593
  454.250    0.234    0.379   82.377    5.641
  454.500    0.252    0.396   78.689    5.636
  454.750    0.269    0.407   72.541    5.477
  455.000    0.274    0.389   68.853    5.371
  455.250    0.273    0.389   67.623    5.269
  455.500    0.270    0.394   73.156    5.216
  455.750    0.268    0.383   71.926    5.164
  456.000    0.252    0.387   75.000    5.112
  456.250    0.212    0.378   78.689    5.109
  456.500    0.206    0.391   76.844    5.057
  456.750    0.214    0.382   77.459    5.053
  457.000    0.220    0.394   82.992    5.097
  457.250    0.225    0.383   89.754    5.141
  457.500    0.215    0.393   82.992    5.382
  457.750    0.204    0.410   78.689    5.687
  458.000    0.209    0.381   82.377    5.954
  458.250    0.214    0.381   86.066    6.289
  458.500    0.245    0.396   80.533    6.465
  458.750    0.238    0.397   76.230    6.704
  459.000    0.226    0.386   82.377    6.762
  459.250    0.224    0.386   86.680    6.695
  459.500    0.234    0.379   80.533    6.384
  459.750    0.231    0.386   79.303    6.090
  460.000    0.226    0.384   81.762    5.596
  460.250    0.231    0.383   81.147    5.142
  460.500    0.232    0.373   81.147    4.814
  460.750    0.231    0.396   84.836    4.635
  461.000    0.221    0.392   84.221    4.503
  461.250    0.198    0.391   89.754    4.501
  461.500    0.197    0.392   85.451    4.540
  461.750    0.198    0.401   86.066    4.664
  462.000    0.206    0.386   86.680    4.618
  462.250    0.216    0.385   89.139    4.572
  462.500    0.214    0.402   81.762    4.361
  462.750    0.215    0.423   83.607    4.120
  463.000    0.230    0.450   81.147    3.966
  463.250    0.247    0.425   85.451    4.192
  463.500    0.266    0.436   89.139    4.772
  463.750    0.293    0.409   88.525    5.282
  464.000    0.300    0.398   82.992    5.687
  464.250    0.255    0.403   78.689    6.009
  464.500    0.260    0.413   76.230    6.061
  464.750    0.259    0.413   82.377    6.056
  465.000    0.256    0.390   79.303    5.940
  465.250    0.258    0.391   79.303    5.561
  465.500    0.238    0.391   73.770    4.788
  465.750    0.242    0.366   76.230    3.518
  466.000    0.243    0.363   73.156    2.864
  466.250    0.242    0.375   78.074    2.489
  466.500    0.238    0.385   79.303    2.352
  466.750    0.249    0.404   87.910    2.417
  467.000    0.232    0.392   88.525    2.726
  467.250    0.224    0.386   86.066    3.251
  467.500    0.221    0.372   85.451    3.735
  467.750    0.240    0.400   79.918    4.253
  468.000    0.252    0.421   75.615    4.707
  468.250    0.287    0.414   69.467    5.021
  468.500    0.296    0.415   67.008    5.716
  468.750    0.304    0.398   70.697    6.507
  469.000    0.320    0.373   67.623    7.618
  469.250    0.306    0.354   68.853    8.918
  469.500    0.158    0.309   65.164   10.938
  469.750    0.023    0.277   54.098   12.568
  470.000    0.045    0.246   44.262   11.656
  470.250    0.079    0.289   47.336    6.724
