~VERSION INFORMATION
 VERS.                 2.0:   CWLS LOG ASCII STANDARD -VERSION 2.0
 WRAP.                  NO:   ONE LINE PER DEPTH STEP
~WELL INFORMATION BLOCK
#MNEM.UNIT           DATA                    DESCRIPTION OF MNEMONIC
#---------    -------------------            -------------------------------
# Generated from Intellog Unique Number	CS_73_76/WELL/4776
WELL.         BOW VALLEY                     : Well_name    - WELL
LOC .         00/10-01-074-14W4/0            : Location     - LOCATION
UWI .         00/10-01-074-14W4/0            : Uwi          - UNIQUE WELL ID
ENTR.         T                              : Entered      - ENTERED BY
SRVC.         SCHLUMBERGER                   : Scn          - SERVICE COMPANY
STRT.M        500                            : top_depth    - START DEPTH
STOP.M        580                            : bot_depth    - STOP DEPTH
STEP.M        0.25                           : increment    - STEP LENGTH
 NULL. -999.2500:NULL Value
~CURVE INFORMATION BLOCK
#MNEM UNIT       ERCB CURVE CODE    CURVE DESCRIPTION
#-----------   ------------------   ----------------------------------
DEPT.M        00 001 00 00         : DEPTH        - DEPTH
GR  .API      00 310 00 00         : GR           - GAMMA RAY
NPHI.V/V      00 330 00 00         : PHIN         - NEUTRON POROSITY (SANDSTONE)
DPHI.V/V      00 890 00 00         : PHID         - DENSITY POROSITY (SANDSTONE)
ILD .OHMM     00 120 00 00         : RESD         - DEEP RESISTIVITY (DIL)
~PARAMETER INFORMATION
#MNEM.UNIT           DATA             DESCRIPTION OF MNEMONIC
#---------         -----------     ------------------------------
GL  .M        695                  : gl           - GROUND LEVEL ELEVATION
EREF.M        698.4                : kb           - ELEVATION OF DEPTH REFERENCE
DATM.M        698.4                : datum        - DATUM ELEVATION
TDD .M        586                  : tdd          - TOTAL DEPTH DRILLER
RUN .         ONE                  : Run          - RUN NUMBER
ENG .         BILL                 : Engineer     - RECORDING ENGINEER
WIT .         JIM                  : Witness      - WITNESSED BY
MUD .         GEL                  : Mud_type     - MUD TYPE
MATR.         SANDSTONE            : Logunit      - NEUTRON MATRIX
TMAX.C        25                   : BHT          - MAXIMUM RECORDED TEMPERATURE
BHTD.M        586                  : BHTDEP       - MAXIMUM RECORDED TEMPERATURE
MATR.         1                    : LOGUNIT      - NEUTRON MATRIX
RMT .C        25                   : MDTP         - TEMPERATURE OF MUD
NEUT.         1                    : NEUTRON      - NEUTRON TYPE
RESI.         0                    : RESIST       - RESISTIVITY TYPE
RMC .OHMM     4.5                  : RMC          - RESISTIVITY OF MUD CAKE
RMF .OHMM     3.4                  : RMF          - RESISTIVITY OF MUD FILTRATE
SUFT.C        15                   : SUFT         - SURFACE TEMPERATURE
~A  DEPTH       GR     PHIN     PHID     RESD
  500.000  111.730    0.427    0.242    1.756
  500.250  111.140    0.431    0.242    1.757
  500.500  109.322    0.433    0.234    1.760
  500.750  108.118    0.438    0.231    1.829
  501.000  109.369    0.448    0.224    1.901
  501.250  111.240    0.456    0.215    2.170
  501.500  112.485    0.450    0.202    2.572
  501.750  112.515    0.450    0.200    2.935
  502.000  110.703    0.451    0.207    3.288
  502.250  109.487    0.457    0.215    4.123
  502.500  105.219    0.462    0.210    4.796
  502.750  102.787    0.473    0.188    5.474
  503.000  101.589    0.531    0.168    5.691
  503.250  100.373    0.556    0.150    5.591
  503.500   99.783    0.565    0.129    5.493
  503.750  104.109    0.565    0.113    5.605
  504.000  108.429    0.562    0.117    5.825
  504.250  110.914    0.554    0.183    5.942
  504.500  110.324    0.542    0.206    5.837
  504.750  110.347    0.528    0.212    5.527
  505.000  110.371    0.525    0.208    5.328
  505.250  110.394    0.523    0.213    4.859
  505.500  110.412    0.521    0.215    4.597
  505.750  110.436    0.518    0.213    4.351
  506.000  110.459    0.495    0.209    4.195
  506.250  112.938    0.446    0.202    3.970
  506.500  113.575    0.442    0.201    3.828
  506.750  114.219    0.441    0.201    3.761
  507.000  114.236    0.437    0.201    3.695
  507.250  114.260    0.426    0.195    3.699
  507.500  114.283    0.425    0.188    3.637
  507.750  114.926    0.428    0.185    3.640
  508.000  115.558    0.430    0.192    3.575
  508.250  114.979    0.428    0.198    3.449
  508.500  112.536    0.398    0.205    3.389
  508.750  107.649    0.376    0.196    3.329
  509.000  107.064    0.360    0.188    3.152
  509.250  110.157    0.402    0.187    3.037
  509.500  112.022    0.419    0.189    2.875
  509.750  108.362    0.450    0.193    2.773
  510.000  105.317    0.464    0.200    2.723
  510.250  104.720    0.462    0.206    2.727
  510.500  103.516    0.460    0.210    2.783
  510.750  104.767    0.470    0.205    2.891
  511.000  104.177    0.482    0.200    3.005
  511.250   96.221    0.494    0.196    3.305
  511.500  104.224    0.499    0.196    3.633
  511.750  109.164    0.494    0.196    4.226
  512.000  114.099    0.490    0.201    5.298
  512.250  117.805    0.488    0.209    6.641
  512.500  119.056    0.486    0.220    8.327
  512.750  119.086    0.485    0.233   10.439
  513.000  119.103    0.484    0.244   12.605
  513.250  118.519    0.482    0.244   15.225
  513.500  117.934    0.479    0.215   18.388
  513.750  117.946    0.480    0.201   20.211
  514.000  116.742    0.486    0.158   20.244
  514.250  113.702    0.495    0.132   19.515
  514.500  114.334    0.501    0.106   17.142
  514.750  116.813    0.511    0.101   16.521
  515.000  117.450    0.517    0.195   15.638
  515.250  116.860    0.519    0.206   15.083
  515.500  117.497    0.519    0.209   14.548
  515.750  118.134    0.521    0.218   14.289
  516.000  119.999    0.523    0.225   14.035
  516.250  120.643    0.517    0.231   13.282
  516.500  118.205    0.486    0.236   11.885
  516.750  116.387    0.463    0.236   10.435
  517.000  116.410    0.447    0.237    9.337
  517.250  113.371    0.420    0.234    8.513
  517.500  118.299    0.348    0.228    8.052
  517.750  119.556    0.340    0.221    7.341
  518.000  118.346    0.329    0.209    6.818
  518.250  117.142    0.314    0.191    6.701
  518.500  115.330    0.293    0.190    7.509
  518.750  114.131    0.272    0.203    7.800
  519.000  112.915    0.258    0.220    9.074
  519.250  108.028    0.241    0.230   10.756
  519.500  103.141    0.248    0.239   12.506
  519.750   97.646    0.264    0.260   15.391
  520.000   93.981    0.322    0.283   18.584
  520.250   89.707    0.354    0.293   20.432
  520.500   84.826    0.375    0.293   21.247
  520.750   83.002    0.381    0.273   20.492
  521.000   80.570    0.388    0.260   19.754
  521.250   76.916    0.394    0.265   18.689
  521.500   74.479    0.388    0.276   17.358
  521.750   80.027    0.376    0.286   16.435
  522.000   86.803    0.371    0.282   15.847
  522.250   91.737    0.378    0.272   15.280
  522.500   96.057    0.384    0.255   14.460
  522.750  101.617    0.410    0.226   13.688
  523.000  105.324    0.421    0.216   13.195
  523.250  107.797    0.428    0.217   12.727
  523.500  109.048    0.421    0.220   12.740
  523.750  107.236    0.404    0.229   12.992
  524.000  106.645    0.374    0.238   13.510
  524.250  110.352    0.345    0.238   14.578
  524.500  114.052    0.316    0.240   16.023
  524.750  119.606    0.311    0.249   18.993
  525.000  124.535    0.316    0.263   21.277
  525.250  126.400    0.319    0.278   24.287
  525.500  126.423    0.324    0.306   29.888
  525.750  124.605    0.327    0.323   31.072
  526.000  121.566    0.323    0.323   31.097
  526.250  119.128    0.342    0.322   31.728
  526.500  116.082    0.348    0.325   33.617
  526.750  110.581    0.352    0.330   34.920
  527.000   97.100    0.354    0.335   37.680
  527.250   85.467    0.361    0.337   42.211
  527.500   83.035    0.363    0.328   49.106
  527.750   81.211    0.365    0.312   55.011
  528.000   79.393    0.367    0.321   56.127
  528.250   77.587    0.367    0.343   57.282
  528.500   81.287    0.368    0.340   57.344
  528.750   85.602    0.368    0.329   57.374
  529.000   88.695    0.365    0.325   56.400
  529.250   88.104    0.354    0.325   53.388
  529.500   87.514    0.342    0.320   52.438
  529.750   88.765    0.335    0.313   51.520
  530.000   90.636    0.319    0.314   49.691
  530.250   92.501    0.311    0.310   49.718
  530.500   95.594    0.310    0.282   47.953
  530.750   99.294    0.313    0.286   46.251
  531.000   98.090    0.317    0.295   44.609
  531.250   93.823    0.322    0.292   43.804
  531.500   90.771    0.317    0.288   42.249
  531.750   87.731    0.309    0.291   41.509
  532.000   85.300    0.297    0.294   40.035
  532.250   82.254    0.294    0.297   37.887
  532.500   78.594    0.306    0.293   35.188
  532.750   76.162    0.321    0.294   32.672
  533.000   75.572    0.400    0.299   29.228
  533.250   76.823    0.421    0.294   24.724
  533.500   79.296    0.437    0.283   20.139
  533.750   81.781    0.450    0.276   17.353
  534.000   81.799    0.444    0.257   14.675
  534.250   82.448    0.435    0.249   14.422
  534.500   84.313    0.437    0.251   15.557
  534.750   85.564    0.432    0.259   15.873
  535.000   83.746    0.422    0.282   13.940
  535.250   79.467    0.423    0.285   12.943
  535.500   73.960    0.421    0.285   11.801
  535.750   77.058    0.390    0.256   10.957
  536.000   90.587    0.384    0.228   10.369
  536.250   99.204    0.389    0.183    9.636
  536.500  112.118    0.399    0.152    9.121
  536.750  118.905    0.408    0.185    8.957
  537.000  117.689    0.417    0.207    8.966
  537.250  117.713    0.409    0.208    8.981
  537.500  120.198    0.401    0.201    8.988
  537.750  122.677    0.397    0.190    9.341
  538.000  119.625    0.391    0.195    9.531
  538.250  104.314    0.378    0.201    9.903
  538.500  100.643    0.367    0.204   10.691
  538.750   90.845    0.363    0.212   11.109
  539.000   85.964    0.371    0.219   12.213
  539.250   82.912    0.381    0.225   13.948
  539.500   79.253    0.390    0.234   15.051
  539.750   74.985    0.392    0.243   16.543
  540.000   72.548    0.393    0.256   20.358
  540.250   70.730    0.392    0.273   24.126
  540.500   70.753    0.391    0.294   28.074
  540.750   72.618    0.391    0.298   28.112
  541.000   72.034    0.396    0.292   28.127
  541.250   70.222    0.398    0.268   29.802
  541.500   69.620    0.392    0.255   30.958
  541.750   72.718    0.389    0.247   34.045
  542.000   72.128    0.389    0.241   38.149
  542.250   68.468    0.389    0.253   39.639
  542.500   64.803    0.388    0.281   42.794
  542.750   64.826    0.387    0.300   43.663
  543.000   66.083    0.387    0.273   42.875
  543.250   64.260    0.386    0.261   40.596
