~VERSION INFORMATION
 VERS.                 2.0:   CWLS LOG ASCII STANDARD -VERSION 2.0
 WRAP.                  NO:   ONE LINE PER DEPTH STEP
~WELL INFORMATION BLOCK
#MNEM.UNIT           DATA                    DESCRIPTION OF MNEMONIC
#---------    -------------------            -------------------------------
# Generated from Intellog Unique Number	CW_70_72/WELL/3033
NULL.         -999.25                        : NULL_VALUE
WELL.         PANTHER FOW HUNDO 11-32        : Well_name    - WELL              
LOC .         11-32-070-01W5                 : Location     - LOCATION          
UWI .         00/11-32-070-01W5/0            : Uwi          - UNIQUE WELL ID    
ENTR.         JAYE                           : Entered      - ENTERED BY        
SRVC.         SCHLUMBERGER                   : Scn          - SERVICE COMPANY   
DATE.         18 FEB 79                      : Date         - LOG DATE          
STRT.M        410                            : top_depth    - START DEPTH       
STOP.M        655                            : bot_depth    - STOP DEPTH        
STEP.M        0.25                           : increment    - STEP LENGTH       
~CURVE INFORMATION BLOCK
#MNEM UNIT       ERCB CURVE CODE    CURVE DESCRIPTION
#-----------   ------------------   ----------------------------------
DEPT.M        00 001 00 00         : DEPTH        - DEPTH                       
ILD .OHMM     00 120 00 00         : RESD         - DEEP RESISTIVITY (DIL)      
CALI.MM       00 280 01 00         : CAL          - CALIPER                     
GR  .API      00 310 00 00         : GR           - GAMMA RAY                   
NPHI.V/V      00 330 00 00         : PHIN         - NEUTRON POROSITY (SANDSTONE)
DPHI.V/V      00 890 00 00         : PHID         - DENSITY POROSITY (SANDSTONE)
~PARAMETER INFORMATION       
#MNEM.UNIT           DATA             DESCRIPTION OF MNEMONIC
#---------         -----------     ------------------------------
GL  .M        591.1                : gl           - GROUND LEVEL ELEVATION      
EREF.M        595                  : kb           - ELEVATION OF DEPTH REFERENCE
DATM.M        591.1                : datum        - DATUM ELEVATION             
TDD .M        1533                 : tdd          - TOTAL DEPTH DRILLER         
RUN .         ONE                  : Run          - RUN NUMBER                  
ENG .         GILLIS               : Engineer     - RECORDING ENGINEER          
WIT .         WETHERLEY            : Witness      - WITNESSED BY                
BASE.         EDM                  : Branch       - HOME BASE OF LOGGING UNIT   
MUD .         GEL MUD              : Mud_type     - MUD TYPE                    
MATR.         SANDSTONE            : Logunit      - NEUTRON MATRIX              
TMAX.C        42                   : BHT          - MAXIMUM RECORDED TEMPERATURE
BHTD.M        1532.5               : BHTDEP       - MAXIMUM RECORDED TEMPERATURE
RMT .C        17                   : MDTP         - TEMPERATURE OF MUD          
MUDD.KG/M     1090                 : MWT          - MUD DENSITY                 
NEUT.         1                    : NEUTRON      - NEUTRON TYPE                
RESI.         0                    : RESIST       - RESISTIVITY TYPE            
RM  .OHMM     1.41                 : RM           - RESISTIVITY OF MUD          
RMC .OHMM     0.25                 : RMC          - RESISTIVITY OF MUD CAKE     
RMF .OHMM     1.13                 : RMF          - RESISTIVITY OF MUD FILTRATE 
SUFT.C        0                    : SUFT         - SURFACE TEMPERATURE         
~A  DEPTH     RESD      CAL       GR     PHIN     PHID
# ...
  519.500   10.903  226.092   50.008    0.166    0.012
  519.750   13.119  225.594   50.084    0.181    0.033
  520.000   14.384  225.299   51.234    0.208    0.065
  520.250   14.509  225.013   52.761    0.232    0.075
  520.500   13.146  224.196   55.489    0.260    0.086
  520.750   11.161  223.592   57.644    0.288    0.101
  521.000    9.318  223.519   61.249    0.323    0.137
  521.250    7.540  223.433   66.683    0.356    0.164
  521.500    6.402  223.433   70.416    0.380    0.199
  521.750    5.618  223.179   71.566    0.402    0.228
  522.000    4.657  223.516   68.876    0.420    0.248
  522.250    3.968  224.395   68.258    0.429    0.241
  522.500    3.484  224.402   69.660    0.430    0.226
  522.750    3.121  224.754   71.187    0.434    0.230
  523.000    2.865  224.754   73.344    0.458    0.239
  523.250    2.663  224.754   76.888    0.472    0.232
  523.500    2.579  226.104   74.950    0.462    0.273
  523.750    2.517  226.327   76.353    0.443    0.257
  524.000    2.502  226.666   79.015    0.427    0.245
  524.250    2.533  227.004   81.360    0.412    0.239
  524.500    2.564  227.234   83.519    0.411    0.227
  524.750    2.625  227.366   81.706    0.434    0.222
  525.000    2.687  227.287   76.555    0.436    0.232
  525.250    2.788  228.050   75.943    0.427    0.240
  525.500    2.919  232.282   75.137    0.419    0.222
  525.750    3.027  236.503   73.326    0.410    0.198
  526.000    3.306  239.268   73.344    0.403    0.188
  526.250    3.567  238.651   74.429    0.399    0.196
  526.500    3.699  237.313   77.278    0.399    0.189
  526.750    3.774  236.607   80.380    0.402    0.190
  527.000    3.849  235.893   82.919    0.399    0.194
  527.250    3.912  235.395   82.997    0.407    0.175
  527.500    3.931  234.999   79.925    0.429    0.171
  527.750    3.907  234.930   76.852    0.441    0.193
  528.000    3.876  234.851   77.624    0.440    0.182
  528.250    3.897  234.663   80.790    0.428    0.191
  528.500    3.908  234.263   80.362    0.420    0.203
  528.750    3.921  232.714   74.962    0.430    0.220
  529.000    3.963  229.699   73.972    0.433    0.229
  529.250    4.035  227.939   74.424    0.436    0.222
  529.500    4.093  226.913   75.828    0.444    0.198
  529.750    4.097  226.309   76.725    0.439    0.195
  530.000    3.969  226.332   77.875    0.416    0.198
  530.250    3.822  229.196   79.654    0.401    0.199
  530.500    3.729  232.373   81.432    0.416    0.206
  530.750    3.672  237.332   84.158    0.427    0.174
  531.000    3.657  243.132   83.922    0.445    0.181
  531.250    3.647  224.993   79.714    0.451    0.190
  531.500    3.673  223.652   83.133    0.416    0.203
  531.750    3.691  225.673   86.612    0.390    0.185
  532.000    3.683  229.060   88.015    0.424    0.181
  532.250    3.633  231.815   86.645    0.445    0.191
  532.500    3.531  233.526   85.904    0.459    0.203
  532.750    3.421  232.606   86.675    0.454    0.207
  533.000    3.367  231.474   88.580    0.453    0.197
  533.250    3.328  230.028   90.360    0.460    0.180
  533.500    3.320  228.164   90.060    0.465    0.171
  533.750    3.343  225.993   89.383    0.455    0.174
  534.000    3.392  225.389   92.674    0.448    0.191
  534.250    3.442  225.308   91.935    0.439    0.196
  534.500    3.465  225.433   89.242    0.434    0.187
  534.750    3.501  225.886   87.367    0.446    0.176
  535.000    3.546  226.857   88.328    0.448    0.151
  535.250    3.563  227.822   90.736    0.429    0.164
  535.500    3.602  230.368   91.761    0.416    0.173
  535.750    3.633  233.964   91.775    0.432    0.199
  536.000    3.638  238.822   91.853    0.413    0.192
  536.250    3.649  242.733   94.138    0.423    0.155
  536.500    3.626  244.959   96.357    0.430    0.153
  536.750    3.579  246.140   95.870    0.422    0.162
  537.000    3.537  245.537   96.767    0.427    0.150
  537.250    3.503  243.150   98.798    0.433    0.136
  537.500    3.468  240.556   96.923    0.429    0.146
  537.750    3.558  238.374   87.803    0.411    0.136
  538.000    3.751  234.197   72.636    0.394    0.069
  538.250    4.221  230.336   66.982    0.360    0.049
  538.500    4.477  228.262   77.077    0.302    0.141
  538.750    4.410  231.442   86.921    0.339    0.165
  539.000    4.138  235.980   91.157    0.391    0.170
  539.250    3.905  242.308   93.441    0.427    0.174
  539.500    3.677  250.100   91.127    0.455    0.203
  539.750    3.542  237.420   87.427    0.426    0.256
  540.000    3.515  229.363   84.225    0.402    0.216
  540.250    3.500  232.225   77.375    0.391    0.198
  540.500    3.491  236.033   83.249    0.411    0.189
  540.750    3.501  238.888   91.895    0.409    0.195
  541.000    3.474  243.649  100.983    0.406    0.166
  541.250    3.433  246.399   99.740    0.407    0.167
  541.500    3.425  249.153   95.029    0.411    0.177
  541.750    3.462  248.867   94.478    0.421    0.170
  542.000    3.577  247.102   91.847    0.429    0.153
  542.250    3.836  242.929   82.224    0.424    0.117
  542.500    4.152  237.708   72.790    0.376    0.090
  542.750    4.528  233.220   73.435    0.297    0.072
  543.000    4.811  230.194   81.642    0.305    0.092
  543.250    5.008  226.126   88.648    0.344    0.118
  543.500    4.932  224.261   86.333    0.385    0.118
  543.750    4.716  223.870   77.654    0.362    0.097
  544.000    4.533  223.999   78.741    0.362    0.119
  544.250    4.439  225.814   74.913    0.376    0.151
  544.500    4.858  228.673   71.085    0.375    0.160
  544.750    5.497  233.318   68.645    0.300    0.126
  545.000    5.962  238.387   70.486    0.272    0.100
  545.250    5.732  241.981   84.677    0.283    0.101
  545.500    5.448  246.522   91.246    0.314    0.121
  545.750    5.019  250.010   93.340    0.365    0.140
  546.000    4.598  253.926   93.608    0.406    0.150
  546.250    4.212  257.104   94.632    0.404    0.144
  546.500    3.873  259.118   94.206    0.405    0.138
  546.750    3.627  262.086   93.215    0.416    0.156
  547.000    3.416  265.680   93.102    0.436    0.172
  547.250    3.297  269.591   93.245    0.463    0.185
  547.500    3.258  267.101   94.081    0.499    0.207
  547.750    3.355  256.938   94.283    0.461    0.151
  548.000    3.499  259.069   93.607    0.423    0.152
  548.250    3.710  261.193   92.487    0.393    0.153
  548.500    4.002  263.423   90.424    0.399    0.143
  548.750    4.158  266.079   89.556    0.401    0.154
  549.000    4.273  267.675   89.637    0.406    0.151
  549.250    4.310  269.490   90.847    0.418    0.145
  549.500    4.284  270.768   93.384    0.430    0.157
  549.750    4.204  273.739   92.140    0.433    0.155
  550.000    4.101  275.650   90.957    0.410    0.145
  550.250    3.972  277.251   91.540    0.412    0.140
  550.500    3.875  278.642   93.006    0.411    0.153
  550.750    3.774  280.558   94.343    0.402    0.174
  551.000    3.710  283.210   92.026    0.420    0.148
  551.250    3.659  278.931   84.294    0.452    0.206
  551.500    3.726  272.443   77.693    0.441    0.197
  551.750    4.138  250.316   69.772    0.430    0.213
  552.000    4.701  246.353   62.353    0.424    0.251
  552.250    5.625  245.330   57.453    0.417    0.279
  552.500    6.043  242.517   55.202    0.409    0.274
  552.750    6.017  241.813   55.216    0.403    0.255
  553.000    5.794  242.674   56.113    0.412    0.243
  553.250    5.481  242.603   57.959    0.418    0.245
  553.500    5.345  242.202   59.798    0.421    0.247
  553.750    5.064  241.710   60.887    0.415    0.239
  554.000    4.912  241.104   61.091    0.413    0.227
  554.250    4.757  240.809   59.152    0.410    0.230
  554.500    4.499  240.413   57.088    0.412    0.234
  554.750    4.341  240.026   57.797    0.431    0.228
  555.000    4.225  239.523   56.491    0.453    0.230
  555.250    4.085  239.023   54.993    0.432    0.243
  555.500    3.927  237.786   56.520    0.431    0.258
  555.750    3.803  237.823   59.434    0.430    0.267
