~VERSION INFORMATION
 VERS.                 2.0:   CWLS LOG ASCII STANDARD -VERSION 2.0
 WRAP.                  NO:   ONE LINE PER DEPTH STEP
~WELL INFORMATION BLOCK
#MNEM.UNIT           DATA                    DESCRIPTION OF MNEMONIC
#---------    -------------------            -------------------------------
# Generated from Intellog Unique Number	CS_71_72/WELL/917
WELL.         ET AL KIRBY EX                 : Well_name    - WELL
LOC .         00/12-21-071-04W4/0            : Location     - LOCATION
UWI .         00/12-21-071-04W4/0            : Uwi          - UNIQUE WELL ID
ENTR.         SP                             : Entered      - ENTERED BY
SRVC.         SCHLUMBERGER                   : Scn          - SERVICE COMPANY
STRT.M        290                            : top_depth    - START DEPTH
STOP.M        505                            : bot_depth    - STOP DEPTH
STEP.M        0.25                           : increment    - STEP LENGTH
 NULL. -999.2500:NULL Value
~CURVE INFORMATION BLOCK
#MNEM UNIT       ERCB CURVE CODE    CURVE DESCRIPTION
#-----------   ------------------   ----------------------------------
DEPT.M        00 001 00 00         : DEPTH        - DEPTH
ILD .OHMM     00 120 00 00         : RESD         - DEEP RESISTIVITY (DIL)
DPHI.V/V      00 890 00 00         : PHID         - DENSITY POROSITY (LIMESTONE)
NPHI.V/V      00 330 00 00         : PHIN         - NEUTRON POROSITY (LIMESTONE)
GR  .API      00 310 00 00         : GR           - GAMMA RAY
~PARAMETER INFORMATION
#MNEM.UNIT           DATA             DESCRIPTION OF MNEMONIC
#---------         -----------     ------------------------------
GL  .M        674.8                : gl           - GROUND LEVEL ELEVATION
EREF.M        678.4                : kb           - ELEVATION OF DEPTH REFERENCE
DATM.M        674.8                : datum        - DATUM ELEVATION
TDD .M        523.5                : tdd          - TOTAL DEPTH DRILLER
RUN .         ONE                  : Run          - RUN NUMBER
ENG .         BILL                 : Engineer     - RECORDING ENGINEER
WIT .         JIM                  : Witness      - WITNESSED BY
MUD .         GEL                  : Mud_type     - MUD TYPE
MATR.         LIMESTONE            : Logunit      - NEUTRON MATRIX
TMAX.C        17.5                 : BHT          - MAXIMUM RECORDED TEMPERATURE
BHTD.M        523.5                : BHTDEP       - MAXIMUM RECORDED TEMPERATURE
MATR.         1                    : LOGUNIT      - NEUTRON MATRIX
RMT .C        25                   : MDTP         - TEMPERATURE OF MUD
NEUT.         1                    : NEUTRON      - NEUTRON TYPE
RESI.         0                    : RESIST       - RESISTIVITY TYPE
RMC .OHMM     0.25                 : RMC          - RESISTIVITY OF MUD CAKE
RMF .OHMM     0.25                 : RMF          - RESISTIVITY OF MUD FILTRATE
SUFT.C        15                   : SUFT         - SURFACE TEMPERATURE
~A  DEPTH     RESD     PHID     PHIN       GR
# ...
  377.000    1.509    0.351    0.466   50.887
  377.250    1.562    0.355    0.453   50.423
  377.500    1.636    0.359    0.437   52.281
  377.750    1.699    0.357    0.433   57.200
  378.000    1.795    0.347    0.450   62.426
  378.250    1.890    0.323    0.479   68.872
  378.500    1.967    0.276    0.505   77.401
  378.750    1.994    0.274    0.511   83.663
  379.000    2.049    0.275    0.510   85.341
  379.250    2.231    0.278    0.507   84.813
  379.500    2.448    0.287    0.495   82.394
  379.750    2.596    0.296    0.462   80.641
  380.000    2.667    0.300    0.451   79.380
  380.250    2.735    0.288    0.462   78.796
  380.500    2.772    0.282    0.472   79.005
  380.750    2.759    0.289    0.472   80.007
  381.000    2.739    0.276    0.472   81.621
  381.250    2.736    0.267    0.467   83.907
  381.500    2.773    0.267    0.447   83.073
  381.750    2.833    0.286    0.441   76.919
  382.000    2.943    0.256    0.457   79.514
  382.250    3.069    0.234    0.465   81.372
  382.500    3.201    0.254    0.456   81.459
  382.750    3.282    0.276    0.453   79.587
  383.000    3.315    0.294    0.451   78.633
  383.250    3.349    0.286    0.449   78.780
  383.500    3.344    0.282    0.454   77.456
  383.750    3.240    0.293    0.456   71.974
  384.000    3.140    0.312    0.450   65.822
  384.250    3.095    0.326    0.452   62.418
  384.500    3.126    0.336    0.466   60.729
  384.750    3.146    0.315    0.477   63.508
  385.000    3.100    0.301    0.467   65.733
  385.250    2.948    0.294    0.462   67.103
  385.500    2.799    0.312    0.476   68.352
  385.750    2.666    0.328    0.466   67.947
  386.000    2.541    0.341    0.455   61.856
  386.250    2.485    0.350    0.448   60.287
  386.500    2.482    0.349    0.445   60.556
  386.750    2.498    0.351    0.447   61.316
  387.000    2.513    0.359    0.450   61.950
  387.250    2.552    0.365    0.457   62.341
  387.500    2.744    0.370    0.464   61.265
  387.750    2.965    0.358    0.476   61.167
  388.000    3.410    0.351    0.406   59.967
  388.250    4.026    0.351    0.382   57.300
  388.500    4.351    0.322    0.342   57.081
  388.750    4.606    0.286    0.326   56.492
  389.000    4.723    0.303    0.387   57.739
  389.250    4.824    0.323    0.427   59.353
  389.500    4.891    0.291    0.423   57.238
  389.750    4.940    0.163    0.389   54.940
  390.000    4.814    0.115    0.319   53.985
  390.250    4.426    0.151    0.336   54.434
  390.500    4.092    0.241    0.397   56.844
  390.750    3.720    0.287    0.438   59.504
  391.000    3.394    0.330    0.473   60.563
  391.250    3.132    0.341    0.459   61.385
  391.500    2.984    0.331    0.456   63.121
  391.750    2.915    0.317    0.477   68.162
  392.000    2.904    0.300    0.500   75.099
  392.250    2.906    0.292    0.514   79.832
  392.500    2.913    0.286    0.517   84.263
  392.750    2.860    0.283    0.508   86.982
  393.000    2.788    0.287    0.504   88.653
  393.250    2.696    0.295    0.544   89.780
  393.500    2.678    0.300    0.590   89.926
  393.750    2.751    0.301    0.595   89.154
  394.000    2.831    0.297    0.584   87.528
  394.250    2.903    0.287    0.559   87.123
  394.500    2.976    0.281    0.536   88.249
  394.750    3.052    0.280    0.531   88.700
  395.000    3.054    0.281    0.534   86.830
  395.250    3.015    0.286    0.543   86.977
  395.500    2.955    0.292    0.536   88.530
  395.750    2.935    0.300    0.543   90.329
  396.000    2.998    0.300    0.523   90.841
  396.250    3.173    0.283    0.501   85.114
  396.500    3.482    0.264    0.500   79.879
  396.750    3.930    0.259    0.498   76.843
  397.000    4.098    0.259    0.479   75.094
  397.250    4.322    0.259    0.472   73.893
  397.500    4.499    0.258    0.481   74.713
  397.750    4.639    0.256    0.485   75.227
  398.000    4.784    0.253    0.477   74.518
  398.250    4.858    0.250    0.479   72.032
  398.500    4.953    0.247    0.476   70.283
  398.750    5.033    0.246    0.468   72.755
  399.000    5.015    0.252    0.471   75.716
  399.250    4.897    0.257    0.486   78.129
  399.500    4.764    0.259    0.494   79.313
  399.750    4.739    0.257    0.488   79.948
  400.000    4.697    0.256    0.496   80.461
  400.250    4.647    0.260    0.513   80.731
  400.500    4.563    0.267    0.537   81.123
  400.750    4.523    0.271    0.532   81.393
  401.000    4.213    0.269    0.510   81.600
  401.250    3.977    0.264    0.504   81.570
  401.500    3.920    0.264    0.517   81.403
  401.750    3.477    0.267    0.497   80.512
  402.000    2.999    0.268    0.492   80.472
  402.250    2.705    0.267    0.510   81.046
  402.500    2.627    0.264    0.520   83.579
  402.750    2.683    0.256    0.525   86.051
  403.000    2.867    0.255    0.536   88.220
  403.250    3.087    0.259    0.529   88.975
  403.500    3.281    0.259    0.508   88.264
  403.750    3.434    0.254    0.487   85.535
  404.000    3.521    0.250    0.490   84.153
  404.250    3.531    0.247    0.506   87.302
  404.500    3.518    0.247    0.522   89.468
  404.750    3.474    0.251    0.536   90.406
  405.000    3.463    0.255    0.536   90.796
  405.250    3.465    0.261    0.521   90.637
  405.500    3.422    0.269    0.497   87.175
  405.750    3.285    0.279    0.505   88.055
  406.000    3.244    0.287    0.536   88.689
  406.250    3.282    0.292    0.559   88.713
  406.500    3.494    0.298    0.542   85.925
  406.750    3.834    0.300    0.505   82.645
  407.000    4.386    0.294    0.498   78.816
  407.250    4.530    0.284    0.496   75.964
  407.500    4.750    0.280    0.472   74.703
  407.750    4.852    0.274    0.455   74.239
  408.000    4.892    0.267    0.473   76.527
  408.250    4.950    0.265    0.469   78.142
  408.500    4.971    0.262    0.474   79.082
  408.750    4.579    0.259    0.487   79.719
  409.000    4.123    0.262    0.497   79.927
  409.250    3.827    0.272    0.509   79.829
  409.500    3.674    0.277    0.512   78.875
  409.750    3.690    0.284    0.497   76.578
  410.000    3.877    0.295    0.495   75.190
  410.250    4.143    0.301    0.471   73.564
  410.500    4.436    0.306    0.453   72.976
  410.750    4.678    0.300    0.465   74.040
  411.000    4.934    0.285    0.495   74.614
  411.250    5.214    0.276    0.509   75.251
  411.500    5.407    0.269    0.491   75.520
  411.750    5.512    0.268    0.480   72.852
  412.000    5.505    0.282    0.470   67.859
  412.250    5.325    0.301    0.459   66.784
  412.500    5.083    0.312    0.459   66.378
  412.750    4.770    0.314    0.473   67.626
  413.000    4.511    0.314    0.490   67.470
  413.250    4.422    0.313    0.499   66.270
  413.500    4.491    0.314    0.507   65.195
  413.750    4.579    0.316    0.506   65.097
  414.000    4.669    0.317    0.495   64.812
  414.250    4.760    0.318    0.482   62.817
  414.500    4.844    0.318    0.474   61.740
  414.750    4.874    0.317    0.467   62.008
  415.000    4.904    0.313    0.471   64.603
  415.250    5.086    0.303    0.465   66.889
  415.500    5.224    0.293    0.444   69.544
  415.750    5.326    0.284    0.448   71.222
  416.000    5.390    0.279    0.459   71.798
  416.250    5.454    0.275    0.448   73.291
  416.500    5.488    0.269    0.439   74.902
  416.750    5.523    0.262    0.445   75.418
  417.000    5.495    0.265    0.466   73.850
  417.250    5.137    0.272    0.475   71.672
  417.500    4.489    0.278    0.467   73.041
  417.750    3.849    0.285    0.477   76.247
  418.000    3.246    0.294    0.503   79.208
  418.250    2.879    0.299    0.522   80.700
  418.500    2.677    0.300    0.548   81.583
  418.750    2.494    0.300    0.556   82.284
  419.000    2.349    0.294    0.557   82.731
  419.250    2.256    0.298    0.549   83.437
  419.500    2.227    0.303    0.547   82.534
  419.750    2.271    0.292    0.553   80.541
  420.000    2.359    0.280    0.547   82.460
  420.250    2.479    0.274    0.541   85.054
