~VERSION INFORMATION
 VERS.                 2.0:   CWLS LOG ASCII STANDARD -VERSION 2.0
 WRAP.                  NO:   ONE LINE PER DEPTH STEP
~WELL INFORMATION BLOCK
#MNEM.UNIT           DATA                    DESCRIPTION OF MNEMONIC
#---------    -------------------            -------------------------------
# Generated from Intellog Unique Number	CS_71_72/WELL/885
WELL.         TEE PEE PETROLEUMS             : Well_name    - WELL
LOC .         00/11-04-071-18W4/0            : Location     - LOCATION
UWI .         00/11-04-071-18W4/0            : Uwi          - UNIQUE WELL ID
ENTR.         SP                             : Entered      - ENTERED BY
SRVC.         SCHLUMBERGER                   : Scn          - SERVICE COMPANY
STRT.M        295.656                        : top_depth    - START DEPTH
STOP.M        520.906                        : bot_depth    - STOP DEPTH
STEP.M        0.25                           : increment    - STEP LENGTH
 NULL. -999.2500:NULL Value
~CURVE INFORMATION BLOCK
#MNEM UNIT       ERCB CURVE CODE    CURVE DESCRIPTION
#-----------   ------------------   ----------------------------------
DEPT.M        00 001 00 00         : DEPTH        - DEPTH
GR  .API      00 310 00 00         : GR           - GAMMA RAY
DPHI.V/V      00 890 00 00         : PHID         - DENSITY POROSITY (SANDSTONE)
NPHI.V/V      00 330 00 00         : PHIN         - NEUTRON POROSITY (SANDSTONE)
ILD .OHMM     00 120 00 00         : RESD         - DEEP RESISTIVITY (DIL)
~PARAMETER INFORMATION
#MNEM.UNIT           DATA             DESCRIPTION OF MNEMONIC
#---------         -----------     ------------------------------
GL  .M        575.462              : gl           - GROUND LEVEL ELEVATION
EREF.M        579.12               : kb           - ELEVATION OF DEPTH REFERENCE
DATM.M        575.462              : datum        - DATUM ELEVATION
TDD .M        543.154              : tdd          - TOTAL DEPTH DRILLER
RUN .         ONE                  : Run          - RUN NUMBER
ENG .         BILL                 : Engineer     - RECORDING ENGINEER
WIT .         JIM                  : Witness      - WITNESSED BY
MUD .         GEL                  : Mud_type     - MUD TYPE
MATR.         SANDSTONE            : Logunit      - NEUTRON MATRIX
TMAX.C        24.4444              : BHT          - MAXIMUM RECORDED TEMPERATURE
BHTD.M        543.154              : BHTDEP       - MAXIMUM RECORDED TEMPERATURE
MATR.         1                    : LOGUNIT      - NEUTRON MATRIX
RMT .C        25                   : MDTP         - TEMPERATURE OF MUD
NEUT.         1                    : NEUTRON      - NEUTRON TYPE
RESI.         0                    : RESIST       - RESISTIVITY TYPE
RMC .OHMM     0.25                 : RMC          - RESISTIVITY OF MUD CAKE
RMF .OHMM     0.25                 : RMF          - RESISTIVITY OF MUD FILTRATE
SUFT.C        15                   : SUFT         - SURFACE TEMPERATURE
~A  DEPTH       GR     PHID     PHIN     RESD
# ...
  339.156   91.185    0.256    0.477    4.642
  339.406   96.099    0.229    0.485    4.709
  339.656  103.017    0.206    0.489    4.760
  339.906   99.868    0.234    0.492    4.749
  340.156   94.387    0.262    0.472    4.673
  340.406   88.282    0.308    0.455    4.623
  340.656   86.573    0.311    0.448    4.607
  340.906   91.811    0.300    0.450    4.652
  341.156   95.349    0.287    0.450    4.726
  341.406   97.588    0.274    0.443    4.832
  341.656   97.280    0.280    0.436    4.889
  341.906  100.356    0.272    0.435    4.871
  342.156  104.875    0.259    0.440    4.793
  342.406  107.206    0.262    0.450    4.563
  342.656  110.160    0.273    0.457    4.275
  342.906  113.030    0.271    0.465    3.997
  343.156  114.127    0.263    0.484    3.742
  343.406  112.785    0.271    0.516    3.704
  343.656  111.294    0.254    0.555    3.793
  343.906  107.121    0.245    0.486    3.995
  344.156  101.686    0.252    0.477    4.385
  344.406   97.454    0.262    0.504    4.599
  344.656   91.712    0.275    0.491    5.030
  344.906   85.250    0.293    0.482    5.412
  345.156   75.183    0.311    0.502    5.584
  345.406   68.236    0.330    0.525    5.935
  345.656   64.489    0.361    0.554    5.828
  345.906   62.975    0.271    0.415    5.828
  346.156   62.405    0.286    0.411    5.447
  346.406   63.414    0.301    0.411    4.987
  346.656   64.126    0.318    0.419    4.595
  346.906   64.667    0.328    0.430    4.378
  347.156   63.864    0.331    0.443    4.247
  347.406   61.778    0.337    0.443    4.191
  347.656   59.307    0.342    0.432    4.155
  347.906   57.422    0.346    0.431    4.151
  348.156   57.162    0.352    0.428    4.135
  348.406   58.688    0.343    0.424    4.128
  348.656   59.735    0.344    0.428    4.129
  348.906   62.387    0.345    0.433    4.108
  349.156   65.463    0.351    0.428    4.105
  349.406   65.762    0.360    0.431    4.093
  349.656   66.469    0.352    0.431    4.082
  349.906   65.588    0.338    0.424    4.083
  350.156   64.228    0.325    0.418    4.050
  350.406   64.109    0.334    0.419    4.053
  350.656   65.476    0.347    0.430    4.012
  350.906   66.731    0.358    0.436    3.970
  351.156   67.968    0.355    0.430    3.938
  351.406   69.475    0.351    0.427    3.914
  351.656   69.218    0.346    0.431    3.902
  351.906   67.539    0.353    0.441    3.890
  352.156   65.958    0.364    0.451    3.885
  352.406   64.884    0.362    0.454    3.886
  352.656   63.811    0.356    0.448    3.891
  352.906   62.948    0.338    0.441    3.908
  353.156   63.501    0.360    0.435    3.924
  353.406   65.006    0.363    0.435    3.949
  353.656   66.348    0.344    0.442    3.970
  353.906   67.394    0.336    0.441    3.983
  354.156   67.613    0.354    0.433    4.003
  354.406   68.470    0.364    0.424    3.999
  354.656   69.825    0.372    0.440    4.005
  354.906   71.570    0.381    0.458    4.040
  355.156   73.271    0.377    0.459    4.045
  355.406   74.321    0.365    0.431    4.080
  355.656   74.820    0.355    0.432    4.098
  355.906   74.293    0.357    0.446    4.113
  356.156   73.412    0.365    0.462    4.126
  356.406   71.351    0.363    0.450    4.122
  356.656   69.329    0.351    0.440    4.111
  356.906   68.693    0.347    0.437    4.098
  357.156   68.290    0.336    0.434    4.074
  357.406   66.237    0.352    0.431    4.041
  357.656   65.124    0.367    0.433    4.044
  357.906   65.552    0.368    0.438    4.050
  358.156   67.101    0.359    0.442    4.058
  358.406   67.550    0.349    0.445    4.056
  358.656   66.654    0.339    0.447    4.098
  358.906   67.019    0.345    0.449    4.111
  359.156   67.709    0.360    0.453    3.988
  359.406   71.471    0.353    0.456    4.025
  359.656   72.383    0.344    0.455    4.081
  359.906   72.458    0.342    0.447    4.123
  360.156   72.060    0.347    0.440    4.131
  360.406   70.489    0.344    0.427    4.179
  360.656   68.868    0.333    0.422    4.223
  360.906   67.012    0.331    0.440    4.267
  361.156   65.553    0.337    0.455    4.308
  361.406   64.390    0.336    0.448    4.332
  361.656   64.514    0.335    0.444    4.369
  361.906   65.360    0.340    0.451    4.358
  362.156   66.620    0.342    0.456    4.347
  362.406   67.139    0.348    0.453    4.313
  362.656   66.261    0.357    0.447    4.298
  362.906   65.977    0.340    0.442    4.253
  363.156   66.256    0.328    0.438    4.235
  363.406   67.105    0.331    0.437    4.225
  363.656   67.836    0.346    0.431    4.225
  363.906   67.687    0.338    0.427    4.267
  364.156   70.145    0.334    0.419    4.317
  364.406   71.787    0.331    0.417    4.328
  364.656   72.132    0.317    0.417    4.455
  364.906   71.042    0.324    0.420    4.534
  365.156   69.475    0.336    0.424    4.599
  365.406   68.468    0.326    0.432    4.603
  365.656   68.638    0.333    0.434    4.522
  365.906   69.792    0.330    0.429    4.377
  366.156   74.055    0.355    0.431    4.189
  366.406   78.799    0.349    0.439    3.978
  366.656   80.465    0.344    0.455    3.798
  366.906   79.746    0.348    0.468    3.729
  367.156   78.345    0.349    0.471    3.657
  367.406   77.213    0.329    0.452    3.636
  367.656   76.708    0.326    0.439    3.742
  367.906   76.473    0.318    0.433    3.826
  368.156   76.330    0.326    0.432    4.051
  368.406   76.227    0.327    0.440    4.313
  368.656   75.535    0.309    0.434    4.825
  368.906   73.290    0.293    0.380    5.519
  369.156   71.521    0.288    0.345    6.328
  369.406   72.243    0.312    0.369    6.903
  369.656   73.878    0.305    0.381    8.057
  369.906   76.529    0.266    0.337    8.923
  370.156   80.462    0.210    0.318    8.862
  370.406   87.148    0.224    0.343    7.924
  370.656   95.306    0.270    0.381    6.537
  370.906   99.983    0.276    0.419    5.614
  371.156   91.839    0.283    0.461    5.056
  371.406   86.528    0.294    0.481    4.603
  371.656   82.982    0.291    0.466    4.303
  371.906   79.635    0.301    0.465    4.162
  372.156   76.218    0.334    0.469    4.056
  372.406   73.473    0.363    0.472    4.031
  372.656   71.563    0.361    0.463    3.988
  372.906   71.381    0.348    0.447    3.965
  373.156   71.549    0.345    0.456    3.953
  373.406   72.438    0.342    0.463    3.941
  373.656   73.776    0.339    0.465    3.941
  373.906   75.397    0.339    0.467    3.940
  374.156   78.135    0.337    0.459    3.928
  374.406   81.060    0.323    0.451    3.916
  374.656   83.031    0.318    0.449    3.875
  374.906   83.794    0.295    0.456    3.813
  375.156   85.243    0.277    0.465    3.757
  375.406   88.314    0.278    0.472    3.639
  375.656   89.468    0.266    0.479    3.499
  375.906   92.519    0.269    0.481    3.354
  376.156   93.838    0.283    0.480    3.164
  376.406   94.184    0.301    0.480    3.001
  376.656   94.080    0.292    0.483    2.811
  376.906   94.766    0.284    0.490    2.646
  377.156   96.971    0.284    0.503    2.513
  377.406   96.709    0.281    0.512    2.607
  377.656   91.642    0.303    0.483    2.822
  377.906   86.185    0.326    0.455    3.046
  378.156   81.650    0.332    0.456    3.282
  378.406   77.197    0.343    0.464    3.464
  378.656   83.138    0.350    0.458    3.594
  378.906   88.563    0.332    0.453    3.695
  379.156   91.072    0.316    0.446    3.777
  379.406   90.834    0.287    0.444    3.796
  379.656   84.742    0.277    0.466    3.787
  379.906   80.617    0.302    0.473    3.763
  380.156   78.437    0.320    0.459    3.749
  380.406   76.901    0.335    0.448    3.709
  380.656   75.016    0.338    0.452    3.647
  380.906   72.594    0.343    0.451    3.605
  381.156   71.003    0.361    0.448    3.548
  381.406   70.320    0.379    0.445    3.513
  381.656   70.693    0.386    0.442    3.494
  381.906   71.585    0.371    0.437    3.514
  382.156   72.219    0.364    0.440    3.531
  382.406   73.109    0.370    0.447    3.566
