~VERSION INFORMATION
 VERS.                 2.0:   CWLS LOG ASCII STANDARD -VERSION 2.0
 WRAP.                  NO:   ONE LINE PER DEPTH STEP
~WELL INFORMATION BLOCK
#MNEM.UNIT           DATA                    DESCRIPTION OF MNEMONIC
#---------    -------------------            -------------------------------
# Generated from Intellog Unique Number	CW_70_72/WELL/1069
NULL.         -999.25                        : NULL_VALUE
WELL.         NORCEN ET AL BLANCHE 14-35     : Well_name    - WELL              
LOC .         14-35-072-02W5                 : Location     - LOCATION          
UWI .         00/14-35-072-02W5/0            : Uwi          - UNIQUE WELL ID    
ENTR.         JAYE                           : Entered      - ENTERED BY        
SRVC.         COMPUTALOG                     : Scn          - SERVICE COMPANY   
DATE.         6 JAN 86                       : Date         - LOG DATE          
STRT.M        375                            : top_depth    - START DEPTH       
STOP.M        615                            : bot_depth    - STOP DEPTH        
STEP.M        0.25                           : increment    - STEP LENGTH       
~CURVE INFORMATION BLOCK
#MNEM UNIT       ERCB CURVE CODE    CURVE DESCRIPTION
#-----------   ------------------   ----------------------------------
DEPT.M        00 001 00 00         : DEPTH        - DEPTH                       
DPHI.V/V      00 890 00 00         : PHID         - DENSITY POROSITY (SANDSTONE)
NPHI.V/V      00 330 00 00         : PHIN         - NEUTRON POROSITY (SANDSTONE)
CALI.MM       00 280 01 00         : CAL          - CALIPER                     
GR  .API      00 310 00 00         : GR           - GAMMA RAY                   
ILD .OHMM     00 120 00 00         : RESD         - DEEP RESISTIVITY (DIL)      
~PARAMETER INFORMATION       
#MNEM.UNIT           DATA             DESCRIPTION OF MNEMONIC
#---------         -----------     ------------------------------
GL  .M        587.75               : gl           - GROUND LEVEL ELEVATION      
EREF.M        591.25               : kb           - ELEVATION OF DEPTH REFERENCE
DATM.M        587.75               : datum        - DATUM ELEVATION             
TDD .M        628                  : tdd          - TOTAL DEPTH DRILLER         
RUN .         ONE                  : Run          - RUN NUMBER                  
ENG .         CALDERWOOD           : Engineer     - RECORDING ENGINEER          
WIT .         HUGHES               : Witness      - WITNESSED BY                
BASE.         EDM                  : Branch       - HOME BASE OF LOGGING UNIT   
MUD .         GEL CHEM             : Mud_type     - MUD TYPE                    
MATR.         SANDSTONE            : Logunit      - NEUTRON MATRIX              
TMAX.C        50                   : BHT          - MAXIMUM RECORDED TEMPERATURE
BHTD.M        633.1                : BHTDEP       - MAXIMUM RECORDED TEMPERATURE
RMT .C        15.6                 : MDTP         - TEMPERATURE OF MUD          
MUDD.KG/M     1170                 : MWT          - MUD DENSITY                 
NEUT.         1                    : NEUTRON      - NEUTRON TYPE                
RESI.         0                    : RESIST       - RESISTIVITY TYPE            
RM  .OHMM     4                    : RM           - RESISTIVITY OF MUD          
RMC .OHMM     5                    : RMC          - RESISTIVITY OF MUD CAKE     
RMF .OHMM     4.8                  : RMF          - RESISTIVITY OF MUD FILTRATE 
SUFT.C        0                    : SUFT         - SURFACE TEMPERATURE         
~A  DEPTH     PHID     PHIN      CAL       GR     RESD
# ...
  484.500    0.101    0.244  204.559   50.615    6.781
  484.750    0.208    0.290  204.488   54.759    6.018
  485.000    0.265    0.322  204.303   61.937    5.279
  485.250    0.292    0.356  204.018   64.920    4.512
  485.500    0.289    0.381  203.619   63.326    4.165
  485.750    0.283    0.393  202.689   57.669    3.934
  486.000    0.283    0.397  202.297   55.753    3.850
  486.250    0.286    0.394  201.792   56.867    3.797
  486.500    0.291    0.403  201.091   58.817    3.787
  486.750    0.287    0.406  200.697   62.512    3.763
  487.000    0.281    0.408  200.507   62.464    3.775
  487.250    0.282    0.409  200.427   57.708    3.830
  487.500    0.287    0.406  200.886   54.373    3.877
  487.750    0.290    0.396  200.924   55.485    3.964
  488.000    0.284    0.397  201.056   60.664    4.021
  488.250    0.273    0.402  201.412   64.162    4.010
  488.500    0.271    0.392  201.659   63.664    3.940
  488.750    0.272    0.387  202.012   60.973    3.771
  489.000    0.273    0.380  202.253   58.798    3.541
  489.250    0.284    0.371  202.723   55.655    3.331
  489.500    0.288    0.366  202.960   54.771    3.230
  489.750    0.239    0.378  202.883   56.144    3.240
  490.000    0.086    0.369  202.708   56.481    3.324
  490.250    0.068    0.349  202.414   59.595    3.443
  490.500    0.118    0.360  202.342   64.515    3.533
  490.750    0.183    0.390  202.059   67.046    3.604
  491.000    0.237    0.409  201.870   68.418    3.643
  491.250    0.267    0.396  201.375   68.698    3.620
  491.500    0.280    0.391  200.653   68.711    3.557
  491.750    0.288    0.411  199.835   68.019    3.513
  492.000    0.291    0.431  199.655   65.974    3.452
  492.250    0.295    0.438  199.895   64.766    3.378
  492.500    0.299    0.437  200.043   63.299    3.326
  492.750    0.306    0.429  199.958   62.351    3.299
  493.000    0.311    0.418  199.784   64.883    3.290
  493.250    0.306    0.406  199.814   70.125    3.282
  493.500    0.290    0.413  199.954   73.042    3.267
  493.750    0.281    0.404  200.096   70.481    3.283
  494.000    0.275    0.391  200.121   67.080    3.362
  494.250    0.267    0.394  200.264   63.874    3.522
  494.500    0.259    0.400  200.193   64.407    3.738
  494.750    0.088    0.350  200.218   65.649    4.386
  495.000    0.049    0.305  200.146   63.539    5.600
  495.250    0.030    0.197  200.173   60.267    6.544
  495.500    0.016    0.166  199.889   56.544    7.691
  495.750    0.008    0.150  199.709   53.143    8.541
  496.000    0.002    0.142  199.743   50.067    8.964
  496.250   -0.005    0.148  199.985   47.503    8.891
  496.500   -0.000    0.161  200.229   46.037    8.286
  496.750    0.009    0.177  200.373   45.926    6.975
  497.000    0.033    0.192  200.722   51.167    5.848
  497.250    0.087    0.215  200.964   57.956    4.786
  497.500    0.173    0.278  201.002   62.036    4.097
  497.750    0.224    0.325  201.031   65.537    3.595
  498.000    0.251    0.392  201.061   68.134    3.148
  498.250    0.260    0.417  201.419   66.219    2.863
  498.500    0.264    0.423  201.555   65.590    2.893
  498.750    0.262    0.418  201.587   67.928    3.089
  499.000    0.220    0.405  201.619   69.816    3.482
  499.250    0.190    0.343  201.439   67.576    4.163
  499.500    0.106    0.292  201.258   62.176    4.938
  499.750    0.128    0.270  201.294   56.583    5.892
  500.000    0.160    0.284  201.321   53.054    6.693
  500.250    0.147    0.285  201.359   50.686    7.719
  500.500    0.041    0.277  201.384   49.606    7.950
  500.750    0.059    0.265  201.426   49.689    7.438
  501.000    0.073    0.249  201.665   51.447    6.763
  501.250    0.075    0.234  201.800   53.593    6.116
  501.500    0.084    0.240  201.944   56.899    5.427
  501.750    0.122    0.260  201.975   59.111    4.898
  502.000    0.175    0.288  201.792   62.803    4.480
  502.250    0.210    0.332  201.825   68.624    4.112
  502.500    0.213    0.365  201.647   73.479    3.891
  502.750    0.207    0.385  201.571   68.853    3.724
  503.000    0.196    0.402  200.851   70.420    3.679
  503.250    0.226    0.415  199.280   73.596    3.649
  503.500    0.245    0.430  196.968   79.546    3.668
  503.750    0.247    0.415  195.607   75.566    3.692
  504.000    0.179    0.401  194.361   71.005    3.739
  504.250    0.137    0.388  193.750   68.250    3.779
  504.500    0.173    0.361  193.676   66.656    3.798
  504.750    0.222    0.363  194.243   67.253    3.816
  505.000    0.242    0.388  195.557   68.303    3.835
  505.250    0.253    0.384  197.089   69.867    3.847
  505.500    0.259    0.379  198.506   71.499    3.865
  505.750    0.254    0.376  199.603   72.804    3.878
  506.000    0.245    0.414  200.171   73.273    3.876
  506.250    0.249    0.408  200.415   72.967    3.872
  506.500    0.258    0.390  200.878   73.244    3.892
  506.750    0.258    0.389  201.124   73.519    3.926
  507.000    0.240    0.402  201.696   70.959    3.960
  507.250    0.224    0.396  202.042   68.717    3.980
  507.500    0.207    0.404  202.288   71.895    4.000
  507.750    0.194    0.414  202.102   76.556    4.005
  508.000    0.209    0.404  201.921   80.765    4.017
  508.250    0.217    0.385  201.632   84.910    4.037
  508.500    0.211    0.379  201.562   86.281    4.043
  508.750    0.205    0.389  201.594   84.493    4.070
  509.000    0.202    0.412  201.519   83.737    4.089
  509.250    0.207    0.417  201.334   87.689    4.102
  509.500    0.220    0.417  201.268   87.060    4.115
  509.750    0.211    0.415  201.078   82.242    4.112
  510.000    0.193    0.407  201.327   79.485    4.125
  510.250    0.182    0.398  201.571   82.988    4.161
  510.500    0.194    0.409  201.922   87.262    4.181
  510.750    0.217    0.417  202.277   91.598    4.226
  511.000    0.230    0.406  202.417   89.681    4.255
  511.250    0.219    0.386  202.555   84.411    4.301
  511.500    0.208    0.403  202.698   84.493    4.330
  511.750    0.211    0.423  202.617   86.317    4.359
  512.000    0.221    0.421  202.435   87.752    4.374
  512.250    0.217    0.407  202.151   84.416    4.370
  512.500    0.211    0.396  201.653   84.884    4.375
  512.750    0.205    0.393  201.680   84.063    4.372
  513.000    0.196    0.394  201.604   81.179    4.370
  513.250    0.194    0.390  201.537   83.327    4.383
  513.500    0.204    0.408  201.565   84.180    4.421
  513.750    0.201    0.423  201.813   83.425    4.494
  514.000    0.193    0.414  201.632   86.925    4.559
  514.250    0.184    0.410  201.444   90.166    4.634
  514.500    0.177    0.409  201.166   89.991    4.710
  514.750    0.186    0.403  200.979   85.236    4.787
  515.000    0.191    0.403  200.686   79.062    4.883
  515.250    0.197    0.398  200.398   78.756    4.954
  515.500    0.198    0.386  200.002   81.935    4.989
  515.750    0.184    0.379  199.934   84.468    5.014
  516.000    0.185    0.379  200.495   86.355    5.021
  516.250    0.188    0.388  201.923   87.019    5.026
  516.500    0.189    0.417  203.444   85.358    5.031
  516.750    0.191    0.416  205.510   87.311    5.037
  517.000    0.199    0.403  207.032   88.489    5.062
  517.250    0.187    0.388  208.563   89.217    5.068
  517.500    0.176    0.386  209.665   87.750    5.113
  517.750    0.172    0.392  210.550   88.541    5.178
  518.000    0.177    0.395  211.324   91.074    5.242
  518.250    0.185    0.403  212.110   93.413    5.328
  518.500    0.189    0.411  212.354   92.399    5.405
  518.750    0.193    0.420  212.282   91.642    5.473
  519.000    0.200    0.430  211.991   89.596    5.553
  519.250    0.216    0.435  211.916   88.001    5.591
  519.500    0.213    0.437  212.162   84.149    5.607
  519.750    0.186    0.430  212.520   80.039    5.614
  520.000    0.172    0.422  212.652   79.800    5.527
  520.250    0.159    0.413  212.576   83.943    5.229
  520.500    0.157    0.404  212.292   91.700    4.938
  520.750    0.158    0.416  212.217   95.007    4.860
