~VERSION INFORMATION
 VERS.                 2.0:   CWLS LOG ASCII STANDARD -VERSION 2.0
 WRAP.                  NO:   ONE LINE PER DEPTH STEP
~WELL INFORMATION BLOCK
#MNEM.UNIT           DATA                    DESCRIPTION OF MNEMONIC
#---------    -------------------            -------------------------------
# Generated from Intellog Unique Number	CW_70_72/WELL/1039
NULL.         -999.25                        : NULL_VALUE
WELL.         MCMORGAN DOME SMITH 10-18      : Well_name    - WELL              
LOC .         10-18-071-24W4                 : Location     - LOCATION          
UWI .         00/10-18-071-24W4/0            : Uwi          - UNIQUE WELL ID    
ENTR.         JAYE                           : Entered      - ENTERED BY        
SRVC.         SCHLUMBERGER                   : Scn          - SERVICE COMPANY   
DATE.         16 MAR 72                      : Date         - LOG DATE          
STRT.M        434.645                        : top_depth    - START DEPTH       
STOP.M        646.145                        : bot_depth    - STOP DEPTH        
STEP.M        0.25                           : increment    - STEP LENGTH       
~CURVE INFORMATION BLOCK
#MNEM UNIT       ERCB CURVE CODE    CURVE DESCRIPTION
#-----------   ------------------   ----------------------------------
DEPT.M        00 001 00 00         : DEPTH        - DEPTH                       
DPHI.V/V      00 890 00 00         : PHID         - DENSITY POROSITY (SANDSTONE)
NPHI.V/V      00 330 00 00         : PHIN         - NEUTRON POROSITY (SANDSTONE)
GR  .API      00 310 00 00         : GR           - GAMMA RAY                   
CALI.MM       00 280 01 00         : CAL          - CALIPER                     
ILD .OHMM     00 120 00 00         : RESD         - DEEP RESISTIVITY (DIL)      
~PARAMETER INFORMATION       
#MNEM.UNIT           DATA             DESCRIPTION OF MNEMONIC
#---------         -----------     ------------------------------
GL  .M        638.861              : gl           - GROUND LEVEL ELEVATION      
EREF.M        642.518              : kb           - ELEVATION OF DEPTH REFERENCE
DATM.M        638.861              : datum        - DATUM ELEVATION             
TDD .M        612.648              : tdd          - TOTAL DEPTH DRILLER         
RUN .         ONE                  : Run          - RUN NUMBER                  
ENG .         HAYWOOD              : Engineer     - RECORDING ENGINEER          
WIT .         GRAD                 : Witness      - WITNESSED BY                
BASE.         EDM                  : Branch       - HOME BASE OF LOGGING UNIT   
MUD .         FGM                  : Mud_type     - MUD TYPE                    
MATR.         SANDSTONE            : Logunit      - NEUTRON MATRIX              
TMAX.C        28.3333              : BHT          - MAXIMUM RECORDED TEMPERATURE
BHTD.M        612.648              : BHTDEP       - MAXIMUM RECORDED TEMPERATURE
RMT .C        20                   : MDTP         - TEMPERATURE OF MUD          
MUDD.KG/M     1104                 : MWT          - MUD DENSITY                 
NEUT.         1                    : NEUTRON      - NEUTRON TYPE                
RESI.         0                    : RESIST       - RESISTIVITY TYPE            
RM  .OHMM     2.62                 : RM           - RESISTIVITY OF MUD          
RMC .OHMM     0                    : RMC          - RESISTIVITY OF MUD CAKE     
RMF .OHMM     2.67                 : RMF          - RESISTIVITY OF MUD FILTRATE 
SUFT.C        0                    : SUFT         - SURFACE TEMPERATURE         
~A  DEPTH     PHID     PHIN       GR      CAL     RESD
  434.645    0.209    0.459   82.996  206.775    2.273
  434.895    0.216    0.453   84.449  206.860    2.393
  435.145    0.214    0.447   86.207  207.048    2.615
  435.395    0.204    0.454   86.867  206.822    2.867
  435.645    0.199    0.452   86.855  206.803    3.069
  435.895    0.212    0.445   87.089  206.781    3.378
  436.145    0.251    0.452   85.674  206.455    3.718
  436.395    0.263    0.441   81.879  206.329    4.168
  436.645    0.252    0.441   78.633  206.003    4.429
  436.895    0.235    0.429   74.288  205.673    4.785
  437.145    0.238    0.422   70.189  205.651    5.029
  437.395    0.249    0.406   66.699  205.737    5.056
  437.645    0.267    0.437   65.040  205.615    4.908
  437.895    0.262    0.432   63.991  204.667    4.783
  438.145    0.244    0.415   64.224  203.096    4.533
  438.395    0.252    0.396   66.226  201.838    4.163
  438.645    0.237    0.380   70.058  200.786    3.658
  438.895    0.226    0.425   73.954  200.248    3.499
  439.145    0.221    0.439   79.191  199.715    3.650
  439.395    0.221    0.447   82.231  199.281    3.886
  439.645    0.216    0.453   84.966  199.469    4.261
  439.895    0.213    0.454   88.800  200.173    4.562
  440.145    0.220    0.454   91.595  200.361    4.741
  440.395    0.222    0.450   97.443  201.270    4.758
  440.645    0.246    0.438   98.530  201.975    4.585
  440.895    0.236    0.396   90.889  202.060    4.290
  441.145    0.232    0.390   83.921  202.558    3.984
  441.395    0.230    0.386   82.934  202.641    3.811
  441.645    0.219    0.383   84.509  202.105    3.775
  441.895    0.221    0.387   87.669  201.980    3.831
  442.145    0.211    0.403   90.222  201.653    4.048
  442.395    0.208    0.421   93.141  201.528    4.200
  442.645    0.216    0.446   95.266  201.615    4.293
  442.895    0.234    0.450   95.925  201.489    4.261
  443.145    0.224    0.452   94.388  201.472    4.046
  443.395    0.231    0.452   91.692  201.454    3.771
  443.645    0.230    0.451   86.554  201.539    3.516
  443.895    0.224    0.445   80.745  201.107    3.265
  444.145    0.230    0.434   80.551  198.606    3.199
  444.395    0.227    0.431   83.957  198.277    3.356
  444.645    0.226    0.420   87.911  198.980    3.520
  444.895    0.233    0.433   90.525  199.892    3.824
  445.145    0.250    0.447   92.406  200.907    4.178
  445.395    0.273    0.452   90.930  201.714    4.247
  445.645    0.259    0.457   90.614  202.729    4.247
  445.895    0.263    0.456   90.358  203.432    4.192
  446.145    0.259    0.456   88.943  204.135    4.145
  446.395    0.239    0.454   83.989  204.325    4.160
  446.645    0.231    0.451   79.766  204.615    4.213
  446.895    0.243    0.447   77.802  204.489    4.283
  447.145    0.237    0.441   75.837  204.576    4.362
  447.395    0.217    0.428   74.424  204.763    4.378
  447.645    0.213    0.411   71.849  204.847    4.281
  447.895    0.219    0.425   72.691  204.723    4.118
  448.145    0.226    0.445   74.084  204.707    3.747
  448.395    0.252    0.426   73.584  204.585    3.493
  448.645    0.255    0.404   70.827  204.668    3.220
  448.895    0.240    0.392   67.154  204.338    2.996
  449.145    0.231    0.399   67.814  204.422    2.747
  449.395    0.235    0.393   68.901  204.609    2.532
  449.645    0.240    0.381   69.622  204.592    2.436
  449.895    0.232    0.375   69.367  204.571    2.458
  450.145    0.239    0.371   68.257  204.553    2.661
  450.395    0.247    0.375   67.390  204.535    3.044
  450.645    0.257    0.388   66.221  204.204    3.301
  450.895    0.268    0.391   63.646  203.978    3.399
  451.145    0.264    0.381   63.391  203.131    3.456
  451.395    0.253    0.372   68.444  202.908    2.992
  451.645    0.237    0.368   75.389  202.992    2.658
  451.895    0.212    0.373   78.429  203.282    2.455
  452.145    0.201    0.373   77.746  203.882    2.419
  452.395    0.202    0.375   75.844  204.380    2.482
  452.645    0.218    0.383   73.087  204.772    2.637
  452.895    0.268    0.394   67.949  205.066    2.802
  453.145    0.291    0.407   62.994  205.150    3.130
  453.395    0.273    0.398   59.627  205.441    3.401
  453.645    0.252    0.391   65.168  205.938    3.708
  453.895    0.237    0.387   70.712  205.918    3.933
  454.145    0.227    0.391   77.412  205.899    4.021
  454.395    0.219    0.392   81.612  205.569    3.762
  454.645    0.210    0.397   86.971  205.342    3.269
  454.895    0.195    0.409   92.634  205.222    2.862
  455.145    0.192    0.429   97.079  205.306    2.469
  455.395    0.213    0.423   99.813  205.285    2.218
  455.645    0.215    0.408  100.473  205.265    2.106
  455.895    0.225    0.428   97.838  205.146    2.102
  456.145    0.247    0.451  101.671  205.124    2.156
  456.395    0.222    0.454  107.519  205.208    2.304
  456.645    0.242    0.455  109.398  205.398    2.503
  456.895    0.219    0.457  109.937  205.687    2.838
  457.145    0.199    0.457  110.169  205.667    3.283
  457.395    0.178    0.457  111.195  205.132    3.560
  457.645    0.188    0.456  113.503  205.114    3.860
  457.895    0.219    0.453  113.920  205.091    3.839
  458.145    0.216    0.450  110.125  205.077    3.685
  458.395    0.220    0.449  104.132  205.055    3.506
  458.645    0.212    0.447   99.177  205.036    3.403
  458.895    0.206    0.445   96.177  205.533    3.359
  459.145    0.186    0.444   95.067  205.513    3.402
  459.395    0.215    0.449   92.371  205.497    3.536
  459.645    0.210    0.452   87.843  205.478    3.703
  459.895    0.222    0.449   82.156  204.942    3.834
  460.145    0.212    0.457   76.592  205.335    3.891
  460.395    0.267    0.463   69.989  205.316    3.905
  460.645    0.291    0.422   67.841  205.400    3.776
  460.895    0.264    0.393   70.150  203.521    3.606
  461.145    0.212    0.382   75.448  203.915    3.380
  461.395    0.211    0.404   79.341  204.412    3.116
  461.645    0.238    0.431   82.320  204.808    2.883
  461.895    0.248    0.446   83.041  205.200    2.590
  462.145    0.245    0.445   80.773  205.492    2.284
  462.395    0.224    0.440   76.551  205.886    2.197
  462.645    0.244    0.445   72.145  206.178    2.176
  462.895    0.262    0.447   66.825  206.158    2.225
  463.145    0.292    0.442   64.006  206.449    2.321
  463.395    0.317    0.434   62.408  206.841    2.457
  463.645    0.326    0.426   66.180  207.028    2.611
  463.895    0.326    0.431   68.304  207.010    2.729
  464.145    0.317    0.442   68.965  206.990    2.821
  464.395    0.303    0.445   70.906  207.072    2.878
  464.645    0.284    0.450   74.435  207.056    2.992
  464.895    0.264    0.450   79.671  206.933    3.075
  465.145    0.224    0.440   83.382  206.916    3.244
  465.395    0.217    0.437   86.849  206.686    3.498
  465.645    0.236    0.433   90.073  206.669    3.690
  465.895    0.263    0.433   88.719  206.651    3.821
  466.145    0.253    0.437   83.033  206.835    3.892
  466.395    0.230    0.441   84.913  206.819    3.956
  466.645    0.237    0.443   87.648  207.003    4.015
  466.895    0.246    0.441   89.284  206.780    3.963
  467.145    0.248    0.436   88.846  206.246    3.833
  467.395    0.240    0.426   92.312  205.503    3.776
  467.645    0.226    0.421   97.794  205.483    3.748
  467.895    0.207    0.423  105.227  206.394    3.852
  468.145    0.175    0.446  107.963  206.994    4.011
  468.395    0.198    0.450   99.346  207.699    4.382
  468.645    0.225    0.448   90.181  208.195    5.088
  468.895    0.221    0.447   83.518  208.178    5.951
  469.145    0.223    0.452   77.831  208.157    6.885
  469.395    0.194    0.433   71.534  207.931    7.847
  469.645    0.148    0.416   67.983  207.499    8.781
  469.895    0.115    0.365   62.358  207.172    9.418
  470.145    0.090    0.245   57.036  207.048    9.382
  470.395    0.077    0.230   53.669  207.132    8.413
  470.645    0.061    0.220   51.337  207.424    7.365
  470.895    0.038    0.201   50.716  208.023    6.400
