~VERSION INFORMATION
 VERS.                 2.0:   CWLS LOG ASCII STANDARD -VERSION 2.0
 WRAP.                  NO:   ONE LINE PER DEPTH STEP
~WELL INFORMATION BLOCK
#MNEM.UNIT           DATA                    DESCRIPTION OF MNEMONIC
#---------    -------------------            -------------------------------
# Generated from Intellog Unique Number	CS_67_68/WELL/2204
WELL.         11-05-067-07W4                 : Well_name    - WELL
LOC .         00/11-05-067-07W4/0            : Location     - LOCATION
UWI .         00/11-05-067-07W4/0            : Uwi          - UNIQUE WELL ID
ENTR.         SP                             : Entered      - ENTERED BY
SRVC.         SCHLUMBERGER                   : Scn          - SERVICE COMPANY
STRT.M        315                            : top_depth    - START DEPTH
STOP.M        540                            : bot_depth    - STOP DEPTH
STEP.M        0.25                           : increment    - STEP LENGTH
 NULL. -999.2500:NULL Value
~CURVE INFORMATION BLOCK
#MNEM UNIT       ERCB CURVE CODE    CURVE DESCRIPTION
#-----------   ------------------   ----------------------------------
DEPT.M        00 001 00 00         : DEPTH        - DEPTH
ILD .OHMM     00 120 00 00         : RESD         - DEEP RESISTIVITY (DIL)
DPHI.V/V      00 890 00 00         : PHID         - DENSITY POROSITY (LIMESTONE)
NPHI.V/V      00 330 00 00         : PHIN         - NEUTRON POROSITY (LIMESTONE)
GR  .API      00 310 00 00         : GR           - GAMMA RAY
CALI.MM       00 280 01 00         : CAL          - CALIPER
~PARAMETER INFORMATION
#MNEM.UNIT           DATA             DESCRIPTION OF MNEMONIC
#---------         -----------     ------------------------------
GL  .M        621.33               : gl           - GROUND LEVEL ELEVATION
EREF.M        625.23               : kb           - ELEVATION OF DEPTH REFERENCE
DATM.M        625.23               : datum        - DATUM ELEVATION
TDD .M        550                  : tdd          - TOTAL DEPTH DRILLER
RUN .         ONE                  : Run          - RUN NUMBER
ENG .         BILL                 : Engineer     - RECORDING ENGINEER
WIT .         JIM                  : Witness      - WITNESSED BY
MUD .         GEL                  : Mud_type     - MUD TYPE
MATR.         LIMESTONE            : Logunit      - NEUTRON MATRIX
TMAX.C        25                   : BHT          - MAXIMUM RECORDED TEMPERATURE
BHTD.M        549.5                : BHTDEP       - MAXIMUM RECORDED TEMPERATURE
MATR.         1                    : LOGUNIT      - NEUTRON MATRIX
RMT .C        25                   : MDTP         - TEMPERATURE OF MUD
NEUT.         1                    : NEUTRON      - NEUTRON TYPE
RESI.         0                    : RESIST       - RESISTIVITY TYPE
RMC .OHMM     0.25                 : RMC          - RESISTIVITY OF MUD CAKE
RMF .OHMM     0.25                 : RMF          - RESISTIVITY OF MUD FILTRATE
SUFT.C        15                   : SUFT         - SURFACE TEMPERATURE
~A  DEPTH     RESD     PHID     PHIN       GR      CAL
  315.000    3.080    0.317    0.539   87.570  234.108
  315.250    3.082    0.300    0.525   91.328  223.974
  315.500    3.026    0.286    0.524   88.357  214.962
  315.750    2.851    0.291    0.545   86.623  206.675
  316.000    2.685    0.246    0.550   86.288  198.785
  316.250    2.563    0.232    0.541   88.395  193.238
  316.500    2.512    0.290    0.542   88.538  221.482
  316.750    2.490    0.304    0.560   88.699  229.370
  317.000    2.529    0.268    0.570   89.522  238.880
  317.250    2.569    0.281    0.557   90.461  244.634
  317.500    2.620    0.290    0.542   90.251  236.942
  317.750    2.661    0.338    0.536   90.279  225.185
  318.000    2.709    0.355    0.547   93.488  219.641
  318.250    2.747    0.308    0.552   96.387  220.292
  318.500    2.733    0.285    0.549   98.615  218.010
  318.750    2.740    0.285    0.566   98.953  213.889
  319.000    2.815    0.294    0.564   98.858  207.930
  319.250    2.886    0.323    0.532   98.464  204.725
  319.500    3.011    0.342    0.525   96.417  202.431
  319.750    2.979    0.331    0.539   93.882  202.079
  320.000    2.936    0.313    0.533  103.621  204.360
  320.250    2.883    0.329    0.517  112.689  205.130
  320.500    2.863    0.339    0.522  111.680  199.680
  320.750    2.822    0.375    0.537  105.969  185.585
  321.000    2.840    0.407    0.547  102.456  174.839
  321.250    3.129    0.342    0.545   98.759  166.143
  321.500    3.421    0.341    0.554   95.122  164.260
  321.750    3.797    0.349    0.575   91.555  160.840
  322.000    4.271    0.348    0.585   87.554  155.696
  322.250    4.733    0.271    0.534   84.654  153.517
  322.500    4.992    0.277    0.451   89.688  153.059
  322.750    5.139    0.257    0.422   94.668  155.138
  323.000    5.132    0.240    0.403   73.139  156.713
  323.250    5.041    0.247    0.425   58.207  158.393
  323.500    5.005    0.224    0.412   53.533  161.086
  323.750    4.914    0.179    0.377   51.795  163.374
  324.000    4.745    0.163    0.377   52.924  164.961
  324.250    4.623    0.251    0.398   58.877  167.251
  324.500    4.540    0.277    0.417   68.310  167.195
  324.750    4.543    0.289    0.418   75.609  166.738
  325.000    4.546    0.286    0.399   77.593  165.964
  325.250    4.644    0.282    0.388   77.681  164.996
  325.500    4.780    0.281    0.401   82.108  164.546
  325.750    4.977    0.281    0.406   85.623  165.006
  326.000    5.220    0.261    0.407   88.094  166.056
  326.250    5.395    0.244    0.412   94.290  166.010
  326.500    5.459    0.212    0.408   99.997  165.640
  326.750    5.442    0.205    0.407  102.841  165.696
  327.000    5.435    0.219    0.407   98.045  165.762
  327.250    5.407    0.242    0.409   95.756  165.913
  327.500    5.301    0.262    0.423   95.357  165.863
  327.750    5.264    0.273    0.430   96.427  165.808
  328.000    5.207    0.283    0.413   90.655  165.758
  328.250    5.104    0.266    0.404   82.317  165.690
  328.500    5.030    0.256    0.395   70.257  165.646
  328.750    4.912    0.262    0.386   53.615  165.398
  329.000    4.951    0.263    0.346   70.985  164.931
  329.250    5.214    0.238    0.362   80.971  164.784
  329.500    5.459    0.214    0.392   86.436  165.550
  329.750    5.598    0.197    0.401   86.468  168.043
  330.000    5.708    0.191    0.405   88.323  171.138
  330.250    5.711    0.199    0.425   92.878  174.650
  330.500    5.736    0.213    0.445   97.181  178.980
  330.750    5.805    0.223    0.458   99.228  185.647
  331.000    5.909    0.231    0.470   96.203  188.952
  331.250    5.969    0.234    0.435   92.812  179.334
  331.500    6.018    0.247    0.409   90.341  169.606
  331.750    6.067    0.269    0.392   93.668  164.874
  332.000    6.151    0.282    0.474   90.462  166.757
  332.250    6.261    0.342    0.511   84.201  173.214
  332.500    6.288    0.359    0.537   87.040  180.697
  332.750    6.257    0.290    0.528   89.329  191.438
  333.000    6.052    0.235    0.502   81.600  202.173
  333.250    5.854    0.230    0.476   74.549  184.924
  333.500    5.693    0.254    0.458   69.143  161.761
  333.750    5.601    0.253    0.441   77.233  157.942
  334.000    5.668    0.243    0.426   82.212  159.207
  334.250    5.846    0.231    0.415   85.234  159.778
  334.500    5.995    0.220    0.404   84.041  160.939
  334.750    6.124    0.219    0.394   83.888  162.101
  335.000    6.199    0.226    0.385   86.179  162.773
  335.250    6.155    0.265    0.396   79.430  163.127
  335.500    5.853    0.399    0.536   71.824  163.477
  335.750    5.299    0.413    0.500   67.093  163.635
  336.000    4.936    0.351    0.449   60.954  163.385
  336.250    4.765    0.300    0.424   55.122  162.717
  336.500    4.643    0.282    0.413   47.152  162.257
  336.750    4.508    0.292    0.404   47.604  161.904
  337.000    4.385    0.281    0.394   48.922  161.846
  337.250    4.322    0.272    0.388   50.357  162.312
  337.500    4.260    0.284    0.382   50.385  162.954
  337.750    4.136    0.315    0.377   44.062  163.013
  338.000    3.978    0.332    0.370   41.467  162.858
  338.250    3.840    0.338    0.403   42.353  162.712
  338.500    3.659    0.342    0.433   40.855  162.551
  338.750    3.599    0.344    0.427   39.420  162.402
  339.000    3.554    0.344    0.426   38.045  162.351
  339.250    3.549    0.343    0.424   34.837  162.302
  339.500    3.572    0.342    0.409   32.547  162.549
  339.750    3.561    0.339    0.398   35.383  162.809
  340.000    3.557    0.331    0.409   39.326  162.858
  340.250    3.559    0.333    0.417   41.799  162.696
  340.500    3.602    0.334    0.420   45.920  162.432
  340.750    3.624    0.327    0.424   48.331  162.394
  341.000    3.668    0.321    0.412   48.111  162.041
  341.250    3.697    0.319    0.403   46.009  161.563
  341.500    3.735    0.316    0.393   47.199  161.316
  341.750    3.830    0.331    0.398   51.744  160.855
  342.000    3.935    0.343    0.413   55.197  160.610
  342.250    4.112    0.347    0.420   60.175  160.252
  342.500    4.298    0.330    0.415   67.288  160.089
  342.750    4.474    0.307    0.407   73.240  160.046
  343.000    4.693    0.293    0.392   78.158  160.087
  343.250    4.960    0.285    0.409   80.996  160.045
  343.500    5.193    0.295    0.406   82.493  159.886
  343.750    5.246    0.285    0.400   83.560  159.841
  344.000    5.239    0.272    0.393   83.405  159.469
  344.250    5.184    0.258    0.397   82.216  159.117
  344.500    5.061    0.261    0.397   80.228  158.664
  344.750    4.941    0.268    0.392   76.900  157.899
  345.000    4.898    0.275    0.409   71.864  157.741
  345.250    4.901    0.294    0.430   64.314  158.100
  345.500    4.988    0.311    0.440   60.622  158.448
  345.750    5.106    0.324    0.436   64.136  159.118
  346.000    5.187    0.331    0.436   72.104  159.973
  346.250    5.269    0.310    0.441   79.525  160.233
  346.500    5.313    0.293    0.438   84.987  160.373
  346.750    5.386    0.278    0.446   87.523  160.433
  347.000    5.503    0.269    0.456   87.431  160.687
  347.250    5.632    0.256    0.442   77.384  160.432
  347.500    5.765    0.244    0.438   70.269  160.176
  347.750    5.856    0.259    0.446   66.511  159.822
  348.000    5.905    0.278    0.429   66.664  158.950
  348.250    5.953    0.274    0.418   67.304  158.082
  348.500    5.991    0.261    0.416   66.358  157.731
  348.750    6.016    0.262    0.418   65.900  157.576
  349.000    6.066    0.274    0.420   72.646  157.525
  349.250    6.104    0.283    0.427   73.898  157.572
  349.500    6.143    0.292    0.432   67.510  157.522
  349.750    6.146    0.300    0.441   64.978  157.576
  350.000    6.047    0.289    0.436   69.650  157.525
  350.250    5.794    0.289    0.427   72.794  157.671
  350.500    5.520    0.293    0.457   76.063  157.925
  350.750    5.229    0.289    0.485   79.267  158.484
  351.000    4.907    0.278    0.511   82.405  159.137
  351.250    4.667    0.270    0.479   84.579  159.504
