~VERSION INFORMATION
 VERS.                 2.0:   CWLS LOG ASCII STANDARD -VERSION 2.0
 WRAP.                  NO:   ONE LINE PER DEPTH STEP
~WELL INFORMATION BLOCK
#MNEM.UNIT           DATA                    DESCRIPTION OF MNEMONIC
#---------    -------------------            -------------------------------
# Generated from Intellog Unique Number	CS_67_68/WELL/2201
WELL.         ICG ET AL TWEEDIE              : Well_name    - WELL
LOC .         00/10-34-067-13W4/0            : Location     - LOCATION
UWI .         00/10-34-067-13W4/0            : Uwi          - UNIQUE WELL ID
ENTR.         SP                             : Entered      - ENTERED BY
SRVC.         SCHLUMBERGER                   : Scn          - SERVICE COMPANY
STRT.M        289.56                         : top_depth    - START DEPTH
STOP.M        457.06                         : bot_depth    - STOP DEPTH
STEP.M        0.25                           : increment    - STEP LENGTH
 NULL. -999.2500:NULL Value
~CURVE INFORMATION BLOCK
#MNEM UNIT       ERCB CURVE CODE    CURVE DESCRIPTION
#-----------   ------------------   ----------------------------------
DEPT.M        00 001 00 00         : DEPTH        - DEPTH
CALI.MM       00 280 01 00         : CAL          - CALIPER
GR  .API      00 310 00 00         : GR           - GAMMA RAY
DPHI.V/V      00 890 00 00         : PHID         - DENSITY POROSITY (SANDSTONE)
NPHI.V/V      00 330 00 00         : PHIN         - NEUTRON POROSITY (SANDSTONE)
ILD .OHMM     00 120 00 00         : RESD         - DEEP RESISTIVITY (DIL)
~PARAMETER INFORMATION
#MNEM.UNIT           DATA             DESCRIPTION OF MNEMONIC
#---------         -----------     ------------------------------
GL  .M        575.158              : gl           - GROUND LEVEL ELEVATION
EREF.M        577.901              : kb           - ELEVATION OF DEPTH REFERENCE
DATM.M        577.901              : datum        - DATUM ELEVATION
TDD .M        463.906              : tdd          - TOTAL DEPTH DRILLER
RUN .         ONE                  : Run          - RUN NUMBER
ENG .         BILL                 : Engineer     - RECORDING ENGINEER
WIT .         JIM                  : Witness      - WITNESSED BY
MUD .         GEL                  : Mud_type     - MUD TYPE
MATR.         SANDSTONE            : Logunit      - NEUTRON MATRIX
TMAX.C        23.8889              : BHT          - MAXIMUM RECORDED TEMPERATURE
BHTD.M        464.21               : BHTDEP       - MAXIMUM RECORDED TEMPERATURE
MATR.         1                    : LOGUNIT      - NEUTRON MATRIX
RMT .C        25                   : MDTP         - TEMPERATURE OF MUD
NEUT.         1                    : NEUTRON      - NEUTRON TYPE
RESI.         0                    : RESIST       - RESISTIVITY TYPE
RMC .OHMM     0.25                 : RMC          - RESISTIVITY OF MUD CAKE
RMF .OHMM     0.25                 : RMF          - RESISTIVITY OF MUD FILTRATE
SUFT.C        15                   : SUFT         - SURFACE TEMPERATURE
~A  DEPTH      CAL       GR     PHID     PHIN     RESD
# ...
  435.560  159.072  104.921    0.237    0.458    3.976
  435.810  159.150  100.207    0.215    0.423    4.270
  436.060  159.365   99.908    0.200    0.386    4.457
  436.310  159.421  101.558    0.178    0.360    4.326
  436.560  159.551  103.337    0.148    0.353    4.188
  436.810  159.286  106.307    0.119    0.383    4.123
  437.060  159.297  105.596    0.131    0.405    4.079
  437.310  159.073  101.820    0.165    0.404    4.059
  437.560  158.957  103.673    0.137    0.394    3.833
  437.810  158.948  112.913    0.101    0.378    3.442
  438.060  158.786  122.449    0.104    0.401    3.253
  438.310  158.605  127.973    0.191    0.428    3.037
  438.560  158.530  130.289    0.215    0.450    2.858
  438.810  158.313  129.656    0.211    0.464    2.724
  439.060  158.152  127.640    0.215    0.472    2.635
  439.310  158.239  124.594    0.213    0.467    2.634
  439.560  158.338  122.645    0.198    0.449    2.675
  439.810  158.321  126.987    0.208    0.463    2.792
  440.060  158.179  127.219    0.247    0.478    3.023
  440.310  158.291  122.158    0.224    0.472    3.188
  440.560  158.696  113.401    0.212    0.442    3.323
  440.810  158.854  116.625    0.204    0.421    3.340
  441.060  157.459  122.610    0.216    0.455    3.096
  441.310  152.668  127.358    0.228    0.484    2.837
  441.560  149.786  130.410    0.225    0.503    2.661
  441.810  148.064  131.932    0.213    0.514    2.554
  442.060  147.087  130.302    0.207    0.530    2.512
  442.310  146.666  125.837    0.183    0.497    2.534
  442.560  146.689  122.238    0.203    0.501    2.564
  442.810  146.972  124.610    0.234    0.517    2.613
  443.060  147.888  127.409    0.248    0.489    2.653
  443.310  149.133  127.668    0.235    0.479    2.688
  443.560  151.421  127.001    0.222    0.483    2.732
  443.810  154.973  126.461    0.231    0.485    2.873
  444.060  159.283  115.090    0.235    0.500    3.209
  444.310  163.740  101.383    0.252    0.441    3.649
  444.560  163.933   94.023    0.244    0.392    4.243
  444.810  155.238   90.379    0.229    0.357    4.906
  445.060  149.352   90.001    0.217    0.338    4.663
  445.310  147.851   89.497    0.228    0.347    5.333
  445.560  150.330   83.065    0.214    0.341    5.831
  445.810  151.313   74.378    0.211    0.303    6.569
  446.060  143.538   65.001    0.187    0.271    7.075
  446.310  148.023   61.743    0.160    0.256    7.609
  446.560  151.856   68.293    0.214    0.264    8.145
  446.810  143.951   71.845    0.238    0.265    8.602
  447.060  148.378   71.825    0.211    0.258    8.761
  447.310  151.833   68.012    0.150    0.248    8.622
  447.560  154.055   71.059    0.135    0.243    8.170
  447.810  156.539   74.529    0.171    0.257    7.625
  448.060  154.694   78.332    0.210    0.279    6.970
  448.310  151.148   82.198    0.238    0.300    6.450
  448.560  146.601   84.317    0.259    0.308    5.948
  448.810  145.031   86.147    0.262    0.315    5.854
  449.060  145.697   88.012    0.243    0.321    5.818
  449.310  147.679   90.073    0.232    0.319    5.777
  449.560  149.683   92.869    0.208    0.316    5.754
  449.810  151.423   95.131    0.195    0.323    5.769
  450.060  154.091   96.924    0.231    0.331    6.018
  450.310  156.285   97.995    0.240    0.337    6.449
  450.560  158.135   98.331    0.249    0.344    6.873
  450.810  158.247   95.387    0.272    0.352    7.315
  451.060  155.875   92.086    0.287    0.359    7.682
  451.310  153.809   94.074    0.270    0.346    7.810
  451.560  152.760   98.859    0.246    0.325    7.724
  451.810  152.300  104.589    0.238    0.325    7.445
  452.060  152.922  110.585    0.223    0.341    6.864
  452.310  154.289  114.767    0.204    0.352    6.194
  452.560  155.762  115.453    0.201    0.335    5.737
  452.810  157.620  106.558    0.220    0.319    5.310
  453.060  158.535   97.677    0.270    0.312    5.160
  453.310  158.312   94.502    0.269    0.317    5.697
  453.560  156.912   93.866    0.240    0.322    6.274
  453.810  155.598   92.930    0.221    0.322    6.648
  454.060  155.551  106.648    0.228    0.327    6.856
  454.310  155.827  119.015    0.245    0.329    6.911
  454.560  156.276  113.943    0.234    0.322    7.017
  454.810  156.336   90.595    0.244    0.317    7.665
  455.060  155.798   74.494    0.226    0.324    8.789
  455.310  155.817   60.822    0.228    0.328   10.181
  455.560  155.616   46.474    0.249    0.320   11.633
  455.810  155.151   44.234    0.252    0.333   13.728
  456.060  154.767   85.110    0.255    0.364   15.571
  456.310  154.245   96.182    0.282    0.355   17.027
  456.560  153.847  108.344    0.323    0.314   18.349
  456.810  152.755  109.332    0.299    0.295   18.986
  457.060  152.107  110.271    0.270    0.291   18.948
