~VERSION INFORMATION
 VERS.                 2.0:   CWLS LOG ASCII STANDARD -VERSION 2.0
 WRAP.                  NO:   ONE LINE PER DEPTH STEP
~WELL INFORMATION BLOCK
#MNEM.UNIT           DATA                    DESCRIPTION OF MNEMONIC
#---------    -------------------            -------------------------------
# Generated from Intellog Unique Number	CX_WELLS/WELL/4017
WELL.         HOMESTEAD LOCHIEL              : Well_name    - WELL
LOC .         00/10-05-079-04W4/0            : Location     - LOCATION
UWI .         00/10-05-079-04W4/0            : Uwi          - UNIQUE WELL ID
ENTR.         T                              : Entered      - ENTERED BY
SRVC.         SCHLUMBERGER                   : Scn          - SERVICE COMPANY
STRT.F        390                            : top_depth    - START DEPTH
STOP.F        1250.4                         : bot_depth    - STOP DEPTH
STEP.F        0.82                           : increment    - STEP LENGTH
 NULL. -999.2500:NULL Value
~CURVE INFORMATION BLOCK
#MNEM UNIT       ERCB CURVE CODE    CURVE DESCRIPTION
#-----------   ------------------   ----------------------------------
DEPT.F        00 001 00 00         : DEPTH        - DEPTH
GR  .API      00 310 00 00         : GR           - GAMMA RAY
NPHI.V/V      00 330 00 00         : PHIN         - NEUTRON POROSITY (SANDSTONE)
DPHI.V/V      00 890 00 00         : PHID         - DENSITY POROSITY (SANDSTONE)
ILD .OHMM     00 120 00 00         : RESD         - DEEP RESISTIVITY (DIL)
~PARAMETER INFORMATION
#MNEM.UNIT           DATA             DESCRIPTION OF MNEMONIC
#---------         -----------     ------------------------------
GL  .F        1695                 : gl           - GROUND LEVEL ELEVATION
EREF.F        1707                 : kb           - ELEVATION OF DEPTH REFERENCE
DATM.F        1707                 : datum        - DATUM ELEVATION
TDD .F        1290                 : tdd          - TOTAL DEPTH DRILLER
RUN .         ONE                  : Run          - RUN NUMBER
ENG .         BILL                 : Engineer     - RECORDING ENGINEER
WIT .         JIM                  : Witness      - WITNESSED BY
MUD .         GEL                  : Mud_type     - MUD TYPE
MATR.         SANDSTONE            : Logunit      - NEUTRON MATRIX
TMAX.F        69                   : BHT          - MAXIMUM RECORDED TEMPERATURE
BHTD.F        1290                 : BHTDEP       - MAXIMUM RECORDED TEMPERATURE
MATR.         1                    : LOGUNIT      - NEUTRON MATRIX
RMT .F        77                   : MDTP         - TEMPERATURE OF MUD
NEUT.         1                    : NEUTRON      - NEUTRON TYPE
RESI.         4.5                  : RESIST       - RESISTIVITY TYPE
RMC .OHMM     4.5                  : RMC          - RESISTIVITY OF MUD CAKE
RMF .OHMM     4.5                  : RMF          - RESISTIVITY OF MUD FILTRATE
SUFT.F        59                   : SUFT         - SURFACE TEMPERATURE
~A  DEPTH       GR     PHIN     PHID     RESD
  390.000   96.509    0.491    0.236    5.182
  390.820   91.647    0.473    0.207    6.371
  391.640   85.572    0.455    0.221    8.599
  392.461   77.053    0.359    0.265   10.574
  393.281   65.482    0.365    0.294   10.007
  394.101   51.468    0.389    0.316    8.951
  394.921   64.323    0.408    0.329    7.574
  395.741   88.788    0.436    0.310    7.440
  396.562   96.148    0.459    0.271    7.172
  397.382  104.728    0.475    0.259    5.033
  398.202  110.271    0.483    0.260    5.037
  399.022  107.852    0.474    0.267    6.194
  399.843  105.440    0.461    0.280    7.066
  400.663  102.426    0.443    0.291    8.061
  401.483  100.007    0.411    0.297    9.026
  402.303   95.763    0.402    0.285   10.491
  403.123   81.749    0.401    0.288   12.194
  403.944   75.055    0.406    0.293   14.174
  404.764   68.979    0.414    0.293   14.458
  405.584   77.568    0.419    0.283   13.685
  406.404   84.316    0.421    0.283   13.191
  407.224   86.187    0.423    0.282   12.965
  408.045   86.210    0.427    0.284   13.468
  408.865   86.265    0.429    0.292   13.990
  409.685   86.281    0.430    0.299   14.539
  410.505   86.304    0.428    0.295   14.827
  411.325   86.343    0.423    0.299   15.117
  412.146   85.145    0.418    0.301   15.707
  412.966   82.138    0.413    0.306   16.320
  413.786   79.719    0.411    0.308   17.280
  414.606   75.468    0.409    0.303   18.995
  415.427   67.560    0.409    0.298   20.108
  416.247   59.653    0.405    0.303   20.893
  417.067   52.356    0.402    0.316   21.306
  417.887   47.502    0.401    0.321   20.931
  418.707   44.480    0.398    0.321   20.945
  419.528   50.007    0.399    0.325   21.359
  420.348   57.374    0.407    0.327   22.193
  421.168   58.634    0.398    0.335   22.642
  421.988   55.604    0.392    0.342   22.657
  422.808   55.643    0.398    0.345   22.678
  423.629   58.720    0.405    0.340   21.865
  424.449   62.415    0.410    0.337   21.082
  425.269   66.721    0.410    0.336   19.227
  426.089   70.416    0.410    0.329   17.523
  426.909   77.180    0.414    0.320   14.820
  427.730   82.089    0.417    0.308   13.513
  428.550   85.784    0.420    0.298   12.554
  429.370   89.479    0.429    0.294   12.330
  430.190   92.564    0.438    0.285   12.113
  431.010   94.427    0.441    0.283   12.121
  431.831   93.847    0.438    0.280   12.363
  432.651   89.604    0.432    0.292   12.605
  433.471   87.803    0.431    0.293   12.860
  434.291   87.239    0.431    0.286   13.112
  435.112   88.499    0.432    0.285   13.368
  435.932   89.737    0.431    0.285   13.636
  436.752   92.210    0.427    0.284   14.168
  437.572   92.852    0.422    0.284   15.281
  438.392   91.051    0.417    0.282   16.181
  439.213   88.029    0.411    0.281   17.130
  440.033   81.954    0.409    0.288   17.802
  440.853   75.878    0.402    0.295   17.810
  441.673   63.085    0.399    0.301   18.505
  442.493   53.956    0.393    0.294   18.871
  443.314   55.827    0.384    0.290   19.245
  444.134   58.293    0.384    0.295   19.625
  444.954   57.103    0.390    0.297   20.014
  445.774   52.249    0.392    0.309   20.041
  446.594   46.784    0.396    0.317   20.059
  447.415   48.045    0.398    0.314   20.077
  448.235   50.518    0.401    0.310   20.095
  449.055   51.771    0.399    0.304   20.109
  449.875   50.581    0.395    0.302   20.511
  450.696   49.398    0.393    0.299   19.776
  451.516   50.025    0.392    0.299   19.068
  452.336   53.117    0.391    0.294   18.044
  453.156   56.820    0.391    0.288   16.453
  453.976   59.897    0.398    0.283   16.156
  454.797   66.034    0.409    0.282   15.292
  455.617   72.172    0.422    0.279   15.019
  456.437   83.203    0.437    0.272   14.761
  457.257   83.853    0.434    0.276   14.767
  458.077   83.876    0.430    0.283   14.781
  458.898   85.129    0.424    0.289   14.804
  459.718   87.000    0.419    0.295   14.814
  460.538   88.863    0.420    0.289   14.550
  461.358   90.108    0.423    0.267   14.299
  462.178   90.757    0.426    0.276   14.044
  462.999   90.796    0.426    0.287   13.544
  463.819   90.812    0.427    0.282   13.302
  464.639   97.568    0.433    0.269   12.823
  465.459  100.653    0.439    0.257   12.137
  466.280  103.127    0.448    0.252   11.486
  467.100  104.990    0.453    0.252   10.470
  467.920  105.639    0.461    0.253   10.093
  468.740  105.671    0.463    0.254    9.553
  469.560  105.694    0.470    0.253    9.211
  470.381  106.344    0.470    0.254    9.047
  471.201  106.985    0.470    0.259    9.057
  472.021  107.017    0.469    0.282    9.767
  472.841  103.994    0.469    0.285   11.569
  473.661   99.140    0.469    0.295   12.954
  474.482   93.668    0.470    0.312   15.060
  475.302   86.371    0.473    0.340   16.243
  476.122   76.631    0.456    0.361   17.520
  476.942   63.228    0.422    0.358   18.543
  477.762   60.206    0.403    0.351   21.159
  478.583   55.359    0.413    0.343   21.578
  479.403   56.612    0.421    0.335   21.202
  480.223   60.315    0.429    0.332   20.823
  481.043   61.552    0.434    0.330   20.082
  481.864   67.087    0.439    0.327   19.723
  482.684   78.720    0.444    0.324   19.380
  483.504   88.522    0.452    0.320   18.686
  484.324   94.660    0.467    0.317   18.016
  485.144  102.027    0.494    0.314   16.420
  485.965  104.501    0.506    0.314   14.691
  486.785  105.754    0.532    0.325   12.901
  487.605  106.395    0.553    0.361   11.761
  488.425   93.610    0.570    0.391   13.417
  489.245   91.802    0.585    0.411   15.889
  490.066   86.337    0.598    0.450   19.176
  490.886   78.429    0.580    0.420   23.580
  491.706   68.690    0.402    0.389   24.500
  492.526   60.782    0.409    0.356   23.628
  493.346   60.813    0.421    0.361   23.211
  494.167   65.746    0.445    0.376   23.221
  494.987   65.761    0.479    0.397   22.812
  495.807   65.189    0.476    0.425   22.410
  496.627   66.450    0.472    0.447   22.430
  497.448   67.076    0.457    0.397   22.455
  498.268   69.565    0.436    0.325   22.470
  499.088   70.810    0.428    0.323   21.665
  499.908   71.452    0.434    0.324   20.889
  500.728   72.094    0.437    0.326   19.772
  501.549   73.957    0.437    0.320   18.711
  502.369   78.263    0.440    0.310   18.045
  503.189   81.347    0.463    0.314   17.402
  504.009   81.997    0.493    0.324   17.739
  504.829   74.692    0.523    0.351   18.779
  505.650   61.900    0.551    0.394   20.259
  506.470   54.603    0.426    0.356   20.655
  507.290   47.306    0.421    0.356   21.871
  508.110   41.849    0.416    0.363   22.730
  508.930   39.429    0.414    0.362   23.169
  509.751   37.629    0.411    0.352   23.633
  510.571   37.668    0.408    0.348   24.106
  511.391   37.699    0.404    0.348   24.122
  512.211   37.738    0.405    0.347   24.149
  513.031   38.364    0.407    0.346   24.166
  513.852   39.632    0.409    0.353   24.655
  514.672   40.869    0.410    0.351   24.666
  515.492   42.740    0.410    0.346   25.154
  516.312   45.222    0.413    0.344   25.177
  517.133   47.085    0.418    0.341   25.200
  517.953   50.161    0.423    0.333   24.755
  518.773   55.078    0.428    0.328   24.330
  519.593   58.773    0.426    0.331   24.341
  520.413   61.247    0.425    0.331   23.922
  521.234   63.118    0.425    0.320   23.939
  522.054   64.363    0.424    0.315   23.939
  522.874   66.242    0.421    0.322   21.857
  523.694   66.265    0.421    0.324   22.274
  524.514   67.533    0.427    0.316   22.299
  525.335   68.159    0.431    0.303   22.319
  526.155   71.244    0.438    0.292   22.334
  526.975   74.328    0.440    0.292   22.360
  527.795   78.023    0.442    0.289   22.375
  528.615   82.940    0.440    0.284   21.980
  529.436   84.819    0.436    0.284   22.005
  530.256   84.850    0.435    0.290   22.025
  531.076   84.881    0.434    0.296   22.466
  531.896   86.134    0.434    0.295   22.476
