~VERSION INFORMATION
 VERS.                 2.0:   CWLS LOG ASCII STANDARD -VERSION 2.0
 WRAP.                  NO:   ONE LINE PER DEPTH STEP
~WELL INFORMATION BLOCK
#MNEM.UNIT           DATA                    DESCRIPTION OF MNEMONIC
#---------    -------------------            -------------------------------
# Generated from Intellog Unique Number	CW_73_75/WELL/2743
WELL.         LAND BANK ET AL BLANCHE 11-03  : Well_name    - WELL
LOC .         00/11-03-073-02W5/0            : Location     - LOCATION
UWI .         00/11-03-073-02W5/0            : Uwi          - UNIQUE WELL ID
ENTR.         JAYE                           : Entered      - ENTERED BY
SRVC.         SCHLUMBERGER                   : Scn          - SERVICE COMPANY
DATE.         7 JAN 80                       : Date         - LOG DATE
STRT.M        380                            : top_depth    - START DEPTH
STOP.M        590                            : bot_depth    - STOP DEPTH
STEP.M        0.25                           : increment    - STEP LENGTH
 NULL. -999.2500:NULL Value
~CURVE INFORMATION BLOCK
#MNEM UNIT       ERCB CURVE CODE    CURVE DESCRIPTION
#-----------   ------------------   ----------------------------------
DEPT.M        00 001 00 00         : DEPTH        - DEPTH
DPHI.V/V      00 890 00 00         : PHID         - DENSITY POROSITY (SANDSTONE)
NPHI.V/V      00 330 00 00         : PHIN         - NEUTRON POROSITY (SANDSTONE)
GR  .API      00 310 00 00         : GR           - GAMMA RAY
CALI.MM       00 280 01 00         : CAL          - CALIPER
ILD .OHMM     00 120 00 00         : RESD         - DEEP RESISTIVITY (DIL)
~PARAMETER INFORMATION
#MNEM.UNIT           DATA             DESCRIPTION OF MNEMONIC
#---------         -----------     ------------------------------
GL  .M        597                  : gl           - GROUND LEVEL ELEVATION
EREF.M        600.2                : kb           - ELEVATION OF DEPTH REFERENCE
DATM.M        597                  : datum        - DATUM ELEVATION
TDD .M        601                  : tdd          - TOTAL DEPTH DRILLER
RUN .         ONE                  : Run          - RUN NUMBER
ENG .         WALTERHOUSE          : Engineer     - RECORDING ENGINEER
WIT .         LOWTHER              : Witness      - WITNESSED BY
BASE.         EDM                  : Branch       - HOME BASE OF LOGGING UNIT
MUD .         GEL CHEM             : Mud_type     - MUD TYPE
MATR.         SANDSTONE            : Logunit      - NEUTRON MATRIX
TMAX.C        24.4                 : BHT          - MAXIMUM RECORDED TEMPERATURE
BHTD.M        602.5                : BHTDEP       - MAXIMUM RECORDED TEMPERATURE
RMT .C        12.8                 : MDTP         - TEMPERATURE OF MUD
MUDD.KG/M     1170                 : MWT          - MUD DENSITY
NEUT.         1                    : NEUTRON      - NEUTRON TYPE
RESI.         0                    : RESIST       - RESISTIVITY TYPE
RM  .OHMM     2.98                 : RM           - RESISTIVITY OF MUD
RMC .OHMM     0                    : RMC          - RESISTIVITY OF MUD CAKE
RMF .OHMM     2.85                 : RMF          - RESISTIVITY OF MUD FILTRATE
SUFT.C        0                    : SUFT         - SURFACE TEMPERATURE
~A  DEPTH     PHID     PHIN       GR      CAL     RESD
# ...
  416.500    0.210    0.432   96.280  172.397    4.463
  416.750    0.224    0.445   90.382  173.662    4.364
  417.000    0.250    0.446   82.510  171.441    4.148
  417.250    0.269    0.433   75.192  169.217    3.929
  417.500    0.287    0.410   62.200  168.230    3.777
  417.750    0.302    0.421   60.249  167.852    3.680
  418.000    0.307    0.442   61.628  167.783    3.667
  418.250    0.299    0.435   66.093  168.028    3.717
  418.500    0.298    0.425   69.445  167.656    3.754
  418.750    0.285    0.427   73.415  167.487    3.762
  419.000    0.277    0.435   78.494  167.323    3.771
  419.250    0.269    0.431   74.137  167.457    3.772
  419.500    0.264    0.420   76.318  167.905    3.766
  419.750    0.247    0.410   82.264  168.254    3.760
  420.000    0.233    0.431   81.546  169.008    3.740
  420.250    0.256    0.422   77.064  169.459    3.727
  420.500    0.276    0.407   73.633  169.393    3.722
  420.750    0.276    0.400   72.177  168.402    3.716
  421.000    0.266    0.397   71.829  168.129    3.717
  421.250    0.262    0.403   73.824  168.371    3.754
  421.500    0.251    0.392   76.498  169.231    3.783
  421.750    0.221    0.392   75.410  171.326    3.792
  422.000    0.258    0.410   69.511  180.306    3.808
  422.250    0.282    0.413   62.689  174.072    3.766
  422.500    0.281    0.406   56.049  167.532    3.662
  422.750    0.297    0.388   52.803  168.187    3.554
  423.000    0.286    0.369   54.182  168.838    3.463
  423.250    0.299    0.381   62.900  168.469    3.437
  423.500    0.313    0.400   69.030  167.680    3.419
  423.750    0.321    0.413   70.101  166.999    3.440
  424.000    0.314    0.423   69.691  166.630    3.553
  424.250    0.305    0.425   71.812  166.666    3.762
  424.500    0.295    0.411   76.274  166.602    4.175
  424.750    0.276    0.308   75.678  166.324    4.795
  425.000    0.242    0.256   69.288  167.288    5.773
  425.250    0.179    0.254   63.634  170.103    6.383
  425.500    0.124    0.282   59.341  175.482    6.125
  425.750    0.208    0.338   57.391  177.885    5.409
  426.000    0.278    0.388   58.152  169.188    4.678
  426.250    0.296    0.397   58.852  166.653    3.723
  426.500    0.293    0.391   60.417  165.768    3.459
  426.750    0.293    0.402   61.242  165.806    3.402
  427.000    0.292    0.393   60.094  166.455    3.390
  427.250    0.286    0.387   58.818  167.622    3.411
  427.500    0.294    0.400   58.038  168.688    3.438
  427.750    0.310    0.396   58.556  169.344    3.459
  428.000    0.298    0.387   60.367  169.691    3.473
  428.250    0.286    0.380   62.300  169.526    3.500
  428.500    0.295    0.376   64.542  169.463    3.535
  428.750    0.300    0.392   67.895  168.775    3.536
  429.000    0.290    0.416   66.068  168.402    3.551
  429.250    0.285    0.411   64.240  167.927    3.586
  429.500    0.290    0.397   65.807  167.654    3.635
  429.750    0.287    0.381   69.342  167.592    3.712
  430.000    0.266    0.367   75.038  167.521    3.763
  430.250    0.233    0.386   82.771  168.896    3.858
  430.500    0.212    0.408   92.292  171.501    4.046
  430.750    0.195    0.411   92.562  174.314    4.219
  431.000    0.217    0.404   90.426  170.238    4.391
  431.250    0.219    0.410   92.174  167.911    4.511
  431.500    0.174    0.412   96.021  170.313    4.564
  431.750    0.154    0.412   99.929  176.110    4.618
  432.000    0.166    0.436  103.591  178.819    4.663
  432.250    0.211    0.431  102.688  177.418    4.718
  432.500    0.258    0.437   99.071  173.550    4.818
  432.750    0.283    0.457  100.018  169.164    5.015
  433.000    0.299    0.488  103.002  169.719    5.210
  433.250    0.317    0.507  105.306  174.072    5.454
  433.500    0.307    0.495  107.303  177.601    5.466
  433.750    0.278    0.487  112.198  178.461    5.295
  434.000    0.264    0.504  110.370  179.735    5.062
  434.250    0.252    0.518  108.481  182.649    4.749
  434.500    0.238    0.511  105.234  182.481    4.557
  434.750    0.208    0.497  100.814  179.433    4.398
  435.000    0.221    0.484   96.520  181.836    4.366
  435.250    0.243    0.458   94.012  184.854    4.459
  435.500    0.234    0.404   93.912  177.184    4.632
  435.750    0.235    0.400   97.450  170.742    4.795
  436.000    0.235    0.413  100.000  170.985    4.934
  436.250    0.224    0.419   97.435  173.592    4.982
  436.500    0.208    0.414   91.844  179.389    4.873
  436.750    0.234    0.405   87.054  179.221    4.720
  437.000    0.235    0.410   83.869  172.061    4.616
  437.250    0.237    0.413   82.287  169.838    4.471
  437.500    0.251    0.408   82.003  168.847    4.381
  437.750    0.246    0.420   83.198  168.064    4.475
  438.000    0.239    0.415   85.564  167.380    4.535
  438.250    0.250    0.416   82.747  167.620    4.528
  438.500    0.262    0.420   82.895  167.762    4.329
  438.750    0.274    0.418   81.867  168.008    4.008
  439.000    0.288    0.408   80.902  167.732    3.912
  439.250    0.281    0.398   83.084  167.771    3.862
  439.500    0.263    0.389   87.857  167.910    3.914
  439.750    0.247    0.385   92.565  168.360    4.136
  440.000    0.224    0.407   88.208  170.351    4.429
  440.250    0.242    0.412   80.833  175.731    4.671
  440.500    0.266    0.392   75.918  172.993    4.466
  440.750    0.282    0.394   66.318  170.154    4.253
  441.000    0.292    0.403   65.973  169.161    4.074
  441.250    0.304    0.408   67.292  168.799    3.961
  441.500    0.304    0.402   69.287  168.620    3.866
  441.750    0.292    0.395   71.466  168.560    3.759
  442.000    0.280    0.402   76.731  168.701    3.662
  442.250    0.284    0.405   79.096  169.146    3.616
  442.500    0.278    0.410   75.234  169.601    3.603
  442.750    0.271    0.416   73.344  169.944    3.625
  443.000    0.285    0.426   72.751  170.080    3.654
  443.250    0.295    0.438   76.287  169.811    3.683
  443.500    0.295    0.449   76.619  169.637    3.726
  443.750    0.293    0.412   76.334  169.479    3.756
  444.000    0.293    0.412   76.851  169.510    3.793
  444.250    0.283    0.413   77.241  169.440    3.844
  444.500    0.267    0.396   76.956  169.685    3.904
  444.750    0.274    0.386   77.719  169.828    3.980
  445.000    0.279    0.398   79.159  169.656    4.143
  445.250    0.266    0.409   81.587  169.797    4.255
  445.500    0.258    0.413   83.643  170.043    4.496
  445.750    0.237    0.392   87.369  170.696    4.787
  446.000    0.207    0.393   94.050  174.227    5.002
  446.250    0.162    0.399   97.465  178.478    5.186
  446.500    0.173    0.413   96.626  178.925    5.327
  446.750    0.175    0.402   95.536  178.038    5.472
  447.000    0.171    0.388   93.893  177.768    5.505
  447.250    0.176    0.387   91.511  178.319    5.476
  447.500    0.194    0.387   90.545  180.516    5.406
  447.750    0.210    0.384   91.185  179.731    5.346
  448.000    0.210    0.380   92.319  171.954    5.298
  448.250    0.199    0.378   94.128  169.223    5.270
  448.500    0.194    0.376   98.962  168.844    5.212
  448.750    0.187    0.376  102.994  170.322    5.165
  449.000    0.165    0.379  101.476  172.518    5.157
  449.250    0.169    0.392  100.141  174.301    5.139
  449.500    0.168    0.408  102.320  175.883    5.161
  449.750    0.165    0.408  108.575  176.741    5.241
  450.000    0.163    0.409  108.841  177.706    5.353
  450.250    0.162    0.412  108.124  178.670    5.416
  450.500    0.160    0.398  106.729  179.009    5.428
  450.750    0.161    0.386  105.207  179.046    5.358
  451.000    0.168    0.401  101.657  179.186    5.191
  451.250    0.185    0.416   98.470  179.120    5.009
  451.500    0.202    0.417   94.422  177.926    4.789
  451.750    0.219    0.406   86.485  175.498    4.621
  452.000    0.236    0.389   77.626  173.270    4.460
  452.250    0.252    0.362   70.741  171.561    4.264
  452.500    0.263    0.356   69.408  170.468    4.138
  452.750    0.265    0.362   69.244  169.481    3.986
