~VERSION INFORMATION
 VERS.                 2.0:   CWLS LOG ASCII STANDARD -VERSION 2.0
 WRAP.                  NO:   ONE LINE PER DEPTH STEP
~WELL INFORMATION BLOCK
#MNEM.UNIT           DATA                    DESCRIPTION OF MNEMONIC
#---------    -------------------            -------------------------------
# Generated from Intellog Unique Number	CS_73_76/WELL/820
WELL.         BRASCAN RESOURCES LTD          : Well_name    - WELL
LOC .         00/10-17-073-17W4/0            : Location     - LOCATION
UWI .         00/10-17-073-17W4/0            : Uwi          - UNIQUE WELL ID
ENTR.         SP                             : Entered      - ENTERED BY
SRVC.         SCHLUMBERGER                   : Scn          - SERVICE COMPANY
STRT.M        249.936                        : top_depth    - START DEPTH
STOP.M        419.186                        : bot_depth    - STOP DEPTH
STEP.M        0.25                           : increment    - STEP LENGTH
 NULL. -999.2500:NULL Value
~CURVE INFORMATION BLOCK
#MNEM UNIT       ERCB CURVE CODE    CURVE DESCRIPTION
#-----------   ------------------   ----------------------------------
DEPT.M        00 001 00 00         : DEPTH        - DEPTH
GR  .API      00 310 00 00         : GR           - GAMMA RAY
DPHI.V/V      00 890 00 00         : PHID         - DENSITY POROSITY (SANDSTONE)
NPHI.V/V      00 330 00 00         : PHIN         - NEUTRON POROSITY (SANDSTONE)
ILD .OHMM     00 120 00 00         : RESD         - DEEP RESISTIVITY (DIL)
~PARAMETER INFORMATION
#MNEM.UNIT           DATA             DESCRIPTION OF MNEMONIC
#---------         -----------     ------------------------------
GL  .M        579.272              : gl           - GROUND LEVEL ELEVATION
EREF.M        582.473              : kb           - ELEVATION OF DEPTH REFERENCE
DATM.M        579.272              : datum        - DATUM ELEVATION
TDD .M        499.872              : tdd          - TOTAL DEPTH DRILLER
RUN .         ONE                  : Run          - RUN NUMBER
ENG .         BILL                 : Engineer     - RECORDING ENGINEER
WIT .         JIM                  : Witness      - WITNESSED BY
MUD .         GEL                  : Mud_type     - MUD TYPE
MATR.         SANDSTONE            : Logunit      - NEUTRON MATRIX
TMAX.C        17.7778              : BHT          - MAXIMUM RECORDED TEMPERATURE
BHTD.M        499.872              : BHTDEP       - MAXIMUM RECORDED TEMPERATURE
MATR.         1                    : LOGUNIT      - NEUTRON MATRIX
RMT .C        25                   : MDTP         - TEMPERATURE OF MUD
NEUT.         1                    : NEUTRON      - NEUTRON TYPE
RESI.         0                    : RESIST       - RESISTIVITY TYPE
RMC .OHMM     0.25                 : RMC          - RESISTIVITY OF MUD CAKE
RMF .OHMM     0.25                 : RMF          - RESISTIVITY OF MUD FILTRATE
SUFT.C        15                   : SUFT         - SURFACE TEMPERATURE
~A  DEPTH       GR     PHID     PHIN     RESD
  249.936  104.574    0.190    0.566    2.587
  250.186  106.811    0.188    0.555    2.716
  250.436  107.686    0.199    0.542    2.790
  250.686  107.630    0.208    0.553    2.787
  250.936  108.635    0.203    0.580    2.786
  251.186  109.640    0.194    0.599    2.780
  251.436  110.584    0.196    0.590    2.741
  251.686  112.029    0.208    0.573    2.661
  251.936  112.691    0.231    0.588    2.640
  252.186  113.229    0.226    0.605    2.598
  252.436  113.078    0.219    0.628    2.527
  252.686  112.078    0.219    0.625    2.506
  252.936  111.679    0.224    0.619    2.426
  253.186  110.021    0.210    0.609    2.406
  253.436  107.445    0.219    0.595    2.377
  253.686  103.377    0.227    0.577    2.334
  253.936   98.239    0.231    0.573    2.287
  254.186   94.471    0.231    0.574    2.329
  254.436   91.599    0.233    0.570    2.467
  254.686   87.882    0.241    0.592    2.752
  254.936   81.457    0.272    0.603    3.260
  255.186   73.007    0.323    0.617    3.684
  255.436   65.212    0.409    0.627    4.065
  255.686   74.464    0.485    0.643    4.336
  255.936   79.228    0.360    0.626    4.253
  256.186   70.640    0.303    0.556    4.055
  256.436   60.789    0.310    0.511    3.910
  256.686   55.464    0.322    0.481    3.818
  256.936   52.862    0.331    0.475    3.776
  257.186   53.466    0.332    0.469    3.820
  257.436   55.404    0.329    0.460    3.860
  257.686   57.956    0.319    0.449    3.924
  257.936   60.827    0.312    0.439    3.917
  258.186   62.923    0.320    0.431    4.003
  258.436   66.457    0.317    0.426    3.991
  258.686   72.516    0.306    0.437    4.078
  258.936   77.708    0.302    0.446    4.157
  259.186   81.791    0.309    0.446    4.282
  259.436   85.397    0.321    0.443    4.392
  259.686   89.582    0.295    0.430    4.471
  259.936   95.659    0.273    0.425    4.606
  260.186   99.078    0.256    0.431    4.732
  260.436  102.164    0.251    0.447    4.813
  260.686  103.481    0.248    0.463    4.861
  260.936  104.563    0.237    0.488    5.023
  261.186  101.480    0.260    0.463    5.084
  261.436   99.969    0.257    0.426    5.302
  261.686  100.141    0.245    0.416    5.396
  261.936  101.253    0.236    0.410    5.391
  262.186  102.972    0.232    0.430    5.395
  262.436  104.938    0.225    0.433    5.398
  262.686  105.095    0.220    0.429    5.400
  262.936  102.713    0.249    0.434    5.402
  263.186  100.965    0.266    0.455    5.407
  263.436   97.141    0.282    0.459    5.241
  263.686   93.825    0.284    0.450    5.200
  263.936   91.532    0.269    0.443    5.121
  264.186   89.826    0.253    0.433    5.123
  264.436   89.729    0.255    0.426    5.117
  264.686   89.804    0.254    0.421    5.042
  264.936   86.585    0.250    0.422    4.945
  265.186   81.163    0.235    0.430    4.855
  265.436   76.750    0.221    0.425    4.709
  265.686   77.028    0.199    0.413    4.713
  265.936   81.401    0.182    0.395    4.785
  266.186   86.247    0.157    0.418    4.061
  266.436   90.225    0.193    0.427    3.794
  266.686   95.704    0.209    0.435    3.463
  266.936  102.003    0.206    0.458    3.156
  267.186  106.423    0.131    0.486    3.019
  267.436  110.627    0.105    0.516    2.840
  267.686  113.590    0.128    0.550    2.698
  267.936  119.672    0.165    0.584    2.569
  268.186  124.381    0.189    0.591    2.504
  268.436  123.693    0.191    0.600    2.392
  268.686  126.079    0.177    0.604    2.354
  268.936  128.299    0.167    0.609    2.316
  269.186  129.430    0.179    0.613    2.269
  269.436  127.415    0.158    0.605    2.274
  269.686  124.970    0.149    0.600    2.271
  269.936  125.239    0.148    0.579    2.327
  270.186  127.298    0.160    0.586    2.436
  270.436  127.389    0.176    0.606    2.685
  270.686  127.447    0.210    0.587    3.034
  270.936  127.700    0.217    0.542    3.595
  271.186  123.255    0.213    0.485    4.103
  271.436  117.811    0.217    0.461    4.679
  271.686  114.110    0.234    0.450    5.224
  271.936  111.148    0.229    0.443    5.569
  272.186  110.324    0.201    0.442    5.803
  272.436  106.689    0.171    0.444    6.243
  272.686  107.573    0.186    0.448    6.683
  272.936  104.728    0.207    0.460    7.461
  273.186   96.636    0.214    0.466    8.483
  273.436   88.910    0.241    0.454    9.854
  273.686   82.300    0.272    0.487   11.108
  273.936   79.256    0.297    0.501   12.017
  274.186   77.021    0.306    0.526   12.068
  274.436   74.967    0.313    0.519   11.354
  274.686   73.906    0.303    0.491   10.775
  274.936   73.600    0.285    0.517   10.268
  275.186   73.636    0.275    0.507    9.964
  275.436   73.776    0.281    0.520    9.935
  275.686   75.422    0.296    0.508    9.752
  275.936   78.151    0.309    0.502    9.465
  276.186   79.398    0.317    0.517    9.167
  276.436   80.858    0.312    0.541    8.623
  276.686   82.413    0.301    0.544    8.126
  276.936   81.850    0.284    0.516    7.656
  277.186   87.581    0.270    0.490    7.225
  277.436   91.071    0.256    0.481    6.681
  277.686   94.261    0.261    0.473    6.192
  277.936   91.544    0.281    0.473    6.528
  278.186   89.574    0.259    0.494    6.452
  278.436   85.997    0.264    0.490    5.872
  278.686   85.410    0.271    0.478    5.723
  278.936   94.066    0.277    0.450    5.295
  279.186  100.573    0.252    0.414    5.003
  279.436  110.299    0.225    0.450    4.757
  279.686  114.470    0.217    0.500    4.634
  279.936  114.860    0.232    0.492    4.646
  280.186  116.568    0.234    0.468    4.695
  280.436  119.966    0.234    0.462    4.642
  280.686  122.717    0.224    0.473    4.584
  280.936  114.369    0.217    0.480    4.591
  281.186  105.126    0.222    0.495    4.836
  281.436   96.334    0.223    0.520    5.079
  281.686   92.808    0.237    0.450    5.259
  281.936   97.000    0.218    0.438    5.488
  282.186  102.003    0.221    0.431    5.847
  282.436  104.128    0.224    0.428    5.902
  282.686  105.535    0.212    0.423    5.529
  282.936  107.273    0.206    0.416    5.065
  283.186  112.178    0.211    0.408    4.536
  283.436  113.940    0.207    0.413    4.083
  283.686  115.654    0.206    0.449    3.685
  283.936  115.830    0.206    0.505    3.413
  284.186  113.147    0.224    0.544    3.212
  284.436  105.135    0.245    0.544    3.200
  284.686   97.446    0.265    0.536    3.435
  284.936   93.080    0.274    0.554    3.648
  285.186   91.397    0.279    0.534    3.892
  285.436   89.921    0.284    0.538    4.196
  285.686   87.795    0.282    0.537    4.364
  285.936   84.380    0.273    0.487    4.635
  286.186   87.073    0.264    0.489    4.699
  286.436   92.175    0.265    0.507    4.733
  286.686   94.924    0.275    0.510    4.880
  286.936   97.681    0.282    0.457    4.866
  287.186   94.768    0.296    0.431    4.938
  287.436   92.360    0.278    0.416    4.874
  287.686   94.843    0.252    0.419    4.512
  287.936   98.941    0.242    0.452    4.054
  288.186  103.869    0.227    0.475    3.789
  288.436  106.627    0.261    0.500    3.608
  288.686  106.972    0.250    0.528    3.530
  288.936  102.366    0.257    0.559    3.641
  289.186   93.332    0.301    0.522    3.972
  289.436   82.357    0.318    0.488    4.436
  289.686   72.802    0.321    0.495    4.937
  289.936   75.865    0.306    0.497    5.299
  290.186   78.602    0.294    0.508    5.808
  290.436   81.434    0.276    0.521    6.168
  290.686   84.374    0.266    0.501    6.314
  290.936   86.342    0.258    0.498    6.115
  291.186   86.651    0.260    0.472    5.701
  291.436   88.586    0.254    0.456    5.252
  291.686   89.976    0.237    0.448    5.019
  291.936   90.869    0.205    0.454    4.821
  292.186   93.395    0.189    0.463    4.649
  292.436   95.280    0.205    0.485    4.436
  292.686   96.622    0.245    0.487    4.341
  292.936   96.893    0.243    0.500    4.254
  293.186   88.107    0.254    0.468    4.267
