~VERSION INFORMATION
 VERS.                 2.0:   CWLS LOG ASCII STANDARD -VERSION 2.0
 WRAP.                  NO:   ONE LINE PER DEPTH STEP
~WELL INFORMATION BLOCK
#MNEM.UNIT           DATA                    DESCRIPTION OF MNEMONIC
#---------    -------------------            -------------------------------
# Generated from Intellog Unique Number	CC_80_83/WELL/2405
NULL.         -999.25                        : NULL_VALUE
WELL.         HOMESTEAD ET AL COWPAR         : WELL_NAME
LOC .         11-23-080-04W4                 : Location     - LOCATION          
UWI .         00/11-23-080-04W400            : Uwi          - UNIQUE WELL ID    
ENTR.         DW                             : Entered      - ENTERED BY        
SRVC.         SCHLUMBERGER                   : Scn          - SERVICE COMPANY   
DATE.         27 JAN 74                      : Date         - LOG DATE
STRT.M        85.344                         : top_depth    - START DEPTH       
STOP.M        347.473                        : bot_depth    - STOP DEPTH        
STEP.M        0.3048                         : increment    - STEP LENGTH       
~CURVE INFORMATION BLOCK
#MNEM UNIT       ERCB CURVE CODE    CURVE DESCRIPTION
#-----------   ------------------   ----------------------------------
DEPT.M        00 001 00 00         : DEPTH        - DEPTH                       
DPHI.V/V      00 890 00 00         : PHID         - DENSITY POROSITY (LIMESTONE)
NPHI.V/V      00 330 00 00         : PHIN         - NEUTRON POROSITY (LIMESTONE)
GR  .API      00 310 00 00         : GR           - GAMMA RAY                   
ILD .OHMM     00 120 00 00         : RESD         - DEEP RESISTIVITY (DIL)      
~PARAMETER INFORMATION       
#MNEM.UNIT           DATA             DESCRIPTION OF MNEMONIC
#---------         -----------     ------------------------------
GL  .M        513.588              : gl           - GROUND LEVEL ELEVATION      
EREF.M        517.246              : kb           - ELEVATION OF DEPTH REFERENCE
DATM.M        517.246              : datum        - DATUM ELEVATION             
TDD .M        361.493              : tdd          - TOTAL DEPTH DRILLER         
RUN .         ONE                  : Run          - RUN NUMBER                  
ENG .         BILL                 : Engineer     - RECORDING ENGINEER          
WIT .         JIM                  : Witness      - WITNESSED BY                
MUD .         GEL                  : Mud_type     - MUD TYPE                    
MATR.         LIMESTONE            : Logunit      - NEUTRON MATRIX              
TMAX.C        22.2222              : BHT          - MAXIMUM RECORDED TEMPERATURE
BHTD.M        361.493              : BHTDEP       - MAXIMUM RECORDED TEMPERATURE
MATR.         1                    : LOGUNIT      - NEUTRON MATRIX              
RMT .C        25                   : MDTP         - TEMPERATURE OF MUD          
NEUT.         1                    : NEUTRON      - NEUTRON TYPE                
RESI.         0                    : RESIST       - RESISTIVITY TYPE            
RMC .OHMM     0.25                 : RMC          - RESISTIVITY OF MUD CAKE     
RMF .OHMM     0.25                 : RMF          - RESISTIVITY OF MUD FILTRATE 
SUFT.C        15                   : SUFT         - SURFACE TEMPERATURE         
~A  DEPTH     PHID     PHIN       GR     RESD
# ...
  297.484    0.335    0.379   57.723    1.575
  297.789    0.271    0.384   74.111    1.763
  298.094    0.223    0.400   80.782    1.973
  298.398    0.245    0.445   74.703    2.011
  298.703    0.352    0.430   35.834    1.833
  299.008    0.348    0.416   34.612    1.551
  299.313    0.344    0.406   38.246    1.264
  299.618    0.360    0.396   43.098    1.218
  299.922    0.338    0.390   52.805    1.265
  300.227    0.346    0.395   50.977    1.314
  300.532    0.370    0.444   46.111    1.340
  300.837    0.353    0.439   48.532    1.292
  301.142    0.331    0.410   47.918    1.292
  301.447    0.325    0.376   46.695    1.269
  301.751    0.329    0.369   46.689    1.270
  302.056    0.328    0.366   47.288    1.270
  302.361    0.317    0.367   49.710    1.320
  302.666    0.313    0.375   55.775    1.370
  302.971    0.309    0.382   68.518    1.534
  303.275    0.270    0.395   90.978    1.717
  303.580    0.268    0.451   88.542    1.749
  303.885    0.300    0.436   56.959    1.718
  304.190    0.351    0.407   36.306    1.625
  304.495    0.343    0.383   33.262    1.454
  304.799    0.325    0.372   36.290    1.402
  305.104    0.308    0.337   38.712    1.456
  305.409    0.296    0.341   36.883    1.541
  305.714    0.297    0.360   32.624    1.600
  306.019    0.302    0.368   32.618    1.631
  306.323    0.301    0.368   32.611    1.632
  306.628    0.306    0.363   32.601    1.664
  306.933    0.294    0.360   30.773    1.665
  307.238    0.283    0.363   31.373    1.635
  307.543    0.285    0.360   33.794    1.636
  307.848    0.288    0.352   31.358    1.637
  308.152    0.289    0.364   31.349    1.608
  308.457    0.275    0.371   33.166    1.608
  308.762    0.283    0.373   36.801    1.640
  309.067    0.275    0.391   36.186    1.641
  309.372    0.294    0.383   31.928    1.642
  309.676    0.300    0.374   34.956    1.642
  309.981    0.307    0.365   35.557    1.613
  310.286    0.312    0.389   32.513    1.584
  310.591    0.310    0.381   24.610    1.527
  310.896    0.308    0.376   24.604    1.472
  311.200    0.308    0.375   26.418    1.419
  311.505    0.313    0.380   27.625    1.394
  311.810    0.316    0.380   25.189    1.395
  312.115    0.316    0.377   25.182    1.422
  312.420    0.318    0.396   25.781    1.423
  312.724    0.312    0.375   26.988    1.450
  313.029    0.296    0.363   26.981    1.451
  313.334    0.302    0.377   28.795    1.425
  313.639    0.313    0.392   26.358    1.399
  313.944    0.328    0.390   27.565    1.349
  314.249    0.330    0.390   28.773    1.300
  314.553    0.327    0.388   28.158    1.277
  314.858    0.339    0.392   23.900    1.254
  315.163    0.339    0.397   22.071    1.255
  315.468    0.334    0.394   24.491    1.256
  315.773    0.333    0.396   25.092    1.257
  316.077    0.332    0.379   27.513    1.281
  316.382    0.323    0.388   31.755    1.306
  316.687    0.320    0.407   32.356    1.356
  316.992    0.323    0.392   28.704    1.357
  317.297    0.310    0.361   31.125    1.357
  317.601    0.306    0.357   32.940    1.334
  317.906    0.316    0.368   31.718    1.309
  318.211    0.329    0.379   29.890    1.262
  318.516    0.349    0.389   27.453    1.217
  318.821    0.343    0.403   27.445    1.195
  319.125    0.333    0.424   29.867    1.196
  319.430    0.333    0.419   32.895    1.219
  319.735    0.335    0.408   35.318    1.266
  320.040    0.338    0.395   35.915    1.290
  320.345    0.332    0.386   34.694    1.316
  320.650    0.327    0.386   35.902    1.366
  320.954    0.334    0.390   40.145    1.367
  321.259    0.337    0.391   38.314    1.394
  321.564    0.327    0.381   43.166    1.421
  321.869    0.322    0.374   61.375    1.395
  322.174    0.319    0.381   78.370    1.396
  322.478    0.323    0.401   73.504    1.371
  322.783    0.338    0.413   49.814    1.346
  323.088    0.354    0.418   54.056    1.227
  323.393    0.365    0.425   54.050    1.205
  323.698    0.360    0.427   51.615    1.229
  324.002    0.362    0.421   60.108    1.276
  324.307    0.339    0.419   68.601    1.301
  324.612    0.313    0.421   61.306    1.326
  324.917    0.323    0.407   61.908    1.378
  325.222    0.332    0.394   71.009    1.458
  325.526    0.311    0.435   80.108    1.571
  325.831    0.317    0.444   83.136    1.758
  326.136    0.286    0.458   83.737    1.896
  326.441    0.267    0.447   83.123    2.043
  326.746    0.265    0.484   76.436    2.045
  327.051    0.333    0.451   46.067    1.795
  327.355    0.357    0.420   39.380    1.410
  327.660    0.360    0.417   35.729    1.238
  327.965    0.356    0.411   33.292    1.150
  328.270    0.351    0.402   37.536    1.150
  328.575    0.348    0.409   48.459    1.195
  328.879    0.356    0.429   47.237    1.196
  329.184    0.348    0.409   40.549    1.196
  329.489    0.342    0.403   38.111    1.197
  329.794    0.332    0.408   39.318    1.198
  330.099    0.347    0.443   39.919    1.198
  330.403    0.349    0.425   38.698    1.199
  330.708    0.351    0.414   36.868    1.156
  331.013    0.358    0.413   35.647    1.156
  331.318    0.364    0.418   36.245    1.136
  331.623    0.350    0.426   38.062    1.137
  331.927    0.351    0.435   44.124    1.096
  332.232    0.361    0.442   47.155    1.096
  332.537    0.360    0.426   53.220    1.117
  332.842    0.353    0.404   61.105    1.205
  333.147    0.332    0.389   75.671    1.373
  333.452    0.304    0.397  109.668    1.625
  333.756    0.258    0.463  137.592    1.996
  334.061    0.229    0.598  130.904    2.452
  334.366    0.237    0.514  129.077    3.012
  334.671    0.252    0.552  130.890    3.986
  334.976    0.238    0.587  133.918    4.064
  335.280    0.203    0.604  133.911    3.845
  335.585    0.219    0.517  127.224    3.637
  335.890    0.252    0.546  126.610    3.379
  336.195    0.245    0.577  126.602    3.444
  336.500    0.245    0.510  123.556    3.713
  336.804    0.240    0.468  122.333    4.078
  337.109    0.238    0.459  121.722    4.479
  337.414    0.214    0.451  121.108    4.919
  337.719    0.192    0.440  124.743    5.014
  338.024    0.203    0.439  130.808    4.925
  338.328    0.232    0.456  141.731    4.838
  338.633    0.268    0.505  150.830    4.840
  338.938    0.210    0.462  154.467    4.753
  339.243    0.215    0.455  152.031    4.756
  339.548    0.246    0.490  136.843    4.499
  339.853    0.272    0.560  118.011    3.807
  340.157    0.294    0.597  108.894    3.669
  340.462    0.341    0.617  103.424    3.604
  340.767    0.372    0.630   87.628    3.743
  341.072    0.479    0.642   69.405    4.035
  341.377    0.579    0.654   74.255    5.050
  341.681    0.532    0.595   90.642    5.976
  341.986    0.418    0.593   63.917    7.071
  342.291    0.537    0.628   60.266    7.624
  342.596    0.618    0.655   66.938    7.487
  342.901    0.536    0.624   91.220    6.575
  343.205    0.185    0.369   91.212    6.106
  343.510    0.033    0.388   70.559    5.670
  343.815    0.004    0.429   54.764    4.797
  344.120    0.151    0.343   38.361    4.135
  344.425    0.109    0.255   28.639    4.139
  344.729    0.027    0.181   23.772    4.297
  345.034    0.008    0.145   22.549    4.808
  345.339    0.011    0.145   23.149    6.246
  345.644    0.020    0.145   24.357   13.675
  345.949    0.036    0.140   26.779   21.009
  346.254    0.046    0.141   29.805   24.405
  346.558    0.044    0.150   30.407   26.805
  346.863    0.040    0.161   32.220   27.843
  347.168    0.045    0.163   32.214   28.380
  347.473    0.050    0.158   24.312   27.873
