~VERSION INFORMATION
 VERS.                 2.0:   CWLS LOG ASCII STANDARD -VERSION 2.0
 WRAP.                  NO:   ONE LINE PER DEPTH STEP
~WELL INFORMATION BLOCK
#MNEM.UNIT           DATA                    DESCRIPTION OF MNEMONIC
#---------    -------------------            -------------------------------
# Generated from Intellog Unique Number	CW_70_72/WELL/1030
WELL.         SUNDANCE ET AL CALL 10-01      : Well_name    - WELL              
NULL.         -999.25                        : NULL_VALUE
LOC .         10-01-072-23W4                 : Location     - LOCATION          
UWI .         00/10-01-072-23W4/0            : Uwi          - UNIQUE WELL ID    
ENTR.         JAYE                           : Entered      - ENTERED BY        
SRVC.         SCHLUMBERGER                   : Scn          - SERVICE COMPANY   
DATE.         15 FEB 77                      : Date         - LOG DATE          
STRT.M        399.288                        : top_depth    - START DEPTH       
STOP.M        624.788                        : bot_depth    - STOP DEPTH        
STEP.M        0.25                           : increment    - STEP LENGTH       
~CURVE INFORMATION BLOCK
#MNEM UNIT       ERCB CURVE CODE    CURVE DESCRIPTION
#-----------   ------------------   ----------------------------------
DEPT.M        00 001 00 00         : DEPTH        - DEPTH                       
DPHI.V/V      00 890 00 00         : PHID         - DENSITY POROSITY (SANDSTONE)
NPHI.V/V      00 330 00 00         : PHIN         - NEUTRON POROSITY (SANDSTONE)
GR  .API      00 310 00 00         : GR           - GAMMA RAY                   
CALI.MM       00 280 01 00         : CAL          - CALIPER                     
ILD .OHMM     00 120 00 00         : RESD         - DEEP RESISTIVITY (DIL)      
~PARAMETER INFORMATION       
#MNEM.UNIT           DATA             DESCRIPTION OF MNEMONIC
#---------         -----------     ------------------------------
GL  .M        641.452              : gl           - GROUND LEVEL ELEVATION      
EREF.M        645.262              : kb           - ELEVATION OF DEPTH REFERENCE
DATM.M        641.452              : datum        - DATUM ELEVATION             
TDD .M        640.08               : tdd          - TOTAL DEPTH DRILLER         
RUN .         ONE                  : Run          - RUN NUMBER                  
ENG .         PIMM                 : Engineer     - RECORDING ENGINEER          
WIT .         CHRISTERSEN          : Witness      - WITNESSED BY                
BASE.         EDM                  : Branch       - HOME BASE OF LOGGING UNIT   
MUD .         GEL                  : Mud_type     - MUD TYPE                    
MATR.         SANDSTONE            : Logunit      - NEUTRON MATRIX              
TMAX.C        31.6667              : BHT          - MAXIMUM RECORDED TEMPERATURE
BHTD.M        639.775              : BHTDEP       - MAXIMUM RECORDED TEMPERATURE
RMT .C        13.3333              : MDTP         - TEMPERATURE OF MUD          
MUDD.KG/M     1104                 : MWT          - MUD DENSITY                 
NEUT.         1                    : NEUTRON      - NEUTRON TYPE                
RESI.         0                    : RESIST       - RESISTIVITY TYPE            
RM  .OHMM     5.52                 : RM           - RESISTIVITY OF MUD          
RMC .OHMM     0                    : RMC          - RESISTIVITY OF MUD CAKE     
RMF .OHMM     5.54                 : RMF          - RESISTIVITY OF MUD FILTRATE 
SUFT.C        0                    : SUFT         - SURFACE TEMPERATURE         
~A  DEPTH     PHID     PHIN       GR      CAL     RESD
# ...
  581.788    0.131    0.392  134.633  174.654    6.073
  582.038    0.149    0.385  141.959  174.895    5.996
  582.288    0.150    0.397  145.732  174.946    5.791
  582.538    0.161    0.409  145.637  174.986    5.461
  582.788    0.165    0.417  138.113  175.651    4.965
  583.038    0.185    0.416  128.073  176.320    4.770
  583.288    0.215    0.411  116.252  177.096    4.781
  583.538    0.252    0.393  104.555  176.620    5.101
  583.788    0.294    0.390   74.873  173.129    5.597
  584.038    0.345    0.360   58.389  168.084    6.456
  584.288    0.346    0.233   41.045  166.454    7.252
  584.538    0.319    0.180   38.246  166.403    8.517
  584.788    0.326    0.214   48.948  167.273   12.071
  585.038    0.305    0.233   57.448  168.258   14.872
  585.288    0.281    0.302   79.141  169.238   17.536
  585.538    0.263    0.342   95.555  169.905   20.067
  585.788    0.224    0.363  111.045  170.572   20.374
  586.038    0.176    0.317  120.831  171.334   15.122
  586.288    0.142    0.316  141.480  171.903   11.687
  586.538    0.139    0.339  154.950  173.094   10.109
  586.788    0.135    0.392  184.314  174.693    9.090
  587.038    0.143    0.432  185.138  175.052    7.949
  587.288    0.159    0.420  156.622  174.991    7.159
  587.538    0.163    0.393  140.565  173.997    6.943
  587.788    0.169    0.315  125.432  172.377    7.061
  588.038    0.177    0.276  109.867  170.329    7.482
  588.288    0.191    0.260   96.268  169.345    7.865
  588.538    0.216    0.268   95.801  169.176    8.285
  588.788    0.196    0.275   98.221  170.265    8.616
  589.038    0.182    0.272   95.361  169.993    8.699
  589.288    0.173    0.266   87.777  168.379    8.545
  589.538    0.160    0.272   80.928  166.752    8.073
  589.788    0.162    0.283   72.053  166.386    7.516
  590.038    0.175    0.295   63.117  166.736    6.772
  590.288    0.197    0.298   58.604  167.306    6.234
  590.538    0.225    0.296   73.053  167.652    5.615
  590.788    0.212    0.292   85.539  167.914    4.883
  591.038    0.221    0.287  101.704  168.473    4.216
  591.288    0.223    0.292  107.688  168.513    3.811
  591.538    0.200    0.317  112.561  168.564    3.470
  591.788    0.154    0.320  106.143  168.082    3.335
  592.038    0.137    0.304   92.603  168.441    3.373
  592.288    0.117    0.291   84.709  170.043    3.729
  592.538    0.126    0.282   80.193  173.103    4.074
  592.788    0.149    0.273   73.653  172.728    4.471
  593.038    0.159    0.264   67.297  171.527    4.895
  593.288    0.159    0.286   61.673  169.699    5.369
  593.538    0.179    0.304   55.132  168.809    5.837
  593.788    0.202    0.303   45.585  168.952    5.981
  594.038    0.227    0.294   31.985  169.415    5.428
  594.288    0.238    0.285   28.202  169.460    4.376
  594.538    0.249    0.279   28.104  168.046    3.608
  594.788    0.240    0.277   29.115  167.051    3.203
  595.038    0.230    0.289   31.225  166.877    2.981
  595.288    0.231    0.292   33.952  166.933    2.912
  595.538    0.240    0.291   36.743  167.285    2.887
  595.788    0.246    0.289   41.062  167.539    2.868
  596.038    0.256    0.285   45.633  167.993    2.890
  596.288    0.243    0.279   53.085  168.868    2.923
  596.538    0.223    0.270   60.047  170.369    2.967
  596.788    0.200    0.261   72.779  171.658    3.080
  597.038    0.195    0.276   90.603  172.116    3.318
  597.288    0.194    0.297   99.222  172.573    3.593
  597.538    0.245    0.314   91.023  172.939    3.717
  597.788    0.248    0.328   75.213  173.808    3.745
  598.038    0.235    0.301   70.390  174.690    3.712
  598.288    0.224    0.296   67.533  175.039    3.674
  598.538    0.206    0.284   67.926  174.877    3.641
  598.788    0.209    0.269   71.081  174.507    3.657
  599.038    0.193    0.284   76.817  173.920    3.740
  599.288    0.179    0.300   79.602  173.343    3.919
  599.538    0.189    0.304   77.050  173.284    4.143
  599.788    0.203    0.302   75.542  174.057    4.270
  600.038    0.186    0.305   82.259  175.453    4.170
  600.288    0.192    0.325   84.922  177.159    4.013
  600.538    0.200    0.321   83.170  176.056    3.813
  600.788    0.203    0.315   80.432  172.778    3.631
  601.038    0.202    0.312   84.385  170.743    3.493
  601.288    0.193    0.335   89.447  170.363    3.302
  601.538    0.223    0.363   80.082  170.312    3.154
  601.788    0.265    0.345   65.806  170.974    3.002
  602.038    0.273    0.332   54.722  171.955    2.858
  602.288    0.264    0.324   50.023  172.832    2.751
  602.538    0.271    0.320   55.939  174.326    2.677
  602.788    0.265    0.328   58.419  174.064    2.614
  603.038    0.247    0.329   58.935  167.977    2.573
  603.288    0.232    0.325   59.391  169.154    2.546
  603.538    0.238    0.311   59.906  171.387    2.571
  603.788    0.244    0.303   61.034  172.052    2.585
  604.038    0.232    0.300   62.539  171.573    2.606
  604.288    0.220    0.300   65.074  171.520    2.655
  604.538    0.233    0.301   68.112  170.938    2.757
  604.788    0.230    0.298   75.201  169.836    2.879
  605.038    0.209    0.293   75.651  169.780    2.977
  605.288    0.200    0.291   72.795  170.239    3.090
  605.538    0.215    0.290   75.948  170.072    3.237
  605.788    0.201    0.290   81.931  170.421    3.410
  606.038    0.183    0.287   90.610  171.201    3.507
  606.288    0.171    0.286  100.704  171.868    3.482
  606.538    0.157    0.294  112.208  172.018    3.440
  606.788    0.167    0.306  124.814  170.812    3.441
  607.038    0.196    0.319  130.119  168.884    3.514
  607.288    0.225    0.333  133.644  165.595    3.575
  607.538    0.236    0.357  114.767  164.605    3.602
  607.788    0.228    0.368   92.877  168.278    3.624
  608.038    0.226    0.353   83.639  171.759    3.612
  608.288    0.219    0.331   72.063  173.981    3.484
  608.538    0.254    0.317   61.041  173.404    3.340
  608.788    0.281    0.305   52.903  171.260    3.173
  609.038    0.282    0.306   45.994  170.478    2.906
  609.288    0.275    0.318   58.970  170.521    2.735
  609.538    0.271    0.319   80.908  170.558    2.632
  609.788    0.292    0.320  112.665  171.026    2.553
  610.038    0.288    0.329  130.246  171.276    2.434
  610.288    0.275    0.350  139.357  170.798    2.338
  610.538    0.253    0.372  118.881  169.699    2.260
  610.788    0.246    0.342   75.022  165.379    2.236
  611.038    0.267    0.314   55.714  161.891    2.224
  611.288    0.283    0.303   34.932  164.843    2.214
  611.538    0.275    0.302   31.090  168.525    2.202
  611.788    0.260    0.306   34.798  168.672    2.207
  612.038    0.254    0.317   39.548  168.719    2.245
  612.288    0.248    0.323   46.513  162.523    2.279
  612.538    0.241    0.325   52.923  162.982    2.344
  612.788    0.236    0.315   58.963  166.768    2.398
  613.038    0.237    0.302   65.557  168.160    2.466
  613.288    0.246    0.319   72.948  167.997    2.551
  613.538    0.255    0.344   76.964  167.629    2.642
  613.788    0.277    0.356   72.446  167.983    2.729
  614.038    0.266    0.367   67.192  168.234    2.721
  614.288    0.273    0.368   62.924  163.395    2.656
  614.538    0.289    0.357   57.855  166.449    2.534
  614.788    0.287    0.338   52.541  168.472    2.451
  615.038    0.278    0.318   51.521  168.306    2.355
  615.288    0.268    0.309   53.330  167.924    2.306
  615.538    0.252    0.316   53.107  167.767    2.315
  615.788    0.255    0.312   54.791  167.813    2.368
  616.038    0.262    0.316   59.054  167.438    2.435
  616.288    0.266    0.316   57.173  167.995    2.490
  616.538    0.261    0.334   54.931  167.938    2.537
  616.788    0.258    0.347   51.638  168.088    2.553
  617.038    0.282    0.350   51.544  168.343    2.550
  617.288    0.303    0.349   59.919  168.595    2.522
  617.538    0.293    0.345   78.113  168.848    2.459
  617.788    0.275    0.338  102.197  168.577    2.303
  618.038    0.267    0.330  118.429  168.512    2.220
