~VERSION INFORMATION
 VERS.                 2.0:   CWLS LOG ASCII STANDARD -VERSION 2.0
 WRAP.                  NO:   ONE LINE PER DEPTH STEP
~WELL INFORMATION BLOCK
#MNEM.UNIT           DATA                    DESCRIPTION OF MNEMONIC
#---------    -------------------            -------------------------------
# Generated from Intellog Unique Number	CS_73_76/WELL/2195
WELL.         BOW VALLEY INDUSTRIES LTD      : Well_name    - WELL
LOC .         00/11-04-074-15W4/0            : Location     - LOCATION
UWI .         00/11-04-074-15W4/0            : Uwi          - UNIQUE WELL ID
ENTR.         SP                             : Entered      - ENTERED BY
SRVC.         SCHLUMBERGER                   : Scn          - SERVICE COMPANY
STRT.M        285                            : top_depth    - START DEPTH
STOP.M        500                            : bot_depth    - STOP DEPTH
STEP.M        0.25                           : increment    - STEP LENGTH
 NULL. -999.2500:NULL Value
~CURVE INFORMATION BLOCK
#MNEM UNIT       ERCB CURVE CODE    CURVE DESCRIPTION
#-----------   ------------------   ----------------------------------
DEPT.M        00 001 00 00         : DEPTH        - DEPTH
ILD .OHMM     00 120 00 00         : RESD         - DEEP RESISTIVITY (DIL)
DPHI.V/V      00 890 00 00         : PHID         - DENSITY POROSITY (LIMESTONE)
NPHI.V/V      00 330 00 00         : PHIN         - NEUTRON POROSITY (LIMESTONE)
GR  .API      00 310 00 00         : GR           - GAMMA RAY
~PARAMETER INFORMATION
#MNEM.UNIT           DATA             DESCRIPTION OF MNEMONIC
#---------         -----------     ------------------------------
GL  .M        638.2                : gl           - GROUND LEVEL ELEVATION
EREF.M        641.71               : kb           - ELEVATION OF DEPTH REFERENCE
DATM.M        638.2                : datum        - DATUM ELEVATION
TDD .M        504.25               : tdd          - TOTAL DEPTH DRILLER
RUN .         ONE                  : Run          - RUN NUMBER
ENG .         BILL                 : Engineer     - RECORDING ENGINEER
WIT .         JIM                  : Witness      - WITNESSED BY
MUD .         GEL                  : Mud_type     - MUD TYPE
MATR.         LIMESTONE            : Logunit      - NEUTRON MATRIX
TMAX.C        20                   : BHT          - MAXIMUM RECORDED TEMPERATURE
BHTD.M        504.25               : BHTDEP       - MAXIMUM RECORDED TEMPERATURE
MATR.         1                    : LOGUNIT      - NEUTRON MATRIX
RMT .C        25                   : MDTP         - TEMPERATURE OF MUD
NEUT.         1                    : NEUTRON      - NEUTRON TYPE
RESI.         0                    : RESIST       - RESISTIVITY TYPE
RMC .OHMM     0.25                 : RMC          - RESISTIVITY OF MUD CAKE
RMF .OHMM     0.25                 : RMF          - RESISTIVITY OF MUD FILTRATE
SUFT.C        15                   : SUFT         - SURFACE TEMPERATURE
~A  DEPTH     RESD     PHID     PHIN       GR
# ...
  328.500    7.944    0.195    0.380   89.768
  328.750    8.248    0.195    0.384   90.385
  329.000    8.405    0.202    0.393   94.064
  329.250    8.565    0.209    0.408   97.130
  329.500    8.406    0.216    0.430   98.973
  329.750    7.946    0.227    0.424   96.531
  330.000    7.511    0.236    0.392   96.536
  330.250    7.372    0.242    0.390   95.930
  330.500    7.372    0.253    0.401   92.875
  330.750    7.799    0.279    0.407   86.146
  331.000    8.252    0.292    0.385   80.028
  331.250    8.567    0.297    0.369   73.298
  331.500    8.896    0.297    0.358   76.979
  331.750    9.590    0.297    0.361   80.047
  332.000    9.772    0.296    0.380   80.049
  332.250    9.957    0.295    0.387   81.280
  332.500    9.591    0.292    0.391   86.184
  332.750    9.238    0.289    0.397   89.250
  333.000    9.238    0.286    0.392   79.461
  333.250    9.239    0.291    0.388   72.732
  333.500    9.774    0.292    0.375   71.513
  333.750   10.737    0.291    0.366   73.355
  334.000   11.148    0.290    0.361   76.422
  334.250   11.575    0.290    0.373   76.430
  334.500   12.246    0.287    0.384   75.209
  334.750   12.715    0.284    0.398   73.378
  335.000   12.957    0.281    0.399   73.996
  335.250   12.957    0.281    0.380   77.676
  335.500   12.958    0.282    0.373   79.517
  335.750   13.204    0.282    0.382   78.299
  336.000   13.204    0.281    0.370   73.408
  336.250   13.205    0.280    0.362   75.861
  336.500   13.205    0.277    0.363   81.989
  336.750   13.206    0.277    0.373   86.893
  337.000   13.207    0.282    0.365   88.735
  337.250   13.458    0.287    0.360   85.680
  337.500   13.458    0.295    0.360   72.218
  337.750   13.459    0.301    0.358   64.264
  338.000   13.459    0.309    0.362   59.370
  338.250   13.210    0.314    0.372   56.929
  338.500   13.210    0.315    0.371   57.547
  338.750   13.211    0.315    0.367   57.551
  339.000   13.211    0.314    0.368   57.556
  339.250   13.212    0.314    0.372   56.949
  339.500   13.212    0.314    0.377   55.731
  339.750   13.213    0.313    0.385   55.737
  340.000   12.968    0.310    0.364   55.130
  340.250   12.969    0.308    0.344   56.361
  340.500   12.969    0.309    0.337   56.365
  340.750   12.969    0.313    0.360   56.374
  341.000   12.970    0.314    0.378   56.379
  341.250   12.971    0.310    0.378   55.160
  341.500   12.971    0.307    0.378   53.940
  341.750   12.972    0.305    0.378   53.945
  342.000   12.973    0.303    0.375   54.564
  342.250   12.973    0.304    0.370   57.018
  342.500   12.974    0.298    0.369   61.309
  342.750   12.974    0.291    0.373   72.337
  343.000   12.975    0.287    0.384   79.689
  343.250   12.975    0.284    0.397   87.653
  343.500   12.976    0.288    0.412   90.719
  343.750   12.976    0.295    0.416   76.645
  344.000   12.977    0.302    0.341   68.080
  344.250   12.978    0.306    0.330   61.349
  344.500   12.978    0.306    0.337   64.416
  344.750   12.738    0.311    0.349   67.483
  345.000   12.738    0.320    0.378   61.979
  345.250   12.502    0.326    0.388   57.087
  345.500   12.502    0.330    0.388   54.643
  345.750   12.270    0.330    0.376   56.487
  346.000   12.042    0.328    0.368   57.103
  346.250   11.819    0.328    0.370   55.884
  346.500   11.819    0.333    0.376   54.665
  346.750   11.820    0.328    0.380   53.449
  347.000   11.821    0.330    0.371   52.840
  347.250   11.601    0.335    0.369   52.847
  347.500   11.602    0.339    0.373   53.464
  347.750   11.602    0.348    0.370   54.696
  348.000   11.387    0.353    0.366   55.312
  348.250   11.388    0.355    0.359   55.317
  348.500   11.388    0.352    0.359   54.100
  348.750   11.389    0.343    0.365   53.493
  349.000   11.389    0.333    0.374   52.888
  349.250   11.389    0.328    0.379   52.893
  349.500   11.390    0.328    0.377   52.288
  349.750   11.390    0.328    0.379   52.293
  350.000   11.607    0.329    0.364   52.909
  350.250   11.607    0.331    0.359   52.914
  350.500   11.608    0.331    0.361   53.532
  350.750   11.609    0.332    0.377   54.150
  351.000   11.609    0.336    0.390   54.772
  351.250   11.609    0.340    0.407   55.390
  351.500   11.610    0.343    0.415   56.006
  351.750   11.610    0.340    0.401   56.010
  352.000   11.611    0.333    0.397   57.240
  352.250   11.611    0.329    0.399   59.083
  352.500   11.612    0.323    0.390   59.699
  352.750   11.396    0.318    0.388   60.319
  353.000   11.397    0.317    0.387   60.323
  353.250   11.398    0.319    0.369   60.944
  353.500   11.614    0.318    0.355   60.947
  353.750   11.614    0.318    0.345   60.952
  354.000   11.615    0.318    0.380   57.286
  354.250   11.616    0.321    0.405   57.291
  354.500   11.616    0.332    0.408   59.134
  354.750   11.617    0.335    0.380   58.528
  355.000   11.617    0.340    0.360   57.921
  355.250   11.617    0.346    0.361   59.151
  355.500   11.402    0.355    0.375   61.609
  355.750   11.402    0.360    0.387   62.226
  356.000   11.191    0.364    0.393   63.456
  356.250   11.191    0.364    0.404   64.074
  356.500   10.984    0.362    0.413   64.077
  356.750   10.984    0.359    0.420   62.861
  357.000   10.780    0.355    0.418   62.251
  357.250   10.781    0.350    0.418   64.707
  357.500   10.191    0.349    0.427   66.549
  357.750   10.002    0.354    0.440   65.331
  358.000   10.002    0.362    0.448   63.499
  358.250   10.192    0.365    0.404   66.566
  358.500   10.386    0.362    0.403   69.632
  358.750   10.784    0.355    0.409   70.862
  359.000   10.784    0.352    0.408   70.257
  359.250   10.989    0.349    0.404   69.038
  359.500   10.990    0.347    0.393   69.044
  359.750   10.990    0.347    0.401   69.661
  360.000   10.991    0.344    0.414   68.442
  360.250   10.991    0.342    0.422   66.612
  360.500   10.992    0.344    0.437   63.557
  360.750   10.992    0.347    0.447   62.949
  361.000   10.788    0.351    0.433   64.791
  361.250   10.789    0.349    0.432   65.410
  361.500   10.789    0.346    0.412   63.582
  361.750   10.589    0.344    0.401   62.975
  362.000   10.589    0.341    0.394   62.368
  362.250   10.590    0.345    0.398   61.760
  362.500   10.590    0.347    0.405   61.764
  362.750   10.590    0.351    0.415   62.385
  363.000   10.591    0.353    0.396   62.389
  363.250   10.591    0.356    0.389   62.395
  363.500   10.592    0.357    0.410   63.012
  363.750   10.592    0.357    0.418   63.017
  364.000   10.593    0.357    0.420   63.022
  364.250   10.396    0.354    0.411   62.417
  364.500   10.397    0.353    0.398   63.034
  364.750   10.397    0.352    0.393   64.264
  365.000   10.398    0.354    0.400   65.496
  365.250   10.398    0.357    0.412   65.501
  365.500   10.205    0.359    0.432   64.895
  365.750   10.206    0.362    0.444   64.288
  366.000   10.206    0.365    0.428   64.295
  366.250   10.207    0.362    0.412   64.911
  366.500   10.017    0.356    0.416   66.142
  366.750   10.018    0.353    0.424   66.761
  367.000   10.018    0.349    0.413   66.765
  367.250   10.018    0.347    0.406   66.159
  367.500   10.019    0.346    0.410   65.551
  367.750   10.019    0.346    0.406   65.560
  368.000   10.020    0.344    0.394   65.566
  368.250   10.020    0.343    0.394   66.182
  368.500   10.021    0.341    0.411   67.413
  368.750   10.021    0.338    0.418   67.417
  369.000   10.022    0.337    0.416   68.649
  369.250   10.022    0.336    0.418   68.654
  369.500   10.023    0.333    0.433   68.658
  369.750   10.213    0.328    0.438   68.053
  370.000   10.213    0.325    0.441   68.058
  370.250   10.214    0.323    0.427   69.287
  370.500   10.408    0.332    0.411   68.682
  370.750   10.408    0.336    0.400   68.076
  371.000   10.408    0.332    0.406   68.693
  371.250   10.409    0.322    0.407   69.923
  371.500   10.410    0.310    0.397   71.154
  371.750   10.216    0.295    0.390   71.159
