~VERSION INFORMATION
 VERS.                 2.0:   CWLS LOG ASCII STANDARD -VERSION 2.0
 WRAP.                  NO:   ONE LINE PER DEPTH STEP
~WELL INFORMATION BLOCK
#MNEM.UNIT           DATA                    DESCRIPTION OF MNEMONIC
#---------    -------------------            -------------------------------
# Generated from Intellog Unique Number	CN_91_93/WELL/3281
NULL.         -999.2500                      : Null_value
WELL.         PARAMOUNT RESOURCES LTD.       : Well_name    - WELL              
LOC .         00/11-31-093-18W4/0            : Location     - LOCATION          
UWI .         00/11-31-093-18W400            : Uwi          - UNIQUE WELL ID    
ENTR.         JOETTE                         : Entered      - ENTERED BY        
SRVC.         COMPUTALOG                     : Scn          - SERVICE COMPANY   
DATE.         04/29/92                       : Date         - LOG DATE          
STRT.M        85                             : top_depth    - START DEPTH       
STOP.M        240                            : bot_depth    - STOP DEPTH        
STEP.M        0.25                           : increment    - STEP LENGTH       
~CURVE INFORMATION BLOCK
#MNEM UNIT       ERCB CURVE CODE    CURVE DESCRIPTION
#-----------   ------------------   ----------------------------------
DEPT.M        00 001 00 00         : DEPTH        - DEPTH                       
CALI.MM       00 280 01 00         : CAL          - CALIPER                     
GR  .API      00 310 00 00         : GR           - GAMMA RAY                   
NPHI.V/V      00 330 00 00         : PHIN         - NEUTRON POROSITY (SANDSTONE)
DPHI.V/V      00 890 00 00         : PHID         - DENSITY POROSITY (SANDSTONE)
ILD .OHMM     00 120 00 00         : RESD         - DEEP RESISTIVITY (DIL)      
~PARAMETER INFORMATION       
#MNEM.UNIT           DATA             DESCRIPTION OF MNEMONIC
#---------         -----------     ------------------------------
GL  .M        521                  : gl           - GROUND LEVEL ELEVATION      
EREF.M        524.8                : kb           - ELEVATION OF DEPTH REFERENCE
DATM.M        524.8                : datum        - DATUM ELEVATION             
TDD .M        241.5                : tdd          - TOTAL DEPTH DRILLER         
RUN .         ONE                  : Run          - RUN NUMBER                  
ENG .         BILL                 : Engineer     - RECORDING ENGINEER          
WIT .         JIM                  : Witness      - WITNESSED BY                
MUD .         GEL                  : Mud_type     - MUD TYPE                    
MATR.         SANDSTONE            : Logunit      - NEUTRON MATRIX              
TMAX.C        21                   : BHT          - MAXIMUM RECORDED TEMPERATURE
BHTD.M        241.5                : BHTDEP       - MAXIMUM RECORDED TEMPERATURE
RMT .C        16                   : MDTP         - TEMPERATURE OF MUD          
MUDD.KG/M     1080                 : MWT          - MUD DENSITY                 
NEUT.         1                    : NEUTRON      - NEUTRON TYPE                
RESI.         0                    : RESIST       - RESISTIVITY TYPE            
RM  .OHMM     3.9                  : RM           - RESISTIVITY OF MUD          
RMC .OHMM     3.9                  : RMC          - RESISTIVITY OF MUD CAKE     
RMF .OHMM     3.9                  : RMF          - RESISTIVITY OF MUD FILTRATE 
SUFT.C        4                    : SUFT         - SURFACE TEMPERATURE         
~A  DEPTH      CAL       GR     PHIN     PHID     RESD
# ...
  194.500  159.943   96.820    0.426    0.196    6.505
  194.750  159.461   81.658    0.371    0.150    7.134
  195.000  158.981   76.016    0.303    0.065    7.970
  195.250  156.520   82.273    0.319    0.144    9.070
  195.500  154.550   88.231    0.343    0.180   10.133
  195.750  157.050   94.189    0.361    0.226   11.746
  196.000  158.058   96.878    0.361    0.234   12.764
  196.250  157.078   98.076    0.379    0.223   12.644
  196.500  155.608   95.408    0.396    0.210   12.295
  196.750  154.632   96.905    0.406    0.205   12.295
  197.000  154.648   96.915    0.398    0.209   12.066
  197.250  155.653   97.221    0.382    0.215   11.626
  197.500  159.139   93.364    0.372    0.214   11.305
  197.750  160.148   90.400    0.382    0.210   11.303
  198.000  160.164   93.085    0.387    0.208   11.303
  198.250  159.685   96.070    0.383    0.213   11.194
  198.500  159.685   97.566    0.381    0.217   11.193
  198.750  159.217   97.872    0.383    0.217   11.193
  199.000  157.749   96.098    0.385    0.215   11.189
  199.250  156.771   97.297    0.393    0.201   11.290
  199.500  156.789   95.819    0.396    0.189   11.393
  199.750  156.816   97.317    0.392    0.185   12.042
  200.000  156.820   99.706    0.379    0.174   13.704
  200.250  156.834   88.710    0.318    0.089   17.588
  200.500  156.849   84.851    0.276    0.015   21.354
  200.750  156.849   80.398    0.281    0.048   22.991
  201.000  156.884   76.243    0.316    0.079   25.214
  201.250  156.884   75.955    0.342    0.119   23.848
  201.500  156.429   84.294    0.357    0.166   22.144
  201.750  156.437   88.171    0.363    0.194   18.063
  202.000  156.437   92.048    0.363    0.238   17.404
  202.250  156.468   94.734    0.362    0.248   13.808
  202.500  156.482   93.851    0.361    0.239   13.060
  202.750  156.482   91.480    0.364    0.225   12.239
  203.000  156.513   90.299    0.375    0.229   12.237
  203.250  156.513   87.036    0.336    0.254   13.175
  203.500  157.044   82.287    0.324    0.271   14.184
  203.750  157.554   79.918    0.311    0.260   15.270
  204.000  157.554   81.711    0.340    0.248   15.697
  204.250  157.585   84.398    0.366    0.238   15.987
  204.500  157.598   81.135    0.329    0.215   16.896
  204.750  157.598   73.710    0.301    0.150   17.693
  205.000  157.628   72.230    0.267    0.116   18.187
  205.250  156.654   72.834    0.289    0.143   17.203
  205.500  156.654   77.007    0.351    0.181   15.110
  205.750  156.683   80.588    0.381    0.226   13.520
  206.000  157.194   81.488    0.403    0.253   12.788
  206.250  157.210   78.523    0.413    0.249   13.145
  206.500  157.225   73.475    0.323    0.182   14.960
  206.750  157.741   65.453    0.288    0.113   20.296
  207.000  157.756   65.166    0.250    0.055   22.054
  207.250  158.762   69.041    0.291    0.056   21.646
  207.500  161.256   73.810    0.325    0.059   18.323
  207.750  159.289   77.094    0.326    0.055   14.403
  208.000  155.340   81.862    0.364    0.105   11.218
  208.250  156.345   91.092    0.413    0.157   10.225
  208.500  162.808   97.051    0.432    0.187    9.494
  208.750  162.821   99.738    0.431    0.194    8.734
  209.000  162.821   99.748    0.428    0.201    8.415
  209.250  162.860   98.567    0.437    0.206    8.260
  209.500  162.872  100.658    0.443    0.206    8.412
  209.750  162.872  100.669    0.427    0.204    8.647
  210.000  162.903   98.597    0.452    0.198    8.971
  210.250  162.917   95.928    0.479    0.174    9.222
  210.500  162.946   94.747    0.431    0.117    9.480
  210.750  163.448   83.453    0.414    0.076    9.745
  211.000  163.459   84.057    0.416    0.123    9.834
  211.250  162.487   93.885    0.425    0.172    9.474
  211.500  162.003   98.949    0.435    0.192    9.045
  211.750  163.010  106.693    0.444    0.212    8.476
  212.000  164.515  104.620    0.452    0.213    7.943
  212.250  163.042  104.928    0.458    0.205    7.943
  212.500  163.042  104.641    0.459    0.203    7.795
  212.750  162.589  101.971    0.455    0.201    7.794
  213.000  162.593   99.900    0.455    0.181    8.086
  213.250  163.600   99.611    0.444    0.178    8.086
  213.500  157.170  100.215    0.431    0.178    8.158
  213.750  159.667  102.011    0.426    0.188    8.158
  214.000  161.667  103.209    0.421    0.197    8.540
  214.250  160.690  102.030    0.415    0.193    8.699
  214.500  160.211  100.550    0.415    0.184    8.697
  214.750  160.227   97.586    0.405    0.163    8.616
  215.000  159.249   95.216    0.367    0.100    8.378
  215.250  155.794   98.793    0.351    0.066    7.924
  215.500  155.318  105.645    0.402    0.124    7.358
  215.750  155.318  108.035    0.438    0.182    7.155
  216.000  155.345  110.126    0.427    0.180    6.894
  216.250  155.859  114.598    0.413    0.176    6.581
  216.500  156.382  116.689    0.415    0.182    6.167
  216.750  157.379  110.749    0.443    0.202    5.622
  217.000  158.388  108.975    0.463    0.207    4.892
  217.250  158.909  112.554    0.468    0.195    4.297
  217.500  159.409  113.157    0.445    0.179    3.990
  217.750  160.910  106.921    0.426    0.155    3.809
  218.000  161.919  103.062    0.412    0.146    4.101
  218.250  162.928  104.856    0.416    0.174    4.456
  218.500  160.961  107.247    0.429    0.190    5.311
  218.750  159.981  107.851    0.441    0.182    5.718
  219.000  158.509  105.182    0.434    0.183    6.156
  219.250  158.031  104.299    0.428    0.179    6.270
  219.500  157.553  106.392    0.429    0.171    6.041
  219.750  157.568  109.376    0.431    0.161    5.661
  220.000  157.568  105.814    0.435    0.141    5.455
  220.250  158.099  102.551    0.456    0.133    5.555
  220.500  158.111   99.587    0.472    0.153    5.555
  220.750  158.138   97.216    0.474    0.156    5.762
  221.000  158.142   93.656    0.464    0.155    6.379
  221.250  157.166   87.121    0.441    0.158    7.745
  221.500  154.205   79.098    0.429    0.176    8.733
  221.750  156.701   73.159    0.411    0.211   12.640
  222.000  152.753   64.244    0.427    0.286   17.796
  222.250  151.775   48.487    0.426    0.306   21.606
  222.500  151.790   49.092    0.416    0.281   23.261
  222.750  151.808   52.671    0.412    0.233   17.785
  223.000  151.328   65.472    0.417    0.197   12.170
  223.250  151.340   70.539    0.414    0.178    8.562
  223.500  152.349   75.010    0.414    0.172    7.661
  223.750  152.362   80.076    0.419    0.176    7.246
  224.000  152.362   87.522    0.450    0.182    7.587
  224.250  152.399   90.804    0.442    0.179    8.245
  224.500  151.913   81.294    0.417    0.147   10.197
  224.750  150.939   56.316    0.339    0.151   17.434
  225.000  150.459   49.187    0.350    0.190   22.170
  225.250  150.479   50.386    0.403    0.251   24.998
  225.500  150.988   60.509    0.424    0.262   25.225
  225.750  151.497   62.899    0.434    0.242   21.352
  226.000  153.500   68.561    0.426    0.220   18.075
  226.250  154.507   76.304    0.419    0.213   17.415
  226.500  155.015   76.313    0.416    0.227   17.093
  226.750  155.042   72.457    0.412    0.237   17.247
  227.000  155.046   71.870    0.409    0.237   18.061
  227.250  154.070   72.178    0.401    0.217   18.738
  227.500  153.096   71.591    0.392    0.201   20.550
  227.750  152.122   68.031    0.273    0.236   32.628
  228.000  151.638   61.199    0.224    0.308   37.825
  228.250  151.160   54.069    0.199    0.366   46.783
  228.500  150.681   50.509    0.192    0.366   53.737
  228.750  150.199   49.328    0.198    0.359   61.152
  229.000  149.723   48.446    0.216    0.361   64.633
  229.250  149.239   48.752    0.231    0.357   65.828
  229.500  148.761   50.844    0.240    0.353   62.840
  229.750  149.272   51.745    0.247    0.339   59.436
  230.000  150.775   52.052    0.248    0.338   57.800
  230.250  152.776   50.277    0.240    0.344   59.415
  230.500  152.787   48.207    0.214    0.351   65.160
  230.750  152.805   46.431    0.196    0.359   74.157
