~VERSION INFORMATION
 VERS.                 2.0:   CWLS LOG ASCII STANDARD -VERSION 2.0
 WRAP.                  NO:   ONE LINE PER DEPTH STEP
~WELL INFORMATION BLOCK
#MNEM.UNIT           DATA                    DESCRIPTION OF MNEMONIC
#---------    -------------------            -------------------------------
# Generated from Intellog Unique Number	CW_79_81/WELL/2482
WELL.         11-09-080-21W4                 : Well_name    - WELL
LOC .         00/11-09-080-21W4/0            : Location     - LOCATION
UWI .         00/11-09-080-21W4/0            : Uwi          - UNIQUE WELL ID
ENTR.         MAX                            : Entered      - ENTERED BY
SRVC.         WESTERN ATLAS                  : Scn          - SERVICE COMPANY
STRT.M        213.36                         : top_depth    - START DEPTH
STOP.M        447.86                         : bot_depth    - STOP DEPTH
STEP.M        0.25                           : increment    - STEP LENGTH
 NULL. -999.2500:NULL Value
~CURVE INFORMATION BLOCK
#MNEM UNIT       ERCB CURVE CODE    CURVE DESCRIPTION
#-----------   ------------------   ----------------------------------
DEPT.M        00 001 00 00         : DEPTH        - DEPTH
ILD .OHMM     00 120 00 00         : RESD         - DEEP RESISTIVITY (DIL)
NPHI.V/V      00 330 00 00         : PHIN         - NEUTRON POROSITY (SANDSTONE)
DPHI.V/V      00 890 00 00         : PHID         - DENSITY POROSITY (SANDSTONE)
GR  .API      00 310 00 00         : GR           - GAMMA RAY
CALI.MM       00 280 01 00         : CAL          - CALIPER
~PARAMETER INFORMATION
#MNEM.UNIT           DATA             DESCRIPTION OF MNEMONIC
#---------         -----------     ------------------------------
GL  .M        584.545              : gl           - GROUND LEVEL ELEVATION
EREF.M        588.051              : kb           - ELEVATION OF DEPTH REFERENCE
DATM.M        584.545              : datum        - DATUM ELEVATION
TDD .M        496.214              : tdd          - TOTAL DEPTH DRILLER
RUN .         ONE                  : Run          - RUN NUMBER
ENG .         BILL                 : Engineer     - RECORDING ENGINEER
WIT .         JIM                  : Witness      - WITNESSED BY
MUD .         GEL                  : Mud_type     - MUD TYPE
MATR.         SANDSTONE            : Logunit      - NEUTRON MATRIX
TMAX.C        19.4444              : BHT          - MAXIMUM RECORDED TEMPERATURE
BHTD.M        496.214              : BHTDEP       - MAXIMUM RECORDED TEMPERATURE
MATR.         1                    : LOGUNIT      - NEUTRON MATRIX
RMT .C        20                   : MDTP         - TEMPERATURE OF MUD
NEUT.         1                    : NEUTRON      - NEUTRON TYPE
RESI.         0                    : RESIST       - RESISTIVITY TYPE
RMC .OHMM     4                    : RMC          - RESISTIVITY OF MUD CAKE
RMF .OHMM     7.1                  : RMF          - RESISTIVITY OF MUD FILTRATE
SUFT.C        -6.66667             : SUFT         - SURFACE TEMPERATURE
~A  DEPTH     RESD     PHIN     PHID       GR      CAL
# ...
  286.360   19.346    0.421    0.329   72.289  154.883
  286.610   18.994    0.417    0.331   64.202  154.757
  286.860   18.823    0.416    0.335   60.918  154.666
  287.110   18.514    0.405    0.337   62.524  154.559
  287.360   18.215    0.399    0.337   63.778  154.452
  287.610   17.986    0.395    0.338   65.262  154.158
  287.860   17.822    0.392    0.338   67.516  153.870
  288.110   17.658    0.389    0.339   71.717  154.305
  288.360   17.622    0.386    0.338   75.128  155.052
  288.610   17.595    0.383    0.338   79.342  155.357
  288.860   17.562    0.380    0.337   81.070  155.360
  289.110   17.528    0.378    0.336   80.422  155.263
  289.360   17.495    0.375    0.333   78.344  155.062
  289.610   17.537    0.367    0.321   76.363  154.537
  289.860   17.910    0.351    0.304   75.059  154.455
  290.110   18.410    0.336    0.285   72.625  154.358
  290.360   18.721    0.332    0.286   73.751  153.959
  290.610   18.688    0.333    0.294   74.998  153.248
  290.860   18.279    0.335    0.300   74.528  152.533
  291.110   17.537    0.334    0.293   72.044  152.503
  291.360   17.244    0.329    0.280   71.736  152.841
  291.610   17.716    0.317    0.268   72.374  153.951
  291.860   18.606    0.305    0.173   72.317  155.370
  292.110   19.762    0.295    0.122   72.031  157.279
  292.360   21.109    0.285    0.145   71.980  159.084
  292.610   22.977    0.279    0.175   72.718  159.305
  292.860   24.575    0.298    0.175   73.159  158.784
  293.110   26.566    0.298    0.149   71.914  158.667
  293.360   29.027    0.277    0.092   69.064  158.580
  293.610   31.860    0.210    0.101   65.918  158.693
  293.860   34.995    0.126    0.159   63.304  158.795
  294.110   39.171    0.111    0.132   61.317  158.015
  294.360   43.209    0.103    0.106   60.020  156.667
  294.610   48.747    0.099    0.102   57.580  155.352
  294.860   50.840    0.095    0.099   55.684  154.347
  295.110   52.423    0.093    0.096   54.792  154.049
  295.360   55.469    0.093    0.092   54.786  154.255
  295.610   61.081    0.092    0.090   55.159  154.313
  295.860   66.834    0.090    0.090   56.096  155.040
  296.110   67.709    0.092    0.090   57.221  155.355
  296.360   63.073    0.094    0.091   58.354  156.560
  296.610   51.810    0.092    0.091   60.082  157.459
  296.860   40.469    0.088    0.088   62.817  157.558
  297.110   30.447    0.087    0.078   68.077  157.050
  297.360   21.702    0.113    0.064   74.464  156.959
  297.610   18.813    0.285    0.170   82.011  156.852
  297.860   16.907    0.353    0.240   86.529  156.759
  298.110   15.049    0.373    0.267   90.161  157.270
  298.360   13.375    0.374    0.260   94.271  158.483
  298.610   12.171    0.359    0.250   99.677  160.153
  298.860   11.437    0.350    0.246  100.855  160.890
  299.110   11.251    0.364    0.247   95.332  157.966
  299.360   11.190    0.375    0.249   93.017  155.955
  299.610   11.210    0.380    0.254   91.296  154.851
  299.860   11.370    0.381    0.260   90.050  154.452
  300.110   11.966    0.388    0.266   91.842  154.502
  300.360   12.509    0.388    0.267   92.772  155.239
  300.610   12.758    0.387    0.264   93.660  155.956
  300.860   12.879    0.385    0.262   94.555  156.048
  301.110   12.858    0.382    0.260   95.689  156.152
  301.360   12.741    0.381    0.258   96.819  156.670
  301.610   12.604    0.388    0.260   97.418  158.004
  301.860   12.486    0.396    0.263   98.354  159.170
  302.110   12.281    0.390    0.264   99.253  160.672
  302.360   12.013    0.390    0.254  100.147  161.586
  302.610   11.777    0.389    0.239  102.466  162.293
  302.860   11.501    0.384    0.222  106.509  162.998
  303.110   10.934    0.371    0.201  111.090  163.705
  303.360   10.670    0.363    0.198  109.297  163.604
  303.610   10.498    0.363    0.199  107.576  162.702
  303.860   10.499    0.369    0.201  107.099  162.094
  304.110   10.671    0.379    0.206  107.035  161.786
  304.360   10.846    0.390    0.213  106.144  161.284
  304.610   10.783    0.401    0.227  102.109  159.153
  304.860   11.460    0.412    0.240   98.831  156.935
  305.110   11.354    0.406    0.240  103.051  159.271
  305.360   10.942    0.404    0.234  107.444  160.673
  305.610   10.534    0.402    0.228  110.004  161.582
  305.860   10.216    0.398    0.229  110.372  162.199
  306.110    9.899    0.400    0.243  109.380  162.384
  306.360    9.883    0.397    0.253  107.086  161.884
  306.610   10.155    0.395    0.253  104.896  158.548
  306.860   10.553    0.398    0.242  101.445  157.037
  307.110   11.241    0.401    0.234   97.223  156.542
  307.360   12.169    0.400    0.233   93.840  156.450
  307.610   12.957    0.392    0.238   94.855  156.241
  307.860   13.336    0.386    0.237   99.004  155.730
  308.110   13.411    0.373    0.239  100.609  155.643
  308.360   13.119    0.363    0.242  102.933  155.533
  308.610   12.576    0.359    0.245  105.492  155.431
  308.860   11.931    0.359    0.248  107.572  155.444
  309.110   11.175    0.361    0.247  108.358  156.156
  309.360   10.498    0.364    0.242  109.041  158.140
  309.610   10.102    0.367    0.239  109.940  160.859
  309.860    9.832    0.368    0.232  111.187  162.365
  310.110    9.675    0.365    0.229  111.961  162.473
  310.360    9.623    0.360    0.231  112.206  162.793
  310.610    9.730    0.354    0.237  111.727  166.618
  310.860   10.012    0.359    0.235  107.211  166.107
  311.110   10.437    0.359    0.235   99.306  159.140
  311.360   10.712    0.364    0.244   95.321  155.521
  311.610   10.933    0.374    0.258   93.835  154.820
  311.860   11.137    0.388    0.269   93.540  155.822
  312.110   11.293    0.405    0.266   92.786  156.512
  312.360   11.360    0.414    0.257   90.493  156.420
  312.610   11.503    0.412    0.274   89.490  156.735
  312.860   11.714    0.406    0.282   88.657  156.734
  313.110   11.910    0.400    0.285   88.478  156.837
  313.360   12.044    0.394    0.285   88.480  157.150
  313.610   12.107    0.390    0.283   87.174  157.437
  313.860   12.085    0.393    0.281   86.873  157.345
  314.110   12.063    0.406    0.281   89.191  157.238
  314.360   11.846    0.407    0.277   92.401  157.146
  314.610   11.441    0.402    0.261   96.505  157.048
  314.860   10.870    0.397    0.236  101.325  157.142
  315.110    9.920    0.395    0.216  107.380  157.988
  315.360    8.847    0.388    0.227  111.777  158.725
  315.610    6.839    0.391    0.280  112.676  158.225
  315.860    6.428    0.396    0.289  109.467  157.438
  316.110    6.693    0.401    0.278  103.822  156.344
  316.360    7.423    0.402    0.258   96.397  155.236
  316.610    8.841    0.391    0.208   86.220  154.701
  316.860   10.794    0.365    0.139   83.183  154.619
  317.110   13.424    0.358    0.124   89.072  155.327
  317.360   15.146    0.375    0.172   93.349  157.845
  317.610   15.468    0.383    0.200   96.147  160.354
  317.860   14.627    0.374    0.193   98.236  161.859
  318.110   12.859    0.368    0.214  101.068  162.253
  318.360   11.383    0.392    0.220  101.256  162.550
  318.610   10.952    0.400    0.216  102.381  162.855
  318.860   10.600    0.405    0.212  102.441  163.469
  319.110   10.200    0.407    0.210  102.386  164.182
  319.360    9.819    0.404    0.220  102.928  165.093
  319.610    9.657    0.392    0.261  104.476  166.590
  319.860    9.639    0.387    0.274  104.157  166.469
  320.110    9.624    0.384    0.281  104.111  164.369
  320.360    9.660    0.383    0.258  103.874  163.469
  320.610    9.748    0.384    0.266  104.051  163.775
  320.860    9.873    0.388    0.300  104.886  164.585
  321.110   10.012    0.396    0.290  106.198  163.637
  321.360   10.070    0.403    0.273  105.884  159.333
  321.610   10.202    0.406    0.249  104.163  158.824
  321.860   10.389    0.405    0.234  104.046  158.631
  322.110   10.600    0.401    0.221  104.942  158.141
  322.360   10.797    0.397    0.210  105.780  157.646
  322.610   10.951    0.395    0.206  105.146  158.826
