~VERSION INFORMATION
 VERS.                 2.0:   CWLS LOG ASCII STANDARD -VERSION 2.0
 WRAP.                  NO:   ONE LINE PER DEPTH STEP
~WELL INFORMATION BLOCK
#MNEM.UNIT           DATA                    DESCRIPTION OF MNEMONIC
#---------    -------------------            -------------------------------
# Generated from Intellog Unique Number	CS_67_68/WELL/856
WELL.         CHIEFTIAN DEVELOPMENT CO.      : Well_name    - WELL
LOC .         00/14-30-068-11W4/0            : Location     - LOCATION
UWI .         00/14-30-068-11W4/0            : Uwi          - UNIQUE WELL ID
ENTR.         SP                             : Entered      - ENTERED BY
SRVC.         SCHLUMBERGER                   : Scn          - SERVICE COMPANY
STRT.M        280                            : top_depth    - START DEPTH
STOP.M        480                            : bot_depth    - STOP DEPTH
STEP.M        0.25                           : increment    - STEP LENGTH
 NULL. -999.2500:NULL Value
~CURVE INFORMATION BLOCK
#MNEM UNIT       ERCB CURVE CODE    CURVE DESCRIPTION
#-----------   ------------------   ----------------------------------
DEPT.M        00 001 00 00         : DEPTH        - DEPTH
ILD .OHMM     00 120 00 00         : RESD         - DEEP RESISTIVITY (DIL)
DPHI.V/V      00 890 00 00         : PHID         - DENSITY POROSITY (LIMESTONE)
NPHI.V/V      00 330 00 00         : PHIN         - NEUTRON POROSITY (LIMESTONE)
GR  .API      00 310 00 00         : GR           - GAMMA RAY
~PARAMETER INFORMATION
#MNEM.UNIT           DATA             DESCRIPTION OF MNEMONIC
#---------         -----------     ------------------------------
GL  .M        592.5                : gl           - GROUND LEVEL ELEVATION
EREF.M        599.5                : kb           - ELEVATION OF DEPTH REFERENCE
DATM.M        592.5                : datum        - DATUM ELEVATION
TDD .M        486                  : tdd          - TOTAL DEPTH DRILLER
RUN .         ONE                  : Run          - RUN NUMBER
ENG .         BILL                 : Engineer     - RECORDING ENGINEER
WIT .         JIM                  : Witness      - WITNESSED BY
MUD .         GEL                  : Mud_type     - MUD TYPE
MATR.         LIMESTONE            : Logunit      - NEUTRON MATRIX
TMAX.C        22                   : BHT          - MAXIMUM RECORDED TEMPERATURE
BHTD.M        486                  : BHTDEP       - MAXIMUM RECORDED TEMPERATURE
MATR.         1                    : LOGUNIT      - NEUTRON MATRIX
RMT .C        25                   : MDTP         - TEMPERATURE OF MUD
NEUT.         1                    : NEUTRON      - NEUTRON TYPE
RESI.         0                    : RESIST       - RESISTIVITY TYPE
RMC .OHMM     0.25                 : RMC          - RESISTIVITY OF MUD CAKE
RMF .OHMM     0.25                 : RMF          - RESISTIVITY OF MUD FILTRATE
SUFT.C        15                   : SUFT         - SURFACE TEMPERATURE
~A  DEPTH     RESD     PHID     PHIN       GR
# ...
  367.000    2.575    0.344    0.343   68.325
  367.250    2.514    0.353    0.353   64.890
  367.500    2.533    0.122    0.332   61.636
  367.750    2.610    0.051    0.291   59.232
  368.000    2.741    0.030    0.224   62.939
  368.250    2.927    0.193    0.228   66.949
  368.500    3.033    0.247    0.245   69.502
  368.750    3.179    0.298    0.235   70.969
  369.000    3.282    0.282    0.218   67.233
  369.250    3.414    0.154    0.197   60.832
  369.500    3.558    0.130    0.180   55.764
  369.750    5.320    0.016    0.164   53.117
  370.000    8.475   -0.007    0.156   51.134
  370.250   10.648   -0.010    0.158   50.121
  370.500   17.709   -0.010    0.185   52.133
  370.750   20.608   -0.009    0.213   55.899
  371.000   17.916   -0.002    0.251   59.362
  371.250   12.352    0.026    0.275   64.646
  371.500    8.645    0.076    0.297   67.018
  371.750    6.496    0.150    0.341   69.634
  372.000    4.890    0.219    0.386   72.494
  372.250    3.974    0.272    0.405   74.687
  372.500    3.135    0.304    0.410   76.456
  372.750    2.582    0.293    0.400   77.741
  373.000    2.317    0.276    0.398   78.845
  373.250    2.179    0.256    0.394   79.467
  373.500    2.163    0.243    0.392   79.661
  373.750    2.250    0.252    0.392   78.768
  374.000    2.367    0.276    0.397   75.213
  374.250    2.439    0.295    0.406   74.687
  374.500    2.476    0.305    0.409   74.820
  374.750    2.500    0.306    0.406   75.138
  375.000    2.529    0.315    0.401   76.361
  375.250    2.567    0.308    0.399   79.099
  375.500    2.607    0.287    0.409   81.782
  375.750    2.661    0.266    0.420   83.066
  376.000    2.727    0.254    0.419   84.594
  376.250    2.826    0.250    0.413   86.122
  376.500    2.907    0.239    0.414   87.406
  376.750    2.996    0.233    0.418   88.388
  377.000    3.094    0.234    0.420   89.251
  377.250    3.158    0.236    0.416   89.930
  377.500    3.237    0.219    0.414   90.249
  377.750    3.305    0.210    0.422   90.322
  378.000    3.342    0.203    0.429   90.581
  378.250    3.445    0.218    0.434   91.260
  378.500    3.550    0.226    0.436   92.606
  378.750    3.604    0.214    0.435   93.407
  379.000    3.652    0.213    0.430   93.966
  379.250    3.674    0.233    0.418   92.951
  379.500    3.716    0.242    0.413   90.244
  379.750    3.730    0.245    0.420   86.995
  380.000    3.717    0.247    0.422   86.279
  380.250    3.732    0.236    0.422   85.449
  380.500    3.739    0.231    0.420   85.465
  380.750    3.761    0.235    0.416   85.971
  381.000    3.805    0.230    0.397   86.351
  381.250    3.863    0.215    0.396   86.483
  381.500    3.944    0.201    0.395   86.620
  381.750    3.981    0.191    0.390   86.697
  382.000    4.103    0.188    0.389   86.769
  382.250    4.142    0.188    0.388   87.031
  382.500    4.221    0.184    0.386   87.282
  382.750    4.310    0.177    0.388   88.257
  383.000    4.376    0.170    0.403   95.896
  383.250    4.434    0.168    0.418   95.852
  383.500    4.443    0.172    0.429   95.443
  383.750    4.337    0.181    0.425   94.250
  384.000    4.226    0.188    0.417   92.930
  384.250    4.110    0.194    0.414   94.158
  384.500    3.975    0.214    0.420   96.051
  384.750    3.859    0.214    0.429   97.700
  385.000    3.774    0.211    0.440   99.168
  385.250    3.725    0.202    0.445  100.087
  385.500    3.698    0.190    0.442  101.188
  385.750    3.706    0.177    0.440  101.810
  386.000    3.727    0.164    0.444  101.885
  386.250    3.721    0.158    0.450  101.051
  386.500    3.667    0.158    0.444   97.678
  386.750    3.539    0.159    0.442   96.301
  387.000    3.224    0.188    0.441   96.315
  387.250    2.840    0.219    0.442   97.602
  387.500    2.339    0.238    0.455   97.982
  387.750    2.060    0.253    0.485   97.631
  388.000    1.873    0.264    0.485   96.979
  388.250    1.738    0.264    0.487   96.268
  388.500    1.768    0.250    0.491   95.376
  388.750    1.843    0.218    0.482   93.998
  389.000    1.968    0.195    0.469   93.893
  389.250    2.149    0.188    0.459   93.483
  389.500    2.286    0.212    0.452   89.988
  389.750    2.492    0.231    0.452   87.099
  390.000    2.641    0.247    0.453   86.023
  390.250    2.732    0.261    0.450   85.010
  390.500    2.805    0.241    0.444   84.844
  390.750    2.880    0.217    0.441   85.826
  391.000    2.940    0.197    0.439   86.992
  391.250    3.013    0.190    0.439   86.703
  391.500    3.065    0.193    0.444   84.660
  391.750    2.992    0.216    0.445   81.225
  392.000    2.915    0.246    0.444   79.547
  392.250    2.793    0.252    0.443   80.348
  392.500    2.671    0.223    0.439   81.695
  392.750    2.521    0.208    0.436   79.651
  393.000    2.424    0.195    0.428   75.793
  393.250    2.271    0.181    0.408   71.998
  393.500    2.136    0.215    0.394   69.591
  393.750    2.005    0.282    0.387   67.667
  394.000    1.896    0.318    0.381   65.022
  394.250    1.809    0.341    0.383   62.981
  394.500    1.776    0.346    0.392   62.267
  394.750    1.760    0.348    0.403   61.798
  395.000    1.754    0.350    0.409   61.751
  395.250    1.741    0.355    0.412   62.798
  395.500    1.741    0.360    0.411   63.536
  395.750    1.761    0.365    0.401   65.188
  396.000    1.812    0.372    0.397   66.771
  396.250    1.871    0.375    0.399   69.207
  396.500    1.961    0.361    0.401   71.826
  396.750    2.074    0.347    0.400   73.533
  397.000    2.207    0.312    0.397   75.607
  397.250    2.334    0.289    0.386   76.650
  397.500    2.516    0.269    0.379   76.726
  397.750    2.692    0.253    0.372   77.587
  398.000    2.896    0.208    0.358   79.297
  398.250    3.046    0.191    0.346   79.856
  398.500    3.271    0.182    0.337   78.055
  398.750    3.552    0.161    0.324   74.740
  399.000    3.923    0.089    0.304   72.338
  399.250    4.506    0.055    0.289   71.687
  399.500    5.185    0.095    0.281   73.274
  399.750    5.748    0.138    0.338   75.951
  400.000    5.569    0.177    0.364   78.205
  400.250    4.418    0.197    0.382   79.791
  400.500    3.833    0.203    0.395   81.260
  400.750    3.625    0.201    0.402   82.000
  401.000    3.499    0.192    0.401   81.779
  401.250    3.435    0.187    0.396   81.612
  401.500    3.442    0.183    0.393   81.564
  401.750    3.482    0.167    0.389   81.272
  402.000    3.528    0.155    0.386   80.323
  402.250    3.609    0.146    0.385   80.213
  402.500    3.692    0.138    0.383   80.349
  402.750    3.755    0.127    0.383   81.941
  403.000    3.834    0.129    0.386   83.646
  403.250    3.878    0.148    0.384   85.174
  403.500    3.922    0.172    0.383   86.216
  403.750    3.901    0.192    0.388   87.323
  404.000    3.830    0.211    0.396   88.003
  404.250    3.795    0.195    0.403   87.778
  404.500    3.781    0.188    0.401   87.547
  404.750    3.832    0.195    0.398   87.200
  405.000    3.854    0.181    0.402   87.398
  405.250    3.876    0.166    0.402   88.378
  405.500    3.870    0.155    0.395   89.603
  405.750    3.827    0.158    0.391   90.828
  406.000    3.736    0.175    0.390   92.056
  406.250    3.614    0.191    0.392   92.251
  406.500    3.508    0.201    0.401   91.964
  406.750    3.405    0.205    0.409   91.312
  407.000    3.299    0.200    0.412   91.507
  407.250    3.232    0.192    0.414   93.337
  407.500    3.203    0.181    0.419   95.411
  407.750    3.228    0.177    0.423   97.181
  408.000    3.277    0.181    0.428   98.288
  408.250    3.352    0.184    0.435   98.419
  408.500    3.359    0.193    0.445   98.495
  408.750    3.106    0.207    0.460   98.327
  409.000    2.829    0.220    0.482   99.494
  409.250    2.602    0.223    0.500  101.082
  409.500    2.392    0.205    0.505  102.610
  409.750    2.287    0.191    0.498  103.532
  410.000    2.155    0.205    0.490  103.848
  410.250    2.053    0.215    0.483  104.227
