~VERSION INFORMATION
 VERS.                 2.0:   CWLS LOG ASCII STANDARD -VERSION 2.0
 WRAP.                  NO:   ONE LINE PER DEPTH STEP
~WELL INFORMATION BLOCK
#MNEM.UNIT           DATA                    DESCRIPTION OF MNEMONIC
#---------    -------------------            -------------------------------
# Generated from Intellog Unique Number	CW_76_78/WELL/2805
WELL.         SCURRY ATKINSON PASTECHO 10-18 : Well_name    - WELL
LOC .         00/10-18-078-03W5/0            : Location     - LOCATION
UWI .         00/10-18-078-03W5/0            : Uwi          - UNIQUE WELL ID
ENTR.         JJ                             : Entered      - ENTERED BY
SRVC.         WESTERN ATLAS                  : Scn          - SERVICE COMPANY
DATE.         25 FEB 73                      : Date         - LOG DATE
STRT.M        472.44                         : top_depth    - START DEPTH
STOP.M        600.44                         : bot_depth    - STOP DEPTH
STEP.M        0.25                           : increment    - STEP LENGTH
 NULL. -999.2500:NULL Value
~CURVE INFORMATION BLOCK
#MNEM UNIT       ERCB CURVE CODE    CURVE DESCRIPTION
#-----------   ------------------   ----------------------------------
DEPT.M        00 001 00 00         : DEPTH        - DEPTH
DELT.US/F     00 520 00 00         : DELT         - SONIC TRAVEL TIME
GR  .API      00 310 00 00         : GR           - GAMMA RAY
ILD .OHMM     00 120 00 00         : RESD         - DEEP RESISTIVITY (DIL)
~PARAMETER INFORMATION
#MNEM.UNIT           DATA             DESCRIPTION OF MNEMONIC
#---------         -----------     ------------------------------
GL  .M        664.769              : gl           - GROUND LEVEL ELEVATION
EREF.M        668.426              : kb           - ELEVATION OF DEPTH REFERENCE
DATM.M        664.769              : datum        - DATUM ELEVATION
TDD .M        602.59               : tdd          - TOTAL DEPTH DRILLER
RUN .         ONE                  : Run          - RUN NUMBER
ENG .         FAYE                 : Engineer     - RECORDING ENGINEER
WIT .         GRIGGTS              : Witness      - WITNESSED BY
BASE.         F.S.J.               : Branch       - HOME BASE OF LOGGING UNIT
MUD .         MUD/GEL              : Mud_type     - MUD TYPE
MATR.         SANDSTONE            : Logunit      - NEUTRON MATRIX
TMAX.C        25                   : BHT          - MAXIMUM RECORDED TEMPERATURE
BHTD.M        600.456              : BHTDEP       - MAXIMUM RECORDED TEMPERATURE
RMT .C        10                   : MDTP         - TEMPERATURE OF MUD
MUDD.KG/M     1104                 : MWT          - MUD DENSITY
NEUT.         1                    : NEUTRON      - NEUTRON TYPE
RESI.         0                    : RESIST       - RESISTIVITY TYPE
RM  .OHMM     3.7                  : RM           - RESISTIVITY OF MUD
RMC .OHMM     4.5                  : RMC          - RESISTIVITY OF MUD CAKE
RMF .OHMM     2                    : RMF          - RESISTIVITY OF MUD FILTRATE
SUFT.C        5                    : SUFT         - SURFACE TEMPERATURE
~A  DEPTH     DELT       GR     RESD
  472.440  356.294   68.047    6.480
  472.690  371.276   69.017    6.350
  472.940  371.751   63.736    6.438
  473.190  359.675   54.258    6.764
  473.440  351.342   51.223    7.292
  473.690  346.136   49.736    7.694
  473.940  346.025   50.234    7.695
  474.190  348.266   52.889    7.463
  474.440  350.967   54.068    7.151
  474.690  350.861   53.094    6.917
  474.940  349.012   55.854    6.717
  475.190  361.656   62.013    6.562
  475.440  375.088   67.076    6.487
  475.690  373.773   70.285    6.434
  475.940  381.696   70.943    6.416
  476.190  389.391   68.285    6.300
  476.440  388.026   66.705    6.407
  476.690  388.555   67.127    6.462
  476.940  390.085   70.161    6.532
  477.190  385.825   68.777    6.554
  477.440  377.916   68.091    6.593
  477.690  379.186   69.906    6.608
  477.940  382.039   71.458    6.541
  478.190  386.131   70.446    6.442
  478.440  385.050   69.279    6.378
  478.690  383.811   74.419    6.333
  478.940  385.323   73.390    6.284
  479.190  379.926   72.297    6.229
  479.440  383.069   75.131    6.228
  479.690  389.424   74.808    6.232
  479.940  393.564   72.218    6.226
  480.190  387.913   71.321    6.227
  480.440  385.066   72.302    6.190
  480.690  390.268   69.957    6.120
  480.940  379.934   69.766    5.944
  481.190  390.293   73.491    5.745
  481.440  398.500   76.959    5.870
  481.690  400.783   76.652    6.027
  481.940  393.102   73.083    6.118
  482.190  391.341   71.677    6.185
  482.440  386.400   69.115    6.101
  482.690  378.977   67.450    6.086
  482.940  386.916   69.428    6.251
  483.190  377.949   71.065    6.309
  483.440  367.869   70.602    6.318
  483.690  371.071   69.763    6.340
  483.940  373.819   69.971    6.459
  484.190  385.310   66.611    6.683
  484.440  384.901   62.835    6.862
  484.690  384.484   62.979    6.849
  484.940  385.767   62.570    6.564
  485.190  363.236   61.194    6.378
  485.440  360.430   59.256    6.346
  485.690  364.781   58.121    6.366
  485.940  373.495   59.874    6.414
  486.190  380.814   62.840    6.426
  486.440  372.766   62.564    6.375
  486.690  366.453   60.977    6.487
  486.940  367.305   60.043    6.572
  487.190  361.526   59.196    6.715
  487.440  361.969   56.978    6.889
  487.690  363.444   54.490    7.048
  487.940  362.172   52.716    7.153
  488.190  358.768   51.932    7.249
  488.440  356.143   53.296    7.264
  488.690  358.201   56.861    7.228
  488.940  362.161   60.687    7.183
  489.190  366.389   60.522    7.122
  489.440  365.670   60.007    7.105
  489.690  359.788   62.100    7.064
  489.940  357.442   64.176    7.002
  490.190  353.312   66.706    6.895
  490.440  351.395   66.242    6.812
  490.690  355.826   62.728    6.678
  490.940  353.540   59.501    6.580
  491.190  359.468   60.793    6.487
  491.440  372.844   66.251    6.305
  491.690  365.776   68.964    5.892
  491.940  367.513   68.417    5.837
  492.190  381.996   70.956    6.159
  492.440  391.847   74.321    6.549
  492.690  374.316   70.879    6.876
  492.940  368.491   64.927    6.896
  493.190  363.984   63.389    6.743
  493.440  364.918   63.915    6.539
  493.690  381.132   68.931    6.235
  493.940  383.568   65.813    6.109
  494.190  387.393   63.327    6.153
  494.440  392.812   67.029    6.458
  494.690  390.508   70.802    6.945
  494.940  384.199   71.070    7.407
  495.190  375.428   67.400    7.598
  495.440  360.985   64.968    7.479
  495.690  311.758   62.609    7.069
  495.940  281.760   65.326    6.803
  496.190  289.352   69.595    6.578
  496.440  362.128   68.367    6.390
  496.690  369.050   62.329    6.250
  496.940  365.640   61.861    6.023
  497.190  367.763   63.588    5.877
  497.440  378.894   63.795    5.741
  497.690  383.597   63.661    5.636
  497.940  389.606   62.751    5.495
  498.190  391.538   63.051    5.540
  498.440  389.432   65.056    5.611
  498.690  387.505   67.289    5.686
  498.940  376.303   68.825    5.775
  499.190  372.805   68.079    5.877
  499.440  370.666   65.071    5.880
  499.690  369.254   61.735    5.818
  499.940  375.638   61.324    6.229
  500.190  374.682   62.810    6.549
  500.440  368.026   64.416    6.856
  500.690  375.657   62.816    6.769
  500.940  366.998   58.527    6.563
  501.190  305.635   55.147    6.242
  501.440  278.136   58.214    5.643
  501.690  356.886   66.545    5.342
  501.940  396.334   69.837    5.288
  502.190  400.461   69.392    5.360
  502.440  398.793   72.228    5.476
  502.690  395.720   72.200    5.581
  502.940  396.002   69.260    5.632
  503.190  394.226   66.516    5.631
  503.440  395.133   66.636    5.560
  503.690  396.847   69.641    5.498
  503.940  391.407   69.593    5.365
  504.190  383.907   71.353    5.400
  504.440  385.792   68.001    5.529
  504.690  392.318   67.910    5.612
  504.940  389.584   70.667    5.730
  505.190  387.185   72.871    5.880
  505.440  385.446   73.970    6.182
  505.690  386.399   71.862    6.284
  505.940  391.057   69.252    6.175
  506.190  388.766   70.140    5.999
  506.440  384.599   70.531    6.281
  506.690  378.855   69.531    7.004
  506.940  388.352   70.587    7.810
  507.190  388.759   69.396    8.784
  507.440  377.808   66.891    9.579
  507.690  368.454   65.248    9.179
  507.940  372.491   67.248    8.524
  508.190  381.174   68.014    7.875
  508.440  368.668   69.219    7.487
  508.690  358.358   71.099    7.319
  508.940  350.227   71.241    7.004
  509.190  343.725   72.094    6.956
  509.440  348.858   71.570    6.899
  509.690  349.406   70.210    6.760
  509.940  348.784   68.454    6.666
  510.190  363.793   72.246    6.643
  510.440  378.425   77.745    6.636
  510.690  380.999   78.449    6.686
  510.940  376.007   74.452    6.772
  511.190  370.532   73.278    6.962
  511.440  370.172   76.279    7.004
  511.690  370.474   76.078    6.878
  511.940  366.061   75.165    6.750
  512.190  361.286   74.782    6.625
  512.440  370.232   74.695    6.605
  512.690  369.913   75.614    6.670
  512.940  375.902   79.075    6.735
  513.190  378.932   83.209    6.736
  513.440  376.960   81.944    6.703
  513.690  377.738   81.536    6.634
  513.940  377.432   81.555    6.505
  514.190  373.250   85.801    6.454
  514.440  378.608   87.756    6.369
  514.690  379.378   81.954    6.356
  514.940  379.146   83.803    6.375
  515.190  385.203   85.271    6.168
  515.440  390.837   84.182    6.149
  515.690  394.652   81.325    6.190
  515.940  395.432   81.863    6.259
  516.190  393.618   85.687    6.285
  516.440  389.888   86.521    6.369
  516.690  384.977   82.911    6.435
  516.940  382.227   83.039    6.422
  517.190  384.757   82.448    6.433
  517.440  387.174   81.560    6.486
  517.690  388.200   81.626    6.558
  517.940  391.909   80.700    6.739
  518.190  395.043   77.658    6.969
  518.440  389.298   75.612    7.162
  518.690  379.699   72.868    7.481
  518.940  391.694   68.203    8.008
  519.190  385.622   62.413    9.049
  519.440  380.158   60.739    9.393
  519.690  376.188   58.618    8.841
  519.940  321.734   52.422    8.604
  520.190  265.413   47.986    8.444
  520.440  259.358   51.231    8.577
  520.690  320.851   58.607    9.011
  520.940  372.206   68.482    9.905
  521.190  379.843   65.661   11.698
  521.440  383.608   58.836   12.183
  521.690  384.564   57.963   11.368
  521.940  378.894   62.408   10.453
  522.190  375.345   64.489    9.555
  522.440  371.040   69.115    8.752
  522.690  372.012   69.221    8.124
  522.940  373.152   72.031    7.797
  523.190  361.483   72.773    7.558
  523.440  352.168   70.063    7.408
  523.690  354.680   68.530    7.263
  523.940  361.903   68.551    7.261
  524.190  363.589   70.474    7.308
  524.440  359.127   69.790    7.367
  524.690  356.344   67.804    7.447
  524.940  363.579   68.581    7.488
  525.190  368.854   68.633    7.582
  525.440  367.254   68.755    7.633
  525.690  368.047   70.584    7.805
  525.940  367.932   69.656    7.810
  526.190  365.132   69.494    7.863
  526.440  371.316   67.649    7.968
