~VERSION INFORMATION
 VERS.                 2.0:   CWLS LOG ASCII STANDARD -VERSION 2.0
 WRAP.                  NO:   ONE LINE PER DEPTH STEP
~WELL INFORMATION BLOCK
#MNEM.UNIT           DATA                    DESCRIPTION OF MNEMONIC
#---------    -------------------            -------------------------------
# Generated from Intellog Unique Number	CW_76_78/WELL/2816
NULL.         -999.25                        : NULL_VALUE
WELL.         WOODS ET AQL MARTEN HILLS 11-1 : Well_name    - WELL              
LOC .         00/11-16-077-02W5/0            : Location     - LOCATION          
UWI .         00/11-16-077-02W5/0            : Uwi          - UNIQUE WELL ID    
ENTR.         JJ                             : Entered      - ENTERED BY        
SRVC.         SCHLUMBERGER                   : Scn          - SERVICE COMPANY   
DATE.         28 JAN 75                      : Date         - LOG DATE          
STRT.M        499.872                        : top_depth    - START DEPTH       
STOP.M        627.872                        : bot_depth    - STOP DEPTH        
STEP.M        0.25                           : increment    - STEP LENGTH       
~CURVE INFORMATION BLOCK
#MNEM UNIT       ERCB CURVE CODE    CURVE DESCRIPTION
#-----------   ------------------   ----------------------------------
DEPT.M        00 001 00 00         : DEPTH        - DEPTH                       
GR  .API      00 310 00 00         : GR           - GAMMA RAY                   
ILD .OHMM     00 120 00 00         : RESD         - DEEP RESISTIVITY (DIL)      
DELT.US/F     00 520 00 00         : DELT         - SONIC TRAVEL TIME           
NPHI.V/V      00 330 00 00         : PHIN         - NEUTRON POROSITY (SANDSTONE)
~PARAMETER INFORMATION       
#MNEM.UNIT           DATA             DESCRIPTION OF MNEMONIC
#---------         -----------     ------------------------------
GL  .M        702.869              : gl           - GROUND LEVEL ELEVATION      
EREF.M        706.222              : kb           - ELEVATION OF DEPTH REFERENCE
DATM.M        706.222              : datum        - DATUM ELEVATION             
TDD .M        624.84               : tdd          - TOTAL DEPTH DRILLER         
RUN .         ONE                  : Run          - RUN NUMBER                  
ENG .         CURRIE               : Engineer     - RECORDING ENGINEER          
WIT .         MATHESON             : Witness      - WITNESSED BY                
BASE.         EDMONTON             : Branch       - HOME BASE OF LOGGING UNIT   
MUD .         GEL                  : Mud_type     - MUD TYPE                    
MATR.         SANDSTONE            : Logunit      - NEUTRON MATRIX              
TMAX.C        26.6667              : BHT          - MAXIMUM RECORDED TEMPERATURE
BHTD.M        626.059              : BHTDEP       - MAXIMUM RECORDED TEMPERATURE
RMT .C        12.7778              : MDTP         - TEMPERATURE OF MUD          
MUDD.KG/M     1140                 : MWT          - MUD DENSITY                 
NEUT.         1                    : NEUTRON      - NEUTRON TYPE                
RESI.         0                    : RESIST       - RESISTIVITY TYPE            
RM  .OHMM     6.3                  : RM           - RESISTIVITY OF MUD          
RMC .OHMM     0                    : RMC          - RESISTIVITY OF MUD CAKE     
RMF .OHMM     0                    : RMF          - RESISTIVITY OF MUD FILTRATE 
SUFT.C        5                    : SUFT         - SURFACE TEMPERATURE         
~A  DEPTH       GR     RESD     DELT     PHIN
# ...
  543.372   79.842    6.152  388.628    0.505
  543.622   79.708    7.095  392.131    0.478
  543.872   78.912    8.168  391.702    0.478
  544.122   78.231   10.307  404.026    0.505
  544.372   76.451   12.723  400.501    0.484
  544.622   74.296   15.795  394.342    0.451
  544.872   67.565   18.382  414.039    0.413
  545.122   66.155   19.628  375.450    0.394
  545.372   71.178   18.467  368.565    0.401
  545.622   75.888   16.903  367.673    0.381
  545.872   78.819   14.728  391.181    0.412
  546.122   78.811   12.920  376.934    0.442
  546.372   70.974   11.008  366.039    0.433
  546.622   71.528    9.160  389.021    0.406
  546.872   75.204    7.965  398.778    0.419
  547.122   78.198    7.801  396.044    0.437
  547.372   82.782    8.593  370.807    0.458
  547.622   80.391    9.875  368.136    0.474
  547.872   72.426   11.991  374.938    0.403
  548.122   73.902   14.267  311.749    0.409
  548.372   69.976   17.012  330.587    0.417
  548.622   66.364   18.193  374.750    0.401
  548.872   67.948   18.590  393.456    0.423
  549.122   70.887   18.893  387.954    0.409
  549.372   72.549   19.339  395.939    0.421
  549.622   72.592   19.403  407.012    0.419
  549.872   68.063   19.082  389.669    0.399
  550.122   69.901   18.794  380.489    0.412
  550.372   72.896   19.238  369.203    0.395
  550.622   71.475   21.823  358.238    0.429
  550.872   66.334   27.791  351.951    0.384
  551.122   58.313   30.782  232.460    0.267
  551.372   50.352   31.634  205.318    0.213
  551.622   55.748   29.217  206.660    0.253
  551.872   60.449   24.131  200.757    0.294
  552.122   66.626   21.329  265.383    0.317
  552.372   72.010   20.786  334.736    0.332
  552.622   72.022   20.583  331.277    0.311
  552.872   71.456   20.274  308.410    0.319
  553.122   72.126   19.540  236.936    0.381
  553.372   74.138   18.650  235.380    0.419
  553.622   74.564   16.977  288.359    0.421
  553.872   70.523   15.198  314.235    0.396
  554.122   70.647   12.599  315.708    0.401
  554.372   76.894   10.794  310.201    0.429
  554.622   81.046    9.542  335.027    0.447
  554.872   77.071    9.661  370.246    0.458
  555.122   77.426   10.186  379.215    0.463
  555.372   83.666   10.504  378.761    0.450
  555.622   80.919   10.615  378.399    0.451
  555.872   78.901   10.437  376.592    0.463
  556.122   78.284   10.186  373.922    0.445
  556.372   77.800    9.921  375.261    0.459
  556.622   77.785    9.200  378.117    0.454
  556.872   78.693    8.548  376.889    0.444
  557.122   83.096    8.188  369.747    0.470
  557.372   87.865    7.845  352.865    0.446
  557.622   84.314    7.450  364.470    0.469
  557.872   84.806    7.246  377.183    0.484
  558.122   87.613    7.189  381.555    0.451
  558.372   83.643    7.238  378.360    0.456
  558.622   82.716    7.303  374.168    0.406
  558.872   84.613    7.354  379.002    0.381
  559.122   88.282    7.458  375.401    0.411
  559.372   87.366    7.511  377.468    0.438
  559.622   85.410    7.464  379.667    0.431
  559.872   83.742    7.380  369.099    0.424
  560.122   82.145    7.190  381.688    0.416
  560.372   83.674    6.953  352.508    0.444
  560.622   85.577    6.849  354.572    0.448
  560.872   85.942    6.871  360.192    0.432
  561.122   86.364    6.995  366.990    0.443
  561.372   86.974    7.159  375.042    0.443
  561.622   87.514    7.537  366.715    0.450
  561.872   89.113    7.786  370.223    0.439
  562.122   91.548    8.070  367.751    0.425
  562.372   90.569    8.797  358.370    0.410
  562.622   86.159    9.323  363.652    0.413
  562.872   84.389   10.009  353.881    0.402
  563.122   85.425   10.133  342.196    0.379
  563.372   87.870    9.278  347.945    0.362
  563.622   91.360    8.663  337.644    0.410
  563.872   93.244    7.830  297.609    0.441
  564.122   94.469    7.179  359.396    0.449
  564.372   94.770    6.390  368.108    0.447
  564.622   95.932    5.692  374.832    0.457
  564.872   98.011    5.674  378.088    0.473
  565.122   96.906    5.750  382.326    0.481
  565.372   98.251    6.107  386.096    0.475
  565.622   96.833    6.483  381.979    0.463
  565.872   91.140    7.066  365.956    0.444
  566.122   84.778    7.613  360.055    0.424
  566.372   83.668    8.389  352.717    0.406
  566.622   86.668    8.938  352.613    0.389
  566.872   87.827   10.031  328.695    0.383
  567.122   83.491   11.878  350.291    0.399
  567.372   80.967   12.604  364.529    0.427
  567.622   78.572   15.195  365.474    0.410
  567.872   75.458   17.779  369.709    0.381
  568.122   73.801   22.110  398.939    0.393
  568.372   71.477   25.313  418.041    0.409
  568.622   68.966   26.734  381.755    0.429
  568.872   67.052   21.563  355.922    0.419
  569.122   62.030   18.402  354.373    0.398
  569.372   65.043   15.768  290.005    0.376
  569.622   68.999   15.002  285.360    0.375
  569.872   75.611   15.471  352.017    0.406
  570.122   81.974   17.071  353.217    0.427
  570.372   87.968   20.020  349.174    0.418
  570.622   82.699   21.810  360.117    0.429
  570.872   75.413   22.577  338.698    0.429
  571.122   71.566   20.967  326.941    0.429
  571.372   72.550   18.669  332.104    0.422
  571.622   72.651   17.122  331.204    0.409
  571.872   74.305   16.024  317.420    0.396
  572.122   75.400   15.273  317.247    0.390
  572.372   70.261   14.768  345.295    0.448
  572.622   62.724   14.048  363.148    0.413
  572.872   64.197   12.878  283.186    0.316
  573.122   69.147   10.814  231.115    0.378
  573.372   76.670    9.578  250.936    0.403
  573.622   81.570    8.975  345.225    0.421
  573.872   79.615    8.476  355.840    0.433
  574.122   79.357    8.320  368.163    0.446
  574.372   81.559    8.284  366.211    0.462
  574.622   84.123    8.359  357.494    0.468
  574.872   85.226    8.340  360.408    0.456
  575.122   86.875    8.305  367.344    0.437
  575.372   87.672    8.240  356.515    0.452
  575.622   89.453    8.160  360.155    0.423
  575.872   86.871    8.025  355.181    0.405
  576.122   85.402    8.048  359.087    0.425
  576.372   84.721    8.270  355.759    0.427
  576.622   86.125    8.450  361.370    0.448
  576.872   85.581    8.477  366.534    0.435
  577.122   84.710    8.352  360.964    0.438
  577.372   84.656    8.210  351.850    0.470
  577.622   85.263    8.026  360.158    0.487
  577.872   86.300    7.906  361.104    0.477
  578.122   86.107    7.960  354.818    0.464
  578.372   82.002    8.503  357.542    0.427
  578.622   77.409    9.110  359.409    0.453
  578.872   82.915   11.051  358.706    0.452
  579.122   86.093   11.686  353.332    0.426
  579.372   81.076   12.497  359.082    0.427
  579.622   76.544   14.506  363.061    0.465
  579.872   72.255   15.057  351.246    0.426
  580.122   68.578   16.231  326.272    0.381
  580.372   73.116   17.108  303.343    0.374
  580.622   75.000   15.037  299.679    0.392
  580.872   72.433   14.787  346.280    0.402
  581.122   66.676   15.734  372.945    0.419
  581.372   66.123   15.734  397.699    0.431
  581.622   68.812   20.102  390.228    0.423
  581.872   68.741   22.467  365.386    0.410
  582.122   62.382   26.734  330.682    0.378
  582.372   57.476   31.406  284.075    0.270
  582.622   51.656   35.692  263.113    0.237
  582.872   47.807   41.320  233.935    0.239
  583.122   46.574   33.570  219.687    0.216
  583.372   52.083   24.158  201.886    0.200
  583.622   58.931   18.268  207.301    0.228
  583.872   65.972   14.047  204.888    0.309
  584.122   70.860   12.439  211.958    0.348
  584.372   75.078   11.123  237.966    0.407
  584.622   68.097   10.752  347.577    0.405
  584.872   65.770   10.344  351.352    0.387
  585.122   64.560   10.092  345.191    0.416
  585.372   63.010    9.673  324.890    0.387
  585.622   67.541    9.337  295.123    0.349
  585.872   72.982    8.913  275.149    0.375
  586.122   80.332    8.340  338.257    0.399
  586.372   85.529    7.777  340.449    0.428
  586.622   79.901    7.505  336.398    0.410
