~VERSION INFORMATION
 VERS.                 2.0:   CWLS LOG ASCII STANDARD -VERSION 2.0
 WRAP.                  NO:   ONE LINE PER DEPTH STEP
~WELL INFORMATION BLOCK
#MNEM.UNIT           DATA                    DESCRIPTION OF MNEMONIC
#---------    -------------------            -------------------------------
# Generated from Intellog Unique Number	CW_79_81/WELL/2475
WELL.         GULF AMOCO HOOLE               : Well_name    - WELL
LOC .         00/10-26-081-25W4/0            : Location     - LOCATION
UWI .         00/10-26-081-25W4/0            : Uwi          - UNIQUE WELL ID
ENTR.         MAX                            : Entered      - ENTERED BY
SRVC.         SCHLUMBERGER                   : Scn          - SERVICE COMPANY
STRT.M        195.072                        : top_depth    - START DEPTH
STOP.M        457.072                        : bot_depth    - STOP DEPTH
STEP.M        0.25                           : increment    - STEP LENGTH
 NULL. -999.2500:NULL Value
~CURVE INFORMATION BLOCK
#MNEM UNIT       ERCB CURVE CODE    CURVE DESCRIPTION
#-----------   ------------------   ----------------------------------
DEPT.M        00 001 00 00         : DEPTH        - DEPTH
ILD .OHMM     00 120 00 00         : RESD         - DEEP RESISTIVITY (DIL)
NPHI.V/V      00 330 00 00         : PHIN         - NEUTRON POROSITY (SANDSTONE)
DPHI.V/V      00 890 00 00         : PHID         - DENSITY POROSITY (SANDSTONE)
GR  .API      00 310 00 00         : GR           - GAMMA RAY
CALI.MM       00 280 01 00         : CAL          - CALIPER
~PARAMETER INFORMATION
#MNEM.UNIT           DATA             DESCRIPTION OF MNEMONIC
#---------         -----------     ------------------------------
GL  .M        579.76               : gl           - GROUND LEVEL ELEVATION
EREF.M        583.021              : kb           - ELEVATION OF DEPTH REFERENCE
DATM.M        579.76               : datum        - DATUM ELEVATION
TDD .M        466.344              : tdd          - TOTAL DEPTH DRILLER
RUN .         ONE                  : Run          - RUN NUMBER
ENG .         BILL                 : Engineer     - RECORDING ENGINEER
WIT .         JIM                  : Witness      - WITNESSED BY
MUD .         GEL                  : Mud_type     - MUD TYPE
MATR.         SANDSTONE            : Logunit      - NEUTRON MATRIX
TMAX.C        27.2222              : BHT          - MAXIMUM RECORDED TEMPERATURE
BHTD.M        466.344              : BHTDEP       - MAXIMUM RECORDED TEMPERATURE
MATR.         1                    : LOGUNIT      - NEUTRON MATRIX
RMT .C        11.1111              : MDTP         - TEMPERATURE OF MUD
NEUT.         1                    : NEUTRON      - NEUTRON TYPE
RESI.         0                    : RESIST       - RESISTIVITY TYPE
RMC .OHMM     5.73                 : RMC          - RESISTIVITY OF MUD CAKE
RMF .OHMM     5.46                 : RMF          - RESISTIVITY OF MUD FILTRATE
SUFT.C        -20.5556             : SUFT         - SURFACE TEMPERATURE
~A  DEPTH     RESD     PHIN     PHID       GR      CAL
# ...
  304.572   11.910    0.457    0.303   54.105  163.325
  304.822   11.803    0.465    0.331   56.452  160.807
  305.072   12.076    0.470    0.339   57.896  159.493
  305.322   12.581    0.477    0.342   58.562  159.807
  305.572   13.045    0.483    0.346   58.750  160.735
  305.822   12.992    0.483    0.341   58.918  159.305
  306.072   12.873    0.471    0.330   58.861  156.673
  306.322   13.508    0.468    0.333   57.130  158.203
  306.572   14.403    0.493    0.326   55.766  159.733
  306.822   15.449    0.500    0.313   55.112  160.448
  307.072   16.489    0.477    0.296   55.170  160.249
  307.322   17.412    0.442    0.270   55.587  159.572
  307.572   17.906    0.409    0.257   55.519  158.630
  307.822   17.611    0.437    0.303   55.241  158.556
  308.072   16.856    0.465    0.334   55.130  159.077
  308.322   15.934    0.473    0.344   55.432  159.593
  308.572   15.099    0.462    0.340   56.333  159.904
  308.822   14.541    0.455    0.339   57.961  160.207
  309.072   13.611    0.457    0.341   59.104  159.596
  309.322   13.180    0.463    0.339   59.546  159.077
  309.572   12.870    0.468    0.337   59.594  158.911
  309.822   12.526    0.472    0.331   59.776  158.823
  310.072   12.167    0.476    0.325   60.138  158.731
  310.322   11.879    0.478    0.328   60.328  158.638
  310.572   11.746    0.466    0.326   59.967  158.534
  310.822   11.549    0.455    0.315   59.910  158.428
  311.072   11.306    0.458    0.316   60.033  158.642
  311.322   10.755    0.459    0.311   60.815  158.757
  311.572    9.970    0.458    0.296   62.500  158.775
  311.822    9.201    0.467    0.280   65.091  159.097
  312.072    8.388    0.509    0.281   70.113  159.477
  312.322    7.939    0.515    0.293   72.308  159.793
  312.572    7.672    0.513    0.300   74.503  160.105
  312.822    7.520    0.508    0.303   76.364  160.626
  313.072    7.452    0.507    0.303   77.689  161.239
  313.322    7.386    0.517    0.296   78.837  161.561
  313.572    7.235    0.522    0.279   79.674  161.445
  313.822    7.164    0.511    0.268   79.861  161.359
  314.072    7.140    0.506    0.269   79.861  161.272
  314.322    7.100    0.505    0.275   80.528  161.378
  314.572    7.009    0.506    0.281   82.212  161.585
  314.822    6.849    0.505    0.276   84.797  161.501
  315.072    6.469    0.504    0.273   82.034  160.372
  315.322    6.454    0.510    0.268   81.977  160.708
  315.572    6.547    0.502    0.263   84.441  162.227
  315.822    6.678    0.490    0.260   86.904  163.153
  316.072    6.812    0.479    0.258   88.408  163.164
  316.322    6.933    0.474    0.254   89.731  163.530
  316.572    6.856    0.490    0.255   90.683  163.885
  316.822    7.002    0.491    0.241   90.629  163.792
  317.072    7.029    0.483    0.246   91.117  164.004
  317.322    7.014    0.480    0.253   92.146  164.515
  317.572    6.986    0.482    0.255   93.112  165.123
  317.822    6.911    0.475    0.243   92.501  165.410
  318.072    6.842    0.469    0.229   90.947  165.323
  318.322    6.828    0.490    0.231   89.940  166.060
  318.572    6.890    0.500    0.231   88.381  165.864
  318.822    7.052    0.506    0.235   86.404  164.757
  319.072    7.231    0.510    0.246   84.077  163.254
  319.322    7.148    0.491    0.260   81.037  162.085
  319.572    6.819    0.460    0.272   79.234  160.711
  319.822    6.562    0.458    0.282   79.892  160.619
  320.072    6.457    0.472    0.268   84.157  160.222
  320.322    6.491    0.489    0.248   87.461  159.927
  320.572    6.644    0.498    0.235   88.246  159.938
  320.822    6.963    0.492    0.233   87.996  160.324
  321.072    7.436    0.479    0.222   88.189  160.640
  321.322    7.862    0.467    0.202   90.290  160.566
  321.572    8.311    0.485    0.189   90.774  160.782
  321.822    8.603    0.504    0.198   88.564  160.888
  322.072    8.679    0.511    0.223   85.515  160.791
  322.322    8.619    0.507    0.227   86.457  160.690
  322.572    8.408    0.472    0.220   86.649  160.604
  322.822    8.272    0.469    0.221   87.798  160.917
  323.072    8.137    0.493    0.222   89.302  160.919
  323.322    8.062    0.517    0.228   90.682  160.831
  323.572    8.031    0.526    0.235   91.701  160.853
  323.822    7.953    0.515    0.237   92.755  161.314
  324.072    7.940    0.514    0.240   94.706  162.053
  324.322    7.922    0.504    0.235   95.855  161.970
  324.572    7.993    0.493    0.241   94.125  161.887
  324.822    8.093    0.483    0.244   91.671  162.205
  325.072    8.178    0.475    0.241   89.816  163.023
  325.322    8.218    0.470    0.235   89.031  164.036
  325.572    8.198    0.482    0.233   88.974  163.527
  325.822    8.183    0.491    0.238   88.686  163.028
  326.072    8.214    0.490    0.237   86.780  162.827
  326.322    8.258    0.485    0.234   85.048  162.740
  326.572    8.331    0.483    0.228   84.692  162.661
  326.822    8.529    0.480    0.216   86.107  162.545
  327.072    8.707    0.461    0.228   85.046  162.430
  327.322    9.072    0.448    0.230   83.315  162.365
  327.572    9.501    0.442    0.240   84.099  162.279
  327.822    9.833    0.445    0.244   85.604  162.187
  328.072    9.938    0.455    0.241   86.932  161.993
  328.322    9.743    0.462    0.239   87.918  161.475
  328.572    9.578    0.461    0.240   87.107  161.379
  328.822    9.769    0.456    0.246   82.495  160.871
  329.072   10.284    0.442    0.249   78.970  160.682
  329.322   11.027    0.426    0.254   75.567  160.590
  329.572   11.937    0.409    0.268   72.043  160.391
  329.822   13.278    0.379    0.301   67.964  159.800
  330.072   14.851    0.373    0.311   63.415  159.291
  330.322   15.356    0.383    0.303   62.871  158.802
  330.572   15.136    0.380    0.286   65.037  158.908
  330.822   14.299    0.386    0.268   68.345  159.216
  331.072   12.922    0.412    0.260   71.768  159.426
  331.322   10.866    0.460    0.276   75.366  159.308
  331.572    9.771    0.473    0.261   78.060  159.231
  331.822    9.339    0.469    0.268   76.312  159.148
  332.072    9.274    0.471    0.272   75.120  159.362
  332.322    9.423    0.475    0.276   73.633  159.472
  332.572    9.697    0.476    0.281   71.727  159.380
  332.822   10.118    0.478    0.285   70.090  159.268
  333.072   10.562    0.480    0.279   70.532  159.172
  333.322   10.928    0.481    0.253   73.358  159.070
  333.572   11.186    0.481    0.258   72.941  158.989
  333.822   11.367    0.475    0.270   71.685  159.108
  334.072   11.489    0.467    0.276   70.915  159.424
  334.322   11.543    0.472    0.269   71.906  159.727
  334.572   11.517    0.468    0.256   77.084  159.631
  334.822   11.249    0.467    0.271   79.191  159.934
  335.072   10.568    0.469    0.280   80.571  160.238
  335.322    9.411    0.469    0.273   81.821  160.961
  335.572    8.282    0.475    0.254   82.961  161.917
  335.822    7.662    0.498    0.237   83.034  162.479
  336.072    7.434    0.496    0.214   81.042  163.311
  336.322    7.596    0.495    0.239   80.085  161.688
  336.572    7.762    0.498    0.250   79.843  160.672
  336.822    7.931    0.495    0.241   81.150  160.867
  337.072    8.147    0.487    0.217   80.907  161.869
  337.322    8.621    0.481    0.189   70.044  162.179
  337.572    9.229    0.467    0.157   59.858  161.751
  337.822   10.709    0.298    0.109   51.272  161.742
  338.072   13.513    0.260    0.129   50.015  161.735
  338.322   16.177    0.304    0.173   53.826  160.516
  338.572   16.524    0.384    0.216   60.079  157.783
  338.822   15.164    0.458    0.250   65.796  154.143
  339.072   12.428    0.488    0.257   69.068  159.179
  339.322    9.712    0.476    0.258   69.311  159.593
  339.572    8.316    0.486    0.261   70.250  159.669
  339.822    7.596    0.495    0.266   72.034  159.661
  340.072    7.342    0.491    0.269   74.592  159.452
  340.322    7.288    0.464    0.268   77.687  158.638
  340.572    7.353    0.463    0.272   77.681  158.122
  340.822    7.520    0.482    0.273   77.180  157.695
