~VERSION INFORMATION
 VERS.                 2.0:   CWLS LOG ASCII STANDARD -VERSION 2.0
 WRAP.                  NO:   ONE LINE PER DEPTH STEP
~WELL INFORMATION BLOCK
#MNEM.UNIT           DATA                    DESCRIPTION OF MNEMONIC
#---------    -------------------            -------------------------------
# Generated from Intellog Unique Number	CW_73_75/WELL/1033
WELL.         SULPETRO ET AT FAWCETT 11-02   : Well_name    - WELL
LOC .         00/11-02-075-21W4/0            : Location     - LOCATION
UWI .         00/11-02-075-21W4/0            : Uwi          - UNIQUE WELL ID
ENTR.         JAYE                           : Entered      - ENTERED BY
SRVC.         SCHLUMBERGER                   : Scn          - SERVICE COMPANY
DATE.         5 MAR 82                       : Date         - LOG DATE
STRT.M        370                            : top_depth    - START DEPTH
STOP.M        575                            : bot_depth    - STOP DEPTH
STEP.M        0.25                           : increment    - STEP LENGTH
 NULL. -999.2500:NULL Value
~CURVE INFORMATION BLOCK
#MNEM UNIT       ERCB CURVE CODE    CURVE DESCRIPTION
#-----------   ------------------   ----------------------------------
DEPT.M        00 001 00 00         : DEPTH        - DEPTH
ILD .OHMM     00 120 00 00         : RESD         - DEEP RESISTIVITY (DIL)
NPHI.V/V      00 330 00 00         : PHIN         - NEUTRON POROSITY (SANDSTONE)
DPHI.V/V      00 890 00 00         : PHID         - DENSITY POROSITY (SANDSTONE)
CALI.MM       00 280 01 00         : CAL          - CALIPER
GR  .API      00 310 00 00         : GR           - GAMMA RAY
~PARAMETER INFORMATION
#MNEM.UNIT           DATA             DESCRIPTION OF MNEMONIC
#---------         -----------     ------------------------------
GL  .M        676.38               : gl           - GROUND LEVEL ELEVATION
EREF.M        679.28               : kb           - ELEVATION OF DEPTH REFERENCE
DATM.M        676.38               : datum        - DATUM ELEVATION
TDD .M        598.5                : tdd          - TOTAL DEPTH DRILLER
RUN .         ONE                  : Run          - RUN NUMBER
ENG .         SMYTHE               : Engineer     - RECORDING ENGINEER
WIT .         ROWE                 : Witness      - WITNESSED BY
BASE.         EDM                  : Branch       - HOME BASE OF LOGGING UNIT
MUD .         DAPP MUD             : Mud_type     - MUD TYPE
MATR.         SANDSTONE            : Logunit      - NEUTRON MATRIX
TMAX.C        23.3                 : BHT          - MAXIMUM RECORDED TEMPERATURE
BHTD.M        598.5                : BHTDEP       - MAXIMUM RECORDED TEMPERATURE
RMT .C        16.6                 : MDTP         - TEMPERATURE OF MUD
MUDD.KG/M     1190                 : MWT          - MUD DENSITY
NEUT.         1                    : NEUTRON      - NEUTRON TYPE
RESI.         0                    : RESIST       - RESISTIVITY TYPE
RM  .OHMM     1.874                : RM           - RESISTIVITY OF MUD
RMC .OHMM     0                    : RMC          - RESISTIVITY OF MUD CAKE
RMF .OHMM     1.85                 : RMF          - RESISTIVITY OF MUD FILTRATE
SUFT.C        0                    : SUFT         - SURFACE TEMPERATURE
~A  DEPTH     RESD     PHIN     PHID      CAL       GR
# ...
  552.500    8.479    0.351    0.126  167.351  106.617
  552.750    7.694    0.351    0.100  167.899  108.694
  553.000    6.943    0.374    0.104  169.076  113.143
  553.250    6.219    0.366    0.107  169.413  117.033
  553.500    5.558    0.377    0.107  169.549  122.915
  553.750    5.532    0.420    0.128  169.366  130.048
  554.000    5.781    0.438    0.151  169.093  133.311
  554.250    6.044    0.439    0.177  168.804  133.517
  554.500    6.734    0.429    0.190  168.516  133.159
  554.750    7.588    0.410    0.165  167.922  130.368
  555.000    8.221    0.395    0.135  167.017  121.896
  555.250    9.075    0.369    0.098  166.426  125.783
  555.500    9.886    0.356    0.052  165.929  142.093
  555.750   11.100    0.361    0.077  165.230  153.657
  556.000   13.745    0.358    0.106  164.321  151.177
  556.250   14.639    0.309    0.157  163.105   46.019
  556.500   12.649    0.253    0.214  162.406   38.421
  556.750    8.902    0.162    0.251  162.121   53.607
  557.000    7.478    0.167    0.192  162.461   77.343
  557.250    7.140    0.197    0.143  163.222  121.677
  557.500    7.720    0.372    0.131  163.874  118.887
  557.750    8.522    0.374    0.129  163.800   87.257
  558.000    8.807    0.359    0.142  162.683   75.415
  558.250    8.764    0.331    0.144  161.879   68.878
  558.500    8.787    0.310    0.137  162.219   69.832
  558.750    8.730    0.280    0.129  162.876   77.215
  559.000    8.590    0.269    0.159  163.426   87.406
  559.250    8.404    0.293    0.186  163.866   98.347
  559.500    8.241    0.299    0.172  164.315  111.785
  559.750    8.047    0.300    0.169  164.756  122.352
  560.000    7.921    0.302    0.185  165.513  133.478
  560.250    7.705    0.339    0.179  166.898  145.542
  560.500    7.470    0.345    0.173  168.071  144.624
  560.750    7.255    0.323    0.154  169.139  134.155
  561.000    7.124    0.314    0.128  169.584  135.734
  561.250    7.104    0.333    0.115  169.613  143.741
  561.500    7.123    0.343    0.117  169.223  150.562
  561.750    7.238    0.376    0.130  168.005  147.458
  562.000    7.565    0.381    0.193  166.784  123.381
  562.250    8.257    0.360    0.228  164.940   71.840
  562.500    9.115    0.304    0.271  163.204   66.303
  562.750    9.672    0.297    0.264  162.298   68.630
  563.000   10.032    0.318    0.249  161.700   71.271
  563.250   10.232    0.342    0.248  160.898   67.728
  563.500   10.125    0.359    0.262  160.511   63.250
  563.750   10.077    0.377    0.277  160.228   58.087
  564.000   10.125    0.383    0.296  160.366   60.104
  564.250   10.743    0.368    0.294  160.702   64.427
  564.500   11.681    0.365    0.286  161.150   70.623
  564.750   12.895    0.366    0.268  161.806   76.196
  565.000   14.864    0.371    0.243  161.940   75.963
  565.250   16.688    0.375    0.222  162.062   59.128
  565.500   17.706    0.365    0.243  161.992   49.033
  565.750   18.056    0.339    0.282  161.913   58.975
  566.000   17.904    0.371    0.266  161.735   61.428
  566.250   16.996    0.387    0.262  161.351   59.259
  566.500   16.169    0.373    0.260  161.171   61.399
  566.750   15.236    0.357    0.250  161.100   65.973
  567.000   14.250    0.342    0.246  161.022   71.298
  567.250   13.479    0.343    0.227  161.050   73.935
  567.500   12.969    0.350    0.213  160.869   76.636
  567.750   12.523    0.355    0.216  160.896   71.163
  568.000   12.049    0.362    0.237  160.928   65.123
  568.250   10.749    0.353    0.248  160.745   57.963
  568.500    9.609    0.339    0.250  160.679   64.409
  568.750    8.526    0.312    0.241  160.499   78.845
  569.000    7.650    0.301    0.217  160.520   98.900
  569.250    7.443    0.313    0.195  160.554   98.544
  569.500    7.549    0.333    0.208  160.580   82.894
  569.750    7.889    0.349    0.225  160.298   71.926
  570.000    8.092    0.352    0.250  160.227   59.145
  570.250    8.038    0.348    0.272  160.251   58.164
  570.500    7.895    0.368    0.280  160.384   73.537
  570.750    7.827    0.348    0.199  160.728   85.290
  571.000    7.775    0.311    0.160  160.960   97.228
  571.250    7.739    0.299    0.036  161.097  108.980
  571.500    7.745    0.311    0.062  161.334  119.111
  571.750    7.870    0.324    0.084  161.673  121.561
  572.000    8.303    0.310    0.122  161.908  124.264
  572.250    8.516    0.283    0.110  161.936  133.581
  572.500    8.539    0.275    0.088  162.072  132.725
  572.750    8.500    0.286    0.083  162.829  124.066
  573.000    8.554    0.296    0.103  163.792  124.770
  573.250    9.077    0.334    0.119  164.656  115.860
  573.500   10.001    0.332    0.127  163.955   96.467
  573.750   11.123    0.279    0.099  161.804   88.931
  574.000   11.238    0.260    0.038  160.789   88.261
  574.250   10.711    0.265    0.044  160.087   94.521
  574.500    9.719    0.262    0.062  160.017  111.141
  574.750    8.954    0.273    0.077  160.044  123.081
  575.000    8.762    0.296    0.095  160.387  121.724
