~VERSION INFORMATION
 VERS.                 2.0:   CWLS LOG ASCII STANDARD -VERSION 2.0
 WRAP.                  NO:   ONE LINE PER DEPTH STEP
~WELL INFORMATION BLOCK
#MNEM.UNIT           DATA                    DESCRIPTION OF MNEMONIC
#---------    -------------------            -------------------------------
# Generated from Intellog Unique Number	CW_70_72/WELL/2905
NULL.         -999.25                        : NULL_VALUE
WELL.         CHEVRON CALLING WEST           : Well_name    - WELL              
LOC .         10-20-070-21W4                 : Location     - LOCATION          
UWI .         00/10-20-070-21W4/0            : Uwi          - UNIQUE WELL ID    
ENTR.         MAX                            : Entered      - ENTERED BY        
SRVC.         SCHLUMBERGER                   : Scn          - SERVICE COMPANY   
DATE.         14 JAN 75                      : Date         - LOG DATE
STRT.M        420.624                        : top_depth    - START DEPTH       
STOP.M        591.374                        : bot_depth    - STOP DEPTH        
STEP.M        0.25                           : increment    - STEP LENGTH       
~CURVE INFORMATION BLOCK
#MNEM UNIT       ERCB CURVE CODE    CURVE DESCRIPTION
#-----------   ------------------   ----------------------------------
DEPT.M        00 001 00 00         : DEPTH        - DEPTH                       
ILD .OHMM     00 120 00 00         : RESD         - DEEP RESISTIVITY (DIL)      
NPHI.V/V      00 330 00 00         : PHIN         - NEUTRON POROSITY (SANDSTONE)
DPHI.V/V      00 890 00 00         : PHID         - DENSITY POROSITY (SANDSTONE)
CALI.MM       00 280 01 00         : CAL          - CALIPER                     
GR  .API      00 310 00 00         : GR           - GAMMA RAY                   
~PARAMETER INFORMATION       
#MNEM.UNIT           DATA             DESCRIPTION OF MNEMONIC
#---------         -----------     ------------------------------
GL  .M        666.719              : gl           - GROUND LEVEL ELEVATION      
EREF.M        669.036              : kb           - ELEVATION OF DEPTH REFERENCE
DATM.M        666.719              : datum        - DATUM ELEVATION             
TDD .M        588.264              : tdd          - TOTAL DEPTH DRILLER         
RUN .         ONE                  : Run          - RUN NUMBER                  
ENG .         BILL                 : Engineer     - RECORDING ENGINEER          
WIT .         JIM                  : Witness      - WITNESSED BY                
MUD .         GEL                  : Mud_type     - MUD TYPE                    
MATR.         SANDSTONE            : Logunit      - NEUTRON MATRIX              
TMAX.C        21.1111              : BHT          - MAXIMUM RECORDED TEMPERATURE
BHTD.M        588.264              : BHTDEP       - MAXIMUM RECORDED TEMPERATURE
RMT .C        15.5556              : MDTP         - TEMPERATURE OF MUD          
MUDD.KG/M     9000                 : MWT          - MUD DENSITY                 
NEUT.         1                    : NEUTRON      - NEUTRON TYPE                
RESI.         0                    : RESIST       - RESISTIVITY TYPE            
RM  .OHMM     3.5                  : RM           - RESISTIVITY OF MUD          
RMC .OHMM     4.29                 : RMC          - RESISTIVITY OF MUD CAKE     
RMF .OHMM     4.87                 : RMF          - RESISTIVITY OF MUD FILTRATE 
SUFT.C        -20.5556             : SUFT         - SURFACE TEMPERATURE         
~A  DEPTH     RESD     PHIN     PHID      CAL       GR
# ...
  530.124    3.667    0.460    0.199  222.790   92.999
  530.374    3.438    0.480    0.204  224.723   97.077
  530.624    3.282    0.476    0.201  225.653  101.445
  530.874    2.993    0.462    0.192  225.595  103.753
  531.124    2.705    0.475    0.190  226.533  103.727
  531.374    2.379    0.500    0.191  228.955  104.272
  531.624    2.210    0.548    0.201  227.889  105.707
  531.874    2.129    0.562    0.244  224.357  107.440
  532.124    2.109    0.549    0.254  223.802  107.989
  532.374    2.308    0.515    0.244  226.722  109.718
  532.624    2.793    0.499    0.213  227.162  110.565
  532.874    3.319    0.490    0.187  227.609  108.475
  533.124    3.634    0.477    0.164  229.037  106.679
  533.374    3.801    0.469    0.163  229.462  106.641
  533.624    3.975    0.476    0.167  228.418  108.659
  533.874    4.195    0.481    0.177  226.364  108.331
  534.124    4.348    0.466    0.165  224.324  104.479
  534.374    4.631    0.451    0.147  221.780   97.983
  534.624    4.713    0.434    0.134  220.720   90.602
  534.874    4.796    0.433    0.122  220.649   86.452
  535.124    4.970    0.446    0.086  220.591   87.593
  535.374    5.198    0.454    0.148  220.591   90.202
  535.624    5.588    0.444    0.156  220.448   92.224
  535.874    5.790    0.411    0.142  219.929   92.182
  536.124    5.579    0.397    0.100  219.865   88.921
  536.374    5.278    0.386    0.118  219.800   87.713
  536.624    5.039    0.401    0.134  219.743   91.497
  536.874    4.854    0.439    0.163  219.685   93.515
  537.124    4.895    0.440    0.157  219.621   91.425
  537.374    4.981    0.431    0.162  219.571   90.502
  537.624    5.069    0.432    0.175  219.009   90.472
  537.874    5.159    0.417    0.173  218.952   93.371
  538.124    5.155    0.417    0.159  218.894   95.100
  538.374    5.104    0.426    0.167  218.822   93.014
  538.624    4.963    0.423    0.176  218.729   88.268
  538.874    4.825    0.403    0.166  218.701   89.413
  539.124    4.734    0.395    0.155  219.645   92.321
  539.374    4.734    0.408    0.160  220.078   96.101
  539.624    4.727    0.416    0.171  220.511   94.305
  539.874    4.680    0.401    0.179  220.958   91.627
  540.124    4.677    0.395    0.185  221.398   89.533
  540.374    4.673    0.400    0.191  221.838   89.197
  540.624    4.670    0.416    0.178  221.781   89.466
  540.874    4.709    0.427    0.163  222.214   93.838
  541.124    4.925    0.441    0.170  222.654   90.862
  541.374    5.294    0.442    0.180  223.584   87.299
  541.624    5.639    0.448    0.188  223.029   84.328
  541.874    5.583    0.449    0.164  221.970   76.066
  542.124    4.955    0.398    0.139  219.419   73.678
  542.374    3.906    0.394    0.136  218.878   78.054
  542.624    3.628    0.423    0.158  217.322   82.716
  542.874    3.560    0.437    0.190  216.269   81.507
  543.124    3.623    0.471    0.214  216.205   84.112
  543.374    3.930    0.481    0.206  217.640   82.908
  543.624    4.670    0.446    0.212  220.069   73.173
  543.874    5.351    0.403    0.129  221.504   67.269
  544.124    6.020    0.369    0.078  221.447   70.755
  544.374    5.643    0.405    0.115  218.398   75.417
  544.624    5.054    0.407    0.135  215.349   76.856
  544.874    5.054    0.393    0.192  214.794   80.044
  545.124    4.732    0.377    0.196  214.737   79.125
  545.374    4.645    0.380    0.184  215.170   77.333
  545.624    4.645    0.387    0.173  216.107   75.541
  545.874    4.596    0.412    0.177  217.030   71.978
  546.124    4.720    0.414    0.193  217.982   70.476
  546.374    5.119    0.387    0.196  220.412   73.673
  546.624    5.605    0.367    0.172  222.344   75.691
  546.874    6.191    0.361    0.120  221.782   78.007
  547.124    5.857    0.373    0.119  221.724   80.612
  547.374    5.541    0.380    0.145  223.159   82.639
  547.624    5.241    0.389    0.171  221.595   84.363
  547.874    5.238    0.401    0.180  220.543   82.856
  548.124    5.330    0.394    0.183  220.991   83.108
  548.374    5.473    0.384    0.164  222.411   85.432
  548.624    5.570    0.382    0.156  223.853   90.689
  548.874    5.542    0.402    0.130  221.064   97.282
  549.124    5.598    0.433    0.132  221.604   99.361
  549.374    5.601    0.445    0.155  221.647   95.563
  549.624    5.607    0.440    0.177  220.685   93.828
  549.874    5.612    0.445    0.174  219.727   94.435
  550.124    5.668    0.430    0.188  218.770   92.694
  550.374    5.774    0.421    0.195  217.315   86.839
  550.624    5.832    0.423    0.203  216.367   85.983
  550.874    6.050    0.417    0.186  215.898   86.299
  551.124    6.389    0.406    0.167  214.950   86.028
  551.374    7.250    0.403    0.145  214.490   84.292
  551.624    7.659    0.386    0.128  214.030   81.664
  551.874    7.395    0.358    0.099  217.551   77.575
  552.124    6.766    0.404    0.067  221.077   79.361
  552.374    6.082    0.457    0.089  221.622   90.550
  552.624    5.417    0.474    0.152  221.153   99.685
  552.874    4.614    0.488    0.185  220.693  104.997
  553.124    4.338    0.502    0.171  220.740  100.617
  553.374    4.264    0.499    0.176  220.778  102.988
  553.624    4.229    0.480    0.195  220.826  106.248
  553.874    4.348    0.479    0.196  220.854  106.562
  554.124    4.552    0.481    0.182  220.892  103.942
  554.374    4.722    0.463    0.172  220.930  104.843
  554.624    4.988    0.454    0.138  220.972  101.339
  554.874    5.128    0.433    0.100  220.015   91.666
  555.124    5.226    0.379    0.071  219.560   85.515
  555.374    5.324    0.410    0.036  219.560   87.891
  555.624    5.425    0.411    0.042  219.645   95.557
  555.874    5.578    0.408    0.138  219.669   94.695
  556.124    5.787    0.417    0.129  219.716   95.013
  556.374    6.004    0.423    0.122  219.758   96.799
  556.624    6.118    0.423    0.115  220.284   95.940
  556.874    6.234    0.422    0.099  220.351   93.320
  557.124    6.296    0.411    0.083  220.365   93.639
  557.374    6.301    0.417    0.051  220.905   95.128
  557.624    6.249    0.433    0.100  220.943   99.855
  557.874    6.090    0.428    0.129  220.488  101.641
  558.124    5.828    0.425    0.117  220.033  103.429
  558.374    5.828    0.431    0.105  220.071  107.568
  558.624    5.788    0.436    0.157  220.099  109.351
  558.874    5.739    0.439    0.165  220.142  103.205
  559.124    5.901    0.424    0.170  220.184  102.931
  559.374    6.066    0.403    0.144  220.720  105.601
  559.624    6.523    0.409    0.139  220.762  110.034
  559.874    6.648    0.426    0.129  220.805  109.175
  560.124    6.418    0.420    0.121  220.833  109.790
  560.374    5.979    0.403    0.108  220.871  112.746
  560.624    5.722    0.406    0.102  220.914  120.118
  560.874    5.527    0.421    0.143  220.956  122.788
  561.124    5.527    0.429    0.132  220.994  122.519
  561.374    5.487    0.424    0.131  221.027  121.075
  561.624    5.491    0.423    0.139  221.074  121.679
  561.874    5.957    0.422    0.129  221.605  124.346
  562.124    6.640    0.402    0.130  221.648  116.434
  562.374    7.671    0.379    0.119  222.188  109.110
  562.624    9.520    0.355    0.108  222.221  103.549
  562.874   10.055    0.336    0.104  222.771   94.461
  563.124   11.207    0.346    0.090  222.794   94.486
  563.374   14.034    0.332    0.059  222.842   90.688
  563.624   15.641    0.308    0.067  222.879   84.245
  563.874   19.767    0.260    0.066  222.917   79.862
  564.124   20.505    0.196    0.038  222.955   81.942
  564.374   17.154    0.209    0.018  222.495   95.188
  564.624   15.009    0.282    0.008  222.036  107.262
  564.874   11.075    0.330    0.021  222.073  118.454
  565.124    8.320    0.385    0.058  221.623  121.415
  565.374    6.657    0.424    0.121  221.656  126.140
  565.624    6.257    0.411    0.116  221.699  129.400
  565.874    6.041    0.406    0.115  221.737  130.301
  566.124    5.833    0.400    0.112  221.286  135.319
  566.374    5.840    0.382    0.096  220.817  143.279
