~VERSION INFORMATION
 VERS.                 2.0:   CWLS LOG ASCII STANDARD -VERSION 2.0
 WRAP.                  NO:   ONE LINE PER DEPTH STEP
~WELL INFORMATION BLOCK
#MNEM.UNIT           DATA                    DESCRIPTION OF MNEMONIC
#---------    -------------------            -------------------------------
# Generated from Intellog Unique Number	CS_73_76/WELL/843
WELL.         MAYNARD ENERGY INC             : Well_name    - WELL
LOC .         00/11-04-073-13W4/0            : Location     - LOCATION
UWI .         00/11-04-073-13W4/0            : Uwi          - UNIQUE WELL ID
ENTR.         SP                             : Entered      - ENTERED BY
SRVC.         SCHLUMBERGER                   : Scn          - SERVICE COMPANY
STRT.M        320                            : top_depth    - START DEPTH
STOP.M        540                            : bot_depth    - STOP DEPTH
STEP.M        0.25                           : increment    - STEP LENGTH
 NULL. -999.2500:NULL Value
~CURVE INFORMATION BLOCK
#MNEM UNIT       ERCB CURVE CODE    CURVE DESCRIPTION
#-----------   ------------------   ----------------------------------
DEPT.M        00 001 00 00         : DEPTH        - DEPTH
ILD .OHMM     00 120 00 00         : RESD         - DEEP RESISTIVITY (DIL)
DPHI.V/V      00 890 00 00         : PHID         - DENSITY POROSITY (LIMESTONE)
NPHI.V/V      00 330 00 00         : PHIN         - NEUTRON POROSITY (LIMESTONE)
GR  .API      00 310 00 00         : GR           - GAMMA RAY
~PARAMETER INFORMATION
#MNEM.UNIT           DATA             DESCRIPTION OF MNEMONIC
#---------         -----------     ------------------------------
GL  .M        667.89               : gl           - GROUND LEVEL ELEVATION
EREF.M        664.44               : kb           - ELEVATION OF DEPTH REFERENCE
DATM.M        667.89               : datum        - DATUM ELEVATION
TDD .M        551                  : tdd          - TOTAL DEPTH DRILLER
RUN .         ONE                  : Run          - RUN NUMBER
ENG .         BILL                 : Engineer     - RECORDING ENGINEER
WIT .         JIM                  : Witness      - WITNESSED BY
MUD .         GEL                  : Mud_type     - MUD TYPE
MATR.         LIMESTONE            : Logunit      - NEUTRON MATRIX
TMAX.C        20                   : BHT          - MAXIMUM RECORDED TEMPERATURE
BHTD.M        551                  : BHTDEP       - MAXIMUM RECORDED TEMPERATURE
MATR.         1                    : LOGUNIT      - NEUTRON MATRIX
RMT .C        25                   : MDTP         - TEMPERATURE OF MUD
NEUT.         1                    : NEUTRON      - NEUTRON TYPE
RESI.         0                    : RESIST       - RESISTIVITY TYPE
RMC .OHMM     0.25                 : RMC          - RESISTIVITY OF MUD CAKE
RMF .OHMM     0.25                 : RMF          - RESISTIVITY OF MUD FILTRATE
SUFT.C        15                   : SUFT         - SURFACE TEMPERATURE
~A  DEPTH     RESD     PHID     PHIN       GR
  320.000    1.951    0.311    0.561  114.963
  320.250    1.871    0.285    0.558  109.445
  320.500    1.872    0.272    0.557  107.615
  320.750    1.954    0.261    0.543  109.481
  321.000    2.037    0.261    0.535  110.721
  321.250    2.119    0.268    0.527  111.968
  321.500    2.201    0.273    0.513  111.368
  321.750    2.365    0.280    0.490  111.999
  322.000    2.529    0.288    0.474  113.862
  322.250    2.692    0.285    0.464  115.719
  322.500    3.181    0.281    0.461  116.961
  322.750    3.751    0.272    0.464  115.135
  323.000    4.078    0.272    0.476  110.844
  323.250    4.078    0.275    0.492  107.173
  323.500    4.080    0.282    0.506  104.726
  323.750    4.081    0.300    0.521  102.282
  324.000    4.000    0.296    0.540  104.756
  324.250    3.757    0.284    0.552  107.852
  324.500    3.677    0.297    0.560  107.863
  324.750    3.760    0.310    0.544  108.491
  325.000    3.842    0.310    0.533  107.895
  325.250    3.924    0.301    0.513  105.452
  325.500    4.088    0.286    0.504  103.618
  325.750    4.089    0.257    0.518  102.408
  326.000    4.171    0.243    0.527  105.496
  326.250    4.172    0.227    0.536  106.131
  326.500    4.092    0.220    0.533  106.141
  326.750    4.092    0.215    0.520  106.771
  327.000    4.012    0.220    0.502  105.554
  327.250    3.932    0.223    0.484  101.885
  327.500    3.852    0.198    0.475  100.053
  327.750    3.772    0.181    0.481   99.457
  328.000    3.691    0.187    0.488  100.699
  328.250    3.774    0.242    0.501  105.019
  328.500    3.856    0.229    0.442  104.419
  328.750    4.507    0.205    0.409   97.673
  329.000    5.240    0.189    0.383   88.466
  329.250    6.217    0.271    0.367   76.799
  329.500    6.949    0.307    0.371   54.683
  329.750    7.601    0.330    0.396   52.857
  330.000    7.846    0.341    0.410   59.022
  330.250    7.765    0.340    0.433   63.951
  330.500    7.523    0.349    0.449   70.120
  330.750    7.361    0.312    0.464   72.590
  331.000    7.281    0.299    0.468   76.908
  331.250    7.200    0.285    0.472   81.225
  331.500    7.120    0.278    0.473   88.620
  331.750    7.040    0.273    0.474   92.323
  332.000    7.041    0.279    0.478   91.722
  332.250    7.123    0.293    0.481   89.894
  332.500    7.287    0.301    0.484   83.763
  332.750    7.694    0.309    0.474   81.932
  333.000    7.939    0.299    0.463   83.178
  333.250    8.021    0.276    0.457   91.184
  333.500    7.942    0.270    0.453   93.659
  333.750    7.861    0.246    0.455   94.908
  334.000    7.699    0.231    0.462   95.534
  334.250    7.620    0.247    0.470  101.084
  334.500    7.539    0.249    0.477  109.707
  334.750    7.540    0.254    0.480  112.796
  335.000    7.541    0.270    0.471  112.201
  335.250    7.298    0.249    0.465  112.209
  335.500    7.055    0.236    0.459  113.455
  335.750    6.975    0.249    0.452  115.933
  336.000    6.732    0.267    0.448  116.558
  336.250    6.814    0.277    0.443  113.506
  336.500    6.978    0.284    0.443  107.986
  336.750    7.223    0.289    0.442  103.086
  337.000    7.874    0.294    0.440   98.796
  337.250    8.200    0.303    0.442   96.348
  337.500    8.445    0.303    0.443   99.438
  337.750    8.853    0.288    0.429  104.987
  338.000    9.423    0.281    0.418  106.846
  338.250    9.668    0.272    0.409  101.329
  338.500    9.831    0.278    0.383   88.434
  338.750    9.832    0.287    0.377   76.153
  339.000    9.752    0.294    0.373   66.948
  339.250    9.265    0.299    0.377   68.813
  339.500    8.698    0.301    0.380   71.897
  339.750    8.454    0.307    0.385   73.755
  340.000    8.130    0.325    0.391   62.095
  340.250    7.725    0.311    0.384   55.959
  340.500    7.563    0.302    0.375   51.059
  340.750    7.483    0.294    0.372   48.001
  341.000    7.240    0.291    0.373   48.627
  341.250    7.159    0.301    0.385   51.101
  341.500    6.836    0.309    0.402   62.183
  341.750    6.593    0.306    0.424   80.030
  342.000    6.269    0.242    0.437   88.036
  342.250    6.025    0.206    0.456   99.114
  342.500    5.782    0.191    0.470  114.500
  342.750    5.621    0.192    0.479  118.202
  343.000    5.541    0.192    0.480  118.221
  343.250    5.379    0.165    0.477  117.006
  343.500    5.299    0.151    0.476  117.023
  343.750    4.975    0.140    0.479  120.116
  344.000    4.650    0.152    0.485  125.054
  344.250    4.407    0.180    0.491  127.521
  344.500    4.165    0.196    0.502  129.375
  344.750    3.840    0.203    0.508  128.778
  345.000    3.598    0.219    0.516  123.260
  345.250    3.355    0.209    0.522  121.432
  345.500    3.356    0.215    0.521  123.905
  345.750    3.519    0.225    0.511  123.306
  346.000    3.683    0.229    0.497  122.709
  346.250    4.416    0.238    0.476  117.189
  346.500    5.230    0.256    0.468  110.443
  346.750    5.962    0.283    0.460  103.695
  347.000    7.102    0.299    0.454   96.949
  347.250    7.834    0.305    0.457   89.586
  347.500    8.405    0.313    0.465   86.528
  347.750    8.812    0.321    0.467   86.547
  348.000    8.894    0.330    0.473   89.019
  348.250    8.895    0.341    0.476   90.261
  348.500    8.734    0.344    0.479   85.972
  348.750    8.653    0.345    0.482   81.687
  349.000    8.573    0.339    0.482   82.318
  349.250    8.493    0.331    0.472   85.409
  349.500    8.413    0.320    0.459   86.034
  349.750    8.333    0.308    0.452   81.134
  350.000    8.333    0.307    0.445   81.154
  350.250    8.416    0.315    0.442   81.165
  350.500    8.498    0.325    0.441   81.179
  350.750    8.662    0.333    0.439   81.808
  351.000    8.907    0.328    0.434   82.441
  351.250    9.152    0.323    0.434   83.683
  351.500    9.397    0.306    0.435   83.086
  351.750    9.560    0.295    0.431   80.642
  352.000    9.642    0.277    0.421   80.040
  352.250    9.237    0.244    0.418   83.132
  352.500    8.669    0.221    0.421   89.912
  352.750    8.182    0.209    0.437   96.693
  353.000    7.533    0.216    0.444   99.774
  353.250    6.640    0.249    0.458  110.240
  353.500    6.315    0.263    0.469  115.789
  353.750    5.666    0.255    0.480  121.953
  354.000    5.179    0.250    0.489  125.044
  354.250    5.017    0.247    0.498  125.672
  354.500    5.425    0.243    0.508  128.151
  354.750    5.914    0.242    0.512  130.619
  355.000    6.240    0.250    0.516  133.710
  355.250    6.485    0.254    0.499  135.571
  355.500    7.218    0.257    0.486  132.516
  355.750    7.625    0.259    0.465  127.612
  356.000    8.114    0.257    0.454  122.092
  356.250    8.684    0.255    0.445  117.187
  356.500    9.010    0.250    0.428  113.520
  356.750    9.174    0.257    0.422  111.687
  357.000    9.337    0.272    0.415  109.244
  357.250    9.013    0.282    0.423  106.802
  357.500    8.608    0.293    0.427  104.969
  357.750    8.284    0.291    0.433  101.910
  358.000    8.041    0.307    0.435   94.549
  358.250    7.798    0.317    0.438   85.960
  358.500    7.555    0.325    0.434   82.288
  358.750    7.556    0.301    0.429   92.138
  359.000    7.639    0.280    0.427  101.986
  359.250    7.721    0.267    0.430  109.995
  359.500    7.803    0.257    0.439  116.158
  359.750    7.885    0.264    0.445  119.246
  360.000    7.886    0.263    0.450  123.565
  360.250    7.887    0.271    0.454  120.513
  360.500    7.889    0.286    0.447  116.219
  360.750    7.971    0.304    0.435  107.627
  361.000    8.215    0.315    0.424   98.422
  361.250    8.460    0.325    0.415   93.520
  361.500    8.624    0.310    0.412   99.070
  361.750    8.869    0.296    0.418  102.159
  362.000    8.952    0.283    0.419  104.015
  362.250    9.034    0.270    0.422  107.108
  362.500    8.872    0.266    0.430  110.201
  362.750    8.792    0.274    0.430  111.440
  363.000    8.386    0.260    0.428  112.690
  363.250    8.143    0.250    0.426  112.698
