~VERSION INFORMATION
 VERS.                 2.0:   CWLS LOG ASCII STANDARD -VERSION 2.0
 WRAP.                  NO:   ONE LINE PER DEPTH STEP
~WELL INFORMATION BLOCK
#MNEM.UNIT           DATA                    DESCRIPTION OF MNEMONIC
#---------    -------------------            -------------------------------
# Generated from Intellog Unique Number	CC_80_83/WELL/2387
NULL.         -999.25                        : NULL_VALUE
WELL.         KASISER DIVIDE                 : Well_name    - WELL
LOC .         10-29-082-13W4                 : Location     - LOCATION          
UWI .         00/10-29-082-13W400            : Uwi          - UNIQUE WELL ID    
ENTR.         DW                             : Entered      - ENTERED BY        
SRVC.         SCHLUMBERGER                   : Scn          - SERVICE COMPANY   
DATE.         24 MAR 80                      : Date         - LOG DATE
STRT.M        95                             : top_depth    - START DEPTH       
STOP.M        379.997                        : bot_depth    - STOP DEPTH        
STEP.M        0.3                            : increment    - STEP LENGTH       
~CURVE INFORMATION BLOCK
#MNEM UNIT       ERCB CURVE CODE    CURVE DESCRIPTION
#-----------   ------------------   ----------------------------------
DEPT.M        00 001 00 00         : DEPTH        - DEPTH                       
DPHI.V/V      00 890 00 00         : PHID         - DENSITY POROSITY (LIMESTONE)
NPHI.V/V      00 330 00 00         : PHIN         - NEUTRON POROSITY (LIMESTONE)
GR  .API      00 310 00 00         : GR           - GAMMA RAY                   
ILD .OHMM     00 120 00 00         : RESD         - DEEP RESISTIVITY (DIL)      
~PARAMETER INFORMATION       
#MNEM.UNIT           DATA             DESCRIPTION OF MNEMONIC
#---------         -----------     ------------------------------
GL  .M        592.4                : gl           - GROUND LEVEL ELEVATION      
EREF.M        596.75               : kb           - ELEVATION OF DEPTH REFERENCE
DATM.M        596.75               : datum        - DATUM ELEVATION             
TDD .M        420                  : tdd          - TOTAL DEPTH DRILLER         
RUN .         ONE                  : Run          - RUN NUMBER                  
ENG .         BILL                 : Engineer     - RECORDING ENGINEER          
MUD .         GEL                  : Mud_type     - MUD TYPE                    
MATR.         LIMESTONE            : Logunit      - NEUTRON MATRIX              
TMAX.C        22                   : BHT          - MAXIMUM RECORDED TEMPERATURE
BHTD.M        420                  : BHTDEP       - MAXIMUM RECORDED TEMPERATURE
MATR.         1                    : LOGUNIT      - NEUTRON MATRIX              
RMT .C        25                   : MDTP         - TEMPERATURE OF MUD          
NEUT.         1                    : NEUTRON      - NEUTRON TYPE                
RESI.         0                    : RESIST       - RESISTIVITY TYPE            
RMC .OHMM     0.25                 : RMC          - RESISTIVITY OF MUD CAKE     
RMF .OHMM     0.25                 : RMF          - RESISTIVITY OF MUD FILTRATE 
SUFT.C        15                   : SUFT         - SURFACE TEMPERATURE         
~A  DEPTH     PHID     PHIN       GR     RESD
# ...
  303.800    0.253    0.439   87.397    8.459
  304.100    0.234    0.429   83.058    8.460
  304.400    0.243    0.426   85.537    8.787
  304.700    0.260    0.427   86.157    8.788
  305.000    0.267    0.453   78.099    8.790
  305.300    0.277    0.462   76.859    8.790
  305.600    0.287    0.470   75.000    8.627
  305.900    0.285    0.455   75.620    8.001
  306.200    0.289    0.448   78.719    7.561
  306.500    0.286    0.456   80.579    6.881
  306.800    0.267    0.459   81.818    6.627
  307.100    0.278    0.481   81.818    6.504
  307.400    0.286    0.480   81.818    6.263
  307.700    0.288    0.464   81.198    5.919
  308.000    0.284    0.467   81.818    5.489
  308.299    0.278    0.467   83.678    4.811
  308.599    0.299    0.475   83.058    4.215
  308.899    0.293    0.520   88.636    3.764
  309.199    0.266    0.564   92.975    3.695
  309.499    0.267    0.552   95.454    4.061
  309.799    0.257    0.541   97.314    4.905
  310.099    0.244    0.518   97.314    6.512
  310.399    0.243    0.505   92.975    7.575
  310.699    0.234    0.466   87.397    8.326
  310.999    0.215    0.455   84.297    8.647
  311.299    0.174    0.449   78.719    9.505
  311.599    0.129    0.401   75.000    9.687
  311.899    0.154    0.357   79.339    9.873
  312.199    0.151    0.421   76.240    9.509
  312.499    0.162    0.397   73.141    8.986
  312.799    0.179    0.373   77.479    8.025
  313.099    0.228    0.403   85.537    7.876
  313.399    0.229    0.438   87.397    7.585
  313.699    0.221    0.453   86.777    7.586
  313.999    0.214    0.467   89.256    7.587
  314.299    0.226    0.476   88.016    8.030
  314.599    0.227    0.481   86.777    8.499
  314.899    0.187    0.471   86.777    8.500
  315.199    0.158    0.457   91.116    8.343
  315.499    0.190    0.453   95.454    8.187
  315.799    0.230    0.465   97.314    7.738
  316.099    0.233    0.451   97.934    7.041
  316.399    0.224    0.449   97.314    5.831
  316.699    0.238    0.453   97.314    4.738
  316.999    0.283    0.481   96.694    3.438
  317.299    0.297    0.506   84.297    3.012
  317.599    0.324    0.514   75.000    3.374
  317.899    0.303    0.538   66.322    4.313
  318.199    0.284    0.505   59.504    5.514
  318.499    0.270    0.459   63.223    6.294
  318.799    0.310    0.444   68.802    6.789
  319.099    0.294    0.437   70.661    7.322
  319.399    0.335    0.444   66.942    7.750
  319.699    0.317    0.477   67.562    7.464
  319.999    0.271    0.473   71.281    7.188
  320.299    0.304    0.471   74.380    4.657
  320.599    0.293    0.477   79.959    3.784
  320.899    0.300    0.486   82.438    3.509
  321.199    0.308    0.488   84.917    4.082
  321.499    0.306    0.481   83.058    4.839
  321.799    0.368    0.468   81.198    5.318
  322.099    0.298    0.467   80.579    5.629
  322.399    0.277    0.475   81.198    5.629
  322.699    0.270    0.481   83.678    5.320
  322.999    0.271    0.481   88.636    4.662
  323.299    0.261    0.476   92.355    4.324
  323.599    0.259    0.473   94.215    4.086
  323.899    0.255    0.482   95.454    3.862
  324.199    0.257    0.509   98.554    3.649
  324.499    0.267    0.544   96.694    3.582
  324.799    0.191    0.540   89.256    3.651
  325.099    0.209    0.511   88.636    3.791
  325.399    0.247    0.490   95.454    4.090
  325.699    0.247    0.516  104.752    4.168
  325.999    0.255    0.527  109.711    3.939
  326.299    0.245    0.520  107.851    3.517
  326.599    0.231    0.514  101.033    3.794
  326.899    0.245    0.515   86.777    5.132
  327.199    0.272    0.443   65.703    9.571
  327.499    0.290    0.427   64.463   12.236
  327.799    0.285    0.428   75.000   12.008
  328.099    0.235    0.451   82.438    9.575
  328.399    0.272    0.467   88.016    7.352
  328.699    0.276    0.478   85.537    6.818
  328.999    0.281    0.477   80.579    7.637
  329.299    0.292    0.404   72.521    9.225
  329.599    0.273    0.431   71.281   11.572
  329.899    0.292    0.445   71.281   12.482
  330.199    0.261    0.442   68.182   15.366
  330.499    0.272    0.415   62.603   17.211
  330.799    0.278    0.409   53.926   17.875
  331.099    0.293    0.395   50.826   16.267
  331.399    0.274    0.382   55.165   13.988
  331.699    0.246    0.390   66.942   10.149
  331.999    0.251    0.407   78.099    8.247
  332.299    0.258    0.424   83.678    7.365
  332.599    0.258    0.445   91.116    6.830
  332.898    0.245    0.456   92.975    6.703
  333.198    0.234    0.450   84.917    7.651
  333.498    0.238    0.449   84.297    8.900
  333.798    0.267    0.434   86.157   12.503
  334.098    0.278    0.418   84.917   17.237
  334.398    0.255    0.414   93.595   19.677
  334.698    0.258    0.408  103.512   20.436
  334.998    0.288    0.426   91.116   21.225
  335.298    0.260    0.445   86.157   22.465
  335.598    0.242    0.399   81.818   22.048
  335.898    0.231    0.392   78.719   24.696
  336.198    0.273    0.386   71.901   27.661
  336.498    0.295    0.403   63.223   32.176
  336.798    0.282    0.404   61.983   32.793
  337.098    0.258    0.355   66.942   30.992
  337.398    0.234    0.350   71.901   28.203
  337.698    0.207    0.350   76.240   21.655
  337.998    0.221    0.366   78.099   18.273
  338.298    0.212    0.387   79.339   16.630
  338.598    0.224    0.402   83.058   15.422
  338.898    0.244    0.424   84.297   14.853
  339.198    0.260    0.430   80.579   15.426
  339.498    0.267    0.410   78.099   16.955
  339.798    0.224    0.382   83.058   18.636
  340.098    0.185    0.370   87.397   18.640
  340.398    0.186    0.376   88.016   17.951
  340.698    0.239    0.392   84.297   17.288
  340.998    0.245    0.392   61.983   17.955
  341.298    0.234    0.350   68.182   19.736
  341.598    0.231    0.364   68.802   22.105
  341.898    0.274    0.402   50.826   28.259
  342.198    0.310    0.426   47.727   29.350
  342.498    0.298    0.361   58.884   28.267
  342.798    0.245    0.390   74.380   27.222
  343.098    0.262    0.404   71.901   23.409
  343.398    0.275    0.390   67.562   20.130
  343.698    0.262    0.366   75.620   18.668
  343.998    0.223    0.355   82.438   18.671
  344.298    0.239    0.356   79.339   18.325
  344.598    0.220    0.364   76.240   17.984
  344.898    0.208    0.367   74.380   16.366
  345.198    0.172    0.391   76.859   14.615
  345.498    0.148    0.417   81.198   14.344
  345.798    0.174    0.378   82.438   14.619
  346.098    0.213    0.358   79.959   14.620
  346.398    0.214    0.353   72.521   15.185
  346.698    0.246    0.364   68.182   18.343
  346.998    0.257    0.371   65.703   23.450
  347.298    0.263    0.382   68.182   23.899
  347.598    0.245    0.366   74.380   23.456
  347.898    0.245    0.358   79.339   21.346
  348.198    0.248    0.356   86.777   18.012
  348.498    0.247    0.365   91.736   16.392
  348.798    0.245    0.386   94.215   15.786
  349.098    0.251    0.401   84.297   16.089
  349.398    0.283    0.410   85.537   18.365
  349.698    0.283    0.432   91.116   21.769
  349.998    0.279    0.436   84.297   25.322
  350.298    0.284    0.423   72.521   29.456
  350.598    0.275    0.410   77.479   30.020
  350.898    0.269    0.412   83.678   27.320
  351.198    0.261    0.414   86.777   24.862
  351.498    0.227    0.413   85.537   22.625
  351.798    0.257    0.439   89.876   25.342
  352.098    0.261    0.410   93.595   27.855
  352.398    0.272    0.420   91.736   28.931
  352.698    0.241    0.408   89.876   25.835
  352.998    0.213    0.383   92.975   19.837
  353.298    0.204    0.387   93.595   14.123
  353.598    0.204    0.404   79.339   14.669
  353.898    0.235    0.424   63.843   17.719
  354.198    0.203    0.389   56.405   22.653
  354.498    0.236    0.364   66.942   23.527
  354.798    0.259    0.367   75.620   23.089
  355.098    0.226    0.370   81.198   19.119
  355.398    0.198    0.376   86.777   15.536
  355.698    0.194    0.383   90.496   13.615
