~VERSION INFORMATION
 VERS.                 2.0:   CWLS LOG ASCII STANDARD -VERSION 2.0
 WRAP.                  NO:   ONE LINE PER DEPTH STEP
~WELL INFORMATION BLOCK
#MNEM.UNIT           DATA                    DESCRIPTION OF MNEMONIC
#---------    -------------------            -------------------------------
# Generated from Intellog Unique Number	CW_76_78/WELL/2584
WELL.         PETROMARK ET AL MARTIN CREEK   : Well_name    - WELL
LOC .         00/11-31-078-05W5/0            : Location     - LOCATION
UWI .         00/11-31-078-05W5/0            : Uwi          - UNIQUE WELL ID
ENTR.         MAX                            : Entered      - ENTERED BY
SRVC.         SCHLUMBERGER                   : Scn          - SERVICE COMPANY
STRT.M        325                            : top_depth    - START DEPTH
STOP.M        570                            : bot_depth    - STOP DEPTH
STEP.M        0.25                           : increment    - STEP LENGTH
 NULL. -999.2500:NULL Value
~CURVE INFORMATION BLOCK
#MNEM UNIT       ERCB CURVE CODE    CURVE DESCRIPTION
#-----------   ------------------   ----------------------------------
DEPT.M        00 001 00 00         : DEPTH        - DEPTH
ILD .OHMM     00 120 00 00         : RESD         - DEEP RESISTIVITY (DIL)
NPHI.V/V      00 330 00 00         : PHIN         - NEUTRON POROSITY (SANDSTONE)
DPHI.V/V      00 890 00 00         : PHID         - DENSITY POROSITY (SANDSTONE)
CALI.MM       00 280 01 00         : CAL          - CALIPER
GR  .API      00 310 00 00         : GR           - GAMMA RAY
~PARAMETER INFORMATION
#MNEM.UNIT           DATA             DESCRIPTION OF MNEMONIC
#---------         -----------     ------------------------------
GL  .M        658.4                : gl           - GROUND LEVEL ELEVATION
EREF.M        662.4                : kb           - ELEVATION OF DEPTH REFERENCE
DATM.M        658.4                : datum        - DATUM ELEVATION
TDD .M        1828                 : tdd          - TOTAL DEPTH DRILLER
RUN .         ONE                  : Run          - RUN NUMBER
ENG .         BILL                 : Engineer     - RECORDING ENGINEER
WIT .         JIM                  : Witness      - WITNESSED BY
MUD .         GEL                  : Mud_type     - MUD TYPE
MATR.         SANDSTONE            : Logunit      - NEUTRON MATRIX
TMAX.C        32                   : BHT          - MAXIMUM RECORDED TEMPERATURE
BHTD.M        1828                 : BHTDEP       - MAXIMUM RECORDED TEMPERATURE
RMT .C        28                   : MDTP         - TEMPERATURE OF MUD
MUDD.KG/M     1170                 : MWT          - MUD DENSITY
NEUT.         1                    : NEUTRON      - NEUTRON TYPE
RESI.         0                    : RESIST       - RESISTIVITY TYPE
RM  .OHMM     0.0926               : RM           - RESISTIVITY OF MUD
RMC .OHMM     0                    : RMC          - RESISTIVITY OF MUD CAKE
RMF .OHMM     0.0867               : RMF          - RESISTIVITY OF MUD FILTRATE
SUFT.C        -20                  : SUFT         - SURFACE TEMPERATURE
~A  DEPTH     RESD     PHIN     PHID      CAL       GR
# ...
  361.500    3.846    0.382    0.237  223.154   63.382
  361.750    3.918    0.411    0.233  222.718   65.224
  362.000    4.027    0.416    0.238  222.845   60.173
  362.250    4.103    0.408    0.248  222.373   57.819
  362.500    4.067    0.394    0.269  222.446   61.164
  362.750    3.960    0.393    0.257  222.010   64.199
  363.000    3.753    0.408    0.231  221.583   67.850
  363.250    3.524    0.415    0.239  221.665   67.594
  363.500    3.462    0.425    0.248  222.237   68.236
  363.750    3.464    0.410    0.242  222.800   70.677
  364.000    3.403    0.411    0.243  224.879   73.418
  364.250    3.343    0.426    0.240  230.954   76.164
  364.500    3.197    0.433    0.234  233.524   75.003
  364.750    3.085    0.439    0.218  234.087   75.652
  365.000    3.058    0.456    0.227  234.677   77.188
  365.250    3.088    0.467    0.249  236.230   78.735
  365.500    3.089    0.469    0.272  243.313   79.079
  365.750    3.035    0.451    0.283  243.876   79.422
  366.000    2.902    0.462    0.280  238.963   79.465
  366.250    2.725    0.486    0.316  239.526   79.520
  366.500    2.402    0.521    0.359  243.095   78.359
  366.750    2.276    0.595    0.397  247.163   77.798
  367.000    2.236    0.589    0.422  248.734   80.250
  367.250    2.257    0.566    0.357  241.315   82.380
  367.500    2.363    0.531    0.343  234.894   84.222
  367.750    2.473    0.513    0.335  233.469   83.976
  368.000    2.474    0.548    0.325  237.537   83.410
  368.250    2.475    0.564    0.325  239.616   84.652
  368.500    2.711    0.537    0.316  243.684   85.600
  368.750    2.737    0.524    0.313  246.254   84.151
  369.000    2.593    0.517    0.328  247.335   80.587
  369.250    2.370    0.551    0.363  245.900   74.643
  369.500    2.458    0.567    0.352  235.484   68.388
  369.750    3.168    0.522    0.284  223.062   60.640
  370.000    4.158    0.401    0.245  218.639   60.090
  370.250    4.895    0.389    0.247  218.212   67.620
  370.500    4.555    0.450    0.282  217.295   72.158
  370.750    3.089    0.483    0.297  217.359   79.999
  371.000    2.980    0.522    0.337  217.940   82.745
  371.250    2.982    0.534    0.325  217.522   82.788
  371.500    3.010    0.541    0.321  216.596   82.837
  371.750    3.122    0.545    0.324  216.178   81.976
  372.000    3.328    0.520    0.329  215.742   80.222
  372.250    3.611    0.488    0.308  217.313   79.971
  372.500    4.101    0.467    0.293  219.374   79.105
  372.750    4.103    0.474    0.298  215.451   66.568
  373.000    4.255    0.434    0.303  205.535   57.311
  373.250    5.289    0.410    0.310  200.622   49.863
  373.500    5.793    0.425    0.326  198.688   43.913
  373.750    6.287    0.438    0.327  198.261   39.157
  374.000    7.074    0.424    0.312  197.834   35.315
  374.250    8.558    0.406    0.287  198.406   33.556
  374.500    8.639    0.404    0.206  197.998   33.305
  374.750    8.112    0.419    0.210  197.071   34.247
  375.000    7.151    0.434    0.249  196.626   35.789
  375.250    6.899    0.441    0.284  196.753   37.326
  375.500    6.840    0.449    0.304  196.281   38.568
  375.750    6.541    0.454    0.302  196.345   40.115
  376.000    6.311    0.465    0.312  196.417   42.251
  376.250    6.034    0.468    0.349  196.490   47.394
  376.500    5.875    0.463    0.345  196.490   48.342
  376.750    5.875    0.461    0.329  196.644   49.579
  377.000    5.828    0.457    0.331  195.727   51.731
  377.250    5.726    0.467    0.328  195.808   53.573
  377.500    5.678    0.488    0.327  195.872   57.218
  377.750    5.628    0.483    0.319  195.872   58.760
  378.000    5.681    0.453    0.338  196.044   59.402
  378.250    5.683    0.444    0.341  195.590   60.634
  378.500    5.683    0.442    0.342  195.663   61.876
  378.750    5.690    0.435    0.347  195.744   58.629
  379.000    5.691    0.439    0.349  195.808   54.771
  379.250    5.694    0.469    0.348  195.372   51.524
  379.500    5.748    0.476    0.345  194.954   51.268
  379.750    5.908    0.474    0.341  195.027   52.515
  380.000    7.147    0.467    0.326  195.099   55.844
  380.250    7.281    0.450    0.299  194.691   55.893
  380.500    6.594    0.428    0.251  194.754   52.041
  380.750    4.720    0.450    0.232  195.817   55.087
  381.000    3.633    0.468    0.252  198.405   62.617
  381.250    3.173    0.490    0.332  200.965   64.458
  381.500    2.953    0.506    0.354  204.026   63.614
  381.750    2.929    0.535    0.369  210.600   63.347
  382.000    2.956    0.561    0.407  207.176   63.695
  382.250    3.512    0.540    0.417  203.753   65.836
  382.500    3.743    0.483    0.332  204.334   67.084
  382.750    4.173    0.526    0.323  203.907   65.929
  383.000    5.187    0.503    0.290  200.484   63.875
  383.250    5.237    0.470    0.308  198.068   63.314
  383.500    4.917    0.466    0.330  198.123   65.466
  383.750    4.494    0.466    0.306  199.693   68.495
  384.000    4.220    0.473    0.290  201.764   71.840
  384.250    4.338    0.481    0.281  202.835   72.200
  384.500    4.926    0.486    0.297  202.408   70.140
  384.750    6.291    0.494    0.295  202.000   61.183
  385.000    8.331    0.492    0.286  202.063   50.439
  385.250    9.546    0.467    0.289  202.136   45.383
  385.500    9.637    0.443    0.280  202.217   34.633
  385.750    9.641    0.423    0.275  202.290   26.896
  386.000    9.645    0.417    0.270  202.363   26.629
  386.250    9.307    0.419    0.273  202.426   28.470
  386.500    9.061    0.419    0.291  201.999   32.415
  386.750    8.983    0.418    0.299  201.591   33.052
  387.000    8.906    0.415    0.311  201.155   33.396
  387.250    8.912    0.413    0.305  201.218   34.344
  387.500    8.834    0.414    0.306  201.291   34.992
  387.750    8.837    0.417    0.305  200.864   36.229
  388.000    9.002    0.423    0.299  199.938   37.776
  388.250    9.171    0.448    0.292  197.513   38.713
  388.500    9.174    0.463    0.316  193.118   39.661
  388.750    9.179    0.464    0.318  193.163   40.909
  389.000    9.350    0.465    0.321  193.735   42.140
  389.250    9.354    0.435    0.337  193.817   41.296
  389.500    9.025    0.421    0.344  194.398   38.343
  389.750    8.709    0.425    0.347  196.468   38.381
  390.000    8.479    0.428    0.347  199.528   38.724
  390.250    8.407    0.445    0.347  201.599   38.778
  390.500    8.334    0.442    0.346  203.678   38.511
  390.750    8.189    0.429    0.343  205.249   38.860
  391.000    8.119    0.428    0.336  205.830   40.696
  391.250    7.976    0.436    0.328  205.903   43.437
  391.500    7.490    0.449    0.325  206.475   44.379
  391.750    7.426    0.434    0.322  206.557   43.823
  392.000    7.772    0.432    0.304  206.130   40.870
  392.250    8.667    0.436    0.279  205.685   37.318
  392.500    9.578    0.440    0.266  202.261   35.563
  392.750    9.583    0.448    0.339  197.339   35.313
  393.000    9.414    0.445    0.337  195.932   34.757
  393.250    9.334    0.425    0.338  195.986   33.901
  393.500    9.254    0.413    0.336  198.556   36.642
  393.750    9.257    0.410    0.334  199.637   39.982
  394.000    9.261    0.415    0.331  199.700   41.529
  394.250    9.100    0.429    0.308  201.280   40.080
  394.500    8.940    0.432    0.295  201.852   39.813
  394.750    8.705    0.426    0.309  202.424   40.766
  395.000    8.398    0.410    0.316  203.005   41.404
  395.250    7.539    0.408    0.315  204.077   43.545
  395.500    6.644    0.407    0.315  205.139   46.885
  395.750    5.598    0.411    0.312  205.729   49.326
  396.000    5.116    0.419    0.303  206.283   52.066
  396.250    5.119    0.436    0.266  208.363   59.008
  396.500    5.120    0.463    0.259  210.941   64.745
  396.750    5.031    0.446    0.269  211.014   63.895
  397.000    4.988    0.438    0.263  211.577   63.933
  397.250    5.035    0.448    0.256  214.165   69.376
  397.500    5.464    0.457    0.245  218.224   70.629
  397.750    8.066    0.468    0.267  218.787   68.869
