~VERSION INFORMATION
 VERS.                 2.0:   CWLS LOG ASCII STANDARD -VERSION 2.0
 WRAP.                  NO:   ONE LINE PER DEPTH STEP
~WELL INFORMATION BLOCK
#MNEM.UNIT           DATA                    DESCRIPTION OF MNEMONIC
#---------    -------------------            -------------------------------
# Generated from Intellog Unique Number	CW_82_90/WELL/992
WELL.         10-33-084-23W4                 : Well_name    - WELL
LOC .         00/10-33-084-23W4/0            : Location     - LOCATION
UWI .         00/10-33-084-23W4/0            : Uwi          - UNIQUE WELL ID
ENTR.         JAYE                           : Entered      - ENTERED BY
SRVC.         SCHLUMBERGER                   : Scn          - SERVICE COMPANY
DATE.         11 MAR 76                      : Date         - LOG DATE
STRT.M        182.88                         : top_depth    - START DEPTH
STOP.M        393.88                         : bot_depth    - STOP DEPTH
STEP.M        0.25                           : increment    - STEP LENGTH
 NULL. -999.2500:NULL Value
~CURVE INFORMATION BLOCK
#MNEM UNIT       ERCB CURVE CODE    CURVE DESCRIPTION
#-----------   ------------------   ----------------------------------
DEPT.M        00 001 00 00         : DEPTH        - DEPTH
CALI.MM       00 280 01 00         : CAL          - CALIPER
GR  .API      00 310 00 00         : GR           - GAMMA RAY
NPHI.V/V      00 330 00 00         : PHIN         - NEUTRON POROSITY (SANDSTONE)
DPHI.V/V      00 890 00 00         : PHID         - DENSITY POROSITY (SANDSTONE)
ILD .OHMM     00 120 00 00         : RESD         - DEEP RESISTIVITY (DIL)
~PARAMETER INFORMATION
#MNEM.UNIT           DATA             DESCRIPTION OF MNEMONIC
#---------         -----------     ------------------------------
GL  .M        573.329              : gl           - GROUND LEVEL ELEVATION
EREF.M        576.682              : kb           - ELEVATION OF DEPTH REFERENCE
DATM.M        573.329              : datum        - DATUM ELEVATION
TDD .M        404.774              : tdd          - TOTAL DEPTH DRILLER
RUN .         ONE                  : Run          - RUN NUMBER
BASE.         EDMONTON             : Branch       - HOME BASE OF LOGGING UNIT
MUD .         GEL CHEM             : Mud_type     - MUD TYPE
MATR.         SANDSTONE            : Logunit      - NEUTRON MATRIX
TMAX.C        21.6667              : BHT          - MAXIMUM RECORDED TEMPERATURE
BHTD.M        404.774              : BHTDEP       - MAXIMUM RECORDED TEMPERATURE
RMT .C        10                   : MDTP         - TEMPERATURE OF MUD
MUDD.KG/M     9200                 : MWT          - MUD DENSITY
NEUT.         1                    : NEUTRON      - NEUTRON TYPE
RESI.         0                    : RESIST       - RESISTIVITY TYPE
RM  .OHMM     1.9                  : RM           - RESISTIVITY OF MUD
RMC .OHMM     0                    : RMC          - RESISTIVITY OF MUD CAKE
RMF .OHMM     1.77                 : RMF          - RESISTIVITY OF MUD FILTRATE
SUFT.C        -17.7778             : SUFT         - SURFACE TEMPERATURE
~A  DEPTH      CAL       GR     PHIN     PHID     RESD
# ...
  219.380  152.490   58.803    0.454    0.292   34.062
  219.630  153.550   58.494    0.467    0.285   34.285
  219.880  155.158   57.661    0.476    0.301   35.274
  220.130  157.337   56.688    0.467    0.309   36.357
  220.380  158.841   56.514    0.447    0.303   36.126
  220.630  159.784   56.472    0.451    0.300   34.615
  220.880  159.706   55.972    0.453    0.307   34.018
  221.130  157.716   55.198    0.439    0.311   33.988
  221.380  156.174   54.492    0.440    0.317   34.211
  221.630  155.421   53.322    0.449    0.313   34.495
  221.880  156.704   51.961    0.447    0.315   35.170
  222.130  158.432   52.841    0.441    0.317   35.917
  222.380  158.583   55.053    0.451    0.310   36.485
  222.630  156.588   56.066    0.443    0.314   36.656
  222.880  155.498   56.552    0.436    0.319   36.490
  223.130  154.185   56.975    0.431    0.327   35.863
  223.380  154.111   57.261    0.429    0.320   35.179
  223.630  154.150   57.813    0.453    0.320   34.707
  223.880  154.295   58.035    0.467    0.326   34.552
  224.130  154.562   58.056    0.460    0.318   34.397
  224.380  154.597   58.546    0.457    0.321   34.363
  224.630  154.524   59.695    0.452    0.323   34.209
  224.880  154.679   61.438    0.444    0.325   33.813
  225.130  154.825   64.041    0.452    0.327   33.167
  225.380  155.088   65.981    0.482    0.320   32.361
  225.630  155.468   63.028    0.461    0.317   31.574
  225.880  155.954   61.397    0.445    0.322   30.810
  226.130  156.553   63.673    0.442    0.327   30.613
  226.380  155.918   64.158    0.461    0.324   30.363
  226.630  151.672   61.865    0.455    0.325   29.900
  226.880  146.637   60.567    0.456    0.318   29.545
  227.130  150.389   62.646    0.473    0.320   29.358
  227.380  155.619   64.514    0.466    0.315   29.225
  227.630  155.542   67.186    0.459    0.309   25.785
  227.880  155.140   69.659    0.461    0.320   18.134
  228.130  155.065   73.120    0.466    0.307   12.407
  228.380  155.772   80.621    0.474    0.277    8.350
  228.630  155.916   84.746    0.487    0.267    6.013
  228.880  156.639   90.326    0.520    0.293    4.780
  229.130  157.124  100.404    0.539    0.256    4.187
  229.380  158.625  110.153    0.551    0.238    4.246
  229.630  166.337  109.652    0.535    0.220    4.656
  229.880  170.882  106.232    0.513    0.227    5.445
  230.130  170.244   96.793    0.512    0.218    6.356
  230.380  165.995   87.225    0.504    0.231    7.514
  230.630  160.054   82.350    0.487    0.246    9.282
  230.880  156.823   79.931    0.483    0.249    9.224
  231.130  156.527   81.606    0.482    0.249    7.212
  231.380  157.807   84.473    0.484    0.255    5.786
  231.630  158.513  103.682    0.490    0.251    4.860
  231.880  160.695  115.420    0.507    0.224    4.241
  232.130  163.668  118.350    0.544    0.234    3.741
  232.380  164.268  117.448    0.574    0.204    3.513
  232.630  164.307  111.453    0.555    0.180    3.497
  232.880  163.217  114.056    0.548    0.136    3.539
  233.130  163.598  114.278    0.564    0.149    3.695
  233.380  168.712  111.920    0.580    0.201    3.864
  233.630  169.983  107.708    0.580    0.193    3.826
  233.880  165.285  106.872    0.581    0.191    3.741
  234.130  162.396  110.404    0.588    0.172    3.676
  234.380  164.912  111.090    0.592    0.201    3.554
  234.630  166.298  109.259    0.575    0.205    3.499
  234.880  166.338  103.064    0.555    0.202    3.673
  235.130  164.570   96.207    0.549    0.197    4.088
  235.380  160.441   89.346    0.560    0.189    4.798
  235.630  156.868   80.904    0.510    0.254    6.239
  235.880  154.770   78.280    0.482    0.279    8.068
  236.130  155.144   78.898    0.491    0.294   10.802
  236.380  155.287   70.718    0.490    0.299   14.070
  236.630  156.112   65.315    0.488    0.305   18.030
  236.880  156.609   62.496    0.489    0.314   20.105
  237.130  156.641   61.990    0.491    0.314   20.235
  237.380  156.568   64.266    0.486    0.306   20.222
  237.630  155.701   65.807    0.497    0.304   20.275
  237.880  155.176   63.053    0.503    0.310   20.557
  238.130  155.101   58.446    0.502    0.294   24.844
  238.380  154.011   52.783    0.498    0.268   31.201
  238.630  153.715   51.212    0.422    0.203   34.537
  238.880  153.298   50.972    0.253    0.037   34.192
  239.130  152.773   55.956    0.260    0.022   31.582
  239.380  152.129   68.489    0.334    0.159   28.535
  239.630  152.055   69.833    0.383    0.212   25.269
  239.880  151.530   69.725    0.488    0.274   22.704
  240.130  151.577   66.175    0.512    0.312   21.356
  240.380  151.275   61.368    0.511    0.299   20.994
  240.630  150.975   57.423    0.487    0.299   20.934
  240.880  151.005   57.777    0.482    0.314   20.959
  241.130  151.159   59.320    0.479    0.302   20.940
  241.380  152.444   60.800    0.479    0.301   20.959
  241.630  153.380   60.889    0.483    0.301   21.214
  241.880  154.210   57.674    0.482    0.301   21.551
  242.130  154.697   57.297    0.477    0.306   21.806
  242.380  154.615   59.902    0.498    0.323   22.152
  242.630  153.651   60.916    0.487    0.326   22.543
  242.880  153.113   60.745    0.476    0.322   22.728
  243.130  152.023   60.107    0.479    0.301   22.829
  243.380  151.721   60.591    0.477    0.291   22.978
  243.630  150.301   63.194    0.479    0.295   22.757
  243.880  149.994   63.746    0.489    0.316   22.569
  244.130  150.937   63.971    0.478    0.304   22.341
  244.380  151.310   66.242    0.468    0.302   21.958
  244.630  152.479   69.175    0.466    0.298   21.424
  244.880  151.048   71.183    0.471    0.275   20.602
  245.130  151.421   67.967    0.501    0.272   20.063
  245.380  152.033   66.666    0.496    0.270   19.576
  245.630  152.287   67.622    0.501    0.281   19.206
  245.880  152.338   68.767    0.496    0.290   18.977
  246.130  152.042   69.981    0.492    0.293   18.996
  246.380  151.615   70.797    0.471    0.290   19.153
  246.630  151.313   71.286    0.464    0.282   19.353
  246.880  150.671   70.116    0.470    0.279   19.157
  247.130  150.387   67.559    0.461    0.281   19.174
  247.380  150.190   66.326    0.463    0.289   19.728
  247.630  149.779   64.298    0.456    0.304   19.966
  247.880  150.049   67.236    0.477    0.323   20.024
  248.130  149.962   68.578    0.485    0.333   19.895
  248.380  149.896   69.395    0.496    0.325   19.521
  248.630  149.475   69.621    0.504    0.315   19.360
  248.880  149.966   69.708    0.510    0.305   19.202
  249.130  150.000   68.741    0.507    0.293   19.221
  249.380  149.587   71.145    0.500    0.310   18.997
  249.630  148.951   73.221    0.496    0.301   18.367
  249.880  149.321   73.507    0.486    0.297   17.918
  250.130  149.471   69.892    0.479    0.294   17.419
  250.380  150.202   66.674    0.472    0.286   17.439
  250.630  151.134   68.217    0.469    0.272   17.581
  250.880  151.061   73.864    0.469    0.267   17.797
  251.130  151.100   76.402    0.491    0.312   17.876
  251.380  150.675   76.095    0.495    0.315   17.700
  251.630  150.386   75.662    0.498    0.302   17.268
  251.880  150.329   75.943    0.503    0.296   16.393
  252.130  150.564   76.035    0.508    0.289   15.936
  252.380  150.494   73.808    0.474    0.286   15.806
  252.630  149.755   74.233    0.476    0.295   15.763
  252.880  149.324   74.779    0.487    0.292   15.721
  253.130  148.918   73.678    0.493    0.286   15.737
  253.380  148.049   72.514    0.508    0.295   15.751
  253.630  148.085   73.395    0.500    0.295   15.652
  253.880  148.236   75.535    0.481    0.288   15.077
  254.130  147.942   81.050    0.471    0.287   13.900
  254.380  147.522   82.199    0.482    0.305   12.861
  254.630  147.792   80.108    0.497    0.281   11.814
  254.880  148.284   79.731    0.498    0.264   11.053
  255.130  148.654   79.688    0.490    0.249   10.684
  255.380  148.576   78.394    0.481    0.259   10.406
  255.630  148.392   78.281    0.480    0.248    9.933
