~VERSION INFORMATION
 VERS.                 2.0:   CWLS LOG ASCII STANDARD -VERSION 2.0
 WRAP.                  NO:   ONE LINE PER DEPTH STEP
~WELL INFORMATION BLOCK
#MNEM.UNIT           DATA                    DESCRIPTION OF MNEMONIC
#---------    -------------------            -------------------------------
# Generated from Intellog Unique Number	CW_70_72/WELL/3025
NULL.         -999.25                        : NULL_VALUE
WELL.         BRASCAN AMOCO MEYER 11-02      : Well_name    - WELL              
LOC .         12-02-070-25W4                 : Location     - LOCATION          
UWI .         00/12-02-070-25W4/0            : Uwi          - UNIQUE WELL ID    
ENTR.         J                              : Entered      - ENTERED BY        
SRVC.         SCHLUMBERGER                   : Scn          - SERVICE COMPANY   
DATE.         30 JULY 73                     : Date         - LOG DATE          
STRT.M        466.344                        : top_depth    - START DEPTH       
STOP.M        682.844                        : bot_depth    - STOP DEPTH        
STEP.M        0.25                           : increment    - STEP LENGTH       
~CURVE INFORMATION BLOCK
#MNEM UNIT       ERCB CURVE CODE    CURVE DESCRIPTION
#-----------   ------------------   ----------------------------------
DEPT.M        00 001 00 00         : DEPTH        - DEPTH                       
ILD .OHMM     00 120 00 00         : RESD         - DEEP RESISTIVITY (DIL)      
CALI.MM       00 280 01 00         : CAL          - CALIPER                     
GR  .API      00 310 00 00         : GR           - GAMMA RAY                   
NPHI.V/V      00 330 00 00         : PHIN         - NEUTRON POROSITY (SANDSTONE)
DPHI.V/V      00 890 00 00         : PHID         - DENSITY POROSITY (SANDSTONE)
~PARAMETER INFORMATION       
#MNEM.UNIT           DATA             DESCRIPTION OF MNEMONIC
#---------         -----------     ------------------------------
GL  .M        656.844              : gl           - GROUND LEVEL ELEVATION      
EREF.M        659.587              : kb           - ELEVATION OF DEPTH REFERENCE
DATM.M        656.844              : datum        - DATUM ELEVATION             
TDD .M        684.581              : tdd          - TOTAL DEPTH DRILLER         
RUN .         ONE                  : Run          - RUN NUMBER                  
BASE.         EDM                  : Branch       - HOME BASE OF LOGGING UNIT   
MUD .         GEL CHEM             : Mud_type     - MUD TYPE                    
MATR.         SANDSTONE            : Logunit      - NEUTRON MATRIX              
TMAX.C        36.1111              : BHT          - MAXIMUM RECORDED TEMPERATURE
BHTD.M        684.581              : BHTDEP       - MAXIMUM RECORDED TEMPERATURE
RMT .C        24.4444              : MDTP         - TEMPERATURE OF MUD          
MUDD.KG/M     1140                 : MWT          - MUD DENSITY                 
NEUT.         1                    : NEUTRON      - NEUTRON TYPE                
RESI.         0                    : RESIST       - RESISTIVITY TYPE            
RM  .OHMM     2.46                 : RM           - RESISTIVITY OF MUD          
RMC .OHMM     0.25                 : RMC          - RESISTIVITY OF MUD CAKE     
RMF .OHMM     3.29                 : RMF          - RESISTIVITY OF MUD FILTRATE 
SUFT.C        10                   : SUFT         - SURFACE TEMPERATURE         
~A  DEPTH     RESD      CAL       GR     PHIN     PHID
# ...
  575.844    3.599  156.931   59.612    0.412    0.240
  576.094    4.069  156.748   59.386    0.356    0.208
  576.344    4.378  154.919   59.582    0.303    0.145
  576.594    3.932  155.049   59.531    0.337    0.214
  576.844    2.942  157.016   58.999    0.374    0.246
  577.094    2.493  157.048   58.228    0.371    0.236
  577.344    2.089  156.657   58.238    0.348    0.184
  577.594    1.776  155.962   59.889    0.350    0.217
  577.844    1.780  155.264   61.479    0.413    0.261
  578.094    1.976  154.771   61.856    0.439    0.304
  578.344    2.099  153.870   62.233    0.455    0.309
  578.594    2.158  153.484   62.247    0.469    0.302
  578.844    2.151  154.120   61.532    0.432    0.221
  579.094    2.124  155.887   59.604    0.317    0.148
  579.344    2.030  162.172   60.468    0.273    0.149
  579.594    1.958  159.731   64.055    0.300    0.203
  579.844    2.024  155.755   65.342    0.402    0.250
  580.094    2.190  154.237   64.628    0.419    0.280
  580.344    2.484  154.155   64.216    0.414    0.251
  580.594    2.654  154.688   63.384    0.412    0.232
  580.844    2.569  154.817   62.546    0.428    0.237
  581.094    2.350  153.301   60.744    0.445    0.249
  581.344    2.142  151.376   60.332    0.418    0.204
  581.594    1.970  149.648   60.831    0.390    0.202
  581.844    1.825  148.650   61.813    0.376    0.257
  582.094    1.700  149.693   62.737    0.441    0.289
  582.344    1.627  153.824   63.416    0.441    0.295
  582.594    1.631  155.693   63.551    0.449    0.298
  582.844    1.698  155.713   64.109    0.469    0.303
  583.094    1.824  152.554   65.032    0.478    0.284
  583.344    2.007  150.524   65.653    0.472    0.279
  583.594    2.269  150.040   65.481    0.455    0.282
  583.844    2.419  150.780   62.344    0.430    0.268
  584.094    2.514  152.239   60.540    0.377    0.250
  584.344    2.452  155.134   60.857    0.350    0.192
  584.594    2.210  157.311   61.656    0.317    0.129
  584.844    1.865  158.153   63.126    0.278    0.110
  585.094    1.681  158.074   64.895    0.357    0.193
  585.344    1.655  157.791   66.545    0.397    0.266
  585.594    1.794  157.399   67.650    0.443    0.301
  585.844    1.902  156.806   68.814    0.467    0.289
  586.094    2.077  157.038   70.464    0.464    0.285
  586.344    2.219  157.266   72.479    0.442    0.281
  586.594    2.383  157.083   75.584    0.437    0.268
  586.844    2.560  156.795   80.444    0.448    0.253
  587.094    2.637  156.202   86.214    0.452    0.229
  587.344    2.711  156.428   87.503    0.453    0.218
  587.594    2.742  156.147   85.393    0.462    0.209
  587.844    2.773  156.067   82.983    0.473    0.206
  588.094    2.789  156.602   83.361    0.460    0.212
  588.344    2.836  157.647   84.828    0.447    0.210
  588.594    2.884  159.724   87.205    0.450    0.203
  588.844    2.922  162.211   88.915    0.421    0.197
  589.094    2.982  163.466   90.867    0.429    0.184
  589.344    2.994  164.308   90.213    0.454    0.179
  589.594    3.011  164.949   89.380    0.464    0.192
  589.844    3.012  165.481   90.543    0.465    0.213
  590.094    2.969  165.712   90.072    0.451    0.196
  590.344    2.906  165.529   88.631    0.443    0.186
  590.594    2.896  164.524   86.827    0.435    0.187
  590.844    2.950  162.492   85.445    0.467    0.197
  591.094    3.044  160.873   87.216    0.466    0.207
  591.344    3.130  158.845   90.138    0.449    0.198
  591.594    3.200  161.533   94.275    0.433    0.190
  591.844    3.225  163.814   95.802    0.450    0.176
  592.094    3.237  164.965   96.543    0.439    0.172
  592.344    3.227  165.711   96.435    0.440    0.181
  592.594    3.192  165.220   92.448    0.451    0.165
  592.844    3.229  163.906   88.885    0.466    0.161
  593.094    3.271  160.848   89.809    0.450    0.173
  593.344    3.314  158.820   91.034    0.420    0.174
  593.594    3.358  161.304   91.836    0.419    0.163
  593.844    3.365  163.793   91.789    0.429    0.177
  594.094    3.293  164.737   91.076    0.441    0.160
  594.344    3.182  165.378   90.545    0.437    0.175
  594.594    3.019  165.091   90.373    0.429    0.177
  594.844    2.922  164.291   89.116    0.423    0.186
  595.094    2.854  163.698   87.127    0.429    0.178
  595.344    2.845  160.848   84.294    0.438    0.188
  595.594    2.830  159.127   85.216    0.456    0.199
  595.844    2.841  158.328   87.169    0.466    0.181
  596.094    2.970  159.786   89.545    0.474    0.187
  596.344    3.126  164.223   93.618    0.445    0.197
  596.594    3.352  167.228   90.602    0.445    0.176
  596.844    3.687  167.859   89.765    0.447    0.190
  597.094    3.939  168.498   89.234    0.445    0.192
  597.344    4.200  167.494   85.974    0.433    0.185
  597.594    4.422  165.978   80.475    0.427    0.177
  597.844    4.497  165.691   80.914    0.424    0.153
  598.094    4.498  165.205   82.560    0.403    0.145
  598.344    4.499  164.716   84.999    0.383    0.165
  598.594    4.460  163.502   85.258    0.456    0.205
  598.844    4.404  159.111   84.419    0.473    0.240
  599.094    4.295  157.183   80.190    0.444    0.213
  599.344    4.127  159.773   76.021    0.418    0.197
  599.594    3.908  165.337   76.037    0.390    0.194
  599.844    3.817  162.385   77.987    0.382    0.205
  600.094    3.743  157.380   80.242    0.416    0.230
  600.344    3.717  154.425   82.378    0.444    0.248
  600.594    3.773  158.760   84.390    0.470    0.215
  600.844    3.879  162.987   85.072    0.502    0.230
  601.094    4.024  163.419   83.266    0.475    0.240
  601.344    4.275  162.315   81.765    0.440    0.258
  601.594    4.444  161.312   81.598    0.464    0.265
  601.844    4.627  160.518   81.488    0.500    0.255
  602.094    4.740  159.818   81.626    0.469    0.246
  602.344    4.690  159.635   81.455    0.481    0.237
  602.594    4.425  158.937   82.074    0.469    0.227
  602.844    3.924  159.372   84.150    0.434    0.208
  603.094    3.622  164.320   87.009    0.398    0.189
  603.344    3.386  165.882   90.720    0.386    0.167
  603.594    3.230  164.881   90.310    0.411    0.164
  603.844    3.161  162.644   91.291    0.439    0.180
  604.094    3.134  162.254   92.458    0.446    0.183
  604.344    3.175  164.230   91.561    0.433    0.179
  604.594    3.193  165.382   91.033    0.439    0.182
  604.844    3.230  164.889   91.709    0.437    0.179
  605.094    3.237  164.398   92.692    0.455    0.176
  605.344    3.191  163.191   92.705    0.444    0.169
  605.594    3.151  164.341   90.779    0.437    0.162
  605.844    3.146  165.186   92.430    0.429    0.156
  606.094    3.193  164.282   95.896    0.419    0.150
  606.344    3.230  163.895   98.698    0.417    0.159
  606.594    3.260  166.179   97.746    0.420    0.170
  606.844    3.316  166.613   94.302    0.435    0.175
  607.094    3.366  166.528   90.132    0.450    0.172
  607.344    3.391  166.243   89.479    0.462    0.169
  607.594    3.423  166.473   92.160    0.468    0.170
  607.844    3.443  166.905   92.960    0.469    0.173
  608.094    3.406  167.542   94.187    0.474    0.175
  608.344    3.352  167.979   93.775    0.445    0.177
  608.594    3.390  166.255   91.124    0.435    0.181
  608.844    3.575  162.377   93.623    0.430    0.175
  609.094    3.926  164.144   97.332    0.408    0.151
  609.344    4.446  168.272   97.344    0.408    0.149
  609.594    4.971  169.835   89.722    0.442    0.162
  609.844    5.569  166.882   80.464    0.456    0.184
  610.094    5.581  161.055   73.080    0.433    0.195
  610.344    4.976  157.587   65.579    0.403    0.222
  610.594    4.412  155.352   62.986    0.392    0.282
  610.844    3.821  156.708   63.667    0.400    0.278
  611.094    3.302  153.757   63.500    0.415    0.266
  611.344    2.907  154.496   63.330    0.421    0.283
  611.594    2.601  155.449   63.526    0.414    0.292
  611.844    2.349  155.776   63.538    0.414    0.274
  612.094    2.110  155.593   63.431    0.434    0.247
