~VERSION INFORMATION
 VERS.                 2.0:   CWLS LOG ASCII STANDARD -VERSION 2.0
 WRAP.                  NO:   ONE LINE PER DEPTH STEP
~WELL INFORMATION BLOCK
#MNEM.UNIT           DATA                    DESCRIPTION OF MNEMONIC
#---------    -------------------            -------------------------------
# Generated from Intellog Unique Number	CS_69_70/WELL/891
WELL.         MANVILLE OIL & GAS LTD.        : Well_name    - WELL
LOC .         00/11-21-069-17W4/0            : Location     - LOCATION
UWI .         00/11-21-069-17W4/0            : Uwi          - UNIQUE WELL ID
ENTR.         SP                             : Entered      - ENTERED BY
SRVC.         SCHLUMBERGER                   : Scn          - SERVICE COMPANY
STRT.M        290                            : top_depth    - START DEPTH
STOP.M        502                            : bot_depth    - STOP DEPTH
STEP.M        0.25                           : increment    - STEP LENGTH
 NULL. -999.2500:NULL Value
~CURVE INFORMATION BLOCK
#MNEM UNIT       ERCB CURVE CODE    CURVE DESCRIPTION
#-----------   ------------------   ----------------------------------
DEPT.M        00 001 00 00         : DEPTH        - DEPTH
ILD .OHMM     00 120 00 00         : RESD         - DEEP RESISTIVITY (DIL)
DPHI.V/V      00 890 00 00         : PHID         - DENSITY POROSITY (LIMESTONE)
NPHI.V/V      00 330 00 00         : PHIN         - NEUTRON POROSITY (LIMESTONE)
GR  .API      00 310 00 00         : GR           - GAMMA RAY
~PARAMETER INFORMATION
#MNEM.UNIT           DATA             DESCRIPTION OF MNEMONIC
#---------         -----------     ------------------------------
GL  .M        556.93               : gl           - GROUND LEVEL ELEVATION
EREF.M        560.03               : kb           - ELEVATION OF DEPTH REFERENCE
DATM.M        556.93               : datum        - DATUM ELEVATION
TDD .M        504                  : tdd          - TOTAL DEPTH DRILLER
RUN .         ONE                  : Run          - RUN NUMBER
ENG .         BILL                 : Engineer     - RECORDING ENGINEER
WIT .         JIM                  : Witness      - WITNESSED BY
MUD .         GEL                  : Mud_type     - MUD TYPE
MATR.         LIMESTONE            : Logunit      - NEUTRON MATRIX
TMAX.C        23                   : BHT          - MAXIMUM RECORDED TEMPERATURE
BHTD.M        504                  : BHTDEP       - MAXIMUM RECORDED TEMPERATURE
MATR.         1                    : LOGUNIT      - NEUTRON MATRIX
RMT .C        25                   : MDTP         - TEMPERATURE OF MUD
NEUT.         1                    : NEUTRON      - NEUTRON TYPE
RESI.         0                    : RESIST       - RESISTIVITY TYPE
RMC .OHMM     0.25                 : RMC          - RESISTIVITY OF MUD CAKE
RMF .OHMM     0.25                 : RMF          - RESISTIVITY OF MUD FILTRATE
SUFT.C        15                   : SUFT         - SURFACE TEMPERATURE
~A  DEPTH     RESD     PHID     PHIN       GR
  290.000    2.835    0.246    0.525  108.849
  290.250    2.843    0.242    0.539  108.847
  290.500    2.855    0.243    0.527  108.357
  290.750    2.918    0.254    0.503  106.889
  291.000    3.020    0.230    0.485  104.750
  291.250    3.109    0.204    0.490  103.159
  291.500    3.189    0.176    0.476  102.608
  291.750    3.234    0.145    0.443  102.238
  292.000    3.217    0.147    0.429  103.396
  292.250    3.130    0.162    0.432  105.958
  292.500    3.000    0.157    0.444  105.283
  292.750    2.918    0.165    0.467  104.182
  293.000    2.839    0.182    0.485  104.423
  293.250    2.767    0.206    0.499  105.825
  293.500    2.728    0.221    0.492  108.142
  293.750    2.750    0.212    0.467  108.384
  294.000    2.831    0.193    0.451  106.794
  294.250    2.931    0.211    0.479  105.937
  294.500    2.978    0.225    0.494  106.850
  294.750    3.037    0.235    0.468  110.755
  295.000    3.033    0.208    0.450  114.842
  295.250    3.018    0.184    0.454  115.938
  295.500    3.004    0.184    0.463  113.006
  295.750    2.944    0.192    0.489  108.363
  296.000    2.870    0.217    0.494  108.544
  296.250    2.834    0.239    0.483  110.067
  296.500    2.799    0.263    0.497  109.821
  296.750    2.759    0.286    0.486  107.865
  297.000    2.725    0.256    0.463  104.199
  297.250    2.711    0.252    0.459  100.167
  297.500    2.739    0.263    0.483   95.463
  297.750    2.746    0.233    0.495   93.691
  298.000    2.733    0.205    0.449  101.319
  298.250    2.755    0.195    0.458  107.422
  298.500    2.837    0.233    0.480  106.381
  298.750    2.936    0.260    0.505   91.788
  299.000    3.199    0.238    0.464   78.110
  299.250    3.571    0.197    0.418   70.111
  299.500    4.001    0.189    0.393   79.204
  299.750    4.416    0.224    0.369   88.847
  300.000    4.037    0.234    0.343   93.668
  300.250    3.754    0.249    0.385   92.017
  300.500    3.544    0.284    0.410   87.313
  300.750    3.434    0.308    0.429   87.677
  301.000    3.489    0.285    0.445   92.497
  301.250    3.612    0.272    0.383  100.675
  301.500    3.761    0.253    0.357  106.839
  301.750    3.894    0.243    0.364  111.537
  302.000    4.039    0.232    0.385  114.770
  302.250    3.951    0.233    0.404  107.625
  302.500    3.773    0.259    0.421   88.392
  302.750    3.581    0.284    0.403   75.996
  303.000    3.367    0.297    0.375   70.072
  303.250    3.131    0.300    0.352   65.490
  303.500    2.945    0.301    0.346   66.404
  303.750    3.025    0.291    0.353   70.308
  304.000    3.168    0.285    0.364   73.358
  304.250    3.279    0.284    0.359   72.623
  304.500    3.313    0.260    0.369   79.457
  304.750    3.092    0.244    0.381   84.461
  305.000    2.902    0.227    0.386   90.686
  305.250    2.745    0.277    0.367   77.618
  305.500    2.685    0.303    0.370   71.328
  305.750    2.667    0.308    0.384   69.189
  306.000    2.761    0.303    0.388   72.483
  306.250    2.935    0.301    0.377   75.472
  306.500    3.228    0.271    0.357   79.803
  306.750    3.502    0.247    0.331   88.165
  307.000    3.866    0.225    0.365   97.685
  307.250    4.141    0.207    0.373  105.131
  307.500    4.302    0.208    0.356   98.047
  307.750    4.487    0.192    0.339   86.567
  308.000    4.390    0.162    0.347   80.093
  308.250    4.137    0.144    0.360   74.840
  308.500    3.897    0.201    0.363   71.785
  308.750    3.524    0.244    0.378   72.393
  309.000    3.307    0.212    0.396   83.685
  309.250    3.086    0.174    0.411   92.595
  309.500    2.908    0.154    0.427   96.622
  309.750    2.808    0.174    0.448   99.549
  310.000    2.826    0.213    0.483  106.934
  310.250    2.865    0.219    0.501  112.304
  310.500    2.508    0.236    0.513  109.676
  310.750    2.626    0.271    0.444   98.135
  311.000    3.500    0.278    0.414   86.350
  311.250    3.596    0.265    0.400   77.618
  311.500    3.723    0.255    0.396   77.004
  311.750    3.684    0.258    0.405   78.284
  312.000    3.631    0.270    0.424   80.052
  312.250    3.547    0.264    0.438   83.041
  312.500    3.476    0.254    0.434   87.250
  312.750    3.426    0.239    0.422   88.957
  313.000    3.416    0.229    0.425   89.443
  313.250    3.470    0.228    0.438   89.806
  313.500    3.572    0.251    0.442   91.025
  313.750    3.685    0.264    0.427   92.487
  314.000    3.778    0.249    0.420   93.889
  314.250    3.926    0.239    0.422   96.328
  314.500    3.989    0.228    0.426   99.867
  314.750    3.830    0.225    0.421   98.338
  315.000    3.740    0.229    0.415   95.710
  315.250    3.778    0.229    0.416   93.082
  315.500    3.875    0.232    0.428   91.859
  315.750    3.981    0.230    0.435   91.246
  316.000    4.099    0.221    0.417   92.647
  316.250    4.180    0.197    0.402   94.598
  316.500    4.270    0.172    0.403   96.122
  316.750    4.404    0.177    0.419   97.524
  317.000    4.534    0.201    0.421   93.919
  317.250    4.667    0.214    0.424   93.306
  317.500    4.786    0.219    0.414   96.722
  317.750    4.844    0.213    0.404   95.987
  318.000    4.678    0.204    0.398   96.168
  318.250    4.559    0.190    0.391  101.049
  318.500    4.410    0.176    0.410  108.494
  318.750    4.331    0.157    0.421  114.780
  319.000    4.269    0.133    0.430  120.699
  319.250    4.185    0.176    0.460  124.420
  319.500    4.109    0.205    0.478  126.677
  319.750    4.097    0.231    0.459  125.942
  320.000    4.108    0.239    0.419  113.546
  320.250    4.189    0.241    0.392  103.959
  320.500    4.338    0.244    0.380  101.514
  320.750    4.491    0.246    0.379  104.564
  321.000    4.657    0.242    0.391  108.652
  321.250    4.894    0.226    0.404  107.001
  321.500    5.173    0.210    0.415  105.472
  321.750    5.406    0.196    0.402  110.658
  322.000    5.534    0.191    0.389  110.778
  322.250    5.590    0.199    0.388  105.403
  322.500    5.490    0.205    0.394  103.142
  322.750    5.391    0.203    0.390  101.491
  323.000    5.316    0.203    0.395  102.587
  323.250    5.278    0.208    0.395  105.820
  323.500    5.185    0.219    0.390  108.870
  323.750    5.130    0.228    0.398  107.341
  324.000    5.066    0.229    0.406  103.248
  324.250    4.966    0.219    0.399  108.251
  324.500    4.858    0.215    0.389  115.636
  324.750    4.780    0.202    0.383  123.387
  325.000    4.829    0.182    0.401  129.001
  325.250    4.905    0.186    0.431  120.146
  325.500    4.946    0.204    0.441  104.026
  325.750    4.941    0.145    0.409   93.951
  326.000    4.907    0.125    0.370  100.602
  326.250    4.829    0.163    0.354  104.934
  326.500    4.769    0.190    0.361  107.069
  326.750    4.691    0.189    0.390  109.019
  327.000    4.573    0.193    0.405  112.130
  327.250    4.316    0.183    0.395  116.279
  327.500    3.917    0.146    0.416  120.305
  327.750    3.581    0.131    0.431  122.135
  328.000    3.231    0.182    0.442  123.903
  328.250    3.090    0.205    0.442  119.382
  328.500    2.950    0.220    0.436  113.458
  328.750    2.892    0.232    0.428  102.833
  329.000    2.949    0.230    0.441   95.566
  329.250    3.099    0.211    0.453   89.946
  329.500    3.184    0.190    0.441   90.066
  329.750    3.229    0.185    0.434   90.124
  330.000    3.213    0.210    0.433   86.275
  330.250    3.197    0.262    0.422   91.828
  330.500    3.218    0.286    0.413   93.413
  330.750    3.214    0.276    0.407   87.489
  331.000    3.228    0.273    0.408   82.663
  331.250    3.349    0.275    0.418   80.890
  331.500    3.559    0.267    0.423   78.140
  331.750    3.951    0.267    0.424   74.475
  332.000    4.640    0.271    0.432   69.161
  332.250    6.385    0.267    0.441   64.092
  332.500    8.477    0.240    0.357   58.595
  332.750   10.879    0.084    0.190   51.449
  333.000   12.306    0.027    0.137   44.060
  333.250   13.304    0.006    0.111   43.813
