~VERSION INFORMATION
 VERS.                 2.0:   CWLS LOG ASCII STANDARD -VERSION 2.0
 WRAP.                  NO:   ONE LINE PER DEPTH STEP
~WELL INFORMATION BLOCK
#MNEM.UNIT           DATA                    DESCRIPTION OF MNEMONIC
#---------    -------------------            -------------------------------
# Generated from Intellog Unique Number	CS_77_79/WELL/1006
WELL.         NORTHSTAR THORNBURY            : Well_name    - WELL
LOC .         00/11-32-079-12W4/0            : Location     - LOCATION
UWI .         00/11-32-079-12W4/0            : Uwi          - UNIQUE WELL ID
ENTR.         JHS                            : Entered      - ENTERED BY
SRVC.         SCHLUMBERGER                   : Scn          - SERVICE COMPANY
STRT.M        250                            : top_depth    - START DEPTH
STOP.M        495                            : bot_depth    - STOP DEPTH
STEP.M        0.25                           : increment    - STEP LENGTH
 NULL. -999.2500:NULL Value
~CURVE INFORMATION BLOCK
#MNEM UNIT       ERCB CURVE CODE    CURVE DESCRIPTION
#-----------   ------------------   ----------------------------------
DEPT.M        00 001 00 00         : DEPTH        - DEPTH
DPHI.V/V      00 890 00 00         : PHID         - DENSITY POROSITY (LIMESTONE)
NPHI.V/V      00 330 00 00         : PHIN         - NEUTRON POROSITY (LIMESTONE)
GR  .API      00 310 00 00         : GR           - GAMMA RAY
ILD .OHMM     00 120 00 00         : RESD         - DEEP RESISTIVITY (DIL)
RHOB.KG/M3    00 350 00 00         : DENS         - BULK DENSITY
~PARAMETER INFORMATION
#MNEM.UNIT           DATA             DESCRIPTION OF MNEMONIC
#---------         -----------     ------------------------------
GL  .M        683.9                : gl           - GROUND LEVEL ELEVATION
EREF.M        687.9                : kb           - ELEVATION OF DEPTH REFERENCE
DATM.M        687.9                : datum        - DATUM ELEVATION
TDD .M        502                  : tdd          - TOTAL DEPTH DRILLER
RUN .         ONE                  : Run          - RUN NUMBER
ENG .         BILL                 : Engineer     - RECORDING ENGINEER
WIT .         JIM                  : Witness      - WITNESSED BY
MUD .         GEL                  : Mud_type     - MUD TYPE
MATR.         LIMESTONE            : Logunit      - NEUTRON MATRIX
TMAX.C        21.1                 : BHT          - MAXIMUM RECORDED TEMPERATURE
BHTD.M        502                  : BHTDEP       - MAXIMUM RECORDED TEMPERATURE
MATR.         1                    : LOGUNIT      - NEUTRON MATRIX
RMT .C        25                   : MDTP         - TEMPERATURE OF MUD
NEUT.         1                    : NEUTRON      - NEUTRON TYPE
RESI.         0                    : RESIST       - RESISTIVITY TYPE
RMC .OHMM     0.25                 : RMC          - RESISTIVITY OF MUD CAKE
RMF .OHMM     0.25                 : RMF          - RESISTIVITY OF MUD FILTRATE
SUFT.C        15                   : SUFT         - SURFACE TEMPERATURE
~A  DEPTH     PHID     PHIN       GR     RESD     DENS
# ...
  286.500    0.272    0.449   97.881   12.506    0.000
  286.750    0.261    0.438   94.198   12.281    0.000
  287.000    0.260    0.432   92.359   12.285    0.000
  287.250    0.255    0.433   94.823   12.061    0.000
  287.500    0.235    0.424   94.213   11.842    0.000
  287.750    0.225    0.414   81.307   11.203    0.000
  288.000    0.252    0.414   78.239   10.797    0.000
  288.250    0.263    0.428   83.162   10.026    0.000
  288.500    0.236    0.445   91.160    8.970    0.000
  288.750    0.208    0.430   98.542    8.484    0.000
  289.000    0.195    0.429  106.539    7.878    0.000
  289.250    0.212    0.441  113.307    7.048    0.000
  289.500    0.219    0.465  120.074    6.305    0.000
  289.750    0.250    0.490  126.844    6.076    0.000
  290.000    0.228    0.504  128.078    5.642    0.000
  290.250    0.213    0.521  128.697    5.338    0.000
  290.500    0.198    0.530  128.702    5.049    0.000
  290.750    0.194    0.538  132.396    4.866    0.000
  291.000    0.205    0.533  134.245    4.690    0.000
  291.250    0.198    0.537  132.407    4.870    0.000
  291.500    0.191    0.541  127.493    5.056    0.000
  291.750    0.180    0.538  122.579    5.058    0.000
  292.000    0.175    0.510  126.888    4.875    0.000
  292.250    0.181    0.507  134.271    4.612    0.000
  292.500    0.203    0.515  135.506    4.282    0.000
  292.750    0.227    0.530  134.281    4.051    0.000
  293.000    0.221    0.539  131.214    3.692    0.000
  293.250    0.209    0.548  131.832    3.428    0.000
  293.500    0.202    0.562  134.913    3.183    0.000
  293.750    0.217    0.573  134.917    3.068    0.000
  294.000    0.243    0.578  133.692    3.126    0.000
  294.250    0.267    0.579  130.623    3.497    0.000
  294.500    0.277    0.566  126.324    4.060    0.000
  294.750    0.278    0.521  122.642    5.679    0.000
  295.000    0.289    0.475  122.031    7.796    0.000
  295.250    0.288    0.450  122.652    9.052    0.000
  295.500    0.291    0.447  120.812    9.755    0.000
  295.750    0.290    0.458  115.899   10.128    0.000
  296.000    0.280    0.472  112.830   10.132    0.000
  296.250    0.280    0.470  108.532    9.765    0.000
  296.500    0.313    0.470  104.849    9.238    0.000
  296.750    0.320    0.476  106.698    8.578    0.000
  297.000    0.299    0.478  114.694    7.256    0.000
  297.250    0.257    0.481  123.922    6.025    0.000
  297.500    0.238    0.494  129.460    5.492    0.000
  297.750    0.237    0.510  125.777    5.293    0.000
  298.000    0.229    0.495  122.093    5.295    0.000
  298.250    0.228    0.477  120.254    5.923    0.000
  298.500    0.247    0.467  118.415    6.625    0.000
  298.750    0.257    0.464  114.116    7.550    0.000
  299.000    0.262    0.475  111.047    8.290    0.000
  299.250    0.274    0.481  109.823    8.769    0.000
  299.500    0.285    0.473  107.368    9.277    0.000
  299.750    0.291    0.473  102.455    9.453    0.000
  300.000    0.289    0.465   96.927    9.282    0.000
  300.250    0.298    0.450   95.703    9.114    0.000
  300.500    0.285    0.443  100.011    8.948    0.000
  300.750    0.281    0.450  101.861    8.624    0.000
  301.000    0.268    0.474  100.636    8.627    0.000
  301.250    0.281    0.479   96.953    8.630    0.000
  301.500    0.298    0.474   93.269    8.795    0.000
  301.750    0.299    0.470   88.970    9.838    0.000
  302.000    0.302    0.468   86.517   10.803    0.000
  302.250    0.323    0.477   88.368   11.009    0.000
  302.500    0.314    0.482   88.986   11.431    0.000
  302.750    0.301    0.503   87.146   11.649    0.000
  303.000    0.299    0.534   85.309   11.653    0.000
  303.250    0.303    0.541   85.927   11.657    0.000
  303.500    0.301    0.516   85.933   12.330    0.000
  303.750    0.314    0.497   85.938   13.289    0.000
  304.000    0.326    0.499   85.328   13.294    0.000
  304.250    0.326    0.485   82.874   12.812    0.000
  304.500    0.325    0.478   87.184   12.348    0.000
  304.750    0.308    0.488   90.876   11.465    0.000
  305.000    0.297    0.502   98.259   10.647    0.000
  305.250    0.287    0.502   99.495   10.260    0.000
  305.500    0.300    0.506   97.655    9.707    0.000
  305.750    0.294    0.524   94.585    9.531    0.000
  306.000    0.291    0.514   92.748    9.186    0.000
  306.250    0.299    0.503   92.753    9.019    0.000
  306.500    0.310    0.513   94.601    8.855    0.000
  306.750    0.309    0.534   97.065    8.859    0.000
  307.000    0.305    0.523   98.916    8.699    0.000
  307.250    0.309    0.507   98.305    8.701    0.000
  307.500    0.310    0.502   95.851    8.705    0.000
  307.750    0.297    0.498   97.085    8.870    0.000
  308.000    0.283    0.496   97.705    8.874    0.000
  308.250    0.278    0.502   95.867    8.877    0.000
  308.500    0.288    0.490   94.027    8.879    0.000
  308.750    0.303    0.476   93.417    8.882    0.000
  309.000    0.300    0.480   94.652    8.886    0.000
  309.250    0.283    0.495   97.117    9.056    0.000
  309.500    0.278    0.503   97.736    9.059    0.000
  309.750    0.287    0.503  100.200    9.062    0.000
  310.000    0.297    0.510  100.821    8.734    0.000
  310.250    0.297    0.530  102.670    8.263    0.000
  310.500    0.295    0.525  104.520    7.963    0.000
  310.750    0.303    0.510  106.983    7.394    0.000
  311.000    0.295    0.518  108.833    6.865    0.000
  311.250    0.267    0.533  108.838    6.495    0.000
  311.500    0.266    0.549  107.613    6.619    0.000
  311.750    0.286    0.518  103.930    6.872    0.000
  312.000    0.301    0.499  101.477    7.545    0.000
  312.250    0.311    0.488   99.636    8.285    0.000
  312.500    0.311    0.484   96.568    8.763    0.000
  312.750    0.322    0.476   95.343    8.932    0.000
  313.000    0.330    0.459   95.349    8.770    0.000
  313.250    0.318    0.458   97.812    8.772    0.000
  313.500    0.313    0.458   97.203    8.614    0.000
  313.750    0.312    0.446   93.519    8.457    0.000
  314.000    0.298    0.448   89.835    8.304    0.000
  314.250    0.285    0.464   87.996    8.005    0.000
  314.500    0.306    0.481   84.313    8.006    0.000
  314.750    0.334    0.491   84.318    8.314    0.000
  315.000    0.333    0.492   84.938    8.632    0.000
  315.250    0.333    0.510   76.336    9.130    0.000
  315.500    0.363    0.527   65.890   10.601    0.000
  315.750    0.414    0.561   57.902   11.857    0.000
  316.000    0.442    0.593   49.916   15.109    0.000
  316.250    0.494    0.625   51.765   18.207    0.000
  316.500    0.495    0.610   54.844   22.354    0.000
  316.750    0.381    0.492   54.234   26.443    0.000
  317.000    0.374    0.484   53.625   27.973    0.000
  317.250    0.370    0.481   53.629   29.587    0.000
  317.500    0.380    0.476   55.479   35.656    0.000
  317.750    0.376    0.478   57.330   40.631    0.000
  318.000    0.363    0.480   57.949   44.612    0.000
  318.250    0.359    0.477   56.110   46.323    0.000
  318.500    0.369    0.481   55.500   45.480    0.000
  318.750    0.374    0.494   56.734   43.029    0.000
  319.000    0.373    0.517   57.970   40.702    0.000
  319.250    0.376    0.532   57.974   38.508    0.000
  319.500    0.376    0.511   56.135   37.111    0.000
  319.750    0.376    0.494   55.526   36.436    0.000
  320.000    0.383    0.495   56.145   35.116    0.000
  320.250    0.385    0.509   57.996   36.461    0.000
  320.500    0.383    0.496   57.999   36.474    0.000
  320.750    0.381    0.479   57.389   33.868    0.000
  321.000    0.363    0.481   57.395   27.095    0.000
  321.250    0.366    0.498   58.630   20.121    0.000
  321.500    0.381    0.500   57.406   17.668    0.000
  321.750    0.380    0.502   58.640   16.102    0.000
  322.000    0.382    0.518   59.876   15.520    0.000
  322.250    0.381    0.502   60.495   15.526    0.000
  322.500    0.381    0.481   59.886   16.121    0.000
  322.750    0.372    0.481   58.662   16.428    0.000
