~VERSION INFORMATION
 VERS.                 2.0:   CWLS LOG ASCII STANDARD -VERSION 2.0
 WRAP.                  NO:   ONE LINE PER DEPTH STEP
~WELL INFORMATION BLOCK
#MNEM.UNIT           DATA                    DESCRIPTION OF MNEMONIC
#---------    -------------------            -------------------------------
# Generated from Intellog Unique Number	CW_70_72/WELL/3036
NULL.         -999.25                        : NULL_VALUE
WELL.         MANNVILLE ET AL DECRENE 15-36  : Well_name    - WELL              
LOC .         15-36-070-02W5                 : Location     - LOCATION          
UWI .         00/15-36-070-02W5/0            : Uwi          - UNIQUE WELL ID    
ENTR.         JAYE                           : Entered      - ENTERED BY        
SRVC.         SCHLUMBERGER                   : Scn          - SERVICE COMPANY   
DATE.         2 MAR 84                       : Date         - LOG DATE          
STRT.M        400                            : top_depth    - START DEPTH       
STOP.M        630                            : bot_depth    - STOP DEPTH        
STEP.M        0.25                           : increment    - STEP LENGTH       
~CURVE INFORMATION BLOCK
#MNEM UNIT       ERCB CURVE CODE    CURVE DESCRIPTION
#-----------   ------------------   ----------------------------------
DEPT.M        00 001 00 00         : DEPTH        - DEPTH                       
ILD .OHMM     00 120 00 00         : RESD         - DEEP RESISTIVITY (DIL)      
CALI.MM       00 280 01 00         : CAL          - CALIPER                     
GR  .API      00 310 00 00         : GR           - GAMMA RAY                   
NPHI.V/V      00 330 00 00         : PHIN         - NEUTRON POROSITY (SANDSTONE)
DPHI.V/V      00 890 00 00         : PHID         - DENSITY POROSITY (SANDSTONE)
~PARAMETER INFORMATION       
#MNEM.UNIT           DATA             DESCRIPTION OF MNEMONIC
#---------         -----------     ------------------------------
GL  .M        591.5                : gl           - GROUND LEVEL ELEVATION      
EREF.M        595                  : kb           - ELEVATION OF DEPTH REFERENCE
DATM.M        591.5                : datum        - DATUM ELEVATION             
TDD .M        640                  : tdd          - TOTAL DEPTH DRILLER         
RUN .         ONE                  : Run          - RUN NUMBER                  
ENG .         PIERAOCL             : Engineer     - RECORDING ENGINEER          
WIT .         LYSZKIEWICZ          : Witness      - WITNESSED BY                
BASE.         EDM                  : Branch       - HOME BASE OF LOGGING UNIT   
MUD .         GEL CHEM             : Mud_type     - MUD TYPE                    
MATR.         SANDSTONE            : Logunit      - NEUTRON MATRIX              
TMAX.C        28                   : BHT          - MAXIMUM RECORDED TEMPERATURE
BHTD.M        641                  : BHTDEP       - MAXIMUM RECORDED TEMPERATURE
RMT .C        20                   : MDTP         - TEMPERATURE OF MUD          
MUDD.KG/M     1100                 : MWT          - MUD DENSITY                 
NEUT.         1                    : NEUTRON      - NEUTRON TYPE                
RESI.         0                    : RESIST       - RESISTIVITY TYPE            
RM  .OHMM     2.86                 : RM           - RESISTIVITY OF MUD          
RMC .OHMM     0.25                 : RMC          - RESISTIVITY OF MUD CAKE     
RMF .OHMM     4.03                 : RMF          - RESISTIVITY OF MUD FILTRATE 
SUFT.C        0                    : SUFT         - SURFACE TEMPERATURE         
~A  DEPTH     RESD      CAL       GR     PHIN     PHID
# ...
  436.500    2.707  164.320   68.624    0.414    0.266
  436.750    2.594  164.133   67.523    0.423    0.278
  437.000    2.480  163.954   65.362    0.447    0.297
  437.250    2.341  163.870   62.396    0.461    0.309
  437.500    2.325  163.792   57.502    0.457    0.312
  437.750    2.425  164.024   53.977    0.415    0.309
  438.000    2.538  165.088   65.982    0.402    0.297
  438.250    2.708  165.939   80.221    0.428    0.250
  438.500    2.883  167.102   87.506    0.423    0.210
  438.750    3.105  167.440   93.360    0.416    0.197
  439.000    3.350  166.226   93.129    0.434    0.190
  439.250    3.486  165.524   86.371    0.429    0.191
  439.500    3.443  165.237   77.317    0.409    0.207
  439.750    3.220  165.056   71.305    0.427    0.220
  440.000    2.982  164.048   64.115    0.454    0.239
  440.250    2.762  163.865   56.926    0.455    0.265
  440.500    2.497  164.409   52.591    0.450    0.279
  440.750    2.266  164.435   56.023    0.441    0.287
  441.000    2.063  164.458   65.420    0.451    0.293
  441.250    2.022  164.587   69.534    0.450    0.296
  441.500    2.121  164.510   71.474    0.427    0.275
  441.750    2.220  164.119   69.937    0.419    0.252
  442.000    2.320  163.937   71.380    0.432    0.240
  442.250    2.370  164.792   74.625    0.416    0.249
  442.500    2.371  165.648   76.629    0.418    0.273
  442.750    2.226  165.468   69.811    0.434    0.288
  443.000    1.945  165.596   62.558    0.437    0.303
  443.250    1.706  166.658   59.343    0.437    0.317
  443.500    1.809  166.995   62.526    0.434    0.322
  443.750    1.783  166.709   65.710    0.420    0.313
  444.000    1.671  166.108   66.905    0.398    0.310
  444.250    1.665  165.723   62.262    0.392    0.325
  444.500    1.787  165.330   56.438    0.409    0.259
  444.750    1.964  165.773   53.843    0.402    0.216
  445.000    2.251  165.483   51.374    0.296    0.128
  445.250    2.708  165.304   48.346    0.243    0.091
  445.500    3.028  165.436   51.778    0.285    0.133
  445.750    3.158  165.457   56.079    0.325    0.163
  446.000    3.112  165.689   61.374    0.376    0.277
  446.250    2.840  165.403   65.924    0.407    0.292
  446.500    2.454  165.232   63.267    0.422    0.264
  446.750    1.944  165.151   57.754    0.438    0.280
  447.000    1.744  165.172   58.765    0.438    0.309
  447.250    1.697  164.787   60.893    0.425    0.328
  447.500    1.717  164.401   62.646    0.417    0.304
  447.750    1.801  164.219   62.536    0.432    0.288
  448.000    1.917  164.029   62.119    0.435    0.278
  448.250    2.018  163.850   64.061    0.423    0.287
  448.500    2.161  163.670   66.623    0.422    0.299
  448.750    2.271  164.313   68.622    0.430    0.302
  449.000    2.369  164.960   73.111    0.420    0.289
  449.250    2.452  165.400   77.908    0.412    0.270
  449.500    2.601  165.219   82.148    0.409    0.255
  449.750    2.832  165.246   83.032    0.411    0.245
  450.000    3.050  165.163   71.308    0.415    0.199
  450.250    3.199  165.294   66.044    0.416    0.251
  450.500    3.129  165.633   64.939    0.423    0.269
  450.750    2.834  165.247   65.079    0.431    0.284
  451.000    2.552  165.263   58.323    0.422    0.279
  451.250    2.251  165.094   54.860    0.404    0.287
  451.500    2.081  164.911   58.913    0.408    0.305
  451.750    2.013  164.824   62.531    0.423    0.321
  452.000    2.029  164.127   63.914    0.435    0.300
  452.250    2.116  164.045   68.960    0.426    0.270
  452.500    2.220  163.965   72.640    0.407    0.252
  452.750    2.359  163.997   73.712    0.424    0.238
  453.000    2.493  164.122   73.914    0.435    0.234
  453.250    2.610  164.872   74.984    0.434    0.254
  453.500    2.763  165.418   77.981    0.417    0.256
  453.750    2.801  165.757   82.468    0.407    0.236
  454.000    2.756  166.190   81.368    0.427    0.229
  454.250    2.763  166.732   80.511    0.449    0.240
  454.500    2.764  166.553   84.874    0.442    0.234
  454.750    2.824  165.746   86.753    0.442    0.232
  455.000    2.799  165.152   66.766    0.437    0.240
  455.250    2.554  164.246   58.086    0.426    0.269
  455.500    2.466  165.417   53.875    0.417    0.288
  455.750    2.403  165.856   47.927    0.425    0.299
  456.000    2.324  166.190   46.824    0.430    0.310
  456.250    2.190  166.317   49.885    0.397    0.321
  456.500    2.087  165.825   48.594    0.405    0.322
  456.750    2.000  165.229   46.560    0.417    0.330
  457.000    1.971  164.524   46.016    0.419    0.338
  457.250    1.968  164.248   48.081    0.416    0.351
  457.500    1.999  164.473   45.922    0.415    0.334
  457.750    2.042  166.360   47.243    0.440    0.306
  458.000    2.106  167.838   52.850    0.471    0.263
  458.250    2.155  169.002   56.589    0.437    0.240
  458.500    2.235  169.753   62.382    0.417    0.254
  458.750    2.305  170.399   71.466    0.406    0.274
  459.000    2.386  171.256   75.892    0.415    0.261
  459.250    2.465  172.000   77.647    0.428    0.234
  459.500    2.542  173.164   82.695    0.431    0.207
  459.750    2.534  173.810   89.542    0.456    0.248
  460.000    2.321  173.526   80.549    0.446    0.365
  460.250    1.990  170.962   54.847    0.487    0.432
  460.500    2.996  167.059   37.410    0.590    0.514
  460.750    4.709  165.423   30.093    0.728    0.726
  461.000    7.643  164.620   27.377    0.743    0.750
  461.250   10.793  164.438   29.503    0.753    0.598
  461.500   11.933  165.601   51.755    0.663    0.569
  461.750   10.646  167.493   61.213    0.637    0.520
  462.000    9.622  165.859   45.636    0.692    0.607
  462.250    8.266  162.572   33.662    0.625    0.608
  462.500    6.853  161.358   41.755    0.576    0.272
  462.750    5.669  160.864   44.254    0.462    0.246
  463.000    4.673  160.887   44.766    0.360    0.228
  463.250    4.224  160.922   47.017    0.361    0.222
  463.500    3.671  161.045   47.779    0.368    0.247
  463.750    3.471  161.488   47.671    0.368    0.261
  464.000    3.320  161.717   49.237    0.361    0.271
  464.250    3.193  162.162   52.233    0.352    0.272
  464.500    3.129  162.389   49.765    0.366    0.273
  464.750    3.067  162.415   48.041    0.360    0.282
  465.000    2.950  162.436   49.050    0.354    0.293
  465.250    2.864  163.092   51.676    0.381    0.297
  465.500    2.818  162.902   51.441    0.390    0.306
  465.750    2.751  163.042   48.289    0.391    0.317
  466.000    2.743  162.855   49.359    0.385    0.323
  466.250    2.724  162.778   52.789    0.378    0.318
  466.500    2.649  162.080   54.732    0.390    0.301
  466.750    2.558  162.009   54.312    0.395    0.308
  467.000    2.474  162.333   58.179    0.384    0.307
  467.250    2.366  162.982   59.932    0.375    0.300
  467.500    2.268  163.622   59.016    0.379    0.289
  467.750    2.129  163.751   58.722    0.387    0.305
  468.000    2.067  163.259   57.182    0.401    0.315
  468.250    2.014  163.079   55.148    0.403    0.324
  468.500    1.974  162.798   55.473    0.402    0.321
  468.750    1.953  162.613   54.308    0.413    0.313
  469.000    1.950  162.532   51.279    0.417    0.314
  469.250    1.952  162.352   49.188    0.407    0.304
  469.500    1.934  162.687   48.892    0.396    0.292
  469.750    1.925  162.715   49.275    0.391    0.301
  470.000    1.922  162.635   50.097    0.395    0.311
  470.250    1.814  162.658   52.288    0.403    0.318
  470.500    1.772  163.512   51.992    0.410    0.324
  470.750    1.750  163.020   50.206    0.419    0.327
  471.000    1.728  161.389   49.414    0.413    0.323
  471.250    1.732  160.793   53.779    0.397    0.318
  471.500    1.743  161.024   57.147    0.394    0.297
  471.750    1.767  161.054   58.715    0.398    0.320
  472.000    1.812  161.077   52.271    0.396    0.303
  472.250    1.936  162.343   47.439    0.354    0.248
  472.500    2.401  164.957   42.611    0.249    0.111
  472.750    3.697  166.019   40.885    0.194    0.062
