~VERSION INFORMATION
 VERS.                 2.0:   CWLS LOG ASCII STANDARD -VERSION 2.0
 WRAP.                  NO:   ONE LINE PER DEPTH STEP
~WELL INFORMATION BLOCK
#MNEM.UNIT           DATA                    DESCRIPTION OF MNEMONIC
#---------    -------------------            -------------------------------
# Generated from Intellog Unique Number	CX_WELLS/WELL/4017
WELL.         HOMESTEAD LOCHIEL              : Well_name    - WELL
LOC .         00/10-05-079-04W4/0            : Location     - LOCATION
UWI .         00/10-05-079-04W4/0            : Uwi          - UNIQUE WELL ID
ENTR.         T                              : Entered      - ENTERED BY
SRVC.         SCHLUMBERGER                   : Scn          - SERVICE COMPANY
STRT.F        390                            : top_depth    - START DEPTH
STOP.F        1250.4                         : bot_depth    - STOP DEPTH
STEP.F        0.82                           : increment    - STEP LENGTH
 NULL. -999.2500:NULL Value
~CURVE INFORMATION BLOCK
#MNEM UNIT       ERCB CURVE CODE    CURVE DESCRIPTION
#-----------   ------------------   ----------------------------------
DEPT.F        00 001 00 00         : DEPTH        - DEPTH
GR  .API      00 310 00 00         : GR           - GAMMA RAY
NPHI.V/V      00 330 00 00         : PHIN         - NEUTRON POROSITY (SANDSTONE)
DPHI.V/V      00 890 00 00         : PHID         - DENSITY POROSITY (SANDSTONE)
ILD .OHMM     00 120 00 00         : RESD         - DEEP RESISTIVITY (DIL)
~PARAMETER INFORMATION
#MNEM.UNIT           DATA             DESCRIPTION OF MNEMONIC
#---------         -----------     ------------------------------
GL  .F        1695                 : gl           - GROUND LEVEL ELEVATION
EREF.F        1707                 : kb           - ELEVATION OF DEPTH REFERENCE
DATM.F        1707                 : datum        - DATUM ELEVATION
TDD .F        1290                 : tdd          - TOTAL DEPTH DRILLER
RUN .         ONE                  : Run          - RUN NUMBER
ENG .         BILL                 : Engineer     - RECORDING ENGINEER
WIT .         JIM                  : Witness      - WITNESSED BY
MUD .         GEL                  : Mud_type     - MUD TYPE
MATR.         SANDSTONE            : Logunit      - NEUTRON MATRIX
TMAX.F        69                   : BHT          - MAXIMUM RECORDED TEMPERATURE
BHTD.F        1290                 : BHTDEP       - MAXIMUM RECORDED TEMPERATURE
MATR.         1                    : LOGUNIT      - NEUTRON MATRIX
RMT .F        77                   : MDTP         - TEMPERATURE OF MUD
NEUT.         1                    : NEUTRON      - NEUTRON TYPE
RESI.         4.5                  : RESIST       - RESISTIVITY TYPE
RMC .OHMM     4.5                  : RMC          - RESISTIVITY OF MUD CAKE
RMF .OHMM     4.5                  : RMF          - RESISTIVITY OF MUD FILTRATE
SUFT.F        59                   : SUFT         - SURFACE TEMPERATURE
~A  DEPTH       GR     PHIN     PHID     RESD
# ...
  532.717   86.768    0.434    0.289   22.506
  533.537   87.409    0.432    0.286   22.526
  534.357   88.051    0.429    0.284   22.542
  535.177   88.701    0.425    0.285   22.562
  535.997   89.343    0.424    0.291   23.008
  536.818   89.366    0.413    0.293   23.474
  537.638   89.397    0.405    0.300   23.490
  538.458   89.436    0.404    0.306   23.506
  539.278   88.857    0.403    0.301   23.971
  540.098   85.835    0.402    0.305   24.912
  540.919   77.919    0.398    0.310   26.373
  541.739   64.516    0.387    0.319   26.390
  542.559   52.944    0.378    0.329   27.433
  543.379   48.090    0.377    0.336   27.457
  544.199   45.686    0.384    0.343   28.001
  545.020   45.725    0.394    0.341   28.026
  545.840   45.741    0.402    0.333   27.526
  546.660   46.993    0.378    0.329   26.540
  547.480   49.483    0.377    0.316   25.595
  548.301   53.781    0.392    0.309   25.149
  549.121   61.140    0.398    0.302   24.237
  549.941   65.446    0.397    0.293   23.380
  550.761   69.149    0.399    0.290   22.957
  551.581   71.012    0.402    0.291   22.552
  552.402   71.646    0.405    0.294   22.159
  553.222   73.517    0.407    0.298   21.370
  554.042   75.991    0.409    0.303   20.989
  554.862   79.076    0.406    0.306   20.246
  555.682   83.992    0.404    0.305   19.880
  556.503   85.871    0.397    0.299   19.172
  557.323   85.886    0.390    0.291   18.485
  558.143   87.749    0.396    0.284   17.493
  558.963   91.445    0.412    0.277   17.181
  559.783   96.377    0.423    0.273   16.259
  560.604   97.629    0.433    0.267   15.972
  561.424   98.882    0.435    0.260   15.994
  562.244   99.524    0.432    0.260   16.001
  563.064   98.341    0.430    0.262   16.015
  563.885   97.746    0.426    0.269   16.336
  564.705   95.953    0.423    0.274   16.977
  565.525   94.152    0.421    0.279   17.640
  566.345   93.573    0.426    0.285   17.648
  567.165   94.215    0.431    0.286   17.672
  567.986   93.643    0.428    0.291   17.683
  568.806   93.659    0.423    0.294   17.376
  569.626   95.537    0.421    0.292   16.753
  570.446   97.400    0.414    0.286   16.454
  571.266   98.035    0.407    0.277   15.574
  572.087   99.906    0.410    0.273   15.296
  572.907  101.761    0.419    0.265   14.748
  573.727  104.243    0.425    0.257   13.698
  574.547  107.327    0.437    0.254   12.723
  575.367  111.014    0.446    0.248   11.604
  576.188  117.176    0.442    0.250   11.828
  577.008  118.413    0.432    0.251   12.065
  577.828  119.054    0.431    0.246   12.078
  578.648  118.475    0.437    0.243   12.312
  579.469  116.674    0.439    0.240   12.555
  580.289  113.660    0.436    0.250   14.329
  581.109  111.851    0.437    0.287   15.173
  581.929  107.608    0.443    0.304   15.466
  582.749  103.983    0.446    0.307   16.070
  583.570   99.121    0.448    0.305   17.016
  584.390   96.709    0.431    0.300   17.035
  585.210   95.527    0.426    0.299   17.043
  586.030   96.772    0.418    0.294   17.062
  586.850   99.864    0.412    0.288   17.073
  587.671  102.940    0.409    0.279   17.089
  588.491  107.865    0.402    0.268   17.112
  589.311  110.957    0.404    0.260   17.127
  590.131  112.210    0.418    0.253   17.462
  590.951  112.241    0.434    0.243   17.154
  591.772  110.432    0.444    0.239   17.502
  592.592  106.799    0.443    0.264   18.873
  593.412  102.556    0.442    0.270   19.979
  594.232   98.931    0.437    0.293   20.379
  595.052   95.901    0.431    0.299   20.393
  595.873   91.657    0.430    0.306   20.038
  596.693   88.025    0.425    0.308   19.316
  597.513   85.010    0.421    0.310   17.941
  598.333   83.812    0.417    0.318   15.751
  599.154   80.790    0.412    0.322   13.832
  599.974   78.997    0.415    0.313   11.484
  600.794   82.684    0.416    0.282    9.900
  601.614   91.883    0.416    0.200    9.543
  602.434   95.579    0.418    0.162   10.890
  603.255   99.281    0.422    0.239   12.196
  604.075  102.977    0.436    0.268   13.659
  604.895  105.443    0.449    0.273   14.456
  605.715  103.031    0.448    0.284   15.300
  606.535   98.185    0.428    0.295   16.506
  607.356   97.597    0.419    0.298   17.147
  608.176   96.415    0.414    0.302   17.486
  608.996   94.614    0.408    0.299   17.502
  609.816   94.035    0.404    0.293   15.958
  610.636   93.463    0.409    0.286   14.819
  611.457   94.097    0.415    0.277   13.013
  612.277   96.571    0.423    0.269   11.427
  613.097   97.213    0.425    0.263    9.849
  613.917   94.809    0.422    0.259   10.044
  614.738   92.398    0.418    0.247   10.836
  615.558   89.368    0.417    0.231   13.075
  616.378   83.292    0.424    0.225   15.200
  617.198   76.606    0.433    0.232   16.701
  618.018   65.645    0.441    0.244   18.358
  618.839   58.348    0.430    0.280   19.434
  619.659   51.654    0.428    0.301   19.447
  620.479   49.243    0.431    0.301   19.465
  621.299   51.732    0.426    0.301   19.130
  622.119   52.977    0.419    0.303   18.788
  622.940   55.459    0.414    0.310   18.805
  623.760   57.925    0.414    0.315   18.478
  624.580   56.742    0.418    0.328   17.486
  625.400   55.552    0.421    0.331   17.498
  626.220   54.973    0.423    0.318   17.514
  627.041   55.004    0.423    0.316   17.533
  627.861   55.035    0.410    0.322   17.545
  628.681   54.456    0.412    0.321   17.240
  629.501   54.487    0.415    0.317   16.932
  630.322   55.747    0.413    0.317   16.633
  631.142   56.381    0.413    0.316   16.652
  631.962   57.633    0.411    0.308   16.663
  632.782   58.283    0.411    0.305   16.678
  633.602   58.306    0.414    0.301   16.701
  634.423   59.575    0.418    0.300   16.712
  635.243   60.201    0.416    0.299   16.418
  636.063   61.453    0.411    0.298   16.432
  636.883   63.332    0.408    0.296   16.451
  637.703   63.355    0.407    0.293   16.157
  638.524   64.608    0.407    0.291   15.880
  639.344   64.647    0.410    0.288   15.596
  640.164   64.678    0.415    0.295   15.607
  640.984   64.709    0.416    0.311   15.919
  641.804   64.740    0.419    0.317   16.234
  642.625   62.329    0.420    0.319   16.871
  643.445   61.139    0.424    0.318   17.197
  644.265   61.162    0.428    0.318   17.872
  645.085   59.361    0.426    0.320   17.893
  645.906   58.171    0.423    0.320   17.909
  646.726   60.645    0.416    0.319   17.929
  647.546   62.516    0.411    0.317   17.937
  648.366   63.769    0.405    0.307   17.957
  649.186   62.578    0.401    0.300   17.973
  650.007   60.778    0.399    0.291   17.985
  650.827   59.595    0.395    0.279   18.002
  651.647   60.237    0.394    0.281   18.022
  652.467   60.887    0.391    0.281   18.038
  653.287   62.742    0.392    0.279   18.050
  654.108   67.659    0.403    0.280   17.408
  654.928   73.178    0.410    0.286   16.477
  655.748   73.820    0.417    0.301   15.883
  656.568   72.019    0.419    0.305   15.037
  657.388   72.669    0.421    0.310   14.766
  658.209   73.921    0.422    0.315   14.782
  659.029   73.952    0.423    0.334   15.071
  659.849   72.151    0.424    0.330   15.085
  660.669   67.908    0.421    0.328   15.387
  661.490   64.886    0.418    0.338   15.688
  662.310   60.642    0.419    0.352   15.998
  663.130   57.017    0.425    0.361   16.315
  663.950   54.606    0.431    0.353   16.637
  664.770   52.194    0.434    0.342   16.971
  665.591   50.393    0.436    0.331   17.310
  666.411   52.249    0.436    0.322   17.653
  667.231   57.173    0.433    0.311   17.665
  668.051   60.250    0.433    0.297   17.353
  668.871   68.220    0.431    0.280   15.819
  669.692   81.693    0.431    0.258   13.382
  670.512   92.717    0.433    0.240   11.534
  671.332   97.633    0.434    0.252   10.319
  672.152   98.283    0.435    0.271    9.407
  672.972   98.306    0.437    0.273    8.578
  673.793   98.345    0.441    0.270    7.967
  674.613   98.995    0.444    0.267    7.826
