~VERSION INFORMATION
 VERS.                 2.0:   CWLS LOG ASCII STANDARD -VERSION 2.0
 WRAP.                  NO:   ONE LINE PER DEPTH STEP
~WELL INFORMATION BLOCK
#MNEM.UNIT           DATA                    DESCRIPTION OF MNEMONIC
#---------    -------------------            -------------------------------
# Generated from Intellog Unique Number	CS_67_68/WELL/2211
WELL.         12-08-067-01W4                 : Well_name    - WELL
LOC .         00/12-08-067-01W4/0            : Location     - LOCATION
UWI .         00/12-08-067-01W4/0            : Uwi          - UNIQUE WELL ID
ENTR.         SP                             : Entered      - ENTERED BY
SRVC.         SCHLUMBERGER                   : Scn          - SERVICE COMPANY
STRT.M        315                            : top_depth    - START DEPTH
STOP.M        570                            : bot_depth    - STOP DEPTH
STEP.M        0.25                           : increment    - STEP LENGTH
 NULL. -999.2500:NULL Value
~CURVE INFORMATION BLOCK
#MNEM UNIT       ERCB CURVE CODE    CURVE DESCRIPTION
#-----------   ------------------   ----------------------------------
DEPT.M        00 001 00 00         : DEPTH        - DEPTH
ILD .OHMM     00 120 00 00         : RESD         - DEEP RESISTIVITY (DIL)
DPHI.V/V      00 890 00 00         : PHID         - DENSITY POROSITY (LIMESTONE)
NPHI.V/V      00 330 00 00         : PHIN         - NEUTRON POROSITY (LIMESTONE)
GR  .API      00 310 00 00         : GR           - GAMMA RAY
CALI.MM       00 280 01 00         : CAL          - CALIPER
~PARAMETER INFORMATION
#MNEM.UNIT           DATA             DESCRIPTION OF MNEMONIC
#---------         -----------     ------------------------------
GL  .M        609.53               : gl           - GROUND LEVEL ELEVATION
EREF.M        613.4                : kb           - ELEVATION OF DEPTH REFERENCE
DATM.M        613.4                : datum        - DATUM ELEVATION
TDD .M        576                  : tdd          - TOTAL DEPTH DRILLER
RUN .         ONE                  : Run          - RUN NUMBER
ENG .         BILL                 : Engineer     - RECORDING ENGINEER
WIT .         JIM                  : Witness      - WITNESSED BY
MUD .         GEL                  : Mud_type     - MUD TYPE
MATR.         LIMESTONE            : Logunit      - NEUTRON MATRIX
TMAX.C        25                   : BHT          - MAXIMUM RECORDED TEMPERATURE
BHTD.M        575                  : BHTDEP       - MAXIMUM RECORDED TEMPERATURE
MATR.         1                    : LOGUNIT      - NEUTRON MATRIX
RMT .C        25                   : MDTP         - TEMPERATURE OF MUD
NEUT.         1                    : NEUTRON      - NEUTRON TYPE
RESI.         0                    : RESIST       - RESISTIVITY TYPE
RMC .OHMM     0.25                 : RMC          - RESISTIVITY OF MUD CAKE
RMF .OHMM     0.25                 : RMF          - RESISTIVITY OF MUD FILTRATE
SUFT.C        15                   : SUFT         - SURFACE TEMPERATURE
~A  DEPTH     RESD     PHID     PHIN       GR      CAL
  315.000    3.349    0.248    0.486  104.271  170.088
  315.250    3.262    0.242    0.525  105.744  167.816
  315.500    3.160    0.252    0.554  104.935  168.011
  315.750    3.073    0.258    0.548  104.311  168.307
  316.000    2.988    0.249    0.526  105.414  169.016
  316.250    2.954    0.253    0.529  107.256  170.340
  316.500    2.931    0.256    0.535  107.927  173.306
  316.750    2.877    0.243    0.536  107.366  174.937
  317.000    2.925    0.238    0.533  105.572  175.645
  317.250    2.930    0.239    0.531  103.901  175.635
  317.500    2.946    0.245    0.531  104.326  175.417
  317.750    3.069    0.248    0.528  103.209  174.892
  318.000    3.245    0.252    0.510  103.079  175.085
  318.250    3.311    0.235    0.494  106.647  176.309
  318.500    3.317    0.223    0.505  109.043  177.220
  318.750    3.207    0.224    0.507  110.577  177.209
  319.000    3.055    0.226    0.498  102.312  176.888
  319.250    2.921    0.233    0.504   98.238  176.671
  319.500    2.767    0.241    0.540   97.984  175.530
  319.750    2.700    0.249    0.553  103.337  174.185
  320.000    2.720    0.221    0.549  105.859  172.222
  320.250    3.081    0.158    0.498   91.062  168.615
  320.500    3.924    0.141    0.455   64.617  165.419
  320.750    4.816    0.240    0.446   53.702  162.428
  321.000    5.822    0.257    0.436   47.287  160.673
  321.250    6.935    0.275    0.422   45.678  159.120
  321.500    7.711    0.294    0.413   51.710  159.517
  321.750    8.092    0.295    0.406   53.675  159.609
  322.000    8.243    0.292    0.410   54.346  159.804
  322.250    7.607    0.300    0.419   55.079  159.788
  322.500    7.220    0.290    0.424   62.529  159.885
  322.750    6.929    0.287    0.422   68.869  159.766
  323.000    6.825    0.284    0.420   54.319  159.550
  323.250    6.875    0.290    0.405   53.448  159.232
  323.500    6.823    0.297    0.385   64.350  158.709
  323.750    6.621    0.289    0.408   70.259  158.286
  324.000    6.559    0.282    0.429   69.143  158.481
  324.250    6.509    0.292    0.427   62.974  158.880
  324.500    6.259    0.298    0.422   65.554  159.177
  324.750    6.051    0.280    0.418   70.108  159.575
  325.000    5.862    0.260    0.429   71.087  159.872
  325.250    5.828    0.255    0.426   77.921  160.478
  325.500    6.026    0.254    0.409   85.371  161.390
  325.750    6.184    0.244    0.417   85.055  163.125
  326.000    6.241    0.241    0.430   78.024  163.729
  326.250    6.148    0.255    0.438   73.703  163.411
  326.500    5.955    0.267    0.413   78.441  162.680
  326.750    5.726    0.242    0.393   86.075  165.134
  327.000    5.651    0.232    0.414   89.397  167.382
  327.250    5.629    0.230    0.430   90.869  168.910
  327.500    5.788    0.275    0.441   87.843  169.516
  327.750    6.142    0.352    0.461   79.886  167.653
  328.000    6.518    0.307    0.536   82.404  166.000
  328.250    6.752    0.291    0.500   87.636  164.344
  328.500    7.059    0.277    0.479   88.739  163.202
  328.750    7.326    0.277    0.462   81.891  162.884
  329.000    7.589    0.294    0.451   78.803  162.463
  329.250    7.846    0.307    0.447   76.516  161.423
  329.500    7.963    0.324    0.449   76.941  160.281
  329.750    8.156    0.320    0.456   83.528  158.935
  330.000    8.262    0.298    0.462   87.527  157.794
  330.250    8.261    0.286    0.474   85.363  157.577
  330.500    8.047    0.289    0.468   86.343  157.667
  330.750    7.781    0.286    0.454   87.198  158.067
  331.000    7.622    0.278    0.438   80.844  158.570
  331.250    7.677    0.281    0.419   73.010  158.659
  331.500    8.072    0.267    0.405   69.491  158.854
  331.750    8.518    0.276    0.388   63.752  158.637
  332.000    8.923    0.321    0.406   51.913  158.933
  332.250    9.243    0.337    0.400   41.615  158.821
  332.500    9.468    0.338    0.372   46.970  158.601
  332.750    9.555    0.328    0.359   64.156  158.592
  333.000    9.465    0.300    0.353   74.194  158.477
  333.250    9.306    0.266    0.376   82.446  158.360
  333.500    9.032    0.252    0.390   86.075  158.453
  333.750    8.651    0.241    0.408   88.286  158.443
  334.000    8.412    0.244    0.416   91.916  158.431
  334.250    8.332    0.256    0.417   94.990  158.522
  334.500    8.425    0.269    0.424   96.647  158.718
  334.750    8.694    0.287    0.407   97.811  158.909
  335.000    9.073    0.304    0.403  100.885  159.000
  335.250    9.106    0.314    0.428  106.055  158.786
  335.500    8.854    0.311    0.454  111.346  158.467
  335.750    8.560    0.300    0.469  113.560  158.866
  336.000    8.170    0.290    0.455  113.615  158.854
  336.250    7.456    0.266    0.445  109.232  159.151
  336.500    6.958    0.210    0.436  106.083  159.858
  336.750    6.446    0.184    0.441  103.240  161.182
  337.000    5.828    0.111    0.453  110.629  162.814
  337.250    5.399    0.132    0.472  116.230  164.651
  337.500    5.039    0.151    0.487  118.626  165.769
  337.750    4.413    0.174    0.498  120.530  166.683
  338.000    4.340    0.205    0.509  123.728  167.697
  338.250    4.005    0.206    0.520  125.940  168.303
  338.500    3.710    0.196    0.513  125.008  168.288
  338.750    3.514    0.228    0.503  122.597  167.664
  339.000    3.593    0.243    0.497  116.305  166.214
  339.250    4.185    0.257    0.506  102.617  164.148
  339.500    4.995    0.260    0.471   90.963  162.288
  339.750    5.786    0.260    0.451   84.485  160.839
  340.000    6.602    0.269    0.391   91.565  160.827
  340.250    7.423    0.263    0.380  100.617  161.227
  340.500    8.116    0.253    0.394  108.806  162.037
  340.750    7.818    0.244    0.456  117.489  162.333
  341.000    6.369    0.231    0.507  124.261  162.322
  341.250    4.998    0.212    0.531  122.837  161.797
  341.500    4.110    0.199    0.545  117.961  161.169
  341.750    3.744    0.176    0.511  111.854  160.747
  342.000    3.527    0.131    0.490  107.965  160.427
  342.250    3.606    0.158    0.486  111.162  160.107
  342.500    3.805    0.192    0.497  115.839  159.993
  342.750    4.137    0.213    0.495  115.893  159.674
  343.000    4.557    0.220    0.489  111.203  158.942
  343.250    5.289    0.241    0.499  102.815  157.802
  343.500    5.935    0.194    0.498   94.242  156.763
  343.750    6.811    0.181    0.470   84.991  156.239
  344.000    7.615    0.204    0.451   86.277  156.431
  344.250    8.233    0.223    0.439   87.566  157.551
  344.500    8.688    0.238    0.449   86.018  157.745
  344.750    8.559    0.225    0.468   84.718  156.090
  345.000    7.958    0.225    0.486   79.719  154.434
  345.250    7.666    0.252    0.431   73.487  152.881
  345.500    7.853    0.277    0.413   68.304  152.050
  345.750    8.272    0.295    0.410   65.832  151.011
  346.000    8.844    0.312    0.416   67.797  150.179
  346.250    9.438    0.317    0.416   69.946  149.551
  346.500    9.668    0.302    0.414   70.988  149.025
  346.750    9.434    0.294    0.416   72.213  148.911
  347.000    9.208    0.299    0.430   74.056  149.516
  347.250    8.787    0.297    0.431   79.410  150.222
  347.500    8.247    0.289    0.430   85.566  150.931
  347.750    7.929    0.287    0.421   85.436  151.843
  348.000    7.739    0.280    0.415   86.168  152.963
  348.250    7.595    0.273    0.413   89.490  154.389
  348.500    7.426    0.265    0.424   93.672  155.713
  348.750    7.274    0.258    0.431   96.316  157.139
  349.000    7.313    0.253    0.435   91.933  157.846
  349.250    7.491    0.259    0.445   91.434  157.834
  349.500    7.731    0.271    0.464   93.214  157.105
  349.750    8.038    0.279    0.466   92.098  155.552
  350.000    8.295    0.263    0.467   89.441  154.308
  350.250    8.450    0.261    0.481   90.112  153.372
  350.500    8.607    0.270    0.496   93.185  153.050
  350.750    8.654    0.274    0.499   95.151  153.246
  351.000    8.589    0.274    0.503   96.747  153.338
  351.250    8.289    0.276    0.505   96.802  153.427
