~VERSION INFORMATION
 VERS.                 2.0:   CWLS LOG ASCII STANDARD -VERSION 2.0
 WRAP.                  NO:   ONE LINE PER DEPTH STEP
~WELL INFORMATION BLOCK
#MNEM.UNIT           DATA                    DESCRIPTION OF MNEMONIC
#---------    -------------------            -------------------------------
# Generated from Intellog Unique Number	CW_76_78/WELL/2578
WELL.         10-20-078-24W4                 : Well_name    - WELL
LOC .         00/10-20-078-24W4/0            : Location     - LOCATION
UWI .         00/10-20-078-24W4/0            : Uwi          - UNIQUE WELL ID
ENTR.         MAX                            : Entered      - ENTERED BY
SRVC.         SCHLUMBERGER                   : Scn          - SERVICE COMPANY
STRT.M        274.32                         : top_depth    - START DEPTH
STOP.M        518.07                         : bot_depth    - STOP DEPTH
STEP.M        0.25                           : increment    - STEP LENGTH
 NULL. -999.2500:NULL Value
~CURVE INFORMATION BLOCK
#MNEM UNIT       ERCB CURVE CODE    CURVE DESCRIPTION
#-----------   ------------------   ----------------------------------
DEPT.M        00 001 00 00         : DEPTH        - DEPTH
ILD .OHMM     00 120 00 00         : RESD         - DEEP RESISTIVITY (DIL)
NPHI.V/V      00 330 00 00         : PHIN         - NEUTRON POROSITY (SANDSTONE)
DPHI.V/V      00 890 00 00         : PHID         - DENSITY POROSITY (SANDSTONE)
CALI.MM       00 280 01 00         : CAL          - CALIPER
GR  .API      00 310 00 00         : GR           - GAMMA RAY
~PARAMETER INFORMATION
#MNEM.UNIT           DATA             DESCRIPTION OF MNEMONIC
#---------         -----------     ------------------------------
GL  .M        588.874              : gl           - GROUND LEVEL ELEVATION
EREF.M        592.836              : kb           - ELEVATION OF DEPTH REFERENCE
DATM.M        588.874              : datum        - DATUM ELEVATION
TDD .M        536.448              : tdd          - TOTAL DEPTH DRILLER
RUN .         ONE                  : Run          - RUN NUMBER
ENG .         BILL                 : Engineer     - RECORDING ENGINEER
WIT .         JIM                  : Witness      - WITNESSED BY
MUD .         GEL                  : Mud_type     - MUD TYPE
MATR.         SANDSTONE            : Logunit      - NEUTRON MATRIX
TMAX.C        16.6667              : BHT          - MAXIMUM RECORDED TEMPERATURE
BHTD.M        536.448              : BHTDEP       - MAXIMUM RECORDED TEMPERATURE
RMT .C        19.4444              : MDTP         - TEMPERATURE OF MUD
MUDD.KG/M     9300                 : MWT          - MUD DENSITY
NEUT.         1                    : NEUTRON      - NEUTRON TYPE
RESI.         0                    : RESIST       - RESISTIVITY TYPE
RM  .OHMM     3.82                 : RM           - RESISTIVITY OF MUD
RMC .OHMM     0                    : RMC          - RESISTIVITY OF MUD CAKE
RMF .OHMM     3.9                  : RMF          - RESISTIVITY OF MUD FILTRATE
SUFT.C        -20.5556             : SUFT         - SURFACE TEMPERATURE
~A  DEPTH     RESD     PHIN     PHID      CAL       GR
# ...
  456.820  124.624    0.149    0.367  202.323   29.746
  457.070  136.347    0.148    0.364  201.795   28.555
  457.320  133.786    0.156    0.364  201.769   27.354
  457.570  124.342    0.169    0.360  201.718   27.337
  457.820  109.423    0.184    0.355  201.707   26.726
  458.070   97.180    0.204    0.356  201.678   26.414
  458.320   88.688    0.218    0.345  201.645   26.401
  458.570   82.405    0.237    0.348  201.113   26.672
  458.820   80.142    0.292    0.334  200.585   26.657
  459.070   81.542    0.393    0.317  200.555   26.638
  459.320   84.494    0.406    0.298  200.522   26.330
  459.570   91.615    0.405    0.287  200.497   26.311
  459.820  105.849    0.390    0.282  200.464   26.881
  460.070  112.707    0.385    0.273  200.435   27.453
  460.320  112.605    0.379    0.284  200.398   27.726
  460.570  111.497    0.378    0.284  200.347   28.005
  460.820  109.433    0.386    0.269  200.336   27.990
  461.070  107.319    0.393    0.263  200.336   27.676
  461.320  104.409    0.401    0.258  200.267   26.773
  461.570   98.798    0.389    0.253  200.252   26.461
  461.820   94.340    0.383    0.258  200.223   26.441
  462.070   91.749    0.384    0.263  200.183   26.129
  462.320   89.221    0.390    0.272  200.157   26.998
  462.570   85.971    0.399    0.263  199.629   29.041
  462.820   82.847    0.411    0.253  200.095   29.906
  463.070   78.394    0.411    0.278  200.069   30.183
  463.320   74.864    0.403    0.278  200.040   31.930
  463.570   68.932    0.403    0.275  200.003   33.685
  463.820   64.066    0.401    0.276  199.974   34.253
  464.070   59.538    0.397    0.264  199.941   35.713
  464.320   54.830    0.391    0.257  199.941   37.754
  464.570   49.130    0.390    0.265  199.868   39.212
  464.820   41.326    0.392    0.259  199.857   43.615
  465.070   38.055    0.408    0.247  199.824   47.721
  465.320   34.105    0.415    0.256  199.788   50.649
  465.570   28.682    0.415    0.247  199.766   55.053
  465.820   24.787    0.422    0.237  200.731   60.340
  466.070   22.416    0.429    0.246  201.700   66.214
  466.320   20.088    0.431    0.243  202.162   66.195
  466.570   18.003    0.424    0.245  202.133   64.707
  466.820   16.133    0.409    0.229  202.107   62.332
  467.070   14.991    0.385    0.215  202.060   64.371
  467.320   13.932    0.370    0.214  202.045   67.302
  467.570   13.427    0.347    0.211  202.515   70.526
  467.820   13.055    0.328    0.185  202.977   73.753
  468.070   13.044    0.318    0.153  202.948   76.381
  468.320   13.394    0.332    0.112  202.922   75.484
  468.570   13.880    0.348    0.118  203.385   69.866
  468.820   16.628    0.357    0.146  203.359   62.777
  469.070   20.286    0.386    0.154  203.326   57.158
  469.320   24.748    0.408    0.170  202.802   52.426
  469.570   26.354    0.410    0.236  201.771   48.279
  469.820   29.358    0.409    0.249  200.740   46.199
  470.070   28.807    0.404    0.257  199.709   45.006
  470.320   27.763    0.409    0.276  199.658   44.694
  470.570   26.034    0.409    0.280  198.653   46.737
  470.820   24.416    0.396    0.261  198.627   47.898
  471.070   22.279    0.396    0.259  198.591   49.940
  471.320   21.663    0.403    0.261  198.591   53.166
  471.570   21.649    0.403    0.256  198.514   58.158
  471.820   21.436    0.398    0.253  198.499   60.203
  472.070   20.657    0.405    0.246  199.464   65.785
  472.320   19.549    0.403    0.239  199.934   71.956
  472.570   18.001    0.393    0.222  200.408   76.062
  472.820   15.278    0.381    0.195  200.408   80.465
  473.070   14.588    0.387    0.151  200.844   83.983
  473.320   13.681    0.400    0.131  201.809   86.616
  473.570   12.714    0.403    0.148  202.782   88.661
  473.820   11.394    0.396    0.174  202.753   92.475
  474.070   10.210    0.395    0.149  203.215  105.718
  474.320    9.234    0.424    0.144  204.184  118.666
  474.570    8.351    0.432    0.159  205.156  122.772
  474.820    8.120    0.422    0.149  206.121  117.745
  475.070    8.113    0.423    0.147  206.088  111.540
  475.320    8.331    0.446    0.169  205.556  107.984
  475.570    9.199    0.463    0.200  204.529   95.886
  475.820   10.249    0.435    0.189  204.529   79.659
  476.070   11.628    0.396    0.188  203.455   71.097
  476.320   12.609    0.374    0.201  202.945   63.708
  476.570   15.523    0.369    0.206  202.416   65.461
  476.820   17.934    0.393    0.214  202.369   70.453
  477.070   18.748    0.403    0.215  202.358   73.671
  477.320   18.401    0.412    0.210  202.358   73.363
  477.570   19.770    0.397    0.199  202.787   73.047
  477.820   19.573    0.361    0.179  203.257   74.211
  478.070   18.695    0.322    0.156  203.224   74.783
  478.320   15.300    0.285    0.119  203.199   77.417
  478.570   12.986    0.299    0.068  203.166   82.410
  478.820   10.725    0.481    0.051  203.137   93.885
  479.070   10.148    0.486    0.112  202.608   93.568
  479.320   10.233    0.442    0.149  202.583   87.363
  479.570   10.604    0.400    0.172  202.047   81.155
  479.820   11.187    0.365    0.179  202.014   77.600
  480.070   11.078    0.421    0.189  201.985   74.343
  480.320   10.579    0.483    0.233  201.956   66.665
  480.570    9.921    0.549    0.272  201.923   73.425
  480.820    9.218    0.636    0.488  201.901   87.257
  481.070    9.212    0.621    0.399  201.861   95.785
  481.320    9.288    0.576    0.360  201.839   90.167
  481.570    8.951    0.546    0.310  201.810   86.022
  481.820    8.471    0.529    0.302  201.777   88.954
  482.070    7.872    0.548    0.293  201.744   95.123
  482.320    7.382    0.571    0.365  201.711   98.639
  482.570    6.860    0.604    0.381  201.685  103.339
  482.820    6.203    0.624    0.367  202.151  105.679
  483.070    5.713    0.611    0.333  202.126  107.428
  483.320    5.261    0.595    0.297  203.586  109.178
  483.570    5.024    0.578    0.295  204.060  108.866
  483.820    4.884    0.582    0.282  203.029  110.024
  484.070    4.971    0.619    0.266  202.497  112.071
  484.320    4.967    0.586    0.264  202.468  117.947
  484.570    5.099    0.560    0.230  202.442  109.972
  484.820    5.431    0.513    0.157  201.907   99.346
  485.070    6.332    0.466    0.107  201.874   94.907
  485.320    7.382    0.449    0.083  201.874   94.595
  485.570    8.376    0.441    0.128  202.321  102.824
  485.820    8.292    0.453    0.164  202.289  108.702
  486.070    7.637    0.465    0.210  202.259  112.813
  486.320    6.970    0.480    0.224  202.729  120.455
  486.570    6.656    0.498    0.221  204.692  126.920
  486.820    6.531    0.519    0.206  204.659  126.019
  487.070    6.953    0.519    0.194  204.135  113.326
  487.320    7.540    0.495    0.186  203.100  107.123
  487.570    8.325    0.484    0.190  203.071  100.326
  487.820    9.705    0.471    0.173  203.042   94.416
  488.070   10.814    0.402    0.240  203.511   87.027
  488.320   11.306    0.416    0.243  203.479   93.495
  488.570   11.298    0.427    0.230  204.447   96.422
  488.820   11.298    0.441    0.215  205.409  100.530
  489.070   10.975    0.450    0.182  205.383  103.755
  489.320   10.771    0.439    0.212  204.858  100.496
  489.570   10.962    0.431    0.224  203.329   98.711
  489.820   11.670    0.457    0.214  203.329   97.216
  490.070   12.428    0.439    0.189  202.771   90.126
  490.320   15.438    0.406    0.120  202.738   81.858
  490.570   17.201    0.222    0.058  202.738   74.179
  490.820   20.238    0.209    0.017  202.662   72.097
  491.070   23.595    0.217    0.002  202.640   78.858
  491.320   24.895    0.230    0.074  202.640   84.731
  491.570   23.344    0.255    0.102  202.588   92.081
  491.820   15.791    0.294    0.110  203.051   98.549
  492.070   12.924    0.386    0.129  203.524  104.124
  492.320   11.583    0.407    0.164  203.994  109.120
  492.570   10.381    0.420    0.190  205.458  117.648
  492.820    8.573    0.424    0.173  206.423  111.439
  493.070    8.113    0.396    0.177  204.893  103.171
