~VERSION INFORMATION
VERS.                2.00:   CWLS LOG ASCII STANDARD -VERSION 2.0
WRAP.                  NO:
~WELL INFORMATION BLOCK
#MNEM.UNIT           DATA                    DESCRIPTION OF MNEMONIC
#---------    -------------------            -------------------------------
# Generated from Intellog Unique Number	CC_80_83/WELL/2471
LOC .         00/10-22-083-08W4/0            : Location     - LOCATION
UWI .         00/10-22-083-08W4/0            : Uwi          - UNIQUE WELL ID
ENTR.         DW                             : Entered      - ENTERED BY
STRT.M             259.08:
STOP.M             511.83:
STEP.M               0.25:
NULL.             -999.25:
COMP.  :COMPANY
WELL.  ARC0 ET AL SURMONT:WELL
FLD.   :FIELD
LOC.   :LOCATION
CTRY.  :COUNTRY
PROV.  :PROVINCE
SRVC.  SCHLUMBERGER:SERVICE COMPANY
DATE.  :LOG DATE
UWI.   :UNIQUE WELL ID
~PARAMETER INFORMATION
#MNEM.UNIT           DATA             DESCRIPTION OF MNEMONIC
#---------         -----------     ------------------------------
GL  .M        732.13               : gl           - GROUND LEVEL ELEVATION
EREF.M        735.178              : kb           - ELEVATION OF DEPTH REFERENCE
DATM.M        735.178              : datum        - DATUM ELEVATION
TDD .M        515.722              : tdd          - TOTAL DEPTH DRILLER
RUN .         ONE                  : Run          - RUN NUMBER
ENG .         BILL                 : Engineer     - RECORDING ENGINEER
WIT .         JIM                  : Witness      - WITNESSED BY
MUD .         GEL                  : Mud_type     - MUD TYPE
MATR.         SANDSTONE            : Logunit      - NEUTRON MATRIX
TMAX.C        20                   : BHT          - MAXIMUM RECORDED TEMPERATURE
BHTD.M        515.722              : BHTDEP       - MAXIMUM RECORDED TEMPERATURE
MATR.         1                    : LOGUNIT      - NEUTRON MATRIX
RMT .C        25                   : MDTP         - TEMPERATURE OF MUD
NEUT.         1                    : NEUTRON      - NEUTRON TYPE
RESI.         0                    : RESIST       - RESISTIVITY TYPE
RMC .OHMM     0.25                 : RMC          - RESISTIVITY OF MUD CAKE
RMF .OHMM     0.25                 : RMF          - RESISTIVITY OF MUD FILTRATE
SUFT.C        15                   : SUFT         - SURFACE TEMPERATURE
~Curve Information Block
#MNEM UNIT       ERCB CURVE CODE    CURVE DESCRIPTION
#MNEM.UNIT         API CODE    Curve Description
#----------    ------------    --------------------
DEPT.M                     :   DEPTH
DPHI.V/V                   :   DPHI
DT  .us/m                  :   DT
GR  .API       00 310 00 00:   GR
ILD .Ohmm      00 120 00 00:   ILD
NPHI.V/V       00 330 00 00:   NPHI
RHOB.gm/c3                 :   RHOB
~A  Depth           DPHI          DT          GR         ILD        NPHI        RHOB
# ...
282.83           -999.25     -999.25       69.73        7.59        0.33     -999.25
283.08           -999.25     -999.25       73.25        6.57        0.31     -999.25
283.33           -999.25     -999.25       76.47        6.13        0.33     -999.25
283.58           -999.25     -999.25       78.08        6.14        0.35     -999.25
283.83           -999.25     -999.25       76.98        6.92        0.35     -999.25
284.08           -999.25     -999.25       71.79        8.33        0.32     -999.25
284.33           -999.25     -999.25       63.80       11.16        0.31     -999.25
284.58           -999.25     -999.25       60.22       12.99        0.29     -999.25
284.83           -999.25     -999.25       60.48       13.56        0.29     -999.25
285.08           -999.25     -999.25       62.03       13.51        0.31     -999.25
285.33           -999.25     -999.25       64.22       12.96        0.33     -999.25
285.58           -999.25     -999.25       65.77       11.96        0.31     -999.25
285.83           -999.25     -999.25       65.02       11.13        0.30     -999.25
286.08           -999.25     -999.25       67.23       11.00        0.30     -999.25
286.33           -999.25     -999.25       69.74       10.92        0.30     -999.25
286.58           -999.25     -999.25       70.46       10.87        0.31     -999.25
286.83           -999.25     -999.25       70.79       11.49        0.33     -999.25
287.08           -999.25     -999.25       67.40       12.41        0.33     -999.25
287.33           -999.25     -999.25       61.03       13.52        0.32     -999.25
287.58           -999.25     -999.25       54.68       14.08        0.31     -999.25
287.83           -999.25     -999.25       52.88       14.12        0.30     -999.25
288.08           -999.25     -999.25       57.71       14.10        0.30     -999.25
288.33           -999.25     -999.25       65.02       13.87        0.32     -999.25
288.58           -999.25     -999.25       67.47       13.44        0.35     -999.25
288.83           -999.25     -999.25       64.82       13.06        0.35     -999.25
289.08           -999.25     -999.25       58.76       12.52        0.33     -999.25
289.33           -999.25     -999.25       53.70       12.03        0.31     -999.25
289.58           -999.25     -999.25       54.34       11.88        0.32     -999.25
289.83           -999.25     -999.25       60.02       11.52        0.34     -999.25
290.08           -999.25     -999.25       67.46       11.02        0.34     -999.25
290.33           -999.25     -999.25       81.36       10.46        0.33     -999.25
290.58           -999.25     -999.25       90.17       10.66        0.34     -999.25
290.83           -999.25     -999.25       84.08       11.62        0.34     -999.25
291.08           -999.25     -999.25       71.33       12.57        0.32     -999.25
291.33           -999.25     -999.25       59.02       14.13        0.30     -999.25
291.58           -999.25     -999.25       56.24       14.53        0.31     -999.25
291.83           -999.25     -999.25       58.65       14.28        0.32     -999.25
292.08           -999.25     -999.25       61.50       13.97        0.31     -999.25
292.33           -999.25     -999.25       65.26       13.58        0.31     -999.25
292.58           -999.25     -999.25       69.35       13.82        0.32     -999.25
292.83           -999.25     -999.25       73.11       14.03        0.31     -999.25
293.08           -999.25     -999.25       69.73       14.47        0.30     -999.25
293.33           -999.25     -999.25       64.38       15.45        0.31     -999.25
293.58           -999.25     -999.25       63.85       16.74        0.34     -999.25
293.83           -999.25     -999.25       65.56       17.75        0.36     -999.25
294.08           -999.25     -999.25       65.64       18.04        0.36     -999.25
294.33           -999.25     -999.25       59.60       18.24        0.35     -999.25
294.58           -999.25     -999.25       50.16       17.43        0.35     -999.25
294.83           -999.25     -999.25       44.46       16.02        0.35     -999.25
295.08           -999.25     -999.25       46.11       15.14        0.34     -999.25
295.33           -999.25     -999.25       52.42       14.44        0.35     -999.25
295.58           -999.25     -999.25       59.34       14.25        0.34     -999.25
295.83           -999.25     -999.25       57.67       15.12        0.34     -999.25
296.08           -999.25     -999.25       54.04       16.41        0.34     -999.25
296.33           -999.25     -999.25       55.78       17.23        0.33     -999.25
296.58           -999.25     -999.25       58.19       17.41        0.34     -999.25
296.83           -999.25     -999.25       56.73       17.18        0.35     -999.25
297.08           -999.25     -999.25       55.27       16.39        0.34     -999.25
297.33           -999.25     -999.25       57.85       14.80        0.32     -999.25
297.58           -999.25     -999.25       63.67       13.56        0.31     -999.25
297.83           -999.25     -999.25       69.78       13.31        0.33     -999.25
298.08           -999.25     -999.25       72.75       13.10        0.33     -999.25
298.33           -999.25     -999.25       68.72       13.19        0.33     -999.25
298.58           -999.25     -999.25       70.84       14.07        0.33     -999.25
298.83           -999.25     -999.25       69.88       15.27        0.36     -999.25
299.08           -999.25     -999.25       61.95       17.13        0.37     -999.25
299.33           -999.25     -999.25       57.49       19.64        0.34     -999.25
299.58           -999.25     -999.25       53.69       20.64        0.32     -999.25
299.83           -999.25     -999.25       45.53       20.49        0.29     -999.25
300.08           -999.25     -999.25       40.39       19.88        0.33     -999.25
300.33           -999.25     -999.25       42.25       19.34        0.38     -999.25
300.58           -999.25     -999.25       47.45       18.04        0.37     -999.25
300.83           -999.25     -999.25       52.56       15.33        0.36     -999.25
301.08           -999.25     -999.25       57.84       13.85        0.37     -999.25
301.33           -999.25     -999.25       61.76       12.86        0.40     -999.25
301.58           -999.25     -999.25       65.51       11.85        0.37     -999.25
301.83           -999.25     -999.25       69.67       11.02        0.33     -999.25
302.08           -999.25     -999.25       73.11       10.36        0.34     -999.25
302.33           -999.25     -999.25       75.25        9.72        0.35     -999.25
302.58           -999.25     -999.25       74.59        9.52        0.32     -999.25
302.83           -999.25     -999.25       70.89       10.22        0.33     -999.25
303.08           -999.25     -999.25       72.31       11.19        0.37     -999.25
303.33           -999.25     -999.25       75.90       11.07        0.38     -999.25
303.58           -999.25     -999.25       71.07        9.67        0.38     -999.25
303.83           -999.25     -999.25       70.61        8.69        0.37     -999.25
304.08           -999.25     -999.25       78.13        7.38        0.34     -999.25
304.33           -999.25     -999.25       88.75        6.04        0.32     -999.25
304.58           -999.25     -999.25       94.57        5.04        0.34     -999.25
304.83           -999.25     -999.25       95.00        4.38        0.37     -999.25
305.08           -999.25     -999.25       95.84        4.45        0.35     -999.25
305.33           -999.25     -999.25       90.37        5.21        0.34     -999.25
305.58           -999.25     -999.25       81.66        5.56        0.33     -999.25
305.83           -999.25     -999.25       71.95        9.85        0.34     -999.25
306.08           -999.25     -999.25       65.18       16.87        0.35     -999.25
306.33           -999.25     -999.25       64.80       20.36        0.35     -999.25
