~VERSION INFORMATION
 VERS.                 2.0:   CWLS LOG ASCII STANDARD -VERSION 2.0
 WRAP.                  NO:   ONE LINE PER DEPTH STEP
~WELL INFORMATION BLOCK
#MNEM.UNIT           DATA                    DESCRIPTION OF MNEMONIC
#---------    -------------------            -------------------------------
# Generated from Intellog Unique Number	CS_73_76/WELL/3231
WELL.         10-08-076-05W4                 : Well_name    - WELL
LOC .         00/10-08-076-05W4/0            : Location     - LOCATION
UWI .         00/10-08-076-05W4/0            : Uwi          - UNIQUE WELL ID
ENTR.         SP                             : Entered      - ENTERED BY
SRVC.         SCHLUMBERGER                   : Scn          - SERVICE COMPANY
STRT.M        175                            : top_depth    - START DEPTH
STOP.M        420                            : bot_depth    - STOP DEPTH
STEP.M        0.25                           : increment    - STEP LENGTH
 NULL. -999.2500:NULL Value
~CURVE INFORMATION BLOCK
#MNEM UNIT       ERCB CURVE CODE    CURVE DESCRIPTION
#-----------   ------------------   ----------------------------------
DEPT.M        00 001 00 00         : DEPTH        - DEPTH
GR  .API      00 310 00 00         : GR           - GAMMA RAY
DPHI.V/V      00 890 00 00         : PHID         - DENSITY POROSITY (LIMESTONE)
NPHI.V/V      00 330 00 00         : PHIN         - NEUTRON POROSITY (LIMESTONE)
ILD .OHMM     00 120 00 00         : RESD         - DEEP RESISTIVITY (DIL)
~PARAMETER INFORMATION
#MNEM.UNIT           DATA             DESCRIPTION OF MNEMONIC
#---------         -----------     ------------------------------
GL  .M        578.86               : gl           - GROUND LEVEL ELEVATION
EREF.M        582.66               : kb           - ELEVATION OF DEPTH REFERENCE
DATM.M        578.86               : datum        - DATUM ELEVATION
TDD .M        429                  : tdd          - TOTAL DEPTH DRILLER
RUN .         ONE                  : Run          - RUN NUMBER
ENG .         BILL                 : Engineer     - RECORDING ENGINEER
WIT .         JIM                  : Witness      - WITNESSED BY
MUD .         GEL                  : Mud_type     - MUD TYPE
MATR.         LIMESTONE            : Logunit      - NEUTRON MATRIX
TMAX.C        21                   : BHT          - MAXIMUM RECORDED TEMPERATURE
BHTD.M        429                  : BHTDEP       - MAXIMUM RECORDED TEMPERATURE
MATR.         1                    : LOGUNIT      - NEUTRON MATRIX
RMT .C        25                   : MDTP         - TEMPERATURE OF MUD
NEUT.         1                    : NEUTRON      - NEUTRON TYPE
RESI.         0                    : RESIST       - RESISTIVITY TYPE
RMC .OHMM     0.25                 : RMC          - RESISTIVITY OF MUD CAKE
RMF .OHMM     0.25                 : RMF          - RESISTIVITY OF MUD FILTRATE
SUFT.C        15                   : SUFT         - SURFACE TEMPERATURE
~A  DEPTH       GR     PHID     PHIN     RESD
# ...
  218.500   55.715    0.325    0.481   12.516
  218.750   50.253    0.342    0.443   12.519
  219.000   47.826    0.346    0.421   12.289
  219.250   50.866    0.356    0.454   11.839
  219.500   55.119    0.309    0.440   11.195
  219.750   61.801    0.275    0.417   10.786
  220.000   61.197    0.286    0.446   10.992
  220.250   57.556    0.319    0.445   11.630
  220.500   58.773    0.319    0.443   12.774
  220.750   64.241    0.306    0.427   14.295
  221.000   69.710    0.297    0.384   15.124
  221.250   72.748    0.294    0.371   15.414
  221.500   77.609    0.276    0.384   15.417
  221.750   82.470    0.268    0.388   15.134
  222.000   87.938    0.261    0.388   14.045
  222.250   89.156    0.254    0.384   12.556
  222.500   96.446    0.251    0.389   11.437
  222.750  101.914    0.240    0.402   10.614
  223.000  102.524    0.241    0.425    9.850
  223.250  101.920    0.243    0.402    9.314
  223.500  103.136    0.241    0.413    8.974
  223.750  101.318    0.242    0.427    8.809
  224.000   98.284    0.248    0.435    8.487
  224.250   95.857    0.248    0.445    8.650
  224.500   93.430    0.242    0.449    8.815
  224.750   91.611    0.242    0.441    9.326
  225.000   91.006    0.248    0.427   10.053
  225.250   89.794    0.252    0.436   11.463
  225.500   87.975    0.257    0.446   12.829
  225.750   85.548    0.265    0.452   14.091
  226.000   83.122    0.279    0.436   15.189
  226.250   83.124    0.291    0.406   16.070
  226.500   87.379    0.282    0.384   16.378
  226.750   89.810    0.276    0.418   16.381
  227.000   91.634    0.269    0.423   16.081
  227.250   88.600    0.265    0.413   15.786
  227.500   84.959    0.265    0.412   15.496
  227.750   91.034    0.259    0.428   15.212
  228.000   91.037    0.252    0.439   15.215
  228.250   89.218    0.242    0.462   16.098
  228.500   87.398    0.235    0.479   17.031
  228.750   80.721    0.295    0.500   18.707
  229.000   68.578    0.307    0.482   20.165
  229.250   55.827    0.304    0.429   20.939
  229.500   63.725    0.298    0.406   21.340
  229.750   67.372    0.291    0.405   20.560
  230.000   69.196    0.286    0.381   19.808
  230.250   71.020    0.288    0.398   19.084
  230.500   72.237    0.292    0.427   18.735
  230.750   72.240    0.292    0.441   19.093
  231.000   71.028    0.288    0.469   19.825
  231.250   67.387    0.290    0.452   20.975
  231.500   63.745    0.287    0.438   22.191
  231.750   61.927    0.285    0.436   22.615
  232.000   65.573    0.285    0.427   21.789
  232.250   68.004    0.285    0.391   19.118
  232.500   74.688    0.273    0.365   17.742
  232.750   78.334    0.248    0.358   15.860
  233.000   80.158    0.248    0.381   14.719
  233.250   82.590    0.249    0.407   14.449
  233.500   77.734    0.249    0.420   14.452
  233.750   72.271    0.281    0.426   15.007
  234.000   71.059    0.286    0.423   15.582
  234.250   71.061    0.282    0.415   16.486
  234.500   70.457    0.288    0.414   17.442
  234.750   63.172    0.297    0.420   18.454
  235.000   56.495    0.304    0.417   19.525
  235.250   59.533    0.297    0.398   19.897
  235.500   60.751    0.293    0.390   19.902
  235.750   59.539    0.291    0.411   20.282
  236.000   59.541    0.298    0.419   20.286
  236.250   58.937    0.307    0.409   19.914
  236.500   55.296    0.304    0.406   20.680
  236.750   49.833    0.304    0.408   21.473
  237.000   46.799    0.298    0.403   22.717
  237.250   43.157    0.316    0.396   24.488
  237.500   44.375    0.327    0.401   25.909
  237.750   45.592    0.342    0.409   26.903
  238.000   46.202    0.343    0.384   26.910
  238.250   48.026    0.342    0.360   26.914
  238.500   52.280    0.338    0.392   26.920
  238.750   49.246    0.333    0.418   27.953
  239.000   46.820    0.349    0.414   29.025
  239.250   48.645    0.355    0.419   30.710
  239.500   50.469    0.355    0.426   32.491
  239.750   52.293    0.359    0.417   33.112
  240.000   52.296    0.357    0.398   33.744
  240.250   51.691    0.359    0.399   33.751
  240.500   48.657    0.358    0.417   34.396
  240.750   47.445    0.351    0.415   34.403
  241.000   47.448    0.353    0.410   34.413
  241.250   46.843    0.359    0.413   35.071
  241.500   46.238    0.360    0.390   35.078
  241.750   46.848    0.359    0.388   34.433
  242.000   45.029    0.354    0.409   33.805
  242.250   43.210    0.351    0.426   33.809
  242.500   45.641    0.357    0.412   33.189
  242.750   50.502    0.358    0.402   31.977
  243.000   54.756    0.348    0.430   30.807
  243.250   55.973    0.353    0.440   30.245
  243.500   59.619    0.353    0.437   29.689
  243.750   57.800    0.346    0.438   29.695
  244.000   55.981    0.339    0.445   29.703
  244.250   55.376    0.343    0.448   29.708
  244.500   55.379    0.346    0.447   29.164
  244.750   53.559    0.349    0.441   29.722
  245.000   52.347    0.358    0.445   29.726
  245.250   57.208    0.366    0.443   30.296
  245.500   63.891    0.364    0.460   31.461
  245.750   68.145    0.353    0.471   31.465
  246.000   69.362    0.349    0.459   32.067
  246.250   70.579    0.349    0.429   32.679
  246.500   74.833    0.344    0.436   33.932
  246.750   73.620    0.338    0.453   35.234
  247.000   66.336    0.339    0.468   37.278
  247.250   62.695    0.338    0.480   37.989
  247.500   66.341    0.332    0.486   40.195
  247.750   67.558    0.325    0.474   40.964
  248.000   65.132    0.319    0.448   41.747
  248.250   60.276    0.315    0.453   41.755
  248.500   54.813    0.322    0.440   41.763
  248.750   55.423    0.330    0.429   41.000
  249.000   53.604    0.331    0.418   41.007
  249.250   54.821    0.334    0.410   40.255
  249.500   58.468    0.339    0.413   39.519
  249.750   61.506    0.338    0.416   39.523
  250.000   60.294    0.331    0.431   38.801
  250.250   54.224    0.332    0.447   38.092
  250.500   54.227    0.330    0.424   37.391
  250.750   55.444    0.327    0.410   37.398
  251.000   59.090    0.332    0.424   37.405
  251.250   58.485    0.334    0.443   36.718
  251.500   54.844    0.339    0.403   36.727
  251.750   51.810    0.342    0.391   36.054
  252.000   55.457    0.339    0.407   35.393
  252.250   56.066    0.342    0.420   34.746
  252.500   56.676    0.345    0.410   34.751
  252.750   55.464    0.348    0.403   34.758
  253.000   54.252    0.347    0.409   36.093
  253.250   53.648    0.327    0.422   37.477
  253.500   51.828    0.306    0.416   39.651
  253.750   46.365    0.265    0.387   41.172
  254.000   47.582    0.047    0.226   40.418
  254.250   52.443    0.161    0.216   38.218
  254.500   57.304    0.309    0.287   34.811
  254.750   59.130    0.334    0.371   31.707
  255.000   57.917    0.348    0.438   29.425
  255.250   56.705    0.349    0.464   26.804
  255.500   57.315    0.345    0.474   26.310
  255.750   59.139    0.348    0.479   25.828
  256.000   61.571    0.348    0.479   24.885
  256.250   65.218    0.340    0.477   24.430
  256.500   68.256    0.336    0.475   23.102
  256.750   67.044    0.334    0.480   22.676
  257.000   65.832    0.337    0.465   21.045
  257.250   67.657    0.340    0.433   19.900
  257.500   67.660    0.337    0.437   18.125
  257.750   67.662    0.331    0.455   16.509
  258.000   71.916    0.321    0.468   14.485
  258.250   76.169    0.303    0.452   12.472
  258.500   80.423    0.289    0.421    9.781
  258.750   82.855    0.270    0.428    7.814
  259.000   81.642    0.257    0.464    6.604
  259.250   81.038    0.261    0.482    5.687
  259.500   81.648    0.271    0.472    4.897
  259.750   82.865    0.273    0.444    4.898
  260.000   84.690    0.251    0.434    5.182
  260.250   85.907    0.235    0.427    5.281
  260.500   87.731    0.260    0.426    5.484
  260.750   90.770    0.266    0.459    5.589
  261.000   93.202    0.245    0.463    5.695
  261.250   88.954    0.233    0.455    5.696
  261.500   84.705    0.213    0.454    5.698
  261.750   84.100    0.227    0.480    5.594
