~VERSION INFORMATION
 VERS.                 2.0:   CWLS LOG ASCII STANDARD -VERSION 2.0
 WRAP.                  NO:   ONE LINE PER DEPTH STEP
~WELL INFORMATION BLOCK
#MNEM.UNIT           DATA                    DESCRIPTION OF MNEMONIC
#---------    -------------------            -------------------------------
# Generated from Intellog Unique Number	CS_77_79/WELL/980
WELL.         MESA H. B. THORNBURY           : Well_name    - WELL
LOC .         00/10-33-078-11W4/0            : Location     - LOCATION
UWI .         00/10-33-078-11W4/0            : Uwi          - UNIQUE WELL ID
ENTR.         JHS                            : Entered      - ENTERED BY
SRVC.         SCHLUMBERGER                   : Scn          - SERVICE COMPANY
STRT.M        275                            : top_depth    - START DEPTH
STOP.M        501                            : bot_depth    - STOP DEPTH
STEP.M        0.25                           : increment    - STEP LENGTH
 NULL. -999.2500:NULL Value
~CURVE INFORMATION BLOCK
#MNEM UNIT       ERCB CURVE CODE    CURVE DESCRIPTION
#-----------   ------------------   ----------------------------------
DEPT.M        00 001 00 00         : DEPTH        - DEPTH
DPHI.V/V      00 890 00 00         : PHID         - DENSITY POROSITY (LIMESTONE)
NPHI.V/V      00 330 00 00         : PHIN         - NEUTRON POROSITY (LIMESTONE)
GR  .API      00 310 00 00         : GR           - GAMMA RAY
ILD .OHMM     00 120 00 00         : RESD         - DEEP RESISTIVITY (DIL)
RHOB.KG/M3    00 350 00 00         : DENS         - BULK DENSITY
~PARAMETER INFORMATION
#MNEM.UNIT           DATA             DESCRIPTION OF MNEMONIC
#---------         -----------     ------------------------------
GL  .M        695.6                : gl           - GROUND LEVEL ELEVATION
EREF.M        699.7                : kb           - ELEVATION OF DEPTH REFERENCE
DATM.M        699.7                : datum        - DATUM ELEVATION
TDD .M        502                  : tdd          - TOTAL DEPTH DRILLER
RUN .         ONE                  : Run          - RUN NUMBER
ENG .         BILL                 : Engineer     - RECORDING ENGINEER
WIT .         JIM                  : Witness      - WITNESSED BY
MUD .         GEL                  : Mud_type     - MUD TYPE
MATR.         LIMESTONE            : Logunit      - NEUTRON MATRIX
TMAX.C        22                   : BHT          - MAXIMUM RECORDED TEMPERATURE
BHTD.M        502                  : BHTDEP       - MAXIMUM RECORDED TEMPERATURE
MATR.         1                    : LOGUNIT      - NEUTRON MATRIX
RMT .C        25                   : MDTP         - TEMPERATURE OF MUD
NEUT.         1                    : NEUTRON      - NEUTRON TYPE
RESI.         0                    : RESIST       - RESISTIVITY TYPE
RMC .OHMM     0.25                 : RMC          - RESISTIVITY OF MUD CAKE
RMF .OHMM     0.25                 : RMF          - RESISTIVITY OF MUD FILTRATE
SUFT.C        15                   : SUFT         - SURFACE TEMPERATURE
~A  DEPTH     PHID     PHIN       GR     RESD     DENS
  275.000    0.287    0.567  101.014    3.124    0.000
  275.250    0.284    0.555   99.784    3.124    0.000
  275.500    0.269    0.543   97.329    3.184    0.000
  275.750    0.269    0.534   96.711    3.245    0.000
  276.000    0.259    0.534  100.379    3.307    0.000
  276.250    0.256    0.544  102.821    3.370    0.000
  276.500    0.253    0.554  102.815    3.499    0.000
  276.750    0.242    0.560  100.971    3.567    0.000
  277.000    0.247    0.560  101.577    3.635    0.000
  277.250    0.254    0.547  103.409    3.704    0.000
  277.500    0.250    0.534  107.687    3.637    0.000
  277.750    0.246    0.534  110.744    3.638    0.000
  278.000    0.235    0.549  113.798    3.638    0.000
  278.250    0.250    0.560  111.955    3.640    0.000
  278.500    0.203    0.523  105.827    3.709    0.000
  278.750    0.135    0.534  103.984    3.780    0.000
  279.000    0.207    0.539  102.754    3.852    0.000
  279.250    0.233    0.534  105.196    3.853    0.000
  279.500    0.229    0.532  103.966    3.927    0.000
  279.750    0.236    0.542  100.899    4.002    0.000
  280.000    0.231    0.533  104.566    4.079    0.000
  280.250    0.246    0.522  106.397    4.235    0.000
  280.500    0.230    0.517  102.717    4.236    0.000
  280.750    0.228    0.492  100.875    4.481    0.000
  281.000    0.236    0.480  103.929    4.482    0.000
  281.250    0.240    0.500  106.984    4.568    0.000
  281.500    0.223    0.503  106.977    4.569    0.000
  281.750    0.230    0.503  102.687    4.486    0.000
  282.000    0.255    0.498   97.171    4.487    0.000
  282.250    0.251    0.507   97.164    4.405    0.000
  282.500    0.228    0.525  100.831    4.325    0.000
  282.750    0.243    0.536  104.498    4.246    0.000
  283.000    0.252    0.539  105.717    4.247    0.000
  283.250    0.257    0.555  105.711    4.170    0.000
  283.500    0.240    0.542  106.318    4.094    0.000
  283.750    0.224    0.515  106.924    4.172    0.000
  284.000    0.228    0.492  102.632    4.332    0.000
  284.250    0.233    0.498   97.115    4.414    0.000
  284.500    0.232    0.519  101.395    4.334    0.000
  284.750    0.221    0.564   96.492    4.255    0.000
  285.000    0.218    0.473   87.302    4.418    0.000
  285.250    0.201    0.452   80.562    4.762    0.000
  285.500    0.154    0.437   74.433    5.635    0.000
  285.750    0.127    0.423   70.754    6.073    0.000
  286.000    0.217    0.434   81.155    6.189    0.000
  286.250    0.232    0.462   86.659    5.964    0.000
  286.500    0.262    0.474   89.102    5.856    0.000
  286.750    0.244    0.515   88.484    5.968    0.000
  287.000    0.250    0.493   81.131    6.312    0.000
  287.250    0.297    0.478   72.554    8.049    0.000
  287.500    0.333    0.442   65.201   11.480    0.000
  287.750    0.353    0.413   52.951   14.100    0.000
  288.000    0.362    0.423   48.658   17.979    0.000
  288.250    0.364    0.441   48.041   20.494    0.000
  288.500    0.355    0.428   46.197   23.803    0.000
  288.750    0.346    0.419   48.641   26.140    0.000
  289.000    0.340    0.416   50.472   27.142    0.000
  289.250    0.346    0.425   50.465   26.647    0.000
  289.500    0.368    0.431   52.908   25.200    0.000
  289.750    0.378    0.428   60.249   22.536    0.000
  290.000    0.389    0.441   68.202   20.533    0.000
  290.250    0.402    0.452   76.767   17.363    0.000
  290.500    0.441    0.473   84.108   15.818    0.000
  290.750    0.469    0.518   76.142   12.183    0.000
  291.000    0.500    0.604   70.626    8.233    0.000
  291.250    0.277    0.616   76.130    6.461    0.000
  291.500    0.292    0.451   85.306    9.044    0.000
  291.750    0.294    0.427   77.342   10.309    0.000
  292.000    0.288    0.422   63.254   11.112    0.000
  292.250    0.303    0.427   66.310   11.324    0.000
  292.500    0.284    0.434   72.426   12.908    0.000
  292.750    0.288    0.432   68.135   16.154    0.000
  293.000    0.314    0.433   58.945   20.599    0.000
  293.250    0.350    0.417   49.756   23.924    0.000
  293.500    0.353    0.399   39.954   24.839    0.000
  293.750    0.355    0.387   40.560   23.494    0.000
  294.000    0.370    0.395   45.452   21.008    0.000
  294.250    0.388    0.417   52.179   17.764    0.000
  294.500    0.377    0.444   56.459   16.802    0.000
  294.750    0.354    0.502   55.227   17.773    0.000
  295.000    0.300    0.523   52.773   18.114    0.000
  295.250    0.315    0.490   51.543   17.783    0.000
  295.500    0.301    0.484   53.374   16.202    0.000
  295.750    0.275    0.471   61.939   13.958    0.000
  296.000    0.270    0.437   68.668   12.717    0.000
  296.250    0.284    0.451   68.660   11.373    0.000
  296.500    0.274    0.446   64.368   12.031    0.000
  296.750    0.280    0.432   62.526   12.492    0.000
  297.000    0.305    0.450   64.969   12.495    0.000
  297.250    0.298    0.451   68.637   12.041    0.000
  297.500    0.298    0.444   71.690   11.177    0.000
  297.750    0.297    0.459   74.134   10.973    0.000
  298.000    0.304    0.443   69.230   10.977    0.000
  298.250    0.282    0.438   68.000   10.776    0.000
  298.500    0.259    0.429   75.953    9.819    0.000
  298.750    0.263    0.454   82.680    9.114    0.000
  299.000    0.277    0.467   85.736    7.706    0.000
  299.250    0.303    0.491   80.832    8.622    0.000
  299.500    0.297    0.498   65.521   11.846    0.000
  299.750    0.302    0.442   59.392   14.550    0.000
  300.000    0.314    0.410   52.040   19.992    0.000
  300.250    0.303    0.406   37.952   23.655    0.000
  300.500    0.318    0.410   33.047   28.520    0.000
  300.750    0.331    0.397   31.817   31.318    0.000
  301.000    0.339    0.377   36.097   31.328    0.000
  301.250    0.325    0.374   45.275   29.628    0.000
  301.500    0.301    0.374   64.860   25.526    0.000
  301.750    0.296    0.393   83.832   22.826    0.000
  302.000    0.279    0.423   92.397   20.412    0.000
  302.250    0.270    0.431   91.166   18.597    0.000
  302.500    0.259    0.420   85.649   17.264    0.000
  302.750    0.234    0.403   81.357   16.328    0.000
  303.000    0.228    0.391   80.741   14.877    0.000
  303.250    0.229    0.383   87.469   13.809    0.000
  303.500    0.214    0.397   97.870   11.677    0.000
  303.750    0.203    0.443  105.211   10.059    0.000
  304.000    0.185    0.458  107.040    8.665    0.000
  304.250    0.158    0.450  100.913    7.749    0.000
  304.500    0.178    0.450   97.847    7.467    0.000
  304.750    0.181    0.464  103.962    7.331    0.000
  305.000    0.169    0.469  108.242    7.197    0.000
  305.250    0.173    0.480  117.418    6.558    0.000
  305.500    0.189    0.504  123.535    6.438    0.000
  305.750    0.200    0.520  127.813    6.440    0.000
  306.000    0.209    0.505  124.134    5.978    0.000
  306.250    0.224    0.472  128.413    5.654    0.000
  306.500    0.216    0.498  127.182    5.347    0.000
  306.750    0.209    0.510  124.115    4.964    0.000
  307.000    0.229    0.515  122.274    4.873    0.000
  307.250    0.246    0.530  119.819    4.524    0.000
  307.500    0.239    0.533  120.425    4.278    0.000
  307.750    0.224    0.551  121.643    3.971    0.000
  308.000    0.227    0.577  124.086    3.687    0.000
  308.250    0.244    0.595  127.141    3.553    0.000
  308.500    0.234    0.606  125.910    3.554    0.000
  308.750    0.233    0.572  130.190    4.051    0.000
  309.000    0.268    0.549  125.286    5.565    0.000
  309.250    0.290    0.491  114.261    7.647    0.000
  309.500    0.287    0.464   99.561    9.569    0.000
  309.750    0.297    0.455   95.269   11.975    0.000
  310.000    0.313    0.434   98.324   13.909    0.000
  310.250    0.277    0.425   99.542   14.443    0.000
  310.500    0.268    0.435  101.985   14.718    0.000
  310.750    0.261    0.453  103.816   14.999    0.000
  311.000    0.285    0.460  101.361   15.286    0.000
  311.250    0.297    0.430   95.844   15.008    0.000
