~VERSION INFORMATION
 VERS.                 2.0:   CWLS LOG ASCII STANDARD -VERSION 2.0
 WRAP.                  NO:   ONE LINE PER DEPTH STEP
~WELL INFORMATION BLOCK
#MNEM.UNIT           DATA                    DESCRIPTION OF MNEMONIC
#---------    -------------------            -------------------------------
# Generated from Intellog Unique Number	CW_76_78/WELL/903
WELL.         AMOCO ROCK  10-23              : Well_name    - WELL
LOC .         00/10-23-077-23W4/0            : Location     - LOCATION
UWI .         00/10-23-077-23W4/0            : Uwi          - UNIQUE WELL ID
ENTR.         jj                             : Entered      - ENTERED BY
SRVC.         WESTERN ATLAS                  : Scn          - SERVICE COMPANY
DATE.         17 MARCH 78                    : Date         - LOG DATE
STRT.M        332.232                        : top_depth    - START DEPTH
STOP.M        575.982                        : bot_depth    - STOP DEPTH
STEP.M        0.25                           : increment    - STEP LENGTH
 NULL. -999.2500:NULL Value
~CURVE INFORMATION BLOCK
#MNEM UNIT       ERCB CURVE CODE    CURVE DESCRIPTION
#-----------   ------------------   ----------------------------------
DEPT.M        00 001 00 00         : DEPTH        - DEPTH
ILD .OHMM     00 120 00 00         : RESD         - DEEP RESISTIVITY (DIL)
DPHI.V/V      00 890 00 00         : PHID         - DENSITY POROSITY (SANDSTONE)
NPHI.V/V      00 330 00 00         : PHIN         - NEUTRON POROSITY (SANDSTONE)
GR  .API      00 310 00 00         : GR           - GAMMA RAY
CALI.MM       00 280 01 00         : CAL          - CALIPER
~PARAMETER INFORMATION
#MNEM.UNIT           DATA             DESCRIPTION OF MNEMONIC
#---------         -----------     ------------------------------
GL  .M        654.101              : gl           - GROUND LEVEL ELEVATION
EREF.M        658.063              : kb           - ELEVATION OF DEPTH REFERENCE
DATM.M        654.101              : datum        - DATUM ELEVATION
TDD .M        577.291              : tdd          - TOTAL DEPTH DRILLER
RUN .         ONE                  : Run          - RUN NUMBER
ENG .         BURLET               : Engineer     - RECORDING ENGINEER
WIT .         DAHLSTEDT/REGAN      : Witness      - WITNESSED BY
BASE.         EDMONTON             : Branch       - HOME BASE OF LOGGING UNIT
MUD .         GEL BENDEX           : Mud_type     - MUD TYPE
MATR.         SANDSTONE            : Logunit      - NEUTRON MATRIX
TMAX.C        26.1111              : BHT          - MAXIMUM RECORDED TEMPERATURE
BHTD.M        575.767              : BHTDEP       - MAXIMUM RECORDED TEMPERATURE
RMT .C        21.1111              : MDTP         - TEMPERATURE OF MUD
MUDD.KG/M     1140                 : MWT          - MUD DENSITY
NEUT.         1                    : NEUTRON      - NEUTRON TYPE
RESI.         0                    : RESIST       - RESISTIVITY TYPE
RM  .OHMM     2.13                 : RM           - RESISTIVITY OF MUD
RMC .OHMM     2.9                  : RMC          - RESISTIVITY OF MUD CAKE
RMF .OHMM     2.2                  : RMF          - RESISTIVITY OF MUD FILTRATE
SUFT.C        4.5                  : SUFT         - SURFACE TEMPERATURE
~A  DEPTH     RESD     PHID     PHIN       GR      CAL
# ...
  441.732    4.669    0.232    0.370   85.826  230.344
  441.982    4.561    0.222    0.374   86.086  230.043
  442.232    4.490    0.210    0.373   92.404  229.741
  442.482    4.461    0.208    0.369   86.166  228.493
  442.732    4.441    0.216    0.366   83.740  227.978
  442.982    4.438    0.220    0.376   85.374  227.463
  443.232    4.434    0.220    0.389   84.697  227.063
  443.482    4.381    0.216    0.391   89.892  226.967
  443.732    4.288    0.210    0.383   91.525  226.772
  443.982    4.237    0.218    0.373   85.975  226.682
  444.232    4.202    0.235    0.362   83.236  226.597
  444.482    4.160    0.235    0.357   83.245  226.718
  444.732    4.110    0.238    0.353   84.692  226.732
  444.982    4.053    0.242    0.346   83.889  226.325
  445.232    4.004    0.242    0.349   82.089  226.554
  445.482    3.956    0.237    0.381   81.722  228.262
  445.732    3.924    0.228    0.393   80.045  231.875
  445.982    3.877    0.221    0.393   75.620  232.846
  446.232    3.844    0.223    0.370   76.191  233.178
  446.482    3.842    0.224    0.348   81.761  232.983
  446.732    3.839    0.220    0.321   86.768  232.259
  446.982    4.019    0.211    0.306   87.466  231.429
  447.232    4.386    0.121    0.285   74.356  230.492
  447.482    5.314    0.029    0.256   62.807  228.818
  447.732    8.886    0.040    0.201   54.758  227.033
  447.982   14.153    0.059    0.197   53.394  225.570
  448.232   20.412    0.088    0.208   54.153  224.950
  448.482   28.892    0.114    0.237   55.474  225.179
  448.732   26.044    0.159    0.259   53.547  225.619
  448.982   20.022    0.185    0.304   63.802  226.375
  449.232   10.177    0.187    0.323   74.058  227.239
  449.482    7.032    0.175    0.326   79.191  227.785
  449.732    5.914    0.160    0.320   74.515  228.119
  449.982    6.055    0.144    0.312   72.275  228.348
  450.232    6.460    0.127    0.287   58.228  228.362
  450.482    7.304    0.092    0.276   54.927  228.377
  450.732    8.622    0.065    0.281   53.250  228.608
  450.982    9.389    0.083    0.326   55.821  228.623
  451.232    9.172    0.171    0.340   65.139  228.534
  451.482    8.536    0.197    0.349   72.083  228.339
  451.732    7.221    0.206    0.361   77.653  228.039
  451.982    6.039    0.210    0.375   83.223  228.054
  452.232    5.166    0.218    0.357   80.046  228.071
  452.482    4.771    0.223    0.345   76.183  228.085
  452.732    4.566    0.221    0.344   78.691  228.210
  452.982    4.545    0.218    0.358   83.825  228.541
  453.232    4.593    0.217    0.384   89.394  228.559
  453.482    4.650    0.221    0.386   93.277  227.411
  453.732    4.788    0.231    0.360   84.103  224.783
  453.982    5.032    0.236    0.345   80.678  223.317
  454.232    5.259    0.231    0.341   80.873  222.806
  454.482    5.374    0.229    0.340   80.383  222.507
  454.732    5.390    0.244    0.346   79.144  222.626
  454.982    5.315    0.244    0.359   82.090  222.430
  455.232    5.211    0.237    0.376   79.288  222.555
  455.482    5.168    0.226    0.377   85.483  222.675
  455.732    5.127    0.216    0.370   88.803  222.798
  455.982    5.065    0.210    0.377   85.814  223.343
  456.232    5.005    0.217    0.404   85.326  223.890
  456.482    4.927    0.212    0.391   84.272  224.434
  456.732    4.813    0.212    0.395   81.472  224.660
  456.982    4.667    0.218    0.389   80.418  224.890
  457.232    4.534    0.225    0.380   81.303  224.800
  457.482    4.364    0.232    0.375   82.499  224.604
  457.732    4.201    0.233    0.379   82.321  224.411
  457.982    3.975    0.227    0.387   82.519  224.639
  458.232    3.826    0.227    0.379   86.964  224.865
  458.482    3.682    0.236    0.361   86.223  225.093
  458.732    3.605    0.243    0.349   84.047  225.109
  458.982    3.588    0.238    0.341   84.495  225.339
  459.232    3.729    0.228    0.332   85.128  225.462
  459.482    4.016    0.207    0.318   71.518  225.582
  459.732    4.407    0.184    0.303   64.093  225.495
  459.982    4.964    0.189    0.323   68.851  225.403
  460.232    5.826    0.185    0.325   72.986  225.421
  460.482    7.033    0.164    0.312   73.244  225.225
  460.732    8.914    0.141    0.304   70.941  225.454
  460.982   11.193    0.120    0.294   71.139  226.420
  461.232   12.420    0.101    0.286   71.148  227.389
  461.482   18.947    0.081    0.273   64.473  227.617
  461.732   19.074    0.068    0.260   55.799  227.845
  461.982   18.670    0.075    0.258   54.997  227.756
  462.232   17.571    0.099    0.291   61.816  227.877
  462.482   13.408    0.140    0.306   69.573  227.999
  462.732   10.985    0.173    0.330   70.394  228.017
  462.982    9.573    0.190    0.345   68.404  228.032
  463.232    8.843    0.195    0.343   66.978  227.732
  463.482    8.167    0.201    0.344   65.239  227.009
  463.732    7.530    0.210    0.345   69.121  226.494
  463.982    6.941    0.213    0.347   72.754  225.876
  464.232    6.533    0.208    0.351   75.950  224.730
  464.482    6.147    0.203    0.344   87.892  223.793
  464.732    5.818    0.199    0.335   90.713  222.647
  464.982    5.558    0.195    0.334   85.163  221.923
  465.232    5.310    0.196    0.336   85.172  220.986
  465.482    5.081    0.199    0.339   82.496  220.050
  465.732    4.974    0.204    0.342   82.506  218.799
  465.982    4.942    0.207    0.345   86.826  218.496
  466.232    4.966    0.209    0.355   88.834  218.408
  466.482    5.064    0.212    0.371   80.536  218.424
  466.732    5.147    0.220    0.373   82.294  218.759
  466.982    5.250    0.224    0.357   82.741  218.773
  467.232    5.325    0.221    0.348   80.939  218.896
  467.482    5.482    0.215    0.340   75.452  218.806
  467.732    5.687    0.204    0.336   76.023  218.612
  467.982    5.900    0.194    0.340   77.408  218.629
  468.232    6.189    0.184    0.345   82.415  218.644
  468.482    6.480    0.184    0.343   86.986  218.556
  468.732    6.849    0.188    0.332   75.499  218.257
  468.982    7.052    0.187    0.326   77.385  218.272
  469.232    7.099    0.183    0.321   79.579  218.287
  469.482    6.974    0.181    0.319   77.402  218.621
  469.732    6.775    0.190    0.347   75.414  218.957
  469.982    6.546    0.229    0.341   73.361  219.078
  470.232    6.288    0.234    0.334   74.183  219.519
  470.482    6.098    0.228    0.342   78.940  219.744
  470.732    5.914    0.224    0.368   80.887  220.290
  470.982    5.777    0.222    0.355   80.022  220.835
  471.232    5.686    0.224    0.352   81.345  221.486
  471.482    5.650    0.218    0.355   81.853  222.136
  471.732    5.604    0.220    0.350   87.673  223.105
  471.982    5.558    0.223    0.357   84.810  224.390
  472.232    5.532    0.219    0.375   86.567  226.206
  472.482    5.528    0.216    0.366   86.141  228.338
  472.732    5.544    0.218    0.354   84.338  229.518
  472.982    5.624    0.213    0.349   83.662  229.956
  473.232    5.704    0.205    0.340   85.481  229.975
  473.482    5.795    0.198    0.340   86.803  230.096
  473.732    5.846    0.202    0.354   84.876  230.006
  473.982    5.918    0.203    0.354   82.887  229.492
  474.232    5.980    0.203    0.352   83.709  229.509
  474.482    6.043    0.202    0.353   80.469  229.527
  474.732    6.117    0.200    0.371   83.291  229.965
  474.982    6.171    0.198    0.368   86.550  229.982
  475.232    6.234    0.197    0.355   89.308  229.680
  475.482    6.265    0.198    0.352   82.695  227.475
  475.732    6.296    0.200    0.355   79.331  227.386
  475.982    6.336    0.202    0.353   81.341  226.451
  476.232    6.356    0.200    0.343   85.160  226.255
  476.482    6.375    0.195    0.355   87.233  226.274
  476.732    6.442    0.189    0.355   88.554  226.397
  476.982    6.485    0.187    0.341   89.375  226.623
  477.232    6.516    0.192    0.340   85.699  226.640
  477.482    6.390    0.193    0.342   85.208  226.655
  477.732    6.105    0.190    0.346   84.719  226.671
  477.982    5.777    0.210    0.357   85.354  226.584
