~VERSION INFORMATION
 VERS.                 2.0:   CWLS LOG ASCII STANDARD -VERSION 2.0
 WRAP.                  NO:   ONE LINE PER DEPTH STEP
~WELL INFORMATION BLOCK
#MNEM.UNIT           DATA                    DESCRIPTION OF MNEMONIC
#---------    -------------------            -------------------------------
# Generated from Intellog Unique Number	CS_77_79/WELL/963
WELL.         CDN OXY ET AL GRAHAM           : Well_name    - WELL
LOC .         00/10-26-079-04W4/0            : Location     - LOCATION
UWI .         00/10-26-079-04W4/0            : Uwi          - UNIQUE WELL ID
ENTR.         JHS                            : Entered      - ENTERED BY
SRVC.         SCHLUMBERGER                   : Scn          - SERVICE COMPANY
STRT.M        100                            : top_depth    - START DEPTH
STOP.M        325                            : bot_depth    - STOP DEPTH
STEP.M        0.25                           : increment    - STEP LENGTH
 NULL. -999.2500:NULL Value
~CURVE INFORMATION BLOCK
#MNEM UNIT       ERCB CURVE CODE    CURVE DESCRIPTION
#-----------   ------------------   ----------------------------------
DEPT.M        00 001 00 00         : DEPTH        - DEPTH
DPHI.V/V      00 890 00 00         : PHID         - DENSITY POROSITY (LIMESTONE)
NPHI.V/V      00 330 00 00         : PHIN         - NEUTRON POROSITY (LIMESTONE)
GR  .API      00 310 00 00         : GR           - GAMMA RAY
ILD .OHMM     00 120 00 00         : RESD         - DEEP RESISTIVITY (DIL)
~PARAMETER INFORMATION
#MNEM.UNIT           DATA             DESCRIPTION OF MNEMONIC
#---------         -----------     ------------------------------
GL  .M        474.32               : gl           - GROUND LEVEL ELEVATION
EREF.M        477.97               : kb           - ELEVATION OF DEPTH REFERENCE
DATM.M        477.97               : datum        - DATUM ELEVATION
TDD .M        335                  : tdd          - TOTAL DEPTH DRILLER
RUN .         ONE                  : Run          - RUN NUMBER
ENG .         BILL                 : Engineer     - RECORDING ENGINEER
WIT .         JIM                  : Witness      - WITNESSED BY
MUD .         GEL                  : Mud_type     - MUD TYPE
MATR.         LIMESTONE            : Logunit      - NEUTRON MATRIX
TMAX.C        19                   : BHT          - MAXIMUM RECORDED TEMPERATURE
BHTD.M        335                  : BHTDEP       - MAXIMUM RECORDED TEMPERATURE
MATR.         1                    : LOGUNIT      - NEUTRON MATRIX
RMT .C        25                   : MDTP         - TEMPERATURE OF MUD
NEUT.         1                    : NEUTRON      - NEUTRON TYPE
RESI.         0                    : RESIST       - RESISTIVITY TYPE
RMC .OHMM     0.25                 : RMC          - RESISTIVITY OF MUD CAKE
RMF .OHMM     0.25                 : RMF          - RESISTIVITY OF MUD FILTRATE
SUFT.C        15                   : SUFT         - SURFACE TEMPERATURE
~A  DEPTH     PHID     PHIN       GR     RESD
  100.000    0.338    0.354   27.050   24.075
  100.250    0.339    0.361   30.126   24.084
  100.500    0.344    0.347   31.358   24.093
  100.750    0.348    0.337   28.902   24.101
  101.000    0.337    0.343   26.446   23.659
  101.250    0.331    0.368   25.219   23.667
  101.500    0.329    0.354   34.443   23.233
  101.750    0.322    0.328   38.134   23.244
  102.000    0.318    0.345   36.294   23.253
  102.250    0.318    0.369   34.452   23.700
  102.500    0.322    0.425   33.839   23.709
  102.750    0.323    0.385   41.834   23.719
  103.000    0.321    0.369   44.295   23.728
  103.250    0.312    0.358   41.839   23.736
  103.500    0.316    0.384   39.383   23.741
  103.750    0.331    0.384   35.698   23.750
  104.000    0.342    0.374   32.626   23.760
  104.250    0.352    0.386   30.169   23.769
  104.500    0.340    0.392   29.558   24.229
  104.750    0.342    0.411   28.331   24.238
  105.000    0.338    0.425   25.875   24.248
  105.250    0.336    0.391   27.722   23.801
  105.500    0.340    0.382   28.954   23.811
  105.750    0.353    0.388   28.342   22.941
  106.000    0.321    0.349   33.263   22.101
  106.250    0.253    0.338   57.855   21.694
  106.500    0.232    0.361   84.907   20.128
  106.750    0.262    0.401   94.132   19.029
  107.000    0.296    0.408   95.364   17.656
  107.250    0.334    0.403   82.457   16.693
  107.500    0.354    0.415   84.304   16.082
  107.750    0.264    0.445   85.536   15.493
  108.000    0.259    0.439   88.612   14.648
  108.250    0.268    0.397   85.541   13.589
  108.500    0.232    0.363   97.839   12.609
  108.750    0.225    0.383  103.375   11.480
  109.000    0.226    0.419  114.443   10.652
  109.250    0.230    0.429  113.216   10.071
  109.500    0.224    0.439  107.686    9.886
  109.750    0.209    0.447  113.837    9.706
  110.000    0.231    0.431  123.061    9.709
  110.250    0.228    0.424  118.145    9.897
  110.500    0.230    0.415  110.156   10.089
  110.750    0.252    0.413  107.085   10.678
  111.000    0.280    0.476   90.489   11.737
  111.250    0.297    0.409   89.878   12.659
  111.500    0.287    0.371   96.642   13.653
  111.750    0.281    0.370   92.957   14.182
  112.000    0.307    0.457   81.279   14.730
  112.250    0.348    0.405   81.897   15.016
  112.500    0.316    0.380   88.047   14.742
  112.750    0.287    0.401   98.500   14.203
  113.000    0.319    0.424  103.421   13.943
  113.250    0.389    0.431  102.194   13.687
  113.500    0.428    0.445   99.738   13.186
  113.750    0.335    0.490   97.282   12.945
  114.000    0.237    0.441  101.588   12.949
  114.250    0.231    0.428  102.820   13.200
  114.500    0.249    0.450   91.142   13.712
  114.750    0.274    0.489   81.309   14.242
  115.000    0.303    0.431   80.697   15.074
  115.250    0.305    0.402   84.388   16.260
  115.500    0.308    0.398   85.620   17.209
  115.750    0.312    0.420   80.091   17.216
  116.000    0.318    0.380   76.404   17.223
  116.250    0.324    0.412   72.719   16.592
  116.500    0.311    0.453   70.877   15.985
  116.750    0.293    0.391   75.183   15.111
  117.000    0.305    0.345   82.563   13.759
  117.250    0.330    0.354   89.329   12.528
  117.500    0.290    0.399   90.561   11.624
  117.750    0.281    0.414   85.030   11.198
  118.000    0.305    0.388   81.345   11.203
  118.250    0.317    0.410   85.652   11.420
  118.500    0.296    0.440   86.883   11.640
  118.750    0.280    0.416   85.041   12.322
  119.000    0.273    0.425   87.503   13.041
  119.250    0.250    0.423   81.973   14.333
  119.500    0.236    0.394   65.992   15.753
  119.750    0.248    0.336   72.143   16.992
  120.000    0.238    0.346   83.211   17.320
  120.250    0.228    0.359   90.591   16.686
  120.500    0.243    0.426   83.831   15.776
  120.750    0.257    0.402   75.842   14.914
  121.000    0.122    0.403   74.000   14.101
  121.250    0.082    0.419   69.085   13.332
  121.500    0.127    0.350   62.326   12.844
  121.750    0.250    0.314   72.164   12.373
  122.000    0.276    0.371   82.618   11.921
  122.250    0.259    0.402   73.399   11.485
  122.500    0.281    0.384   61.721   11.274
  122.750    0.308    0.395   53.732   11.492
  123.000    0.324    0.446   48.202   11.714
  123.250    0.330    0.422   53.123   12.875
  123.500    0.302    0.373   55.585   13.887
  123.750    0.282    0.350   56.203   14.425
  124.000    0.299    0.365   60.509   14.704
  124.250    0.323    0.389   61.741   14.990
  124.500    0.323    0.406   61.128   14.996
  124.750    0.329    0.415   56.213   15.002
  125.000    0.313    0.432   54.372   15.005
  125.250    0.297    0.431   58.063   15.297
  125.500    0.299    0.419   61.140   15.301
  125.750    0.334    0.401   61.142   15.307
  126.000    0.350    0.409   59.300   15.313
  126.250    0.304    0.453   56.230   15.318
  126.500    0.296    0.460   56.847   15.324
  126.750    0.312    0.447   58.079   15.329
  127.000    0.319    0.435   53.164   15.049
  127.250    0.263    0.408   53.782   15.053
  127.500    0.249    0.393   62.391   14.777
  127.750    0.258    0.401   70.386   14.238
  128.000    0.265    0.416   75.306   13.716
  128.250    0.243    0.410   76.538   12.488
  128.500    0.267    0.409   73.467   11.806
  128.750    0.280    0.421   75.929   10.954
  129.000    0.261    0.403   82.080   10.357
  129.250    0.253    0.417   81.468   10.360
  129.500    0.264    0.422   74.094   10.562
  129.750    0.304    0.444   68.563   10.765
  130.000    0.342    0.446   63.033   11.611
  130.250    0.342    0.401   58.733   12.523
  130.500    0.346    0.430   57.505   14.027
  130.750    0.363    0.422   56.279   15.129
  131.000    0.361    0.426   53.208   15.421
  131.250    0.355    0.426   50.137   15.426
  131.500    0.345    0.414   56.902   15.432
  131.750    0.337    0.432   58.134   15.439
  132.000    0.334    0.430   56.907   15.442
  132.250    0.337    0.403   59.369   15.161
  132.500    0.334    0.411   58.143   15.167
  132.750    0.334    0.426   55.686   14.890
  133.000    0.335    0.407   58.147   14.617
  133.250    0.329    0.415   57.536   14.350
  133.500    0.342    0.426   56.309   14.087
  133.750    0.361    0.412   60.000   13.829
  134.000    0.363    0.409   61.233   13.834
  134.250    0.355    0.426   56.932   13.581
  134.500    0.348    0.414   46.483   13.584
  134.750    0.355    0.380   45.871   13.847
  135.000    0.331    0.405   51.407   13.852
  135.250    0.314    0.464   51.410   14.121
  135.500    0.337    0.390   53.257   14.395
  135.750    0.355    0.391   53.874   14.400
  136.000    0.374    0.402   47.730   14.678
  136.250    0.428    0.427   50.191   15.246
  136.500    0.411    0.377   60.030   16.757
  136.750    0.340    0.271   56.344   19.123
  137.000    0.120    0.227   47.740   23.092
  137.250    0.159    0.235   46.514   26.356
  137.500    0.240    0.327   50.206   27.376
  137.750    0.220    0.382   56.970   26.372
  138.000    0.184    0.414   69.268   21.448
  138.250    0.218    0.393   78.492   16.177
  138.500    0.239    0.412   85.257   11.975
  138.750    0.255    0.437   86.490   10.113
  139.000    0.259    0.449   88.951   10.116
  139.250    0.254    0.445   94.487    9.386
  139.500    0.240    0.436   98.177    7.491
  139.750    0.246    0.441   99.410    7.083
  140.000    0.250    0.458   98.184    7.219
  140.250    0.247    0.469   96.342    7.359
  140.500    0.260    0.390   92.041    7.790
  140.750    0.281    0.396   80.364    8.092
  141.000    0.282    0.437   85.899    8.094
  141.250    0.257    0.397   93.278    7.946
  141.500    0.255    0.390   91.437    7.801
  141.750    0.255    0.424   93.284    7.657
  142.000    0.252    0.407  100.050    7.518
  142.250    0.243    0.420  101.896    7.381
  142.500    0.236    0.393   95.752    7.245
  142.750    0.223    0.377   93.910    7.113
  143.000    0.231    0.391   96.987    6.853
  143.250    0.233    0.411   96.989    6.727
