~VERSION INFORMATION
 VERS.                 2.0:   CWLS LOG ASCII STANDARD -VERSION 2.0
 WRAP.                  NO:   ONE LINE PER DEPTH STEP
~WELL INFORMATION BLOCK
#MNEM.UNIT           DATA                    DESCRIPTION OF MNEMONIC
#---------    -------------------            -------------------------------
# Generated from Intellog Unique Number	CW_82_90/WELL/3072
WELL.         10-08-086-22W4                 : Well_name    - WELL
LOC .         00/10-08-086-22W4/0            : Location     - LOCATION
UWI .         00/10-08-086-22W4/0            : Uwi          - UNIQUE WELL ID
ENTR.         MAX                            : Entered      - ENTERED BY
SRVC.         SCHLUMBERGER                   : Scn          - SERVICE COMPANY
STRT.M        167.64                         : top_depth    - START DEPTH
STOP.M        373.39                         : bot_depth    - STOP DEPTH
STEP.M        0.25                           : increment    - STEP LENGTH
 NULL. -999.2500:NULL Value
~CURVE INFORMATION BLOCK
#MNEM UNIT       ERCB CURVE CODE    CURVE DESCRIPTION
#-----------   ------------------   ----------------------------------
DEPT.M        00 001 00 00         : DEPTH        - DEPTH
GR  .API      00 310 00 00         : GR           - GAMMA RAY
ILD .OHMM     00 120 00 00         : RESD         - DEEP RESISTIVITY (DIL)
NPHI.V/V      00 330 00 00         : PHIN         - NEUTRON POROSITY (SANDSTONE)
DPHI.V/V      00 890 00 00         : PHID         - DENSITY POROSITY (SANDSTONE)
CALI.MM       00 280 01 00         : CAL          - CALIPER
~PARAMETER INFORMATION
#MNEM.UNIT           DATA             DESCRIPTION OF MNEMONIC
#---------         -----------     ------------------------------
GL  .M        576.925              : gl           - GROUND LEVEL ELEVATION
EREF.M        580.187              : kb           - ELEVATION OF DEPTH REFERENCE
DATM.M        576.925              : datum        - DATUM ELEVATION
TDD .M        373.075              : tdd          - TOTAL DEPTH DRILLER
RUN .         ONE                  : Run          - RUN NUMBER
ENG .         BILL                 : Engineer     - RECORDING ENGINEER
WIT .         JIM                  : Witness      - WITNESSED BY
MUD .         GEL                  : Mud_type     - MUD TYPE
MATR.         SANDSTONE            : Logunit      - NEUTRON MATRIX
TMAX.C        20.5556              : BHT          - MAXIMUM RECORDED TEMPERATURE
BHTD.M        373.075              : BHTDEP       - MAXIMUM RECORDED TEMPERATURE
MATR.         1                    : LOGUNIT      - NEUTRON MATRIX
RMT .C        6.66667              : MDTP         - TEMPERATURE OF MUD
NEUT.         1                    : NEUTRON      - NEUTRON TYPE
RESI.         0                    : RESIST       - RESISTIVITY TYPE
RMC .OHMM     5.5                  : RMC          - RESISTIVITY OF MUD CAKE
RMF .OHMM     3.23                 : RMF          - RESISTIVITY OF MUD FILTRATE
SUFT.C        -15                  : SUFT         - SURFACE TEMPERATURE
~A  DEPTH       GR     RESD     PHIN     PHID      CAL
# ...
  313.640  100.213   16.169    0.413    0.187  153.564
  313.890   98.489   16.607    0.401    0.183  154.074
  314.140   96.468   17.210    0.387    0.179  154.102
  314.390   95.319   18.662    0.381    0.169  154.615
  314.640   96.787   23.192    0.352    0.147  154.639
  314.890  100.868   24.694    0.309    0.109  154.172
  315.140  108.727   24.015    0.345    0.145  153.710
  315.390  109.323   22.112    0.415    0.179  153.732
  315.640  105.563   19.636    0.437    0.187  153.267
  315.890  107.901   17.121    0.429    0.197  152.308
  316.140  104.720   16.203    0.423    0.204  152.335
  316.390   99.796   15.898    0.408    0.202  152.855
  316.640   96.909   16.032    0.391    0.179  152.876
  316.890   96.633   17.227    0.376    0.153  152.906
  317.140   99.843   19.025    0.391    0.090  153.917
  317.390  104.215   18.500    0.405    0.080  154.428
  317.640  115.559   16.882    0.448    0.175  154.947
  317.890  119.931   14.455    0.468    0.201  156.939
  318.140  123.723   11.936    0.483    0.197  157.455
  318.390  121.706   10.407    0.502    0.189  157.486
  318.640  117.361    9.670    0.498    0.179  159.969
  318.890  113.022    9.318    0.492    0.174  160.980
  319.140  112.456    9.397    0.485    0.155  158.545
  319.390  112.759    9.649    0.485    0.116  159.062
  319.640  116.844   10.000    0.486    0.166  159.578
  319.890  111.628   10.745    0.492    0.193  155.673
  320.140  106.123   11.975    0.501    0.192  155.206
  320.390  101.199   14.351    0.469    0.176  155.230
  320.640   91.341   19.180    0.413    0.153  154.760
  320.890   87.287   22.165    0.375    0.064  152.820
  321.140   82.945   23.177    0.340    0.108  151.863
  321.390   84.415   23.159    0.423    0.169  152.872
  321.640   90.818   21.917    0.443    0.210  153.391
  321.890   96.063   18.934    0.461    0.209  153.415
  322.140   98.112   17.596    0.443    0.185  154.423
  322.390   98.419   16.801    0.418    0.169  154.943
  322.640   98.722   16.192    0.426    0.159  154.475
  322.890  100.190   15.600    0.448    0.198  153.513
  323.140  102.821   15.450    0.454    0.199  152.563
  323.390  104.576   14.753    0.462    0.183  153.568
  323.640  107.207   14.742    0.475    0.193  155.071
  323.890  106.059   14.866    0.483    0.188  155.587
  324.140   99.393   15.403    0.466    0.153  154.624
  324.390   98.538   15.535    0.440    0.121  154.655
  324.640  102.911   15.522    0.454    0.116  154.191
  324.890  108.152   15.512    0.483    0.192  153.231
  325.140  110.782   15.500    0.469    0.189  152.767
  325.390  108.475   15.348    0.463    0.174  152.293
  325.640  104.713   15.063    0.454    0.173  151.826
  325.890  105.020   14.646    0.455    0.169  151.367
  326.140  106.775   13.985    0.479    0.155  151.386
  326.390  109.987   13.355    0.481    0.139  151.413
  326.640  112.906   12.637    0.459    0.127  151.444
  326.890  115.825   12.177    0.473    0.170  151.462
  327.140  119.908   11.838    0.455    0.162  152.965
  327.390  123.698   11.726    0.438    0.176  156.930
  327.640  123.134   11.718    0.449    0.181  158.427
  327.890  120.534   11.922    0.456    0.143  159.930
  328.140  116.772   12.580    0.444    0.078  160.938
  328.390  107.783   13.277    0.422    0.034  159.982
  328.640  105.185   14.138    0.352    0.006  155.580
  328.890  113.043   14.919    0.378    0.106  154.128
  329.140  118.285   15.461    0.409    0.171  153.661
  329.390  121.497   15.592    0.404    0.173  153.196
  329.640  121.802   15.579    0.399    0.167  153.224
  329.890  118.621   15.429    0.404    0.166  152.753
  330.140  113.697   15.417    0.419    0.166  152.781
  330.390  109.937   17.179    0.408    0.166  153.306
  330.640  105.596   19.146    0.372    0.152  153.321
  330.890  101.542   21.728    0.300    0.042  153.346
  331.140   92.262   24.435    0.294    0.015  153.865
  331.390   96.054   28.233    0.350    0.098  154.384
  331.640  103.911   28.473    0.372    0.150  153.917
  331.890  110.027   25.983    0.381    0.172  153.944
  332.140  110.043   22.655    0.387    0.191  153.966
  332.390  107.734   19.935    0.389    0.195  153.504
  332.640  104.846   17.541    0.394    0.193  153.037
  332.890  101.955   17.528    0.400    0.176  152.572
  333.140   98.774   18.497    0.385    0.162  151.613
  333.390   94.722   21.375    0.350    0.132  151.145
  333.640   91.541   25.382    0.308    0.045  151.167
  333.890   91.558   26.546    0.307    0.055  151.194
  334.140   93.896   25.812    0.355    0.158  151.222
  334.390   96.815   23.128    0.396    0.170  151.246
  334.640   99.447   21.299    0.403    0.173  151.762
  334.890   98.298   19.081    0.401    0.178  152.773
  335.140   95.411   19.069    0.399    0.163  153.788
  335.390   90.486   20.125    0.372    0.138  154.304
  335.640   77.721   23.256    0.349    0.111  154.328
  335.890   78.026   28.124    0.304    0.038  154.353
  336.140   81.237   32.502    0.302    0.030  153.888
  336.390   85.607   31.320    0.301    0.032  153.916
  336.640   94.918   26.096    0.325    0.039  153.448
  336.890   97.838   22.144    0.353    0.120  153.469
  337.140  103.080   18.619    0.372    0.146  153.008
  337.390  108.616   17.145    0.397    0.161  153.026
  337.640  110.375   16.223    0.418    0.176  152.562
  337.890  109.518   15.632    0.434    0.164  152.094
  338.140  107.499   15.202    0.437    0.141  151.138
  338.390  102.575   14.124    0.412    0.129  151.163
  338.640  103.172   13.125    0.403    0.105  151.193
  338.890  110.158   12.307    0.415    0.104  151.214
  339.140  118.598   11.647    0.440    0.173  151.242
  339.390  120.940   10.532    0.453    0.196  151.263
  339.640  120.952    9.785    0.471    0.187  151.287
  339.890  119.805    9.429    0.480    0.177  151.315
  340.140  118.367    9.169    0.479    0.170  152.329
  340.390  118.093    9.163    0.456    0.162  152.839
  340.640  119.563    9.239    0.448    0.151  153.359
  340.890  120.736    9.317    0.449    0.135  155.353
  341.140  123.076    9.566    0.467    0.116  157.840
  341.390  125.996    9.825    0.473    0.157  158.845
  341.640  125.432   10.368    0.450    0.170  157.400
  341.890  121.087   11.346    0.440    0.145  155.949
  342.140  105.707   13.847    0.428    0.117  154.987
  342.390   92.940   16.444    0.422    0.190  155.011
  342.640   81.045   16.885    0.397    0.218  155.038
  342.890   76.121   15.131    0.394    0.249  154.577
  343.140   96.180   10.705    0.430    0.182  153.618
  343.390  113.915    9.592    0.471    0.153  154.131
  343.640  118.577   10.214    0.490    0.158  160.549
  343.890  103.779   11.076    0.457    0.165  157.137
  344.140   97.984   11.479    0.436    0.150  155.191
  344.390  103.808   11.576    0.384    0.167  154.723
  344.640  114.574   11.886    0.425    0.182  156.229
  344.890  115.458   12.096    0.451    0.196  158.710
  345.140  107.631   14.496    0.459    0.226  156.773
  345.390   89.634   18.345    0.446    0.263  151.876
  345.640   79.775   23.217    0.434    0.282  149.936
  345.890   73.979   31.029    0.441    0.287  152.425
  346.140   71.960   63.556    0.455    0.275  156.379
  346.390   69.945  111.543    0.441    0.267  158.374
  346.640   71.701   72.734    0.435    0.240  154.958
  346.890   84.499   53.364    0.442    0.193  154.487
  347.140   93.520   35.426    0.447    0.150  155.502
  347.390  102.538   23.953    0.462    0.138  155.529
  347.640  113.009   21.461    0.469    0.207  155.550
  347.890  127.549   22.042    0.481    0.268  154.594
  348.140  134.829   28.405    0.467    0.301  154.130
  348.390  133.391   41.955    0.461    0.293  154.151
  348.640  131.664   64.844    0.475    0.290  154.175
  348.890  129.064  109.750    0.482    0.276  154.206
  349.140  119.491  111.685    0.482    0.266  154.722
  349.390   98.301   43.775    0.456    0.196  155.241
  349.640   83.792   27.521    0.450    0.141  154.768
  349.890   75.384   20.378    0.445    0.148  154.795
