~VERSION INFORMATION
 VERS.                 2.0:   CWLS LOG ASCII STANDARD -VERSION 2.0
 WRAP.                  NO:   ONE LINE PER DEPTH STEP
~WELL INFORMATION BLOCK
#MNEM.UNIT           DATA                    DESCRIPTION OF MNEMONIC
#---------    -------------------            -------------------------------
# Generated from Intellog Unique Number	CS_71_72/WELL/3325
WELL.         SASKATCHEWAN OIL AND GAS CO.   : Well_name    - WELL
LOC .         00/10-29-072-18W4/0            : Location     - LOCATION
UWI .         00/10-29-072-18W4/0            : Uwi          - UNIQUE WELL ID
ENTR.         JOETTE                         : Entered      - ENTERED BY
SRVC.         SCHLUMBERGER                   : Scn          - SERVICE COMPANY
DATE.         05/13/92                       : Date         - LOG DATE
STRT.M        285                            : top_depth    - START DEPTH
STOP.M        465                            : bot_depth    - STOP DEPTH
STEP.M        0.25                           : increment    - STEP LENGTH
 NULL. -999.2500:NULL Value
~CURVE INFORMATION BLOCK
#MNEM UNIT       ERCB CURVE CODE    CURVE DESCRIPTION
#-----------   ------------------   ----------------------------------
DEPT.M        00 001 00 00         : DEPTH        - DEPTH
CALI.MM       00 280 01 00         : CAL          - CALIPER
GR  .API      00 310 00 00         : GR           - GAMMA RAY
NPHI.V/V      00 330 00 00         : PHIN         - NEUTRON POROSITY (SANDSTONE)
DPHI.V/V      00 890 00 00         : PHID         - DENSITY POROSITY (SANDSTONE)
ILD .OHMM     00 120 00 00         : RESD         - DEEP RESISTIVITY (DIL)
~PARAMETER INFORMATION
#MNEM.UNIT           DATA             DESCRIPTION OF MNEMONIC
#---------         -----------     ------------------------------
GL  .M        587.9                : gl           - GROUND LEVEL ELEVATION
EREF.M        601.4                : kb           - ELEVATION OF DEPTH REFERENCE
DATM.M        601.4                : datum        - DATUM ELEVATION
TDD .M        504                  : tdd          - TOTAL DEPTH DRILLER
RUN .         ONE                  : Run          - RUN NUMBER
ENG .         BILL                 : Engineer     - RECORDING ENGINEER
WIT .         JIM                  : Witness      - WITNESSED BY
MUD .         GEL                  : Mud_type     - MUD TYPE
MATR.         SANDSTONE            : Logunit      - NEUTRON MATRIX
TMAX.C        21                   : BHT          - MAXIMUM RECORDED TEMPERATURE
BHTD.M        504                  : BHTDEP       - MAXIMUM RECORDED TEMPERATURE
MATR.         1                    : LOGUNIT      - NEUTRON MATRIX
RMT .C        24                   : MDTP         - TEMPERATURE OF MUD
NEUT.         1                    : NEUTRON      - NEUTRON TYPE
RESI.         0                    : RESIST       - RESISTIVITY TYPE
RMC .OHMM     4.1                  : RMC          - RESISTIVITY OF MUD CAKE
RMF .OHMM     4.1                  : RMF          - RESISTIVITY OF MUD FILTRATE
SUFT.C        15                   : SUFT         - SURFACE TEMPERATURE
~A  DEPTH      CAL       GR     PHIN     PHID     RESD
# ...
  394.500  152.081   62.469    0.412    0.356    4.988
  394.750  152.075   64.860    0.411    0.354    4.988
  395.000  152.059   65.457    0.413    0.351    4.889
  395.250  152.045   67.249    0.423    0.345    4.542
  395.500  152.039   67.843    0.439    0.337    4.623
  395.750  152.025   66.634    0.451    0.332    4.706
  396.000  152.017   66.028    0.465    0.325    4.791
  396.250  152.003   68.423    0.481    0.307    4.966
  396.500  151.995   70.217    0.475    0.306    5.243
  396.750  151.981   71.409    0.449    0.317    5.240
  397.000  151.973   70.202    0.429    0.292    5.237
  397.250  151.959   67.794    0.415    0.274    5.138
  397.500  151.945   68.389    0.424    0.294    5.043
  397.750  151.940   70.183    0.440    0.306    4.947
  398.000  151.928   70.777    0.415    0.324    4.855
  398.250  151.915   71.371    0.417    0.332    4.591
  398.500  151.906   73.763    0.444    0.324    4.264
  398.750  152.890   75.559    0.453    0.331    3.887
  399.000  153.882   79.153    0.478    0.347    3.610
  399.250  157.873   83.348    0.451    0.350    3.414
  399.500  162.861   88.744    0.439    0.294    3.350
  399.750  167.851   87.537    0.439    0.275    3.409
  400.000  172.845   87.530    0.452    0.283    3.471
  400.250  173.834   88.124    0.459    0.281    4.018
  400.500  169.819   91.118    0.471    0.279    4.243
  400.750  167.810   92.910    0.478    0.283    4.648
  401.000  162.791   89.301    0.471    0.280    5.186
  401.250  161.783   88.094    0.444    0.267    5.376
  401.500  159.771   88.689    0.432    0.255    5.373
  401.750  157.759   90.481    0.437    0.260    5.271
  402.000  156.747   92.277    0.437    0.256    5.270
  402.250  155.736   94.671    0.433    0.249    4.982
  402.500  154.727   94.064    0.457    0.250    4.980
  402.750  154.716   93.457    0.458    0.243    4.798
  403.000  154.705   94.049    0.445    0.242    5.160
  403.250  154.691   90.443    0.433    0.248    5.448
  403.500  154.680   88.034    0.424    0.253    5.649
  403.750  154.669   86.827    0.416    0.255    5.645
  404.000  154.658   85.021    0.430    0.254    5.538
  404.250  153.647   81.412    0.433    0.250    5.435
  404.500  153.636   81.401    0.426    0.241    5.432
  404.750  152.624   81.998    0.413    0.232    5.951
  405.000  151.613   83.191    0.413    0.220    6.058
  405.250  151.599   83.786    0.420    0.225    6.397
  405.500  151.591   85.578    0.425    0.231    6.510
  405.750  151.574   87.972    0.424    0.234    6.387
  406.000  152.566   89.168    0.421    0.237    6.041
  406.250  152.558   91.562    0.420    0.241    5.927
  406.500  152.541   89.153    0.415    0.246    5.818
  406.750  153.536   88.544    0.405    0.253    5.814
  407.000  153.519   89.740    0.403    0.261    5.810
  407.250  153.514   90.933    0.414    0.263    5.700
  407.500  154.503   91.529    0.421    0.256    5.698
  407.750  154.486   92.721    0.431    0.250    5.488
  408.000  154.473   93.313    0.433    0.255    5.386
  408.250  154.467   93.910    0.427    0.256    5.187
  408.500  153.450   96.304    0.437    0.255    5.090
  408.750  152.441   96.297    0.433    0.254    4.994
  409.000  150.430   92.689    0.426    0.249    4.811
  409.250  149.415   88.480    0.415    0.240    4.721
  409.500  148.409   84.271    0.401    0.225    4.632
  409.750  148.398   79.461    0.399    0.218    4.546
  410.000  148.384   75.853    0.418    0.247    4.541
  410.250  148.376   74.648    0.438    0.296    4.539
  410.500  148.365   80.043    0.454    0.300    4.537
  410.750  148.354   85.439    0.465    0.295    4.618
  411.000  147.343   84.830    0.481    0.292    4.875
  411.250  146.328   78.223    0.481    0.296    5.056
  411.500  146.320   66.210    0.447    0.303    5.538
  411.750  146.303   62.002    0.414    0.314    6.528
  412.000  146.292   60.194    0.406    0.327    7.285
  412.250  146.281   60.188    0.380    0.343    8.431
  412.500  147.271   60.783    0.318    0.333    8.743
  412.750  148.263   60.775    0.288    0.255    9.232
  413.000  151.244   60.168    0.263    0.139    9.227
  413.250  151.242   55.960    0.234    0.099    9.221
  413.500  151.228   52.952    0.206    0.073    8.253
  413.750  151.219   50.544    0.199    0.071    7.389
  414.000  150.202   49.936    0.208    0.076    6.376
  414.250  150.197   49.929    0.211    0.081    5.500
  414.500  151.183   52.924    0.222    0.118    5.014
  414.750  152.173   55.920    0.313    0.146    4.832
  415.000  153.165   59.514    0.425    0.282    4.405
  415.250  152.150   63.109    0.424    0.313    4.090
  415.500  152.142   63.701    0.418    0.329    4.013
  415.750  150.128   62.494    0.415    0.337    3.937
  416.000  149.113   61.889    0.418    0.341    3.936
  416.250  148.102   60.682    0.428    0.346    3.933
  416.500  148.094   61.875    0.423    0.342    3.930
  416.750  148.083   64.868    0.411    0.337    3.928
  417.000  148.069   60.060    0.408    0.331    3.925
  417.250  149.058   61.852    0.404    0.329    3.924
  417.500  149.047   63.648    0.409    0.331    3.921
  417.750  149.039   65.442    0.411    0.332    3.991
  418.000  150.028   64.835    0.403    0.332    3.989
  418.250  151.014   62.427    0.393    0.333    3.985
  418.500  152.004   59.420    0.400    0.339    3.984
  418.750  151.995   58.211    0.409    0.348    4.056
  419.000  152.982   58.204    0.417    0.347    4.052
  419.250  153.971   61.199    0.428    0.336    4.050
  419.500  154.958   61.194    0.430    0.328    4.047
  419.750  154.952   57.586    0.435    0.332    4.045
  420.000  154.941   55.178    0.441    0.335    4.042
  420.250  153.921   54.571    0.426    0.337    4.040
  420.500  152.913   58.164    0.417    0.330    4.038
  420.750  152.902   56.956    0.420    0.329    4.035
  421.000  151.893   56.952    0.408    0.334    4.033
  421.250  151.882   59.945    0.393    0.336    4.030
  421.500  151.865   64.740    0.398    0.332    4.027
  421.750  151.854   65.334    0.404    0.326    4.025
  422.000  151.846   61.124    0.415    0.321    4.023
  422.250  151.837   61.718    0.421    0.312    4.019
  422.500  151.826   63.511    0.425    0.306    4.016
  422.750  151.815   64.705    0.419    0.310    4.014
  423.000  152.805   64.098    0.405    0.313    4.012
  423.250  152.793   61.693    0.405    0.321    3.937
  423.500  153.780   61.086    0.413    0.318    3.934
  423.750  153.769   67.080    0.413    0.313    3.932
  424.000  153.761   68.275    0.406    0.312    3.929
  424.250  154.750   66.468    0.402    0.315    3.927
  424.500  154.733   66.461    0.404    0.322    3.925
  424.750  154.722   68.852    0.407    0.323    3.923
  425.000  155.711   70.049    0.413    0.318    3.920
  425.250  156.701   74.843    0.419    0.309    4.064
  425.500  158.690   77.238    0.421    0.298    4.213
  425.750  160.677   74.226    0.424    0.284    4.368
  426.000  163.670   72.420    0.415    0.271    4.366
  426.250  168.664   70.013    0.413    0.273    4.363
  426.500  174.649   72.408    0.425    0.291    4.203
  426.750  177.642   80.205    0.440    0.311    3.974
  427.000  178.634   87.401    0.456    0.309    3.900
  427.250  181.621   93.996    0.465    0.279    3.827
  427.500  180.607   96.391    0.475    0.257    3.825
  427.750  179.598   98.185    0.483    0.242    3.754
  428.000  177.587   95.175    0.489    0.232    3.751
  428.250  178.576   93.368    0.494    0.241    3.748
  428.500  182.563   94.562    0.480    0.248    3.746
  428.750  183.558   95.155    0.466    0.248    3.743
  429.000  185.545   93.948    0.470    0.254    3.741
  429.250  186.529   90.340    0.478    0.258    3.739
  429.500  185.523   87.334    0.479    0.250    3.668
  429.750  183.511   84.927    0.442    0.242    3.667
  430.000  182.500   86.721    0.446    0.242    3.663
  430.250  183.489   93.915    0.450    0.246    3.662
  430.500  185.479  100.511    0.438    0.246    3.660
  430.750  188.466  100.504    0.418    0.242    3.726
