~VERSION INFORMATION
 VERS.                 2.0:   CWLS LOG ASCII STANDARD -VERSION 2.0
 WRAP.                  NO:   ONE LINE PER DEPTH STEP
~WELL INFORMATION BLOCK
#MNEM.UNIT           DATA                    DESCRIPTION OF MNEMONIC
#---------    -------------------            -------------------------------
# Generated from Intellog Unique Number	CS_77_79/WELL/951
WELL.         B0W VALLEY EXPLORATION         : Well_name    - WELL
LOC .         00/10-13-077-15W4/0            : Location     - LOCATION
UWI .         00/10-13-077-15W4/0            : Uwi          - UNIQUE WELL ID
ENTR.         SP                             : Entered      - ENTERED BY
SRVC.         SCHLUMBERGER                   : Scn          - SERVICE COMPANY
STRT.M        280                            : top_depth    - START DEPTH
STOP.M        530                            : bot_depth    - STOP DEPTH
STEP.M        0.25                           : increment    - STEP LENGTH
 NULL. -999.2500:NULL Value
~CURVE INFORMATION BLOCK
#MNEM UNIT       ERCB CURVE CODE    CURVE DESCRIPTION
#-----------   ------------------   ----------------------------------
DEPT.M        00 001 00 00         : DEPTH        - DEPTH
GR  .API      00 310 00 00         : GR           - GAMMA RAY
DPHI.V/V      00 890 00 00         : PHID         - DENSITY POROSITY (LIMESTONE)
NPHI.V/V      00 330 00 00         : PHIN         - NEUTRON POROSITY (LIMESTONE)
ILD .OHMM     00 120 00 00         : RESD         - DEEP RESISTIVITY (DIL)
~PARAMETER INFORMATION
#MNEM.UNIT           DATA             DESCRIPTION OF MNEMONIC
#---------         -----------     ------------------------------
GL  .M        675.4                : gl           - GROUND LEVEL ELEVATION
EREF.M        678.9                : kb           - ELEVATION OF DEPTH REFERENCE
DATM.M        675.4                : datum        - DATUM ELEVATION
TDD .M        537                  : tdd          - TOTAL DEPTH DRILLER
RUN .         ONE                  : Run          - RUN NUMBER
ENG .         BILL                 : Engineer     - RECORDING ENGINEER
WIT .         JIM                  : Witness      - WITNESSED BY
MUD .         GEL                  : Mud_type     - MUD TYPE
MATR.         LIMESTONE            : Logunit      - NEUTRON MATRIX
TMAX.C        21                   : BHT          - MAXIMUM RECORDED TEMPERATURE
BHTD.M        537                  : BHTDEP       - MAXIMUM RECORDED TEMPERATURE
MATR.         1                    : LOGUNIT      - NEUTRON MATRIX
RMT .C        25                   : MDTP         - TEMPERATURE OF MUD
NEUT.         1                    : NEUTRON      - NEUTRON TYPE
RESI.         0                    : RESIST       - RESISTIVITY TYPE
RMC .OHMM     0.25                 : RMC          - RESISTIVITY OF MUD CAKE
RMF .OHMM     0.25                 : RMF          - RESISTIVITY OF MUD FILTRATE
SUFT.C        15                   : SUFT         - SURFACE TEMPERATURE
~A  DEPTH       GR     PHID     PHIN     RESD
# ...
  323.500   66.014    0.227    0.403   11.507
  323.750   69.032    0.217    0.408   11.507
  324.000   71.448    0.246    0.409   11.293
  324.250   72.060    0.287    0.409   11.292
  324.500   72.064    0.296    0.402   11.083
  324.750   73.272    0.281    0.396   10.677
  325.000   76.894    0.259    0.415   10.479
  325.250   78.102    0.252    0.444   10.095
  325.500   81.722    0.242    0.454    8.698
  325.750   85.945    0.201    0.438    7.493
  326.000   91.975    0.107    0.431    6.827
  326.250   97.401    0.153    0.421    6.105
  326.500  106.444    0.199    0.429    5.772
  326.750  108.858    0.216    0.442    5.772
  327.000  107.059    0.219    0.452    5.880
  327.250  103.448    0.220    0.437    6.334
  327.500   96.829    0.236    0.421    6.574
  327.750   95.627    0.248    0.433    6.697
  328.000   94.428    0.253    0.447    6.950
  328.250   95.036    0.276    0.453    7.080
  328.500   95.644    0.264    0.448    6.695
  328.750   94.446    0.266    0.445    6.331
  329.000   93.847    0.249    0.454    6.214
  329.250   92.047    0.231    0.460    6.570
  329.500   89.643    0.220    0.474    7.484
  329.750   87.839    0.228    0.485    8.062
  330.000   84.231    0.268    0.472    8.367
  330.250   83.032    0.291    0.448    8.684
  330.500   83.035    0.268    0.432    8.523
  330.750   82.439    0.269    0.427    8.845
  331.000   81.239    0.260    0.443    9.180
  331.250   71.606    0.260    0.463    9.889
  331.500   58.959    0.282    0.489   11.476
  331.750   48.724    0.292    0.488   12.135
  332.000   44.512    0.277    0.436   13.072
  332.250   43.315    0.275    0.392   14.890
  332.500   43.921    0.252    0.380   15.454
  332.750   43.929    0.266    0.381   15.742
  333.000   43.932    0.271    0.391   16.037
  333.250   43.937    0.280    0.382   16.036
  333.500   44.546    0.294    0.375   16.035
  333.750   45.755    0.288    0.384   15.737
  334.000   46.966    0.311    0.391   15.446
  334.250   47.575    0.294    0.388   15.444
  334.500   45.773    0.287    0.396   15.443
  334.750   44.576    0.296    0.399   15.157
  335.000   44.579    0.305    0.392   15.156
  335.250   44.583    0.316    0.387   15.155
  335.500   43.990    0.321    0.386   14.873
  335.750   44.597    0.317    0.393   14.873
  336.000   45.202    0.312    0.393   14.871
  336.250   45.813    0.304    0.386   14.870
  336.500   46.419    0.316    0.391   14.869
  336.750   46.425    0.324    0.400   14.868
  337.000   47.634    0.335    0.411   14.866
  337.250   47.643    0.340    0.412   14.591
  337.500   47.647    0.343    0.406   14.864
  337.750   47.650    0.343    0.408   14.589
  338.000   46.453    0.333    0.409   14.861
  338.250   46.456    0.334    0.403   14.860
  338.500   46.462    0.339    0.400   14.859
  338.750   47.674    0.335    0.401   14.857
  339.000   47.678    0.334    0.403   14.856
  339.250   48.285    0.341    0.395   14.855
  339.500   47.690    0.345    0.387   14.854
  339.750   47.091    0.352    0.382   14.852
  340.000   46.495    0.348    0.388   14.851
  340.250   45.297    0.342    0.392   14.576
  340.500   44.698    0.348    0.387   14.306
  340.750   43.502    0.354    0.389   14.041
  341.000   43.506    0.354    0.390   13.527
  341.250   42.908    0.340    0.387   13.031
  341.500   42.311    0.343    0.392   12.790
  341.750   42.319    0.348    0.389   12.553
  342.000   42.324    0.359    0.392   12.787
  342.250   42.929    0.370    0.390   13.027
  342.500   44.140    0.383    0.425   13.774
  342.750   44.749    0.382    0.448   15.116
  343.000   44.151    0.356    0.424   15.688
  343.250   41.748    0.338    0.392   16.282
  343.500   40.546    0.309    0.365   16.899
  343.750   38.142    0.290    0.358   17.868
  344.000   36.340    0.302    0.376   17.867
  344.250   35.745    0.312    0.399   17.212
  344.500   36.352    0.304    0.383   15.975
  344.750   39.973    0.338    0.379   15.390
  345.000   44.797    0.356    0.408   14.284
  345.250   46.609    0.375    0.534   14.020
  345.500   44.807    0.388    0.537   13.760
  345.750   42.405    0.402    0.466   13.758
  346.000   41.808    0.387    0.425   13.758
  346.250   41.812    0.373    0.411   14.014
  346.500   41.217    0.356    0.417   14.013
  346.750   40.619    0.353    0.408   14.012
  347.000   40.021    0.355    0.402   14.275
  347.250   39.424    0.350    0.395   14.273
  347.500   38.826    0.350    0.387   14.272
  347.750   38.230    0.354    0.387   14.271
  348.000   35.223    0.350    0.401   14.006
  348.250   34.628    0.342    0.407   14.005
  348.500   34.631    0.328    0.394   14.004
  348.750   35.843    0.343    0.395   13.745
  349.000   36.449    0.334    0.403   13.744
  349.250   37.058    0.330    0.409   13.742
  349.500   35.256    0.322    0.415   13.742
  349.750   34.660    0.321    0.418   13.740
  350.000   35.872    0.321    0.414   13.739
  350.250   35.877    0.327    0.401   13.737
  350.500   35.883    0.338    0.392   13.483
  350.750   36.491    0.338    0.401   13.482
  351.000   36.497    0.327    0.407   13.481
  351.250   36.501    0.316    0.411   13.480
  351.500   37.109    0.325    0.417   13.479
  351.750   37.717    0.331    0.449   13.477
  352.000   38.323    0.334    0.430   13.476
  352.250   39.534    0.337    0.423   13.475
  352.500   40.141    0.326    0.414   13.474
  352.750   40.750    0.320    0.404   13.726
  353.000   40.755    0.322    0.396   13.471
  353.250   40.761    0.340    0.392   13.470
  353.500   41.370    0.346    0.400   13.469
  353.750   41.373    0.339    0.404   13.722
  354.000   40.776    0.337    0.407   13.467
  354.250   38.974    0.344    0.414   13.466
  354.500   38.377    0.345    0.429   13.718
  354.750   38.384    0.340    0.431   13.717
  355.000   40.195    0.335    0.433   13.715
  355.250   42.009    0.332    0.424   13.714
  355.500   40.207    0.324    0.431   13.714
  355.750   39.006    0.315    0.437   13.712
  356.000   37.807    0.305    0.432   13.711
  356.250   36.009    0.315    0.419   13.710
  356.500   36.014    0.323    0.415   12.964
  356.750   36.621    0.327    0.410   12.724
  357.000   37.228    0.329    0.421   12.722
  357.250   38.438    0.328    0.416   12.721
  357.500   39.046    0.332    0.413   12.720
  357.750   39.653    0.335    0.410   12.719
  358.000   40.261    0.340    0.405   12.718
  358.250   37.254    0.340    0.414   12.718
  358.500   35.452    0.338    0.415   12.716
  358.750   36.663    0.332    0.416   12.715
  359.000   37.270    0.330    0.424   12.953
  359.250   37.879    0.335    0.432   12.952
  359.500   37.884    0.334    0.427   12.951
  359.750   38.492    0.328    0.424   13.193
  360.000   39.102    0.330    0.427   13.192
  360.250   39.707    0.339    0.422   13.191
  360.500   40.918    0.342    0.421   13.190
  360.750   40.924    0.346    0.425   13.436
  361.000   42.737    0.346    0.415   13.435
  361.250   43.948    0.334    0.409   13.434
  361.500   44.554    0.324    0.404   13.434
  361.750   43.355    0.330    0.404   13.684
  362.000   42.759    0.334    0.417   13.683
  362.250   42.766    0.334    0.423   13.939
  362.500   43.374    0.338    0.428   13.938
  362.750   45.185    0.346    0.433   13.937
  363.000   46.999    0.348    0.421   13.936
  363.250   48.208    0.350    0.415   14.197
  363.500   48.816    0.335    0.438   14.462
  363.750   50.027    0.321    0.428   14.733
  364.000   50.634    0.327    0.421   15.578
  364.250   48.832    0.331    0.412   17.418
  364.500   45.225    0.329    0.420   21.375
  364.750   44.625    0.293    0.362   24.806
  365.000   41.619    0.216    0.310   32.190
  365.250   38.615    0.135    0.206   38.059
  365.500   38.018    0.008    0.143   43.354
  365.750   38.022    0.016    0.135   50.312
  366.000   38.026    0.000    0.132   53.198
  366.250   38.634    0.000    0.129   55.211
  366.500   39.242    0.000    0.127   56.245
  366.750   41.055    0.008    0.127   58.373
