~VERSION INFORMATION
 VERS.                 2.0:   CWLS LOG ASCII STANDARD -VERSION 2.0
 WRAP.                  NO:   ONE LINE PER DEPTH STEP
~WELL INFORMATION BLOCK
#MNEM.UNIT           DATA                    DESCRIPTION OF MNEMONIC
#---------    -------------------            -------------------------------
# Generated from Intellog Unique Number	CW_79_81/WELL/3695
WELL.         REPUBLIC RESOURCES LTD.        : Well_name    - WELL
LOC .         00/11-12-080-05W5/0            : Location     - LOCATION
UWI .         00/11-12-080-05W5/0            : Uwi          - UNIQUE WELL ID
ENTR.         JOETTE                         : Entered      - ENTERED BY
SRVC.         SCHLUMBERGER                   : Scn          - SERVICE COMPANY
DATE.         08-27-92                       : Date         - LOG DATE
STRT.M        350.52                         : top_depth    - START DEPTH
STOP.M        609.52                         : bot_depth    - STOP DEPTH
STEP.M        0.25                           : increment    - STEP LENGTH
 NULL. -999.2500:NULL Value
~CURVE INFORMATION BLOCK
#MNEM UNIT       ERCB CURVE CODE    CURVE DESCRIPTION
#-----------   ------------------   ----------------------------------
DEPT.M        00 001 00 00         : DEPTH        - DEPTH
GR  .API      00 310 00 00         : GR           - GAMMA RAY
ILD .OHMM     00 120 00 00         : RESD         - DEEP RESISTIVITY (DIL)
DELT.US/F     00 520 00 00         : DELT         - SONIC TRAVEL TIME
~PARAMETER INFORMATION
#MNEM.UNIT           DATA             DESCRIPTION OF MNEMONIC
#---------         -----------     ------------------------------
GL  .M        633.984              : gl           - GROUND LEVEL ELEVATION
EREF.M        637.642              : kb           - ELEVATION OF DEPTH REFERENCE
DATM.M        637.642              : datum        - DATUM ELEVATION
TDD .M        1791.92              : tdd          - TOTAL DEPTH DRILLER
RUN .         ONE                  : Run          - RUN NUMBER
ENG .         BILL                 : Engineer     - RECORDING ENGINEER
WIT .         JIM                  : Witness      - WITNESSED BY
MUD .         GEL                  : Mud_type     - MUD TYPE
MATR.         SANDSTONE            : Logunit      - NEUTRON MATRIX
TMAX.C        15.5556              : BHT          - MAXIMUM RECORDED TEMPERATURE
BHTD.M        1791.92              : BHTDEP       - MAXIMUM RECORDED TEMPERATURE
MATR.         1                    : LOGUNIT      - NEUTRON MATRIX
RMT .C        15.5556              : MDTP         - TEMPERATURE OF MUD
NEUT.         1                    : NEUTRON      - NEUTRON TYPE
RESI.         0                    : RESIST       - RESISTIVITY TYPE
RMC .OHMM     0.089                : RMC          - RESISTIVITY OF MUD CAKE
RMF .OHMM     0.089                : RMF          - RESISTIVITY OF MUD FILTRATE
SUFT.C        5                    : SUFT         - SURFACE TEMPERATURE
~A  DEPTH       GR     RESD     DELT
# ...
  567.520   75.368    4.732  255.362
  567.770   77.788    4.914  262.054
  568.020   80.814    5.104  237.902
  568.270   78.422    5.007  230.517
  568.520   76.029    4.913  232.516
  568.770   75.433    4.729  229.822
  569.020   75.447    5.101  242.549
  569.270   74.858    5.825  294.834
  569.520   74.273    5.607  334.380
  569.770   70.676    4.062  458.410
  570.020   68.875    2.677  481.865
  570.270   65.877    2.132  466.428
  570.520   67.698    2.257  475.806
  570.770   74.941    2.528  493.226
  571.020   81.588    2.625  501.260
  571.270   84.008    2.727  480.462
  571.520   83.419    2.832  413.399
  571.770   80.421    2.997  356.396
  572.020   75.016    3.762  355.710
  572.270   70.809    3.294  355.030
  572.520   66.606    3.232  306.740
  572.770   67.222    3.621  306.054
  573.020   70.248    3.760  307.383
  573.270   72.675    3.760  310.055
  573.520   73.894    3.689  316.077
  573.770   73.904    3.689  316.065
  574.020   75.732    3.758  310.015
  574.270   75.136    3.758  312.688
  574.520   75.150    3.758  413.248
  574.770   76.375    3.290  476.935
  575.020   80.000    3.108  464.854
  575.270   83.030    3.049  418.575
  575.520   83.047    3.289  362.242
  575.770   81.849    4.371  362.230
  576.020   80.055    4.990  351.490
  576.270   80.671    5.383  350.131
  576.520   84.902    5.917  350.792
  576.770   87.326    6.263  348.094
  577.020   86.138    6.755  350.094
  577.270   83.139    7.712  346.732
  577.520   80.740    8.163  340.685
  577.770   75.938    8.318  325.922
  578.020   71.128    8.804  315.853
  578.270   72.949    8.971  311.818
  578.520   82.007    8.637  310.461
  578.770   85.635    7.708  314.475
  579.020   84.444    6.498  425.089
  579.270   84.457    4.707  417.034
  579.520   90.492    4.363  374.111
  579.770   95.928    4.446  353.984
  580.020   96.547    7.007  350.616
  580.270   92.341    6.619  347.922
  580.520   90.547    5.907  336.512
  580.770   89.356    5.906  331.136
  581.020   87.562    6.492  357.272
  581.270   86.371    6.018  390.784
  581.520   86.385    5.170  376.688
  581.770   88.815    4.792  364.611
  582.020   91.235    5.072  359.234
  582.270   94.264    5.471  353.855
  582.520   95.483    5.901  351.164
  582.770   95.497    6.365  347.129
  583.020   94.905    6.365  343.761
  583.270   93.111    6.364  343.752
  583.520   90.116    6.363  343.739
  583.770   86.519    6.484  339.034
  584.020   84.721    6.484  322.927
  584.270   82.325    6.607  319.562
  584.520   82.942    5.896  336.312
  584.770   89.579    4.521  365.804
  585.020   96.822    3.601  399.316
  585.270  104.671    2.979  414.724
  585.520  114.323    3.275  395.939
  585.770  109.518    3.600  342.955
  586.020   96.880    4.033  423.404
  586.270   90.869    3.599  421.377
  586.520   83.051    2.708  407.955
  586.770   71.016    2.417  381.123
  587.020   71.030    2.708  341.550
  587.270   73.453    4.108  338.188
  587.520   76.479    4.348  334.820
  587.770   81.915    4.107  331.455
  588.020   87.953    3.880  342.174
  588.270   88.569    3.665  362.947
  588.520   86.776    3.397  406.516
  588.770   87.392    3.149  403.151
  589.020   91.623    2.654  388.388
  589.270   92.242    2.604  373.622
  589.520   86.235    2.555  377.630
  589.770   82.634    2.414  378.288
  590.020   79.030    2.368  391.688
  590.270   79.047    2.413  388.991
  590.520   86.286    2.413  399.036
  590.770   89.915    2.459  397.686
  591.020   87.519    2.506  407.060
  591.270   87.532    2.553  351.398
  591.520   89.956    2.602  352.726
  591.770   91.780    2.651  364.109
  592.020   92.397    2.753  362.759
  592.270   95.419    2.806  376.827
  592.520  100.855    2.859  393.577
  592.770  110.511    2.805  390.879
  593.020  117.757    2.752  390.193
  593.270  118.374    2.752  392.196
  593.520  115.974    2.752  397.547
  593.770  110.569    2.968  406.251
  594.020  109.375    3.141  408.250
  594.270  109.994    3.453  402.874
  594.520  111.209    3.796  396.827
  594.770  113.636    4.252  394.133
  595.020  115.454    4.501  387.416
  595.270  120.287    4.948  384.051
  595.520  117.891    5.237  384.710
  595.770  114.294    5.542  384.027
  596.020  114.913    5.866  369.928
  596.270  117.936    5.335  368.581
  596.520  127.589    4.761  360.520
  596.770  141.458    4.413  357.155
  597.020  148.701    4.169  381.951
  597.270  145.703    4.168  383.950
  597.520  146.939    4.412  379.912
  597.770  150.013    4.495  375.880
  598.020  146.353    4.247  371.844
  598.270  142.696    3.862  397.310
  598.520  149.440    3.718  393.275
  598.770  173.944    3.935  387.228
  599.020  182.528    4.493  391.910
  599.270  191.724    6.200  387.874
  599.520  202.144    8.238  370.430
  599.770  221.142    7.782  359.690
  600.020  223.597    6.945  353.640
  600.270  226.671    6.316  370.393
  600.520  230.970    6.197  379.097
  600.770  235.880    6.684  381.090
  601.020  246.913    7.348  379.066
  601.270  238.967    8.232  375.701
  601.520  234.083    9.399  372.336
  601.770  227.361    9.947  370.316
  602.020  231.660    9.947  366.281
  602.270  245.753    9.575  361.575
  602.520  222.503    8.709  368.267
  602.770  210.880    7.483  368.249
  603.020  205.996    6.552  366.902
  603.270  203.563    6.308  367.560
  603.520  205.409    6.073  375.590
  603.770  227.462    5.523  377.590
  604.020  259.313    5.317  374.895
  604.270  287.487    4.928  375.557
  604.520  271.583    5.216  390.965
  604.770  245.883    8.377  360.108
  605.020  221.408   10.921  326.571
  605.270  210.398   24.670  309.797
  605.520  196.942   37.429  293.023
  605.770  189.609   49.730  287.647
  606.020  179.826   58.975  280.923
  606.270  176.166   74.022  277.562
  606.520  171.894   75.434  275.538
  606.770  168.849   71.255  274.178
  607.020  167.025   61.225  273.496
  607.270  167.038   52.604  273.490
  607.520  165.827   46.946  277.497
  607.770  165.227   43.513  280.837
  608.020  166.465   41.104  282.836
  608.270  167.083   45.185  284.168
  608.520  171.385   53.581  284.826
  608.770  175.075   57.794  284.140
  609.020  176.305   58.893  282.784
  609.270  179.386   53.564  282.107
  609.520  176.335   55.626  282.095
