~VERSION INFORMATION
 VERS.                 2.0:   CWLS LOG ASCII STANDARD -VERSION 2.0
 WRAP.                  NO:   ONE LINE PER DEPTH STEP
~WELL INFORMATION BLOCK
#MNEM.UNIT           DATA                    DESCRIPTION OF MNEMONIC
#---------    -------------------            -------------------------------
# Generated from Intellog Unique Number	CS_67_68/WELL/2195
WELL.         10-14-067-03W4                 : Well_name    - WELL
LOC .         00/10-14-067-03W4/0            : Location     - LOCATION
UWI .         00/10-14-067-03W4/0            : Uwi          - UNIQUE WELL ID
ENTR.         SP                             : Entered      - ENTERED BY
SRVC.         SCHLUMBERGER                   : Scn          - SERVICE COMPANY
STRT.M        380                            : top_depth    - START DEPTH
STOP.M        610                            : bot_depth    - STOP DEPTH
STEP.M        0.25                           : increment    - STEP LENGTH
 NULL. -999.2500:NULL Value
~CURVE INFORMATION BLOCK
#MNEM UNIT       ERCB CURVE CODE    CURVE DESCRIPTION
#-----------   ------------------   ----------------------------------
DEPT.M        00 001 00 00         : DEPTH        - DEPTH
ILD .OHMM     00 120 00 00         : RESD         - DEEP RESISTIVITY (DIL)
DPHI.V/V      00 890 00 00         : PHID         - DENSITY POROSITY (LIMESTONE)
NPHI.V/V      00 330 00 00         : PHIN         - NEUTRON POROSITY (LIMESTONE)
GR  .API      00 310 00 00         : GR           - GAMMA RAY
CALI.MM       00 280 01 00         : CAL          - CALIPER
~PARAMETER INFORMATION
#MNEM.UNIT           DATA             DESCRIPTION OF MNEMONIC
#---------         -----------     ------------------------------
GL  .M        697.3                : gl           - GROUND LEVEL ELEVATION
EREF.M        700.96               : kb           - ELEVATION OF DEPTH REFERENCE
DATM.M        700.96               : datum        - DATUM ELEVATION
TDD .M        618.5                : tdd          - TOTAL DEPTH DRILLER
RUN .         ONE                  : Run          - RUN NUMBER
ENG .         BILL                 : Engineer     - RECORDING ENGINEER
WIT .         JIM                  : Witness      - WITNESSED BY
MUD .         GEL                  : Mud_type     - MUD TYPE
MATR.         LIMESTONE            : Logunit      - NEUTRON MATRIX
TMAX.C        21                   : BHT          - MAXIMUM RECORDED TEMPERATURE
BHTD.M        619                  : BHTDEP       - MAXIMUM RECORDED TEMPERATURE
MATR.         1                    : LOGUNIT      - NEUTRON MATRIX
RMT .C        25                   : MDTP         - TEMPERATURE OF MUD
NEUT.         1                    : NEUTRON      - NEUTRON TYPE
RESI.         0                    : RESIST       - RESISTIVITY TYPE
RMC .OHMM     0.25                 : RMC          - RESISTIVITY OF MUD CAKE
RMF .OHMM     0.25                 : RMF          - RESISTIVITY OF MUD FILTRATE
SUFT.C        15                   : SUFT         - SURFACE TEMPERATURE
~A  DEPTH     RESD     PHID     PHIN       GR      CAL
# ...
  489.500    7.233    0.350    0.425   66.383  204.516
  489.750    7.342    0.353    0.435   69.084  204.526
  490.000    7.552    0.353    0.447   70.927  204.434
  490.250    7.842    0.345    0.456   71.544  204.546
  490.500    8.051    0.339    0.439   70.876  204.555
  490.750    8.219    0.333    0.452   67.821  204.872
  491.000    8.374    0.335    0.461   64.459  204.984
  491.250    8.517    0.338    0.461   63.425  205.095
  491.500    8.646    0.338    0.458   65.512  205.003
  491.750    8.743    0.338    0.450   68.518  204.709
  492.000    8.875    0.335    0.443   70.668  204.513
  492.250    8.908    0.331    0.440   70.734  204.218
  492.500    8.908    0.325    0.432   69.515  203.921
  492.750    8.757    0.318    0.440   69.215  204.134
  493.000    8.480    0.312    0.431   63.834  204.553
  493.250    7.999    0.315    0.417   64.084  204.972
  493.500    7.573    0.331    0.418   66.540  204.981
  493.750    7.320    0.341    0.429   68.444  205.095
  494.000    7.062    0.350    0.435   70.042  205.204
  494.250    6.826    0.359    0.439   70.720  205.111
  494.500    6.660    0.349    0.460   67.971  205.326
  494.750    6.547    0.322    0.488   66.752  205.136
  495.000    6.522    0.298    0.511   68.656  205.043
  495.250    6.584    0.321    0.487   73.070  205.052
  495.500    6.595    0.338    0.476   75.464  205.062
  495.750    6.645    0.347    0.475   72.960  204.969
  496.000    6.669    0.354    0.479   71.803  204.878
  496.250    6.719    0.347    0.491   71.196  204.578
  496.500    6.719    0.347    0.504   68.692  204.592
  496.750    6.706    0.354    0.480   65.269  204.501
  497.000    6.730    0.357    0.443   63.438  204.409
  497.250    6.743    0.357    0.428   63.996  204.418
  497.500    6.768    0.363    0.447   63.450  204.427
  497.750    6.742    0.368    0.478   59.843  204.639
  498.000    6.678    0.370    0.501   55.625  204.749
  498.250    6.577    0.365    0.476   56.794  204.660
  498.500    6.442    0.361    0.461   60.168  204.465
  498.750    6.274    0.356    0.462   62.989  204.371
  499.000    6.041    0.353    0.445   66.119  204.176
  499.250    5.806    0.345    0.429   68.267  204.087
  499.500    5.602    0.332    0.416   71.212  204.094
  499.750    5.415    0.312    0.434   75.503  204.205
  500.000    5.214    0.297    0.452   81.264  204.420
  500.250    5.011    0.301    0.461   85.127  204.635
  500.500    4.871    0.323    0.450   80.909  204.847
  500.750    4.717    0.320    0.442   83.302  205.369
  501.000    4.474    0.299    0.464   86.370  205.684
  501.250    4.236    0.288    0.479   90.907  206.000
  501.500    4.003    0.287    0.492   93.973  206.519
  501.750    3.804    0.305    0.515   95.021  207.551
  502.000    3.581    0.324    0.551   93.434  209.192
  502.250    3.541    0.331    0.553   92.338  211.141
  502.500    3.615    0.338    0.535   91.854  212.274
  502.750    3.581    0.353    0.537   91.615  211.468
  503.000    3.474    0.362    0.538   91.743  212.803
  503.250    3.283    0.350    0.531   94.566  218.833
  503.500    3.061    0.350    0.523   96.347  213.028
  503.750    2.954    0.366    0.532   95.251  223.955
  504.000    2.915    0.362    0.568   95.624  235.700
  504.250    2.898    0.343    0.592   99.121  235.710
  504.500    2.898    0.337    0.544  100.901  236.537
  504.750    3.020    0.329    0.513  101.397  240.525
  505.000    3.401    0.321    0.581  101.832  247.372
  505.250    4.764    0.333    0.597  100.184  253.096
  505.500    7.225    0.353    0.556   94.619  241.881
  505.750   12.500    0.360    0.523   87.767  230.973
  506.000   18.672    0.372    0.532   80.916  222.615
  506.250   25.431    0.365    0.523   72.901  212.421
  506.500   30.993    0.359    0.507   68.071  203.655
  506.750   34.116    0.360    0.506   65.995  202.848
  507.000   35.424    0.362    0.495   64.164  202.553
  507.250   35.891    0.363    0.490   63.803  202.154
  507.500   35.418    0.365    0.491   65.339  201.347
  507.750   34.234    0.366    0.473   67.488  201.357
  508.000   33.090    0.367    0.460   67.677  201.367
  508.250   31.387    0.356    0.466   65.724  201.785
  508.500   30.281    0.346    0.451   65.424  202.612
  508.750   29.269    0.338    0.443   66.532  202.723
  509.000   29.047    0.339    0.436   67.579  202.632
  509.250   30.331    0.343    0.442   67.707  202.232
  509.500   31.972    0.340    0.452   66.794  201.324
  509.750   34.407    0.334    0.462   60.249  201.130
  510.000   36.406    0.336    0.449   57.316  201.038
  510.250   37.872    0.335    0.434   57.322  200.843
  510.500   39.175    0.331    0.424   59.593  200.854
  510.750   39.993    0.327    0.433   64.375  200.965
  511.000   41.059    0.322    0.443   65.422  201.181
  511.250   42.472    0.318    0.451   61.265  201.291
  511.500   43.604    0.329    0.419   58.393  201.199
  511.750   44.851    0.336    0.427   56.746  201.314
  512.000   45.187    0.331    0.422   55.038  201.526
  512.250   45.097    0.324    0.412   55.105  201.637
  512.500   45.179    0.326    0.400   56.029  201.648
  512.750   44.837    0.328    0.398   57.198  201.760
  513.000   44.330    0.330    0.410   56.898  202.074
  513.250   44.242    0.328    0.409   56.720  202.492
  513.500   44.406    0.329    0.413   56.665  202.504
  513.750   44.739    0.331    0.426   57.344  202.819
  514.000   45.758    0.333    0.433   58.391  202.829
  514.250   47.691    0.338    0.432   59.193  203.042
  514.500   50.843    0.340    0.424   58.035  203.052
  514.750   57.032    0.339    0.416   56.633  203.266
  515.000   63.974    0.337    0.430   56.455  203.278
  515.250   72.576    0.313    0.440   56.951  202.981
  515.500   81.411    0.265    0.419   56.406  203.295
  515.750   86.464    0.197    0.330   53.901  203.510
  516.000   87.276    0.066    0.164   51.031  203.927
  516.250   71.874    0.047    0.202   48.709  204.447
  516.500   61.347    0.228    0.307   46.633  205.274
  516.750   53.358    0.279    0.367   49.211  206.100
  517.000   49.388    0.328    0.404   53.504  205.702
  517.250   45.885    0.345    0.423   55.039  204.488
  517.500   43.278    0.350    0.432   58.046  203.680
  517.750   41.911    0.352    0.437   56.459  203.485
  518.000   40.970    0.351    0.445   57.689  203.393
  518.250   40.127    0.349    0.453   60.145  203.202
  518.500   36.862    0.351    0.442   61.988  203.108
  518.750   33.356    0.353    0.435   63.585  203.016
  519.000   33.988    0.354    0.444   64.937  202.721
  519.250   36.507    0.352    0.461   63.474  202.627
  519.500   38.482    0.344    0.467   59.806  202.432
  519.750   39.882    0.342    0.427   56.384  202.339
  520.000   41.177    0.337    0.387   53.267  201.942
  520.250   41.879    0.330    0.368   54.498  201.645
  520.500   41.561    0.321    0.370   57.564  201.655
  520.750   40.936    0.333    0.389   61.000  201.565
  521.000   40.701    0.345    0.412   63.087  201.676
  521.250   41.007    0.339    0.437   63.950  201.685
  521.500   41.705    0.319    0.442   62.181  202.002
  521.750   42.017    0.323    0.445   62.186  202.113
  522.000   42.013    0.340    0.447   63.478  202.428
  522.250   41.382    0.356    0.442   64.586  202.847
  522.500   39.178    0.356    0.434   64.775  202.448
  522.750   37.514    0.352    0.434   61.597  202.153
  523.000   36.260    0.352    0.439   59.154  201.754
  523.250   35.247    0.354    0.436   60.507  201.458
  523.500   34.326    0.351    0.434   62.901  201.263
  523.750   33.493    0.353    0.444   65.969  200.458
  524.000   32.435    0.356    0.447   67.688  200.263
  524.250   30.882    0.351    0.433   64.572  199.968
  524.500   29.182    0.347    0.426   62.374  200.283
  524.750   27.112    0.345    0.456   61.277  200.497
  525.000   24.859    0.353    0.455   60.977  200.711
  525.250   23.009    0.350    0.463   61.656  201.129
  525.500   21.257    0.347    0.474   64.601  201.139
  525.750   20.547    0.344    0.468   64.852  201.250
