~VERSION INFORMATION
 VERS.                 2.0:   CWLS LOG ASCII STANDARD -VERSION 2.0
 WRAP.                  NO:   ONE LINE PER DEPTH STEP
~WELL INFORMATION BLOCK
#MNEM.UNIT           DATA                    DESCRIPTION OF MNEMONIC
#---------    -------------------            -------------------------------
# Generated from Intellog Unique Number	CW_76_78/WELL/829
WELL.         GULF POC DROWNED 10-07         : Well_name    - WELL
LOC .         00/10-07-077-21W4/0            : Location     - LOCATION
UWI .         00/10-07-077-21W4/0            : Uwi          - UNIQUE WELL ID
ENTR.         os                             : Entered      - ENTERED BY
SRVC.         SCHLUMBERGER                   : Scn          - SERVICE COMPANY
DATE.         12 MAR 1978                    : Date         - LOG DATE
STRT.M        429.768                        : top_depth    - START DEPTH
STOP.M        637.018                        : bot_depth    - STOP DEPTH
STEP.M        0.25                           : increment    - STEP LENGTH
 NULL. -999.2500:NULL Value
~CURVE INFORMATION BLOCK
#MNEM UNIT       ERCB CURVE CODE    CURVE DESCRIPTION
#-----------   ------------------   ----------------------------------
DEPT.M        00 001 00 00         : DEPTH        - DEPTH
ILD .OHMM     00 120 00 00         : RESD         - DEEP RESISTIVITY (DIL)
NPHI.V/V      00 330 00 00         : PHIN         - NEUTRON POROSITY (SANDSTONE)
DPHI.V/V      00 890 00 00         : PHID         - DENSITY POROSITY (SANDSTONE)
GR  .API      00 310 00 00         : GR           - GAMMA RAY
CALI.MM       00 280 01 00         : CAL          - CALIPER
~PARAMETER INFORMATION
#MNEM.UNIT           DATA             DESCRIPTION OF MNEMONIC
#---------         -----------     ------------------------------
GL  .M        752.856              : gl           - GROUND LEVEL ELEVATION
EREF.M        758.342              : kb           - ELEVATION OF DEPTH REFERENCE
DATM.M        752.856              : datum        - DATUM ELEVATION
TDD .M        641.299              : tdd          - TOTAL DEPTH DRILLER
RUN .         ONE                  : Run          - RUN NUMBER
ENG .         DEROCHIER            : Engineer     - RECORDING ENGINEER
WIT .         ROZENHART            : Witness      - WITNESSED BY
BASE.         EDMONTON             : Branch       - HOME BASE OF LOGGING UNIT
MUD .         GEL CHEM             : Mud_type     - MUD TYPE
MATR.         SANDSTONE            : Logunit      - NEUTRON MATRIX
TMAX.C        22.7778              : BHT          - MAXIMUM RECORDED TEMPERATURE
BHTD.M        640.69               : BHTDEP       - MAXIMUM RECORDED TEMPERATURE
RMT .C        18.3333              : MDTP         - TEMPERATURE OF MUD
MUDD.KG/M     1092                 : MWT          - MUD DENSITY
NEUT.         1                    : NEUTRON      - NEUTRON TYPE
RESI.         0                    : RESIST       - RESISTIVITY TYPE
RM  .OHMM     5.72                 : RM           - RESISTIVITY OF MUD
RMC .OHMM     0.25                 : RMC          - RESISTIVITY OF MUD CAKE
RMF .OHMM     6.77                 : RMF          - RESISTIVITY OF MUD FILTRATE
SUFT.C        4.5                  : SUFT         - SURFACE TEMPERATURE
~A  DEPTH     RESD     PHIN     PHID       GR      CAL
# ...
  539.268    6.951    0.462    0.202  111.757  164.897
  539.518    6.420    0.472    0.204  114.625  166.375
  539.768    5.714    0.483    0.197  116.496  167.113
  540.018    5.467    0.474    0.207  113.252  166.796
  540.268    5.419    0.459    0.198  116.121  165.845
  540.518    5.441    0.452    0.197  116.869  164.682
  540.768    5.353    0.454    0.188  117.866  164.787
  541.018    5.131    0.469    0.191  116.493  165.103
  541.268    5.067    0.505    0.188  119.674  164.574
  541.518    5.106    0.469    0.208  121.046  164.151
  541.768    5.136    0.458    0.197  119.486  164.361
  542.018    5.205    0.477    0.194  121.481  165.100
  542.268    5.304    0.456    0.209  119.922  165.838
  542.518    5.376    0.448    0.203  121.480  166.577
  542.768    5.428    0.442    0.195  119.921  167.421
  543.018    5.390    0.459    0.180  114.681  168.476
  543.268    5.351    0.483    0.162  117.363  168.475
  543.518    5.294    0.484    0.166  120.855  167.841
  543.768    5.257    0.450    0.181  117.736  166.784
  544.018    5.210    0.440    0.189  115.927  165.305
  544.268    5.193    0.452    0.184  111.311  163.826
  544.518    5.185    0.451    0.202  110.063  163.614
  544.768    5.129    0.453    0.214  112.058  163.718
  545.018    5.047    0.450    0.227  110.125  160.232
  545.268    5.048    0.460    0.213  110.997  158.119
  545.518    5.050    0.475    0.197  109.001  157.485
  545.768    5.051    0.457    0.208  109.000  160.019
  546.018    5.044    0.452    0.194  110.996  161.708
  546.268    5.140    0.468    0.201  111.245  163.608
  546.518    5.487    0.474    0.209  109.062  164.980
  546.768    5.912    0.476    0.185  106.940  165.613
  547.018    6.937    0.427    0.147  102.138  165.084
  547.268    8.400    0.347    0.125   91.035  163.816
  547.518    9.410    0.317    0.090   78.935  162.231
  547.768    9.449    0.316    0.082   81.180  163.286
  548.018    8.225    0.342    0.098   90.535  163.180
  548.268    7.186    0.401    0.149  103.944  161.173
  548.518    6.698    0.442    0.175  109.682  158.426
  548.768    6.186    0.444    0.183  110.430  158.214
  549.018    5.941    0.443    0.194  110.055  157.580
  549.268    5.890    0.441    0.200  110.366  158.846
  549.518    5.913    0.428    0.211  110.740  160.747
  549.768    5.926    0.445    0.219  111.176  158.739
  550.018    5.928    0.476    0.210  109.679  155.781
  550.268    5.941    0.463    0.200  110.988  156.625
  550.518    5.932    0.467    0.194  114.169  160.110
  550.768    5.890    0.478    0.190  116.102  162.961
  551.018    5.849    0.489    0.194  113.669  164.122
  551.268    5.873    0.482    0.205  115.602  165.599
  551.518    5.907    0.473    0.201  115.477  166.443
  551.768    5.943    0.457    0.184  113.480  166.443
  552.018    5.989    0.436    0.196  111.047  165.809
  552.268    6.103    0.427    0.210  106.931  163.378
  552.518    6.219    0.428    0.198  105.433  163.483
  552.768    6.362    0.422    0.183  109.612  164.116
  553.018    6.471    0.429    0.163  109.611  162.954
  553.268    6.485    0.427    0.169  112.105  160.418
  553.518    6.428    0.431    0.180  115.286  159.678
  553.768    6.242    0.430    0.181  119.215  160.311
  554.018    6.006    0.454    0.191  116.345  162.106
  554.268    5.930    0.455    0.197  114.162  163.689
  554.518    5.900    0.451    0.190  111.292  164.111
  554.768    5.901    0.450    0.177  112.352  163.265
  555.018    5.871    0.454    0.171  115.907  164.743
  555.268    5.884    0.464    0.160  118.775  165.587
  555.518    5.897    0.445    0.186  117.278  164.108
  555.768    5.965    0.452    0.181  114.845  163.157
  556.018    6.034    0.454    0.184  111.040  163.789
  556.268    6.126    0.438    0.192  104.241  163.366
  556.518    6.266    0.438    0.188  108.233  162.521
  556.768    6.421    0.451    0.184  110.415  162.942
  557.018    6.581    0.439    0.160  105.737  162.625
  557.268    6.694    0.417    0.115  101.433  162.202
  557.518    6.708    0.364    0.091   91.516  160.300
  557.768    6.600    0.409    0.133   95.819  159.032
  558.018    6.397    0.427    0.185  102.055  158.714
  558.268    6.109    0.440    0.206  107.918  159.558
  558.518    5.933    0.440    0.208  107.605  161.247
  558.768    5.891    0.444    0.222  106.357  162.514
  559.018    5.905    0.463    0.218  110.598  162.830
  559.268    5.961    0.461    0.210  108.103  162.301
  559.518    6.007    0.448    0.213  109.662  161.772
  559.768    6.054    0.436    0.208  110.597  160.927
  560.018    6.079    0.424    0.205  112.093  159.764
  560.268    6.059    0.433    0.210  114.588  159.341
  560.518    6.061    0.431    0.201  116.022  158.706
  560.768    6.064    0.431    0.203  117.643  158.072
  561.018    6.066    0.435    0.214  123.505  159.021
  561.268    6.034    0.447    0.202  124.440  159.021
  561.518    6.014    0.442    0.186  119.138  158.703
  561.768    5.982    0.437    0.148  115.209  159.864
  562.018    5.962    0.442    0.163  116.456  159.652
  562.268    5.964    0.454    0.179  114.709  159.018
  562.518    5.978    0.456    0.184  112.962  157.644
  562.768    6.001    0.458    0.179  113.585  157.326
  563.018    6.037    0.456    0.185  115.393  158.171
  563.268    6.085    0.427    0.181  111.464  159.120
  563.518    6.132    0.406    0.184  111.775  159.120
  563.768    6.168    0.415    0.180  113.396  158.062
  564.018    6.114    0.407    0.182  111.213  157.534
  564.268    5.981    0.408    0.181  108.655  158.061
  564.518    5.819    0.428    0.174  112.896  159.011
  564.768    5.714    0.437    0.188  111.835  160.066
  565.018    5.477    0.445    0.194  116.325  159.432
  565.268    5.231    0.454    0.187  120.753  158.375
  565.518    5.117    0.446    0.182  122.125  159.008
  565.768    5.090    0.462    0.167  125.368  159.852
  566.018    5.111    0.459    0.177  128.299  160.696
  566.268    5.151    0.449    0.172  126.240  161.329
  566.518    5.220    0.460    0.169  120.813  161.117
  566.768    5.310    0.453    0.165  117.445  159.004
  567.018    5.372    0.441    0.182  113.640  157.419
  567.268    5.414    0.439    0.206  114.325  155.728
  567.518    5.365    0.432    0.218  117.069  156.361
  567.768    5.086    0.425    0.210  120.312  157.206
  568.018    4.848    0.419    0.198  118.129  158.050
  568.268    4.796    0.425    0.189  116.507  158.683
  568.518    4.870    0.432    0.201  112.889  158.788
  568.768    4.990    0.453    0.194  113.761  158.048
  569.018    5.258    0.459    0.191  113.262  157.413
  569.268    5.480    0.432    0.179  111.390  157.306
  569.518    5.553    0.396    0.146  109.955  156.989
  569.768    5.617    0.399    0.163  107.959  155.932
  570.018    5.598    0.436    0.181  101.847  155.297
  570.268    5.427    0.472    0.216   95.547  155.719
  570.518    5.173    0.446    0.228   89.184  157.514
  570.768    4.940    0.421    0.202   86.128  158.041
  571.018    4.797    0.436    0.192   86.501  158.674
  571.268    4.737    0.445    0.212   87.374  158.990
  571.518    4.739    0.444    0.210   86.937  158.778
  571.768    4.679    0.414    0.192   86.874  159.834
  572.018    4.569    0.405    0.180   88.745  160.678
  572.268    4.487    0.447    0.210   91.614  161.311
  572.518    4.455    0.469    0.234   94.732  161.204
  572.768    4.515    0.457    0.257   97.538  160.992
  573.018    4.635    0.450    0.264   98.037  160.992
  573.268    4.768    0.435    0.248   95.853  160.674
  573.518    4.796    0.423    0.238   91.612  160.462
  573.768    4.736    0.430    0.226   92.172  160.039
  574.018    4.694    0.427    0.211   89.677  159.404
  574.268    4.670    0.437    0.199   90.176  158.030
  574.518    4.688    0.459    0.214   90.300  157.607
  574.768    4.553    0.477    0.254   89.302  157.501
  575.018    4.563    0.484    0.235   90.736  157.923
  575.268    4.650    0.483    0.249   93.604  158.344
  575.518    4.712    0.472    0.255   94.415  158.344
