~VERSION INFORMATION
 VERS.                 2.0:   CWLS LOG ASCII STANDARD -VERSION 2.0
 WRAP.                  NO:   ONE LINE PER DEPTH STEP
~WELL INFORMATION BLOCK
#MNEM.UNIT           DATA                    DESCRIPTION OF MNEMONIC
#---------    -------------------            -------------------------------
# Generated from Intellog Unique Number	CS_77_79/WELL/1013
WELL.         CWWE LEISMER                   : Well_name    - WELL
LOC .         00/12-14-079-08W4/0            : Location     - LOCATION
UWI .         00/12-14-079-08W4/0            : Uwi          - UNIQUE WELL ID
ENTR.         JHS                            : Entered      - ENTERED BY
SRVC.         SCHLUMBERGER                   : Scn          - SERVICE COMPANY
STRT.M        155                            : top_depth    - START DEPTH
STOP.M        380                            : bot_depth    - STOP DEPTH
STEP.M        0.25                           : increment    - STEP LENGTH
 NULL. -999.2500:NULL Value
~CURVE INFORMATION BLOCK
#MNEM UNIT       ERCB CURVE CODE    CURVE DESCRIPTION
#-----------   ------------------   ----------------------------------
DEPT.M        00 001 00 00         : DEPTH        - DEPTH
DPHI.V/V      00 890 00 00         : PHID         - DENSITY POROSITY (LIMESTONE)
NPHI.V/V      00 330 00 00         : PHIN         - NEUTRON POROSITY (LIMESTONE)
GR  .API      00 310 00 00         : GR           - GAMMA RAY
ILD .OHMM     00 120 00 00         : RESD         - DEEP RESISTIVITY (DIL)
RHOB.KG/M3    00 350 00 00         : DENS         - BULK DENSITY
~PARAMETER INFORMATION
#MNEM.UNIT           DATA             DESCRIPTION OF MNEMONIC
#---------         -----------     ------------------------------
GL  .M        591.18               : gl           - GROUND LEVEL ELEVATION
EREF.M        595.43               : kb           - ELEVATION OF DEPTH REFERENCE
DATM.M        595.43               : datum        - DATUM ELEVATION
TDD .M        381.3                : tdd          - TOTAL DEPTH DRILLER
RUN .         ONE                  : Run          - RUN NUMBER
ENG .         BILL                 : Engineer     - RECORDING ENGINEER
WIT .         JIM                  : Witness      - WITNESSED BY
MUD .         GEL                  : Mud_type     - MUD TYPE
MATR.         LIMESTONE            : Logunit      - NEUTRON MATRIX
TMAX.C        20                   : BHT          - MAXIMUM RECORDED TEMPERATURE
BHTD.M        381.3                : BHTDEP       - MAXIMUM RECORDED TEMPERATURE
MATR.         1                    : LOGUNIT      - NEUTRON MATRIX
RMT .C        25                   : MDTP         - TEMPERATURE OF MUD
NEUT.         1                    : NEUTRON      - NEUTRON TYPE
RESI.         0                    : RESIST       - RESISTIVITY TYPE
RMC .OHMM     0.25                 : RMC          - RESISTIVITY OF MUD CAKE
RMF .OHMM     0.25                 : RMF          - RESISTIVITY OF MUD FILTRATE
SUFT.C        15                   : SUFT         - SURFACE TEMPERATURE
~A  DEPTH     PHID     PHIN       GR     RESD     DENS
# ...
  191.500    0.247    0.406  133.410    9.471    0.000
  191.750    0.284    0.394  126.773   11.637    0.000
  192.000    0.313    0.410  137.068   14.031    0.000
  192.250    0.341    0.411  150.391   16.922    0.000
  192.500    0.351    0.405  147.381   18.607    0.000
  192.750    0.321    0.417  131.669   17.940    0.000
  193.000    0.279    0.442  119.589   15.767    0.000
  193.250    0.271    0.422  117.787   14.376    0.000
  193.500    0.274    0.409  117.801   12.639    0.000
  193.750    0.284    0.413  117.214   12.422    0.000
  194.000    0.295    0.423  112.995   12.430    0.000
  194.250    0.308    0.411  108.171   13.160    0.000
  194.500    0.313    0.409  108.183   14.730    0.000
  194.750    0.302    0.395  102.755   16.183    0.000
  195.000    0.306    0.340   87.044   19.165    0.000
  195.250    0.324    0.308   55.000   20.663    0.000
  195.500    0.326    0.289   30.215   22.702    0.000
  195.750    0.318    0.301   38.700   23.588    0.000
  196.000    0.297    0.347   59.883   19.979    0.000
  196.250    0.283    0.368   72.603   17.882    0.000
  196.500    0.272    0.379   76.246   16.313    0.000
  196.750    0.264    0.390   76.864   15.449    0.000
  197.000    0.251    0.359   76.273   15.178    0.000
  197.250    0.256    0.355   85.362   15.190    0.000
  197.500    0.267    0.379   89.610   15.218    0.000
  197.750    0.286    0.399   89.021   14.947    0.000
  198.000    0.307    0.385   82.384   14.157    0.000
  198.250    0.312    0.414   87.841   13.648    0.000
  198.500    0.301    0.411   98.139   12.452    0.000
  198.750    0.273    0.392  104.201   11.571    0.000
  199.000    0.266    0.394  111.475   10.749    0.000
  199.250    0.264    0.422  120.560    9.447    0.000
  199.500    0.244    0.437  129.044    8.000    0.000
  199.750    0.229    0.448  130.269    7.297    0.000
  200.000    0.222    0.431  127.260    7.873    0.000
  200.250    0.242    0.431  120.619    8.330    0.000
  200.500    0.297    0.424  107.328   10.045    0.000
  200.750    0.315    0.404   99.482   12.574    0.000
  201.000    0.319    0.390   97.077   14.074    0.000
  201.250    0.305    0.378  100.721   14.627    0.000
  201.500    0.271    0.395  109.807   13.344    0.000
  201.750    0.262    0.406  112.239   12.169    0.000
  202.000    0.258    0.406  106.209   11.098    0.000
  202.250    0.253    0.417  114.086    9.227    0.000
  202.500    0.243    0.429  124.383    8.732    0.000
  202.750    0.243    0.429  131.053    8.270    0.000
  203.000    0.246    0.439  131.669    8.124    0.000
  203.250    0.263    0.447  129.264    8.441    0.000
  203.500    0.284    0.437  129.279    9.998    0.000
  203.750    0.293    0.435  111.754   10.579    0.000
  204.000    0.278    0.451  105.719   12.067    0.000
  204.250    0.193    0.443  102.107   12.772    0.000
  204.500    0.127    0.424   93.652   13.521    0.000
  204.750    0.101    0.431   89.432   13.535    0.000
  205.000    0.146    0.437   94.890   13.056    0.000
  205.250    0.305    0.424  102.164   13.570    0.000
  205.500    0.313    0.407   99.157   13.835    0.000
  205.750    0.314    0.397  102.195   14.117    0.000
  206.000    0.306    0.386  105.234   13.364    0.000
  206.250    0.291    0.385  107.670   12.653    0.000
  206.500    0.267    0.397  111.916   11.978    0.000
  206.750    0.251    0.413  119.189   11.552    0.000
  207.000    0.241    0.430  123.441   10.940    0.000
  207.250    0.234    0.438  121.641   10.947    0.000
  207.500    0.236    0.441  119.233   10.959    0.000
  207.750    0.245    0.439  116.226   11.177    0.000
  208.000    0.262    0.425  111.401   11.193    0.000
  208.250    0.267    0.408  105.970   10.995    0.000
  208.500    0.267    0.399   98.726   10.805    0.000
  208.750    0.267    0.409  102.371   10.041    0.000
  209.000    0.271    0.459  107.830    9.506    0.000
  209.250    0.283    0.440   95.746   10.253    0.000
  209.500    0.298    0.406   72.778   13.319    0.000
  209.750    0.297    0.382   61.303   17.630    0.000
  210.000    0.321    0.367   55.268   20.870    0.000
  210.250    0.339    0.370   53.473   23.806    0.000
  210.500    0.345    0.373   54.092   25.196    0.000
  210.750    0.348    0.366   54.101   26.672    0.000
  211.000    0.347    0.364   57.746   27.714    0.000
  211.250    0.339    0.379   60.787   28.274    0.000
  211.500    0.334    0.387   61.406   28.841    0.000
  211.750    0.334    0.384   60.210   29.416    0.000
  212.000    0.339    0.367   60.223   29.448    0.000
  212.250    0.343    0.349   63.872   28.942    0.000
  212.500    0.344    0.342   65.092   28.961    0.000
  212.750    0.343    0.343   63.896   28.997    0.000
  213.000    0.344    0.351   60.282   27.967    0.000
  213.250    0.349    0.372   61.508   26.971    0.000
  213.500    0.354    0.405   63.942   27.006    0.000
  213.750    0.347    0.383   64.565   27.542    0.000
  214.000    0.341    0.358   62.765   28.093    0.000
  214.250    0.341    0.355   60.363   28.651    0.000
  214.500    0.352    0.368   61.585   28.680    0.000
  214.750    0.361    0.385   63.411   28.712    0.000
  215.000    0.362    0.367   62.220   28.216    0.000
  215.250    0.353    0.364   61.021   28.252    0.000
  215.500    0.357    0.374   61.645   28.279    0.000
  215.750    0.369    0.380   61.660   29.400    0.000
  216.000    0.374    0.373   61.675   29.425    0.000
  216.250    0.369    0.369   61.083   29.453    0.000
  216.500    0.368    0.374   61.702   28.945    0.000
  216.750    0.375    0.379   61.109   27.920    0.000
  217.000    0.379    0.385   59.914   26.935    0.000
  217.250    0.375    0.391   64.167   26.456    0.000
  217.500    0.363    0.392   65.992   25.530    0.000
  217.750    0.356    0.379   64.192   25.547    0.000
  218.000    0.353    0.375   60.578   26.066    0.000
  218.250    0.359    0.385   64.224   26.086    0.000
  218.500    0.366    0.386   65.448   26.613    0.000
  218.750    0.370    0.392   62.437   26.634    0.000
  219.000    0.375    0.399   58.221   26.674    0.000
  219.250    0.366    0.371   61.862   26.696    0.000
  219.500    0.359    0.366   71.556   26.235    0.000
  219.750    0.354    0.380   80.039   25.308    0.000
  220.000    0.354    0.394   86.101   24.872    0.000
  220.250    0.364    0.404   87.325   24.432    0.000
  220.500    0.366    0.400   80.685   23.571    0.000
  220.750    0.364    0.392   75.865   23.153    0.000
  221.000    0.360    0.390   75.876   22.333    0.000
  221.250    0.361    0.404   71.053   21.156    0.000
  221.500    0.362    0.411   71.674   21.169    0.000
  221.750    0.365    0.400   75.318   20.800    0.000
  222.000    0.362    0.390   72.306   20.827    0.000
  222.250    0.360    0.381   65.669   21.249    0.000
  222.500    0.361    0.374   62.659   21.261    0.000
  222.750    0.364    0.385   62.070   20.511    0.000
  223.000    0.366    0.404   63.897   19.783    0.000
  223.250    0.368    0.417   66.332   19.810    0.000
  223.500    0.370    0.405   67.557   19.824    0.000
  223.750    0.366    0.383   66.968   20.225    0.000
  224.000    0.366    0.358   65.174   20.245    0.000
  224.250    0.368    0.376   63.372   20.644    0.000
  224.500    0.366    0.407   61.569   20.288    0.000
  224.750    0.350    0.417   61.582   20.316    0.000
  225.000    0.338    0.408   63.411   20.331    0.000
  225.250    0.340    0.396   67.667   19.983    0.000
  225.500    0.350    0.389   68.283   19.643    0.000
  225.750    0.339    0.385   69.506   19.302    0.000
  226.000    0.308    0.411   69.517   19.314    0.000
  226.250    0.228    0.338   65.300   20.071    0.000
  226.500    0.086    0.209   62.289   22.464    0.000
  226.750    0.023    0.162   50.812   29.188    0.000
  227.000    0.000    0.156   44.779   37.919    0.000
  227.250    0.000    0.159   47.213   50.193    0.000
  227.500    0.025    0.183   55.697   61.681    0.000
  227.750    0.134    0.252   64.179   61.734    0.000
