~VERSION INFORMATION
 VERS.                 2.0:   CWLS LOG ASCII STANDARD -VERSION 2.0
 WRAP.                  NO:   ONE LINE PER DEPTH STEP
~WELL INFORMATION BLOCK
#MNEM.UNIT           DATA                    DESCRIPTION OF MNEMONIC
#---------    -------------------            -------------------------------
# Generated from Intellog Unique Number	CS_69_70/WELL/880
NULL.         -999.25                        : NULL_VALUE
WELL.         HUSKY OIL OPERATION LTD.       : Well_name    - WELL              
LOC .         00/10-33-070-06W4/0            : Location     - LOCATION          
UWI .         00/10-33-070-06W4/0            : Uwi          - UNIQUE WELL ID    
ENTR.         SP                             : Entered      - ENTERED BY        
SRVC.         SCHLUMBERGER                   : Scn          - SERVICE COMPANY   
STRT.M        275                            : top_depth    - START DEPTH       
STOP.M        500                            : bot_depth    - STOP DEPTH        
STEP.M        0.25                           : increment    - STEP LENGTH       
~CURVE INFORMATION BLOCK
#MNEM UNIT       ERCB CURVE CODE    CURVE DESCRIPTION
#-----------   ------------------   ----------------------------------
DEPT.M        00 001 00 00         : DEPTH        - DEPTH                       
ILD .OHMM     00 120 00 00         : RESD         - DEEP RESISTIVITY (DIL)      
DPHI.V/V      00 890 00 00         : PHID         - DENSITY POROSITY (LIMESTONE)
NPHI.V/V      00 330 00 00         : PHIN         - NEUTRON POROSITY (LIMESTONE)
GR  .API      00 310 00 00         : GR           - GAMMA RAY                   
~PARAMETER INFORMATION       
#MNEM.UNIT           DATA             DESCRIPTION OF MNEMONIC
#---------         -----------     ------------------------------
GL  .M        638.1                : gl           - GROUND LEVEL ELEVATION      
EREF.M        641.8                : kb           - ELEVATION OF DEPTH REFERENCE
DATM.M        638.1                : datum        - DATUM ELEVATION             
TDD .M        503                  : tdd          - TOTAL DEPTH DRILLER         
RUN .         ONE                  : Run          - RUN NUMBER                  
ENG .         BILL                 : Engineer     - RECORDING ENGINEER          
WIT .         JIM                  : Witness      - WITNESSED BY                
MUD .         GEL                  : Mud_type     - MUD TYPE                    
MATR.         LIMESTONE            : Logunit      - NEUTRON MATRIX              
TMAX.C        26                   : BHT          - MAXIMUM RECORDED TEMPERATURE
BHTD.M        503                  : BHTDEP       - MAXIMUM RECORDED TEMPERATURE
MATR.         1                    : LOGUNIT      - NEUTRON MATRIX              
RMT .C        25                   : MDTP         - TEMPERATURE OF MUD          
NEUT.         1                    : NEUTRON      - NEUTRON TYPE                
RESI.         0                    : RESIST       - RESISTIVITY TYPE            
RMC .OHMM     0.25                 : RMC          - RESISTIVITY OF MUD CAKE     
RMF .OHMM     0.25                 : RMF          - RESISTIVITY OF MUD FILTRATE 
SUFT.C        15                   : SUFT         - SURFACE TEMPERATURE         
~A  DEPTH     RESD     PHID     PHIN       GR
# ...
  405.500    8.646    0.325    0.453   57.028
  405.750    9.493    0.320    0.460   58.227
  406.000   10.231    0.325    0.466   60.027
  406.250   10.622    0.330    0.479   60.624
  406.500   11.029    0.334    0.473   56.401
  406.750   10.631    0.336    0.455   55.190
  407.000   10.437    0.340    0.460   56.389
  407.250   10.248    0.346    0.449   55.179
  407.500   11.255    0.348    0.456   56.978
  407.750   12.129    0.350    0.461   58.177
  408.000   13.069    0.352    0.469   58.775
  408.250   14.619    0.357    0.477   58.767
  408.500   17.293    0.358    0.466   57.556
  408.750   20.455    0.342    0.481   53.935
  409.000   22.878    0.290    0.424   50.314
  409.250   28.090    0.187    0.271   47.296
  409.500   32.011    0.161    0.234   43.677
  409.750   34.495    0.133    0.209   40.057
  410.000   32.635    0.064    0.164   37.641
  410.250   28.655    0.006    0.139   45.466
  410.500   22.090   -0.005    0.158   53.892
  410.750   18.006    0.206    0.193   56.900
  411.000   15.518    0.256    0.223   56.289
  411.250   14.143    0.289    0.263   52.668
  411.500   14.148    0.307    0.313   47.842
  411.750   14.421    0.268    0.435   46.032
  412.000   14.425    0.211    0.447   44.821
  412.250   13.646    0.155    0.301   58.066
  412.500   12.438    0.199    0.280   60.469
  412.750   11.338    0.254    0.413   59.259
  413.000   10.925    0.283    0.469   58.652
  413.250   11.346    0.320    0.480   59.849
  413.500   12.001    0.334    0.478   59.843
  413.750   12.933    0.340    0.469   59.236
  414.000   13.427    0.342    0.459   57.420
  414.250   13.185    0.346    0.454   56.209
  414.500   12.017    0.348    0.448   58.013
  414.750   10.553    0.350    0.444   67.039
  415.000    9.618    0.336    0.436   69.446
  415.250    8.930    0.330    0.446   67.028
  415.500    9.101    0.320    0.488   62.806
  415.750    9.628    0.288    0.482   56.774
  416.000   10.185    0.184    0.415   56.168
  416.250   10.379    0.166    0.389   59.776
  416.500   10.191    0.223    0.382   66.997
  416.750    9.117    0.249    0.430   71.810
  417.000    7.431    0.282    0.478   71.805
  417.250    6.525    0.324    0.492   69.390
  417.500    5.947    0.278    0.458   75.406
  417.750    5.522    0.290    0.449   77.811
  418.000    5.422    0.310    0.448   75.392
  418.250    5.526    0.302    0.453   74.786
  418.500    5.632    0.299    0.447   75.986
  418.750    5.530    0.300    0.443   78.388
  419.000    5.430    0.294    0.441   79.588
  419.250    4.768    0.288    0.435   81.989
  419.500    4.187    0.276    0.430   83.190
  419.750    3.477    0.273    0.444   82.579
  420.000    2.942    0.279    0.465   81.370
  420.250    2.583    0.287    0.491   85.581
  420.500    2.354    0.294    0.508   88.587
  420.750    2.537    0.287    0.521   86.170
  421.000    3.057    0.284    0.536   81.343
  421.250    3.970    0.294    0.539   78.929
  421.500    4.358    0.284    0.516   77.719
  421.750    4.697    0.262    0.431   81.326
  422.000    4.969    0.228    0.419   81.922
  422.250    4.970    0.244    0.437   79.508
  422.500    4.972    0.264    0.451   72.875
  422.750    4.882    0.257    0.457   74.074
  423.000    4.705    0.225    0.434   81.899
  423.250    4.534    0.192    0.432   87.914
  423.500    4.370    0.214    0.438   89.115
  423.750    3.910    0.240    0.449   89.109
  424.000    3.768    0.249    0.452   87.897
  424.250    3.565    0.255    0.462   85.481
  424.500    3.702    0.256    0.466   81.862
  424.750    3.843    0.245    0.476   76.433
  425.000    4.219    0.242    0.458   72.211
  425.250    4.899    0.238    0.428   67.385
  425.500    5.480    0.260    0.442   62.561
  425.750    6.363    0.284    0.451   59.543
  426.000    6.857    0.307    0.469   57.127
  426.250    7.529    0.330    0.452   57.722
  426.500    7.817    0.341    0.425   57.113
  426.750    8.117    0.326    0.419   55.903
  427.000    7.823    0.313    0.404   57.704
  427.250    7.263    0.310    0.417   61.311
  427.500    6.499    0.302    0.409   63.113
  427.750    6.380    0.296    0.425   61.903
  428.000    6.149    0.290    0.431   60.090
  428.250    6.039    0.270    0.426   65.505
  428.500    5.928    0.183    0.403   72.726
  428.750    5.608    0.152    0.390   76.937
  429.000    4.925    0.182    0.379   83.558
  429.250    4.573    0.230    0.395   92.589
  429.500    4.246    0.227    0.398   97.402
  429.750    3.660    0.227    0.411   92.574
  430.000    3.214    0.244    0.453   91.365
  430.250    3.097    0.256    0.499   91.961
  430.500    3.099    0.258    0.508   94.365
  430.750    3.043    0.258    0.476   97.370
  431.000    3.044    0.256    0.475   99.774
  431.250    3.102    0.255    0.501  100.973
  431.500    3.161    0.254    0.513   92.531
  431.750    3.670    0.250    0.525   81.683
  432.000    4.591    0.241    0.467   72.641
  432.250    5.330    0.237    0.397   69.624
  432.500    6.793    0.250    0.366   73.834
  432.750    7.052    0.261    0.375   76.235
  433.000    7.890    0.261    0.392   74.425
  433.250    8.190    0.244    0.408   67.190
  433.500    8.504    0.199    0.412   58.147
  433.750    8.507    0.157    0.401   69.584
  434.000    7.065    0.125    0.389   80.423
  434.250    6.559    0.220    0.382   78.607
  434.500    6.206    0.255    0.374   74.386
  434.750    6.324    0.254    0.399   65.344
  435.000    6.816    0.241    0.420   59.917
  435.250    7.484    0.258    0.408   59.309
  435.500    7.916    0.275    0.397   61.108
  435.750    8.693    0.283    0.400   62.308
  436.000    9.025    0.280    0.401   63.508
  436.250    9.548    0.282    0.395   60.488
  436.500    9.730    0.282    0.403   60.481
  436.750    9.916    0.275    0.412   62.283
  437.000    9.919    0.270    0.418   62.881
  437.250   10.111    0.270    0.422   62.272
  437.500   10.114    0.266    0.424   62.865
  437.750   10.306    0.264    0.412   62.862
  438.000   10.121    0.260    0.396   63.457
  438.250   10.123    0.249    0.385   62.850
  438.500    9.400    0.232    0.400   66.456
  438.750    8.255    0.252    0.410   67.656
  439.000    7.665    0.260    0.388   70.058
  439.250    6.986    0.246    0.378   73.063
  439.500    6.608    0.241    0.372   74.867
  439.750    5.697    0.242    0.379   73.053
  440.000    5.192    0.227    0.401   80.276
  440.250    4.731    0.220    0.420   92.919
  440.500    4.003    0.203    0.435   98.335
  440.750    3.263    0.197    0.448   98.932
  441.000    2.919    0.221    0.510   99.527
  441.250    2.866    0.242    0.489  104.337
  441.500    2.921    0.258    0.482  105.538
  441.750    3.148    0.267    0.495  104.930
  442.000    3.937    0.255    0.514  100.106
  442.250    5.405    0.249    0.502   92.870
  442.500    7.995    0.248    0.489   82.021
  442.750    9.814    0.255    0.464   80.811
  443.000   11.185    0.170    0.408   82.009
  443.250   12.057    0.117    0.366   78.990
  443.500   12.286    0.179    0.351   77.177
  443.750   12.756    0.213    0.349   77.169
  444.000   12.999    0.246    0.349   76.561
  444.250   13.499    0.240    0.360   75.954
  444.500   14.016    0.238    0.365   74.743
  444.750   14.553    0.246    0.380   71.725
  445.000   14.831    0.258    0.377   68.104
  445.250   15.115    0.251    0.362   63.880
  445.500   15.120    0.247    0.355   62.672
  445.750   15.125    0.261    0.370   62.664
  446.000   16.300    0.271    0.361   62.056
  446.250   20.389    0.261    0.353   58.435
  446.500   23.672    0.263    0.342   54.213
  446.750   26.482    0.282    0.339   54.207
  447.000   27.494    0.293    0.366   60.824
  447.250   27.503    0.306    0.385   65.036
  447.500   26.016    0.313    0.394   69.248
  447.750   21.209    0.302    0.385   75.867
  448.000   18.622    0.302    0.377   80.680
  448.250   15.464    0.298    0.382   85.494
  448.500   12.842    0.288    0.385   90.308
  448.750   11.487    0.271    0.396   94.518
