~VERSION INFORMATION
 VERS.                 2.0:   CWLS LOG ASCII STANDARD -VERSION 2.0
 WRAP.                  NO:   ONE LINE PER DEPTH STEP
~WELL INFORMATION BLOCK
#MNEM.UNIT           DATA                    DESCRIPTION OF MNEMONIC
#---------    -------------------            -------------------------------
# Generated from Intellog Unique Number	CW_70_72/WELL/3026
NULL.         -999.25                        : NULL_VALUE
WELL.         SULPETRO OTAUWAU 11-05         : Well_name    - WELL              
LOC .         11-05-070-05W5                 : Location     - LOCATION          
UWI .         00/11-05-070-05W5/0            : Uwi          - UNIQUE WELL ID    
ENTR.         JAYE                           : Entered      - ENTERED BY        
SRVC.         SCHLUMBERGER                   : Scn          - SERVICE COMPANY   
DATE.         19 FEB 77                      : Date         - LOG DATE          
STRT.M        701.04                         : top_depth    - START DEPTH       
STOP.M        960.04                         : bot_depth    - STOP DEPTH        
STEP.M        0.25                           : increment    - STEP LENGTH       
~CURVE INFORMATION BLOCK
#MNEM UNIT       ERCB CURVE CODE    CURVE DESCRIPTION
#-----------   ------------------   ----------------------------------
DEPT.M        00 001 00 00         : DEPTH        - DEPTH                       
ILD .OHMM     00 120 00 00         : RESD         - DEEP RESISTIVITY (DIL)      
NPHI.V/V      00 330 00 00         : PHIN         - NEUTRON POROSITY (SANDSTONE)
DPHI.V/V      00 890 00 00         : PHID         - DENSITY POROSITY (SANDSTONE)
GR  .API      00 310 00 00         : GR           - GAMMA RAY                   
CALI.MM       00 280 01 00         : CAL          - CALIPER                     
~PARAMETER INFORMATION       
#MNEM.UNIT           DATA             DESCRIPTION OF MNEMONIC
#---------         -----------     ------------------------------
GL  .M        796.595              : gl           - GROUND LEVEL ELEVATION      
EREF.M        800.557              : kb           - ELEVATION OF DEPTH REFERENCE
DATM.M        796.595              : datum        - DATUM ELEVATION             
TDD .M        975.36               : tdd          - TOTAL DEPTH DRILLER         
RUN .         ONE                  : Run          - RUN NUMBER                  
ENG .         FIGGURES             : Engineer     - RECORDING ENGINEER          
WIT .         BROCK                : Witness      - WITNESSED BY                
MUD .         GEL                  : Mud_type     - MUD TYPE                    
MATR.         SANDSTONE            : Logunit      - NEUTRON MATRIX              
TMAX.C        -17.7778             : BHT          - MAXIMUM RECORDED TEMPERATURE
BHTD.M        975.665              : BHTDEP       - MAXIMUM RECORDED TEMPERATURE
RMT .C        15.5556              : MDTP         - TEMPERATURE OF MUD          
MUDD.KG/M     1152                 : MWT          - MUD DENSITY                 
NEUT.         1                    : NEUTRON      - NEUTRON TYPE                
RESI.         0                    : RESIST       - RESISTIVITY TYPE            
RM  .OHMM     4.25                 : RM           - RESISTIVITY OF MUD          
RMC .OHMM     0.25                 : RMC          - RESISTIVITY OF MUD CAKE     
RMF .OHMM     3.66                 : RMF          - RESISTIVITY OF MUD FILTRATE 
SUFT.C        -20                  : SUFT         - SURFACE TEMPERATURE         
~A  DEPTH     RESD     PHIN     PHID       GR      CAL
# ...
  883.540    3.806    0.366    0.150   98.974  166.235
  883.790    3.664    0.361    0.160   92.815  165.206
  884.040    3.995    0.290    0.132   87.842  160.857
  884.290    4.296    0.277    0.089   94.687  160.816
  884.540    4.534    0.308    0.096  102.711  161.005
  884.790    4.554    0.345    0.140  110.113  161.904
  885.040    4.319    0.335    0.154  110.213  162.599
  885.290    4.218    0.322    0.137  110.184  163.408
  885.540    4.053    0.323    0.142  114.000  163.756
  885.790    4.032    0.328    0.153  116.945  164.671
  886.040    4.087    0.336    0.158  117.291  165.690
  886.290    4.097    0.348    0.133  120.796  167.005
  886.540    4.114    0.343    0.127  120.337  167.882
  886.790    4.131    0.357    0.114  118.765  169.851
  887.040    4.103    0.373    0.128  123.383  170.846
  887.290    4.113    0.382    0.140  119.894  171.640
  887.540    4.153    0.381    0.111  116.215  171.922
  887.790    4.087    0.374    0.148  117.983  170.721
  888.040    3.941    0.366    0.135  121.303  169.515
  888.290    3.352    0.370    0.128  122.020  168.026
  888.540    2.618    0.392    0.143  118.099  168.188
  888.790    2.126    0.419    0.169  111.703  169.507
  889.040    1.792    0.477    0.245  107.028  171.978
  889.290    1.513    0.527    0.285  100.568  174.347
  889.540    1.282    0.527    0.235  101.414  177.870
  889.790    1.193    0.524    0.232  105.655  183.174
  890.040    1.187    0.525    0.234  108.790  186.584
  890.290    1.279    0.491    0.194  111.614  175.329
  890.540    1.443    0.474    0.178  113.627  164.090
  890.790    1.625    0.463    0.190  112.301  163.203
  891.040    1.871    0.463    0.162  108.934  163.371
  891.290    2.138    0.445    0.136  104.699  163.371
  891.540    2.530    0.414    0.117   99.722  163.371
  891.790    3.291    0.373    0.088   96.047  164.015
  892.040    3.802    0.375    0.083   95.039  163.953
  892.290    4.006    0.349    0.062   94.139  164.302
  892.540    4.001    0.329    0.065  100.864  164.690
  892.790    3.952    0.338    0.102  104.983  165.186
  893.040    3.867    0.350    0.126  107.251  165.432
  893.290    3.784    0.358    0.124  107.045  166.035
  893.540    3.703    0.376    0.136  110.727  166.834
  893.790    3.571    0.389    0.116  116.093  167.737
  894.040    3.469    0.398    0.117  113.407  167.884
  894.290    3.490    0.388    0.114  106.197  168.171
  894.540    3.564    0.364    0.135  104.005  168.234
  894.790    3.796    0.357    0.112  101.572  168.294
  895.040    3.993    0.364    0.112   98.880  168.134
  895.290    4.039    0.357    0.091  107.586  168.134
  895.540    4.012    0.343    0.086  110.346  165.785
  895.790    3.890    0.338    0.101  110.940  165.487
  896.040    3.807    0.354    0.120  110.976  166.100
  896.290    3.684    0.365    0.125  111.074  167.825
  896.540    3.612    0.369    0.116  109.317  168.518
  896.790    3.574    0.360    0.109  108.241  168.781
  897.040    3.556    0.383    0.116  110.509  168.739
  897.290    3.644    0.390    0.080  111.104  168.496
  897.540    3.721    0.380    0.098  110.147  168.025
  897.790    3.907    0.369    0.123  108.948  167.574
  898.040    4.078    0.360    0.078  107.372  167.006
  898.290    4.337    0.347    0.073  104.933  166.641
  898.540    4.569    0.327    0.063  103.055  166.392
  898.790    4.841    0.307    0.071  108.474  166.249
  899.040    4.989    0.311    0.090  111.115  166.312
  899.290    5.132    0.324    0.076  109.909  166.379
  899.540    5.211    0.327    0.077  105.739  166.431
  899.790    4.924    0.309    0.061  104.667  166.292
  900.040    4.385    0.326    0.064  112.374  165.822
  900.290    3.757    0.370    0.096  117.429  167.144
  900.540    3.421    0.396    0.125  116.910  172.764
  900.790    3.173    0.398    0.130  117.201  173.873
  901.040    2.976    0.397    0.129  117.846  175.718
  901.290    2.902    0.378    0.099  119.376  177.875
  901.540    3.097    0.375    0.100  119.543  176.283
  901.790    3.343    0.383    0.106  117.959  174.131
  902.040    3.688    0.378    0.089  115.394  171.670
  902.290    4.231    0.349    0.089  111.225  168.395
  902.540    4.574    0.322    0.057  104.206  166.240
  902.790    5.001    0.295    0.058  102.261  163.797
  903.040    5.163    0.338    0.046  105.391  162.606
  903.290    4.781    0.369    0.097  113.291  162.570
  903.540    4.134    0.388    0.115  114.814  163.033
  903.790    3.516    0.397    0.110  113.672  164.370
  904.040    3.131    0.407    0.094  109.872  166.408
  904.290    3.336    0.408    0.105  110.837  170.559
  904.540    3.743    0.365    0.088  112.237  169.901
  904.790    4.357    0.327    0.083  108.749  168.596
  905.040    4.924    0.305    0.064  106.244  166.885
  905.290    5.433    0.302    0.043  117.802  165.679
  905.540    5.517    0.327    0.056  121.056  164.918
  905.790    5.330    0.339    0.092  117.931  164.349
  906.040    5.064    0.326    0.085  111.601  164.204
  906.290    4.847    0.320    0.087  108.537  164.060
  906.540    4.682    0.320    0.090  118.354  163.806
  906.790    4.507    0.324    0.102  120.065  164.178
  907.040    4.394    0.316    0.118  120.409  164.457
  907.290    4.276    0.339    0.113  119.098  165.039
  907.540    4.170    0.352    0.124  118.378  165.722
  907.790    4.110    0.357    0.111  116.251  166.523
  908.040    4.037    0.365    0.104  116.169  167.102
  908.290    3.893    0.347    0.097  117.498  167.590
  908.540    3.733    0.348    0.075  124.407  167.764
  908.790    3.540    0.366    0.096  129.340  168.032
  909.040    3.302    0.368    0.134  132.651  168.192
  909.290    3.007    0.383    0.128  137.144  167.845
  909.540    2.894    0.404    0.121  137.684  168.219
  909.790    2.827    0.406    0.141  132.020  172.990
  910.040    3.090    0.372    0.100  126.738  175.158
  910.290    3.565    0.366    0.091  125.098  168.819
  910.540    4.188    0.369    0.114  115.791  172.237
  910.790    4.613    0.333    0.099  104.561  170.207
  911.040    5.118    0.293    0.099   88.752  163.879
  911.290    5.255    0.274    0.119   79.688  161.732
  911.540    4.920    0.286    0.147   70.440  160.452
  911.790    4.674    0.295    0.174   66.145  159.976
  912.040    4.416    0.295    0.195   67.173  159.317
  912.290    4.188    0.289    0.167   68.944  159.157
  912.540    4.159    0.287    0.155   68.547  159.425
  912.790    4.279    0.289    0.151   70.134  159.926
  913.040    4.542    0.286    0.138   73.757  160.400
  913.290    4.786    0.278    0.145   77.326  160.989
  913.540    5.042    0.272    0.119   76.559  161.982
  913.790    5.421    0.269    0.102   72.515  163.201
  914.040    5.829    0.263    0.073   71.120  164.518
  914.290    6.233    0.254    0.060   77.100  165.637
  914.540    6.353    0.245    0.109   79.614  165.389
  914.790    6.149    0.251    0.122   79.405  164.296
  915.040    5.961    0.261    0.108   80.436  163.303
  915.290    5.845    0.269    0.107   82.077  162.653
  915.540    6.101    0.271    0.110   85.402  162.490
  915.790    6.488    0.271    0.117   88.532  162.040
  916.040    6.176    0.269    0.110   92.096  161.992
  916.290    5.501    0.288    0.087   99.251  162.681
  916.540    5.046    0.334    0.109  104.300  164.428
  916.790    5.152    0.381    0.130  104.594  165.954
  917.040    5.592    0.337    0.122   98.620  166.741
  917.290    6.001    0.291    0.058   90.484  166.395
  917.540    7.357    0.260    0.097   92.446  165.205
  917.790    8.628    0.260    0.118   98.359  164.530
  918.040   10.479    0.269    0.129  102.669  164.164
  918.290   10.030    0.276    0.117  103.760  164.130
  918.540    8.884    0.278    0.101  103.552  163.881
  918.790    7.913    0.282    0.123  106.559  163.408
  919.040    7.339    0.291    0.098  110.800  162.843
  919.290    6.833    0.300    0.100  114.308  162.394
  919.540    6.397    0.316    0.109  116.137  162.560
  919.790    6.460    0.316    0.121  117.783  163.249
