~VERSION INFORMATION
 VERS.                 2.0:   CWLS LOG ASCII STANDARD -VERSION 2.0
 WRAP.                  NO:   ONE LINE PER DEPTH STEP
~WELL INFORMATION BLOCK
#MNEM.UNIT           DATA                    DESCRIPTION OF MNEMONIC
#---------    -------------------            -------------------------------
# Generated from Intellog Unique Number	CS_77_79/WELL/959
WELL.         MESA PETROLEUM (NA) CO.        : Well_name    - WELL
LOC .         00/10-22-077-11W4/0            : Location     - LOCATION
UWI .         00/10-22-077-11W4/0            : Uwi          - UNIQUE WELL ID
ENTR.         SP                             : Entered      - ENTERED BY
SRVC.         SCHLUMBERGER                   : Scn          - SERVICE COMPANY
STRT.F        900                            : top_depth    - START DEPTH
STOP.F        1689.86                        : bot_depth    - STOP DEPTH
STEP.F        0.82                           : increment    - STEP LENGTH
 NULL. -999.2500:NULL Value
~CURVE INFORMATION BLOCK
#MNEM UNIT       ERCB CURVE CODE    CURVE DESCRIPTION
#-----------   ------------------   ----------------------------------
DEPT.F        00 001 00 00         : DEPTH        - DEPTH
GR  .API      00 310 00 00         : GR           - GAMMA RAY
NPHI.V/V      00 330 00 00         : PHIN         - NEUTRON POROSITY (SANDSTONE)
DPHI.V/V      00 890 00 00         : PHID         - DENSITY POROSITY (SANDSTONE)
ILD .OHMM     00 120 00 00         : RESD         - DEEP RESISTIVITY (DIL)
~PARAMETER INFORMATION
#MNEM.UNIT           DATA             DESCRIPTION OF MNEMONIC
#---------         -----------     ------------------------------
GL  .M        687.019              : gl           - GROUND LEVEL ELEVATION
EREF.M        691.134              : kb           - ELEVATION OF DEPTH REFERENCE
DATM.M        687.019              : datum        - DATUM ELEVATION
TDD .M        544.068              : tdd          - TOTAL DEPTH DRILLER
RUN .         ONE                  : Run          - RUN NUMBER
ENG .         BILL                 : Engineer     - RECORDING ENGINEER
WIT .         JIM                  : Witness      - WITNESSED BY
MUD .         GEL                  : Mud_type     - MUD TYPE
MATR.         SANDSTONE            : Logunit      - NEUTRON MATRIX
TMAX.C        25                   : BHT          - MAXIMUM RECORDED TEMPERATURE
BHTD.M        552                  : BHTDEP       - MAXIMUM RECORDED TEMPERATURE
MATR.         1                    : LOGUNIT      - NEUTRON MATRIX
RMT .C        25                   : MDTP         - TEMPERATURE OF MUD
NEUT.         1                    : NEUTRON      - NEUTRON TYPE
RESI.         0                    : RESIST       - RESISTIVITY TYPE
RMC .OHMM     0.25                 : RMC          - RESISTIVITY OF MUD CAKE
RMF .OHMM     0.25                 : RMF          - RESISTIVITY OF MUD FILTRATE
SUFT.C        15                   : SUFT         - SURFACE TEMPERATURE
~A  DEPTH       GR     PHIN     PHID     RESD
# ...
 1328.150   58.472    0.465    0.344    6.698
 1328.970   58.468    0.469    0.338    6.696
 1329.790   57.846    0.472    0.334    6.693
 1330.610   57.225    0.478    0.338    6.690
 1331.430   56.605    0.482    0.345    6.687
 1332.250   56.600    0.478    0.348    6.806
 1333.070   57.213    0.475    0.350    6.804
 1333.890   57.828    0.473    0.344    6.800
 1334.710   59.677    0.473    0.339    6.798
 1335.530   60.908    0.473    0.342    6.793
 1336.350   62.757    0.472    0.343    6.790
 1337.170   63.989    0.470    0.344    6.914
 1337.990   62.131    0.465    0.343    7.037
 1338.810   59.039    0.457    0.338    7.036
 1339.630   56.565    0.453    0.340    7.163
 1340.450   55.325    0.448    0.343    7.293
 1341.270   53.469    0.451    0.346    7.288
 1342.090   52.230    0.454    0.348    7.286
 1342.910   58.401    0.458    0.350    7.419
 1343.730   57.780    0.463    0.348    7.413
 1344.550   56.540    0.476    0.346    7.550
 1345.370   56.537    0.491    0.344    7.546
 1346.190   57.150    0.489    0.344    7.542
 1347.010   58.383    0.482    0.344    7.538
 1347.830   60.849    0.491    0.343    7.395
 1348.650   61.463    0.500    0.343    7.391
 1349.480   61.459    0.507    0.351    7.254
 1350.300   61.455    0.507    0.354    7.116
 1351.120   61.451    0.501    0.353    7.114
 1351.940   60.830    0.497    0.349    6.978
 1352.760   60.208    0.493    0.351    6.976
 1353.580   58.968    0.486    0.359    6.973
 1354.400   58.962    0.471    0.366    6.968
 1355.220   59.579    0.460    0.365    6.964
 1356.040   60.808    0.465    0.359    6.961
 1356.860   62.656    0.470    0.355    6.957
 1357.680   63.272    0.477    0.345    6.955
 1358.500   63.268    0.481    0.341    6.824
 1359.320   62.028    0.486    0.341    6.819
 1360.140   60.789    0.480    0.344    6.691
 1360.960   60.786    0.477    0.349    6.689
 1361.780   61.400    0.482    0.351    6.560
 1362.600   60.778    0.488    0.351    6.558
 1363.420   59.538    0.487    0.348    6.435
 1364.240   58.299    0.481    0.348    6.433
 1365.060   58.914    0.477    0.345    6.429
 1365.880   60.145    0.466    0.344    6.426
 1366.700   60.758    0.470    0.336    6.423
 1367.520   60.136    0.475    0.326    6.913
 1368.340   58.279    0.483    0.315   11.600
 1369.160   56.423    0.483    0.283   15.300
 1369.980   52.714    0.471    0.003   18.066
 1370.800   48.386    0.454   -0.007   21.329
 1371.620   46.530    0.139   -0.002   21.318
 1372.440   45.905    0.134    0.002   21.305
 1373.260   47.138    0.140    0.008   20.144
 1374.080   48.369    0.162    0.021   17.366
 1374.900   50.219    0.203    0.024   13.151
 1375.720   53.301    0.212    0.026   10.334
 1376.540   54.535    0.218    0.036    8.908
 1377.360   57.000    0.250    0.054    7.398
 1378.180   59.467    0.401    0.090    6.866
 1379.000   60.082    0.433    0.140    6.614
 1379.820   61.931    0.448    0.240    6.490
 1380.640   62.544    0.470    0.329    6.368
 1381.460   62.540    0.474    0.329    6.248
 1382.280   62.536    0.461    0.324    6.244
 1383.100   60.679    0.459    0.327    6.242
 1383.920   60.675    0.478    0.332    6.237
 1384.740   61.906    0.488    0.335    6.235
 1385.560   61.904    0.504    0.329    6.233
 1386.380   61.898    0.509    0.329    6.229
 1387.200   61.277    0.503    0.329    6.225
 1388.020   60.655    0.488    0.330    6.223
 1388.850   60.034    0.458    0.331    6.220
 1389.670   60.031    0.453    0.331    6.217
 1390.490   60.643    0.464    0.325    6.100
 1391.310   61.873    0.481    0.318    5.985
 1392.130   62.489    0.492    0.320    5.872
 1392.950   63.718    0.490    0.326    5.870
 1393.770   63.715    0.480    0.332    5.759
 1394.590   64.329    0.474    0.334    5.756
 1395.410   64.326    0.469    0.334    5.647
 1396.230   64.322    0.466    0.334    5.644
 1397.050   64.318    0.463    0.337    5.641
 1397.870   64.315    0.472    0.340    5.638
 1398.690   64.311    0.509    0.329    5.636
 1399.510   63.689    0.504    0.320    5.845
 1400.330   63.068    0.500    0.312    5.952
 1401.150   61.829    0.491    0.311    5.949
 1401.970   61.825    0.478    0.318    5.837
 1402.790   63.054    0.469    0.326    5.518
 1403.610   64.905    0.460    0.330    5.316
 1404.430   66.754    0.464    0.323    4.934
 1405.250   71.074    0.472    0.312    4.753
 1406.070   72.923    0.477    0.302    4.750
 1406.890   72.918    0.479    0.288    5.018
 1407.710   72.296    0.491    0.297    5.205
 1408.530   71.057    0.512    0.271    5.601
 1409.350   68.582    0.504    0.241    5.704
 1410.170   66.106    0.473    0.233    6.027
 1410.990   65.487    0.469    0.276    6.251
 1411.810   64.248    0.485    0.285    6.364
 1412.630   64.860    0.492    0.295    6.480
 1413.450   64.857    0.489    0.308    6.597
 1414.270   66.089    0.483    0.299    6.717
 1415.090   67.938    0.478    0.285    6.713
 1415.910   69.168    0.478    0.291    6.709
 1416.730   69.783    0.478    0.296    6.706
 1417.550   70.396    0.480    0.293    6.828
 1418.370   70.393    0.484    0.288    6.824
 1419.190   69.154    0.490    0.279    6.820
 1420.010   66.679    0.488    0.284    6.818
 1420.830   66.058    0.478    0.279    6.815
 1421.650   67.907    0.465    0.260    6.811
 1422.470   70.372    0.467    0.249    6.807
 1423.290   71.605    0.476    0.273    6.679
 1424.110   73.453    0.479    0.286    6.677
 1424.930   74.067    0.478    0.283    6.673
 1425.750   74.062    0.477    0.272    6.547
 1426.570   73.441    0.476    0.253    6.544
 1427.400   72.819    0.474    0.246    6.540
 1428.220   72.197    0.472    0.272    6.537
 1429.040   71.576    0.472    0.276    6.533
 1429.860   71.573    0.472    0.276    6.411
 1430.680   72.803    0.473    0.270    6.407
 1431.500   74.652    0.473    0.255    6.405
 1432.320   77.735    0.473    0.231    6.402
 1433.140   78.969    0.473    0.224    6.281
 1433.960   81.433    0.473    0.211    6.278
 1434.780   82.049    0.472    0.205    6.274
 1435.600   83.280    0.472    0.208    6.270
 1436.420   83.276    0.476    0.209    6.268
 1437.240   83.272    0.479    0.212    6.264
 1438.060   85.121    0.481    0.212    6.147
 1438.880   86.971    0.479    0.214    6.143
 1439.700   90.671    0.471    0.219    6.029
 1440.520   93.756    0.464    0.222    6.026
 1441.340   93.751    0.451    0.222    5.912
 1442.160   93.131    0.442    0.215    5.799
 1442.980   92.510    0.433    0.207    5.691
 1443.800   91.270    0.431    0.206    5.584
 1444.620   90.648    0.439    0.206    5.280
 1445.440   89.409    0.449    0.208    4.810
 1446.260   87.551    0.460    0.213    4.465
 1447.080   85.694    0.468    0.222    3.994
 1447.900   88.161    0.470    0.226    3.573
 1448.720   89.392    0.483    0.239    3.137
 1449.540   89.388    0.506    0.249    2.806
 1450.360   88.765    0.545    0.258    2.557
 1451.180   88.145    0.563    0.269    2.373
 1452.000   87.524    0.607    0.268    2.285
 1452.820   85.668    0.597    0.263    2.243
 1453.640   82.574    0.577    0.268    2.242
 1454.460   82.572    0.582    0.270    2.282
 1455.280   82.568    0.588    0.272    2.323
 1456.100   82.564    0.592    0.272    2.366
 1456.920   82.560    0.591    0.266    2.454
 1457.740   83.174    0.580    0.259    2.690
 1458.560   83.788    0.573    0.251    2.842
 1459.380   86.255    0.561    0.251    3.003
 1460.200   91.191    0.567    0.250    3.233
 1461.020   93.040    0.568    0.246    3.479
 1461.840   91.182    0.551    0.236    3.885
 1462.660   90.561    0.522    0.201    4.339
 1463.480   87.469    0.487    0.181    4.847
 1464.300   84.994    0.469    0.154    5.514
 1465.120   83.137    0.447    0.135    6.158
 1465.940   83.133    0.426    0.127    7.007
 1466.770   85.600    0.405    0.161    6.504
 1467.590   88.685    0.426    0.187    5.818
 1468.410   91.770    0.451    0.193    5.301
 1469.230   94.236    0.461    0.193    4.741
 1470.050   96.084    0.474    0.188    4.567
