~VERSION INFORMATION
 VERS.                 2.0:   CWLS LOG ASCII STANDARD -VERSION 2.0
 WRAP.                  NO:   ONE LINE PER DEPTH STEP
~WELL INFORMATION BLOCK
#MNEM.UNIT           DATA                    DESCRIPTION OF MNEMONIC
#---------    -------------------            -------------------------------
# Generated from Intellog Unique Number	CS_73_76/WELL/3272
WELL.         TOTAL PETROLEUM (N.A.) LTD     : Well_name    - WELL
LOC .         00/12-14-075-08W4/0            : Location     - LOCATION
UWI .         00/12-14-075-08W4/0            : Uwi          - UNIQUE WELL ID
ENTR.         SP                             : Entered      - ENTERED BY
SRVC.         SCHLUMBERGER                   : Scn          - SERVICE COMPANY
STRT.M        250                            : top_depth    - START DEPTH
STOP.M        495                            : bot_depth    - STOP DEPTH
STEP.M        0.25                           : increment    - STEP LENGTH
 NULL. -999.2500:NULL Value
~CURVE INFORMATION BLOCK
#MNEM UNIT       ERCB CURVE CODE    CURVE DESCRIPTION
#-----------   ------------------   ----------------------------------
DEPT.M        00 001 00 00         : DEPTH        - DEPTH
ILD .OHMM     00 120 00 00         : RESD         - DEEP RESISTIVITY (DIL)
DPHI.V/V      00 890 00 00         : PHID         - DENSITY POROSITY (LIMESTONE)
NPHI.V/V      00 330 00 00         : PHIN         - NEUTRON POROSITY (LIMESTONE)
GR  .API      00 310 00 00         : GR           - GAMMA RAY
~PARAMETER INFORMATION
#MNEM.UNIT           DATA             DESCRIPTION OF MNEMONIC
#---------         -----------     ------------------------------
GL  .M        668.17               : gl           - GROUND LEVEL ELEVATION
EREF.M        671.17               : kb           - ELEVATION OF DEPTH REFERENCE
DATM.M        668.17               : datum        - DATUM ELEVATION
TDD .M        504                  : tdd          - TOTAL DEPTH DRILLER
RUN .         ONE                  : Run          - RUN NUMBER
ENG .         BILL                 : Engineer     - RECORDING ENGINEER
WIT .         JIM                  : Witness      - WITNESSED BY
MUD .         GEL                  : Mud_type     - MUD TYPE
MATR.         LIMESTONE            : Logunit      - NEUTRON MATRIX
TMAX.C        23.5                 : BHT          - MAXIMUM RECORDED TEMPERATURE
BHTD.M        504                  : BHTDEP       - MAXIMUM RECORDED TEMPERATURE
MATR.         1                    : LOGUNIT      - NEUTRON MATRIX
RMT .C        25                   : MDTP         - TEMPERATURE OF MUD
NEUT.         1                    : NEUTRON      - NEUTRON TYPE
RESI.         0                    : RESIST       - RESISTIVITY TYPE
RMC .OHMM     0.25                 : RMC          - RESISTIVITY OF MUD CAKE
RMF .OHMM     0.25                 : RMF          - RESISTIVITY OF MUD FILTRATE
SUFT.C        15                   : SUFT         - SURFACE TEMPERATURE
~A  DEPTH     RESD     PHID     PHIN       GR
# ...
  293.500    5.974    0.196    0.537  114.144
  293.750    5.863    0.205    0.536  115.370
  294.000    5.543    0.216    0.529  115.372
  294.250    5.339    0.220    0.535  114.149
  294.500    5.143    0.229    0.548  115.988
  294.750    5.242    0.225    0.554  114.152
  295.000    5.342    0.228    0.515  103.133
  295.250    6.954    0.250    0.478   94.563
  295.500    9.579    0.271    0.449   81.707
  295.750   11.785    0.248    0.426   72.525
  296.000   14.774    0.205    0.409   65.792
  296.250   19.970    0.239    0.409   67.630
  296.500   22.364    0.269    0.417   68.856
  296.750   23.229    0.287    0.422   65.796
  297.000   23.232    0.291    0.421   69.472
  297.250   23.235    0.291    0.423   73.759
  297.500   22.808    0.297    0.436   76.822
  297.750   22.813    0.304    0.450   75.599
  298.000   22.393    0.305    0.456   70.702
  298.250   21.979    0.300    0.445   67.642
  298.500   20.776    0.300    0.431   70.705
  298.750   18.915    0.297    0.420   79.891
  299.000   16.583    0.287    0.414   86.627
  299.250   14.002    0.212    0.422   92.138
  299.500   11.823    0.155    0.426  100.099
  299.750   10.172    0.160    0.441  105.611
  300.000    8.589    0.172    0.449  110.510
  300.250    7.967    0.173    0.456  112.961
  300.500    7.253    0.173    0.460  111.126
  300.750    6.857    0.174    0.471  116.026
  301.000    6.604    0.176    0.481  119.088
  301.250    6.483    0.184    0.476  116.641
  301.500    6.484    0.184    0.497  113.581
  301.750    7.126    0.199    0.509  119.093
  302.000    9.276    0.216    0.481  121.543
  302.250   11.412    0.239    0.467  111.137
  302.500   13.021    0.261    0.460  103.179
  302.750   15.722    0.287    0.445   92.160
  303.000   17.606    0.300    0.426   90.325
  303.250   18.633    0.298    0.426   89.102
  303.500   18.990    0.284    0.443   87.879
  303.750   18.640    0.277    0.452   90.329
  304.000   16.970    0.264    0.454   96.453
  304.250   16.041    0.256    0.459   98.904
  304.500   15.453    0.264    0.467  104.416
  304.750   15.749    0.248    0.452  106.866
  305.000   17.636    0.239    0.432  101.969
  305.250   19.018    0.259    0.423   87.277
  305.500   21.702    0.284    0.415   70.748
  305.750   23.847    0.276    0.403   64.015
  306.000   26.705    0.259    0.415   57.282
  306.250   28.798    0.270    0.433   55.447
  306.500   30.478    0.293    0.427   52.387
  306.750   31.654    0.305    0.407   48.715
  307.000   32.877    0.284    0.369   46.267
  307.250   32.881    0.245    0.351   54.228
  307.500   32.277    0.229    0.376   64.026
  307.750   29.384    0.231    0.398   68.925
  308.000   26.751    0.253    0.416   71.987
  308.250   23.453    0.262    0.431   76.275
  308.500   19.433    0.273    0.434   81.787
  308.750   14.935    0.279    0.434   87.911
  309.000   12.144    0.262    0.427   92.198
  309.250    9.510    0.251    0.422  100.771
  309.500    8.658    0.232    0.434  109.956
  309.750    8.184    0.209    0.445  113.019
  310.000    8.826    0.199    0.454  106.898
  310.250    9.883    0.187    0.458   94.043
  310.500   11.067    0.189    0.458   89.146
  310.750   12.393    0.222    0.418   83.025
  311.000   13.619    0.251    0.389   77.516
  311.250   14.414    0.255    0.378   75.681
  311.500   14.690    0.226    0.374   79.968
  311.750   14.973    0.227    0.382   83.031
  312.000   13.631    0.244    0.389   83.645
  312.250   11.085    0.245    0.393   87.320
  312.500   10.091    0.239    0.399   93.444
  312.750    9.360    0.224    0.416  103.241
  313.000    8.522    0.216    0.445  109.978
  313.250    8.056    0.216    0.458  108.143
  313.500    7.907    0.224    0.473  105.083
  313.750    9.023    0.235    0.491  100.799
  314.000    9.548    0.244    0.491   98.352
  314.250   10.493    0.249    0.489   97.128
  314.500   11.531    0.172    0.491   93.456
  314.750   12.435    0.086    0.462   87.335
  315.000   13.161    0.103    0.421   91.010
  315.250   13.669    0.163    0.439   94.686
  315.500   13.931    0.217    0.447   95.911
  315.750   14.198    0.239    0.443   94.689
  316.000   14.472    0.235    0.422   91.629
  316.250   14.474    0.231    0.418   91.018
  316.500   14.207    0.227    0.432   88.570
  316.750   13.946    0.240    0.438   87.348
  317.000   13.434    0.231    0.416   87.961
  317.250   12.939    0.228    0.412   90.412
  317.500   12.464    0.223    0.426   89.189
  317.750   11.562    0.211    0.434   89.802
  318.000   10.527    0.201    0.447   94.702
  318.250    9.951    0.217    0.462   98.378
  318.500    9.585    0.229    0.459  100.215
  318.750    9.587    0.215    0.471   99.605
  319.000   10.146    0.211    0.491   97.769
  319.250   11.150    0.261    0.502   92.260
  319.500   12.722    0.299    0.461   73.282
  319.750   13.980    0.331    0.444   62.263
  320.000   15.077    0.279    0.447   69.000
  320.250   15.367    0.265    0.460   75.736
  320.500   13.729    0.254    0.449   79.411
  320.750   10.551    0.244    0.423   82.474
  321.000    7.957    0.244    0.423   85.537
  321.250    6.846    0.262    0.462   87.375
  321.500    7.246    0.275    0.509   90.438
  321.750    8.586    0.271    0.515   92.276
  322.000    9.258    0.255    0.471   91.666
  322.250   10.970    0.238    0.444   90.442
  322.500   11.829    0.231    0.422   83.709
  322.750   12.757    0.249    0.415   75.751
  323.000   13.758    0.254    0.426   67.182
  323.250   14.022    0.256    0.438   64.122
  323.500   13.256    0.257    0.407   68.409
  323.750   12.531    0.254    0.393   75.758
  324.000   12.069    0.243    0.399   79.432
  324.250   11.626    0.239    0.411   80.046
  324.500   11.412    0.239    0.416   79.436
  324.750   11.202    0.241    0.420   77.600
  325.000   10.392    0.254    0.423   75.765
  325.250   10.009    0.259    0.435   78.216
  325.500    9.285    0.240    0.429   81.279
  325.750    8.615    0.205    0.434   83.729
  326.000    8.456    0.223    0.439   81.894
  326.250    8.300    0.234    0.442   75.773
  326.500    7.995    0.218    0.445   74.550
  326.750    7.996    0.241    0.448   79.449
  327.000    7.998    0.260    0.446   82.512
  327.250    8.151    0.251    0.442   84.963
  327.500    8.791    0.244    0.450   83.740
  327.750   10.614    0.243    0.460   80.680
  328.000   13.058    0.260    0.470   79.457
  328.250   16.370    0.281    0.464   77.622
  328.500   21.310    0.296    0.465   70.276
  328.750   27.223    0.321    0.468   62.931
  329.000   33.492    0.339    0.457   57.422
  329.250   38.217    0.350    0.426   58.037
  329.500   39.694    0.354    0.412   58.651
  329.750   40.458    0.354    0.424   58.040
  330.000   40.464    0.348    0.431   57.428
  330.250   40.474    0.340    0.439   56.205
  330.500   41.252    0.342    0.433   54.982
  330.750   41.258    0.337    0.429   52.535
  331.000   41.269    0.338    0.423   51.312
  331.250   41.275    0.351    0.428   50.701
  331.500   40.516    0.353    0.434   50.091
  331.750   40.525    0.348    0.439   48.867
  332.000   40.534    0.350    0.457   51.318
  332.250   40.539    0.347    0.466   53.156
  332.500   39.794    0.342    0.465   53.770
  332.750   39.804    0.334    0.454   56.833
  333.000   39.810    0.344    0.465   59.283
  333.250   39.822    0.358    0.476   56.836
  333.500   40.586    0.360    0.468   55.613
  333.750   40.596    0.362    0.465   56.227
  334.000   40.607    0.362    0.460   56.229
  334.250   41.380    0.360    0.472   56.230
  334.500   41.394    0.360    0.482   56.844
  334.750   41.398    0.361    0.471   54.396
  335.000   41.407    0.365    0.460   52.561
  335.250   41.416    0.365    0.462   50.726
  335.500   41.428    0.359    0.464   50.115
  335.750   40.662    0.349    0.460   49.505
  336.000   40.669    0.339    0.460   50.118
  336.250   40.680    0.337    0.464   50.731
  336.500   40.690    0.353    0.461   51.958
  336.750   40.694    0.365    0.444   50.735
