~VERSION INFORMATION
 VERS.                 2.0:   CWLS LOG ASCII STANDARD -VERSION 2.0
 WRAP.                  NO:   ONE LINE PER DEPTH STEP
~WELL INFORMATION BLOCK
#MNEM.UNIT           DATA                    DESCRIPTION OF MNEMONIC
#---------    -------------------            -------------------------------
# Generated from Intellog Unique Number	CS_71_72/WELL/894
WELL.         GERC ET AL WANDER              : Well_name    - WELL
LOC .         00/11-10-071-13W4/0            : Location     - LOCATION
UWI .         00/11-10-071-13W4/0            : Uwi          - UNIQUE WELL ID
ENTR.         SP                             : Entered      - ENTERED BY
SRVC.         SCHLUMBERGER                   : Scn          - SERVICE COMPANY
STRT.M        304.8                          : top_depth    - START DEPTH
STOP.M        539.3                          : bot_depth    - STOP DEPTH
STEP.M        0.25                           : increment    - STEP LENGTH
 NULL. -999.2500:NULL Value
~CURVE INFORMATION BLOCK
#MNEM UNIT       ERCB CURVE CODE    CURVE DESCRIPTION
#-----------   ------------------   ----------------------------------
DEPT.M        00 001 00 00         : DEPTH        - DEPTH
GR  .API      00 310 00 00         : GR           - GAMMA RAY
DPHI.V/V      00 890 00 00         : PHID         - DENSITY POROSITY (SANDSTONE)
NPHI.V/V      00 330 00 00         : PHIN         - NEUTRON POROSITY (SANDSTONE)
ILD .OHMM     00 120 00 00         : RESD         - DEEP RESISTIVITY (DIL)
~PARAMETER INFORMATION
#MNEM.UNIT           DATA             DESCRIPTION OF MNEMONIC
#---------         -----------     ------------------------------
GL  .M        630.326              : gl           - GROUND LEVEL ELEVATION
EREF.M        634.289              : kb           - ELEVATION OF DEPTH REFERENCE
DATM.M        630.326              : datum        - DATUM ELEVATION
TDD .M        545.592              : tdd          - TOTAL DEPTH DRILLER
RUN .         ONE                  : Run          - RUN NUMBER
ENG .         BILL                 : Engineer     - RECORDING ENGINEER
WIT .         JIM                  : Witness      - WITNESSED BY
MUD .         GEL                  : Mud_type     - MUD TYPE
MATR.         SANDSTONE            : Logunit      - NEUTRON MATRIX
TMAX.C        20                   : BHT          - MAXIMUM RECORDED TEMPERATURE
BHTD.M        545.592              : BHTDEP       - MAXIMUM RECORDED TEMPERATURE
MATR.         1                    : LOGUNIT      - NEUTRON MATRIX
RMT .C        25                   : MDTP         - TEMPERATURE OF MUD
NEUT.         1                    : NEUTRON      - NEUTRON TYPE
RESI.         0                    : RESIST       - RESISTIVITY TYPE
RMC .OHMM     0.25                 : RMC          - RESISTIVITY OF MUD CAKE
RMF .OHMM     0.25                 : RMF          - RESISTIVITY OF MUD FILTRATE
SUFT.C        15                   : SUFT         - SURFACE TEMPERATURE
~A  DEPTH       GR     PHID     PHIN     RESD
# ...
  435.300   65.951    0.231    0.348    4.839
  435.550   67.957    0.273    0.339    4.521
  435.800   62.357    0.254    0.336    4.366
  436.050   57.419    0.261    0.348    4.334
  436.300   53.385    0.286    0.359    4.309
  436.550   51.426    0.304    0.368    4.274
  436.800   51.646    0.324    0.351    4.293
  437.050   52.473    0.310    0.351    4.340
  437.300   52.949    0.312    0.363    4.434
  437.550   53.036    0.307    0.332    4.441
  437.800   53.323    0.316    0.330    4.423
  438.050   53.616    0.326    0.342    4.390
  438.300   53.960    0.323    0.355    4.342
  438.550   54.625    0.320    0.361    4.332
  438.800   55.943    0.317    0.357    4.357
  439.050   56.546    0.314    0.348    4.385
  439.300   57.921    0.310    0.340    4.430
  439.550   59.258    0.320    0.345    4.497
  439.800   60.761    0.316    0.356    4.559
  440.050   62.589    0.300    0.349    4.636
  440.300   64.979    0.283    0.331    4.692
  440.550   67.214    0.265    0.321    4.744
  440.800   69.196    0.257    0.332    4.661
  441.050   70.530    0.272    0.328    4.380
  441.300   71.175    0.276    0.335    4.168
  441.550   70.982    0.260    0.365    4.008
  441.800   70.787    0.279    0.401    3.906
  442.050   71.054    0.303    0.431    3.837
  442.300   72.513    0.278    0.415    3.843
  442.550   74.647    0.221    0.399    3.886
  442.800   75.722    0.208    0.396    4.067
  443.050   75.975    0.228    0.382    4.280
  443.300   76.557    0.229    0.374    4.473
  443.550   77.672    0.214    0.370    4.635
  443.800   75.687    0.203    0.355    4.885
  444.050   71.795    0.220    0.341    5.018
  444.300   69.187    0.206    0.334    5.230
  444.550   69.276    0.185    0.343    5.372
  444.800   70.569    0.173    0.346    5.449
  445.050   72.344    0.195    0.360    5.392
  445.300   74.469    0.217    0.358    5.207
  445.550   76.325    0.217    0.354    4.925
  445.800   77.342    0.219    0.344    4.732
  446.050   80.125    0.228    0.332    4.494
  446.300   76.861    0.213    0.321    4.306
  446.550   79.151    0.203    0.340    4.192
  446.800   80.917    0.212    0.365    4.129
  447.050   82.356    0.211    0.377    4.102
  447.300   81.921    0.212    0.370    4.103
  447.550   82.484    0.208    0.352    4.245
  447.800   82.969    0.206    0.342    4.443
  448.050   83.452    0.210    0.351    4.582
  448.300   83.783    0.218    0.361    4.579
  448.550   83.719    0.216    0.373    4.177
  448.800   82.469    0.210    0.382    3.857
  449.050   81.231    0.213    0.383    3.507
  449.300   82.189    0.220    0.379    3.255
  449.550   82.947    0.229    0.378    3.040
  449.800   81.971    0.235    0.380    2.798
  450.050   79.417    0.235    0.389    2.676
  450.300   77.618    0.227    0.398    2.497
  450.550   75.842    0.230    0.400    2.583
  450.800   76.190    0.228    0.405    2.878
  451.050   76.895    0.220    0.420    3.263
  451.300   74.319    0.220    0.404    3.760
  451.550   71.457    0.260    0.361    4.305
  451.800   68.668    0.267    0.343    4.692
  452.050   64.460    0.253    0.338    5.015
  452.300   62.538    0.230    0.329    5.297
  452.550   61.300    0.211    0.324    5.583
  452.800   63.464    0.203    0.330    5.658
  453.050   65.075    0.196    0.325    5.455
  453.300   66.889    0.186    0.311    5.073
  453.550   70.504    0.188    0.328    4.549
  453.800   71.543    0.204    0.342    4.223
  454.050   74.120    0.239    0.357    3.983
  454.300   74.308    0.235    0.352    4.007
  454.550   69.565    0.245    0.349    4.171
  454.800   68.819    0.269    0.348    4.357
  455.050   71.878    0.251    0.356    4.668
  455.300   72.582    0.226    0.344    4.959
  455.550   71.329    0.234    0.310    5.178
  455.800   71.378    0.224    0.305    5.386
  456.050   72.333    0.207    0.316    5.488
  456.300   74.682    0.206    0.300    5.487
  456.550   75.968    0.217    0.305    5.375
  456.800   75.419    0.218    0.314    5.122
  457.050   71.726    0.213    0.337    5.007
  457.300   73.761    0.206    0.333    5.010
  457.550   73.626    0.208    0.331    5.040
  457.800   72.741    0.208    0.330    5.100
  458.050   73.449    0.204    0.320    5.219
  458.300   74.585    0.196    0.317    5.803
  458.550   74.588    0.185    0.331    6.111
  458.800   71.273    0.183    0.299    6.603
  459.050   65.323    0.175    0.282    7.058
  459.300   62.297    0.146    0.262    7.159
  459.550   66.854    0.121    0.240    6.914
  459.800   72.908    0.129    0.300    6.248
  460.050   76.004    0.174    0.342    5.818
  460.300   76.886    0.204    0.305    5.699
  460.550   77.221    0.218    0.310    5.769
  460.800   78.709    0.217    0.323    5.841
  461.050   79.552    0.205    0.348    5.914
  461.300   79.365    0.192    0.362    5.981
  461.550   77.858    0.197    0.345    5.997
  461.800   78.338    0.226    0.327    5.907
  462.050   78.005    0.217    0.317    5.784
  462.300   77.035    0.202    0.310    5.563
  462.550   76.017    0.194    0.321    5.419
  462.800   76.181    0.180    0.331    5.370
  463.050   78.948    0.193    0.349    5.635
  463.300   81.126    0.191    0.339    5.971
  463.550   72.876    0.182    0.322    6.270
  463.800   71.488    0.175    0.312    6.419
  464.050   69.803    0.164    0.301    5.297
  464.300   74.893    0.161    0.296    4.794
  464.550   81.576    0.206    0.304    4.833
  464.800   84.161    0.203    0.329    4.954
  465.050   82.916    0.181    0.315    5.102
  465.300   81.656    0.160    0.306    5.127
  465.550   70.466    0.136    0.291    4.768
  465.800   63.136    0.098    0.270    4.373
  466.050   66.869    0.143    0.266    4.170
  466.300   71.669    0.204    0.335    3.964
  466.550   73.093    0.228    0.353    3.853
  466.800   72.633    0.208    0.360    3.723
  467.050   71.847    0.212    0.360    3.476
  467.300   72.125    0.243    0.361    3.243
  467.550   75.645    0.260    0.385    2.945
  467.800   76.201    0.253    0.412    2.615
  468.050   76.106    0.270    0.469    2.341
  468.300   75.094    0.283    0.476    2.117
  468.550   74.599    0.270    0.477    1.967
  468.800   76.069    0.260    0.463    2.188
  469.050   78.703    0.246    0.448    2.510
  469.300   81.720    0.257    0.410    2.846
  469.550   81.609    0.267    0.395    3.257
  469.800   77.363    0.267    0.397    3.564
  470.050   73.928    0.307    0.452    3.955
  470.300   71.240    0.341    0.470    4.315
  470.550   67.016    0.369    0.428    4.584
  470.800   65.160    0.283    0.390    4.555
  471.050   61.693    0.221    0.362    4.496
  471.300   61.899    0.200    0.384    4.551
  471.550   65.738    0.279    0.398    4.802
  471.800   66.201    0.327    0.381    5.177
  472.050   64.459    0.268    0.272    5.749
  472.300   61.968    0.255    0.206    6.294
  472.550   54.058    0.217    0.170    6.882
  472.800   51.512    0.110    0.147    7.467
  473.050   54.481    0.022    0.177    8.010
  473.300   61.048    0.066    0.286    8.189
  473.550   65.310    0.151    0.380    7.158
  473.800   67.956    0.205    0.406    5.859
  474.050   70.001    0.240    0.399    4.926
  474.300   71.567    0.245    0.393    4.317
  474.550   68.797    0.216    0.378    4.005
  474.800   68.321    0.234    0.362    3.662
  475.050   71.233    0.229    0.399    3.447
  475.300   74.875    0.208    0.428    3.119
  475.550   77.717    0.231    0.418    2.823
  475.800   80.578    0.231    0.408    2.643
  476.050   78.487    0.218    0.414    2.635
  476.300   80.119    0.214    0.432    2.691
  476.550   82.191    0.210    0.431    2.801
  476.800   79.061    0.208    0.439    2.866
  477.050   77.055    0.207    0.435    2.979
  477.300   75.448    0.210    0.394    3.116
  477.550   73.864    0.215    0.365    3.194
  477.800   72.816    0.199    0.366    3.226
  478.050   77.475    0.185    0.364    3.224
  478.300   82.425    0.199    0.365    3.196
  478.550   84.510    0.220    0.400    3.078
