~VERSION INFORMATION
 VERS.                 2.0:   CWLS LOG ASCII STANDARD -VERSION 2.0
 WRAP.                  NO:   ONE LINE PER DEPTH STEP
~WELL INFORMATION BLOCK
#MNEM.UNIT           DATA                    DESCRIPTION OF MNEMONIC
#---------    -------------------            -------------------------------
# Generated from Intellog Unique Number	CX_WELLS/WELL/4063
WELL.         10-01-079-01W5                 : Well_name    - WELL
LOC .         00/10-01-079-01W5/0            : Location     - LOCATION
UWI .         00/10-01-079-01W5/0            : Uwi          - UNIQUE WELL ID
ENTR.         MAX                            : Entered      - ENTERED BY
SRVC.         COMPUTALOG                     : Scn          - SERVICE COMPANY
STRT.F        950                            : top_depth    - START DEPTH
STOP.F        1789.9                         : bot_depth    - STOP DEPTH
STEP.F        0.82                           : increment    - STEP LENGTH
 NULL. -999.2500:NULL Value
~CURVE INFORMATION BLOCK
#MNEM UNIT       ERCB CURVE CODE    CURVE DESCRIPTION
#-----------   ------------------   ----------------------------------
DEPT.F        00 001 00 00         : DEPTH        - DEPTH
ILD .OHMM     00 120 00 00         : RESD         - DEEP RESISTIVITY (DIL)
GR  .API      00 310 00 00         : GR           - GAMMA RAY
NPHI.V/V      00 330 00 00         : PHIN         - NEUTRON POROSITY (SANDSTONE)
DPHI.V/V      00 890 00 00         : PHID         - DENSITY POROSITY (SANDSTONE)
~PARAMETER INFORMATION
#MNEM.UNIT           DATA             DESCRIPTION OF MNEMONIC
#---------         -----------     ------------------------------
GL  .F        1935.5               : gl           - GROUND LEVEL ELEVATION
EREF.F        1947.5               : kb           - ELEVATION OF DEPTH REFERENCE
DATM.F        1935.5               : datum        - DATUM ELEVATION
TDD .F        1802                 : tdd          - TOTAL DEPTH DRILLER
RUN .         ONE                  : Run          - RUN NUMBER
ENG .         BILL                 : Engineer     - RECORDING ENGINEER
WIT .         JIM                  : Witness      - WITNESSED BY
MUD .         GEL                  : Mud_type     - MUD TYPE
MATR.         SANDSTONE            : Logunit      - NEUTRON MATRIX
TMAX.F        65                   : BHT          - MAXIMUM RECORDED TEMPERATURE
BHTD.F        1800                 : BHTDEP       - MAXIMUM RECORDED TEMPERATURE
RMT .F        62.06                : MDTP         - TEMPERATURE OF MUD
MUDD.LB/G     1.15                 : MWT          - MUD DENSITY
NEUT.         1                    : NEUTRON      - NEUTRON TYPE
RESI.         0                    : RESIST       - RESISTIVITY TYPE
RM  .OHMM     5.1                  : RM           - RESISTIVITY OF MUD
RMC .OHMM     0                    : RMC          - RESISTIVITY OF MUD CAKE
RMF .OHMM     4.7                  : RMF          - RESISTIVITY OF MUD FILTRATE
SUFT.F        -4                   : SUFT         - SURFACE TEMPERATURE
~A  DEPTH     RESD       GR     PHIN     PHID
# ...
 1378.150    8.622   89.107    0.448    0.175
 1378.970    8.511   87.278    0.443    0.175
 1379.790    8.683   86.698    0.441    0.179
 1380.610    8.538   86.118    0.469    0.181
 1381.430    8.550   84.289    0.494    0.186
 1382.250    8.420   83.065    0.517    0.197
 1383.070    8.431   81.880    0.518    0.192
 1383.890    8.299   81.905    0.492    0.187
 1384.710    8.165   80.719    0.472    0.177
 1385.530    8.176   80.770    0.462    0.167
 1386.350    8.195   81.452    0.456    0.173
 1387.170    8.364   82.751    0.463    0.177
 1387.990    8.529   85.969    0.490    0.180
 1388.810    9.028   88.543    0.503    0.179
 1389.630    9.206   89.880    0.504    0.179
 1390.450    9.918   89.918    0.504    0.181
 1391.270   11.293   89.364    0.510    0.187
 1392.090   12.395   88.771    0.512    0.192
 1392.910   13.101   87.547    0.484    0.192
 1393.730   14.649   85.706    0.437    0.189
 1394.550   16.372   83.876    0.411    0.162
 1395.370   16.993   82.047    0.402    0.148
 1396.190   18.316   79.562    0.360    0.099
 1397.010   18.686   77.721    0.345    0.077
 1397.830   18.392   75.879    0.331    0.093
 1398.650   17.450   75.299    0.317    0.132
 1399.480   16.858   75.375    0.346    0.159
 1400.300   15.700   76.043    0.402    0.178
 1401.120   14.364   77.987    0.425    0.186
 1401.940   13.148   80.561    0.432    0.187
 1402.760   12.947   82.516    0.441    0.183
 1403.580   12.959   83.854    0.452    0.182
 1404.400   13.221   84.523    0.460    0.185
 1405.220   13.488   83.955    0.468    0.190
 1406.040   14.013   83.981    0.477    0.199
 1406.860   14.832   82.770    0.469    0.185
 1407.680   16.286   81.597    0.461    0.194
 1408.500   16.912   81.622    0.458    0.201
 1409.320   18.236   81.711    0.457    0.193
 1410.140   18.604   81.736    0.449    0.181
 1410.960   18.971   81.144    0.405    0.178
 1411.780   19.364   79.327    0.360    0.173
 1412.600   19.033   78.103    0.298    0.117
 1413.420   18.405   76.262    0.312    0.103
 1414.240   17.774   78.218    0.338    0.138
 1415.060   16.560   80.148    0.387    0.171
 1415.880   15.718   83.365    0.434    0.183
 1416.700   14.644   85.952    0.463    0.186
 1417.520   13.900   87.252    0.481    0.188
 1418.340   13.663   87.958    0.493    0.187
 1419.160   12.512   87.996    0.494    0.190
 1419.980   12.077   88.060    0.493    0.194
 1420.800   11.458   88.123    0.484    0.196
 1421.620   11.485   88.161    0.445    0.189
 1422.440   11.722   88.237    0.439    0.162
 1423.260   11.959   88.275    0.427    0.154
 1424.080   12.201   88.313    0.422    0.154
 1424.900   12.447   88.377    0.448    0.172
 1425.720   12.252   88.415    0.498    0.181
 1426.540   12.048   88.478    0.533    0.186
 1427.360   11.640   88.541    0.509    0.180
 1428.180   11.246   88.592    0.506    0.178
 1429.000   10.870   89.274    0.515    0.180
 1429.820   10.885   89.324    0.523    0.187
 1430.640   10.915   90.019    0.529    0.187
 1431.460   10.935   90.069    0.496    0.186
 1432.280   11.151   90.132    0.475    0.183
 1433.100   11.377   90.158    0.469    0.186
 1433.920   11.606   90.234    0.477    0.183
 1434.740   11.633   89.654    0.485    0.182
 1435.560   11.655   89.704    0.495    0.178
 1436.380   11.677   89.755    0.503    0.173
 1437.200   11.698   89.188    0.504    0.162
 1438.020   11.509   89.239    0.499    0.163
 1438.850   11.541   89.289    0.492    0.169
 1439.670   11.557   89.340    0.492    0.173
 1440.490   11.375   89.403    0.492    0.174
 1441.310   11.396   89.454    0.492    0.170
 1442.130   11.418   89.505    0.487    0.169
 1442.950   11.233   89.543    0.487    0.170
 1443.770   11.056   89.593    0.488    0.175
 1444.590   10.878   89.644    0.495    0.180
 1445.410   10.697   89.077    0.497    0.183
 1446.230   10.534   88.522    0.504    0.182
 1447.050   10.543   88.560    0.508    0.180
 1447.870   10.373   87.967    0.500    0.179
 1448.690   10.402   88.043    0.487    0.175
 1449.510   10.421   88.081    0.455    0.167
 1450.330   10.440   88.132    0.410    0.155
 1451.150   10.656   87.564    0.395    0.106
 1451.970   10.671   86.972    0.387    0.101
 1452.790   10.892   86.391    0.437    0.132
 1453.610   10.152   92.788    0.470    0.153
 1454.430    9.804   94.706    0.495    0.170
 1455.250    9.301   98.554    0.498    0.171
 1456.070    8.982   97.987    0.497    0.168
 1456.890    8.682   96.158    0.493    0.167
 1457.710    8.542   94.947    0.479    0.165
 1458.530    8.718   94.354    0.456    0.165
 1459.350    8.739   94.405    0.443    0.165
 1460.170    8.911   94.455    0.434    0.156
 1460.990    8.932   94.519    0.426    0.154
 1461.810    9.112   95.200    0.421    0.146
 1462.630    9.125   95.894    0.422    0.143
 1463.450    8.820   97.207    0.424    0.146
 1464.270    8.521   98.519    0.422    0.148
 1465.090    8.387  100.462    0.423    0.151
 1465.910    8.399  101.144    0.435    0.152
 1466.730    8.565  102.469    0.460    0.154
 1467.550    9.577  100.639    0.478    0.158
 1468.370   10.694   98.142    0.445    0.157
 1469.190   12.615   91.897    0.438    0.156
 1470.010   15.439   86.258    0.443    0.148
 1470.830   17.886   78.108    0.436    0.142
 1471.650   21.515   72.481    0.414    0.135
 1472.470   22.741   71.283    0.390    0.098
 1473.290   24.499   74.475    0.446    0.111
 1474.110   25.029   80.847    0.500    0.157
 1474.930   25.063   82.802    0.506    0.187
 1475.750   25.110   77.794    0.493    0.201
 1476.570   25.145   69.026    0.447    0.197
 1477.400   25.191   64.649    0.396    0.171
 1478.220   24.784   65.343    0.422    0.163
 1479.040   24.841   68.547    0.446    0.151
 1479.860   24.911   69.873    0.470    0.157
 1480.680   24.945   69.910    0.494    0.166
 1481.500   25.003   69.330    0.499    0.169
 1482.320   25.026   67.514    0.499    0.159
 1483.140   25.084   66.303    0.429    0.139
 1483.960   24.679   65.723    0.398    0.144
 1484.780   22.600   65.761    0.370    0.157
 1485.600   22.214   68.978    0.378    0.129
 1486.420   20.696   74.076    0.401    0.124
 1487.240   18.603   81.078    0.409    0.171
 1488.060   17.642   84.913    0.413    0.183
 1488.880   15.580   88.118    0.420    0.169
 1489.700   14.774   90.704    0.476    0.161
 1490.520   14.267   90.755    0.506    0.166
 1491.340   13.790   88.913    0.502    0.174
 1492.160   13.816   84.561    0.491    0.180
 1492.980   13.593   83.981    0.465    0.183
 1493.800   13.385   85.293    0.460    0.180
 1494.620   13.404   85.962    0.483    0.173
 1495.440   13.429   86.682    0.493    0.167
 1496.260   13.713   86.720    0.504    0.168
 1497.080   13.732   86.758    0.514    0.168
 1497.900   14.016   86.821    0.504    0.168
 1498.720   14.035   87.503    0.477    0.168
 1499.540   13.808   88.197    0.462    0.167
 1500.360   13.107   88.878    0.454    0.163
 1501.180   12.663   89.560    0.446    0.162
 1502.000   12.228   90.241    0.435    0.159
 1502.820   11.607   90.292    0.433    0.157
 1503.640   11.224   90.355    0.466    0.152
 1504.460   11.235   90.393    0.479    0.146
 1505.280   11.053   90.457    0.486    0.137
 1506.100   10.874   90.533    0.481    0.121
 1506.920   10.894   90.571    0.473    0.107
 1507.740   10.915   90.621    0.469    0.125
 1508.560   10.743   90.659    0.470    0.136
 1509.380   10.569   90.723    0.470    0.137
 1510.200   10.398   91.430    0.468    0.137
 1511.020   10.235   92.099    0.459    0.135
 1511.840   10.249   92.149    0.458    0.134
 1512.660   10.088   91.582    0.457    0.133
 1513.480    9.930   91.607    0.460    0.130
 1514.300    9.760   91.671    0.456    0.135
 1515.120    9.783   93.639    0.447    0.145
 1515.940    9.801   94.308    0.439    0.143
 1516.770    9.819   93.740    0.444    0.137
 1517.590    9.846   91.268    0.440    0.119
 1518.410    9.855   90.044    0.432    0.112
 1519.230    9.878   90.738    0.426    0.106
 1520.050   10.082   91.407    0.421    0.091
