~VERSION INFORMATION
 VERS.                 2.0:   CWLS LOG ASCII STANDARD -VERSION 2.0
 WRAP.                  NO:   ONE LINE PER DEPTH STEP
~WELL INFORMATION BLOCK
#MNEM.UNIT           DATA                    DESCRIPTION OF MNEMONIC
#---------    -------------------            -------------------------------
# Generated from Intellog Unique Number	CW_82_90/WELL/1028
WELL.         SUNLITE CANPUAC GR 11-17       : Well_name    - WELL
LOC .         00/11-17-084-20W4/0            : Location     - LOCATION
UWI .         00/11-17-084-20W4/0            : Uwi          - UNIQUE WELL ID
ENTR.         JAYE                           : Entered      - ENTERED BY
SRVC.         SCHLUMBERGER                   : Scn          - SERVICE COMPANY
DATE.         25 MAR 74                      : Date         - LOG DATE
STRT.M        198.12                         : top_depth    - START DEPTH
STOP.M        390.12                         : bot_depth    - STOP DEPTH
STEP.M        0.25                           : increment    - STEP LENGTH
 NULL. -999.2500:NULL Value
~CURVE INFORMATION BLOCK
#MNEM UNIT       ERCB CURVE CODE    CURVE DESCRIPTION
#-----------   ------------------   ----------------------------------
DEPT.M        00 001 00 00         : DEPTH        - DEPTH
CALI.MM       00 280 01 00         : CAL          - CALIPER
GR  .API      00 310 00 00         : GR           - GAMMA RAY
NPHI.V/V      00 330 00 00         : PHIN         - NEUTRON POROSITY (SANDSTONE)
DPHI.V/V      00 890 00 00         : PHID         - DENSITY POROSITY (SANDSTONE)
ILD .OHMM     00 120 00 00         : RESD         - DEEP RESISTIVITY (DIL)
~PARAMETER INFORMATION
#MNEM.UNIT           DATA             DESCRIPTION OF MNEMONIC
#---------         -----------     ------------------------------
GL  .M        622.402              : gl           - GROUND LEVEL ELEVATION
EREF.M        625.45               : kb           - ELEVATION OF DEPTH REFERENCE
DATM.M        622.402              : datum        - DATUM ELEVATION
TDD .M        401.117              : tdd          - TOTAL DEPTH DRILLER
RUN .         ONE                  : Run          - RUN NUMBER
ENG .         CHAUDHARY            : Engineer     - RECORDING ENGINEER
WIT .         FYFFE                : Witness      - WITNESSED BY
BASE.         EDMONTON             : Branch       - HOME BASE OF LOGGING UNIT
MUD .         GEL                  : Mud_type     - MUD TYPE
MATR.         SANDSTONE            : Logunit      - NEUTRON MATRIX
TMAX.C        23.3333              : BHT          - MAXIMUM RECORDED TEMPERATURE
BHTD.M        401.117              : BHTDEP       - MAXIMUM RECORDED TEMPERATURE
RMT .C        14.4444              : MDTP         - TEMPERATURE OF MUD
MUDD.KG/M     8800                 : MWT          - MUD DENSITY
NEUT.         1                    : NEUTRON      - NEUTRON TYPE
RESI.         0                    : RESIST       - RESISTIVITY TYPE
RM  .OHMM     5.66                 : RM           - RESISTIVITY OF MUD
RMC .OHMM     0                    : RMC          - RESISTIVITY OF MUD CAKE
RMF .OHMM     0                    : RMF          - RESISTIVITY OF MUD FILTRATE
SUFT.C        -17.7778             : SUFT         - SURFACE TEMPERATURE
~A  DEPTH      CAL       GR     PHIN     PHID     RESD
# ...
  307.620  167.004   78.098    0.475    0.212   10.963
  307.870  166.593   80.121    0.516    0.226    9.303
  308.120  166.491   81.471    0.523    0.219    7.766
  308.370  166.702   81.902    0.533    0.206    7.244
  308.620  166.705   80.678    0.490    0.229    7.428
  308.870  167.020   75.104    0.435    0.244    7.759
  309.120  167.127   70.939    0.408    0.227    8.239
  309.370  167.129   69.225    0.379    0.164    9.963
  309.620  167.132   67.818    0.341    0.146   11.808
  309.870  167.238   67.022    0.355    0.124   12.866
  310.120  167.864   65.492    0.374    0.096   17.454
  310.370  167.764   64.024    0.381    0.156   17.534
  310.620  167.870   64.270    0.388    0.200   16.086
  310.870  167.769   66.846    0.487    0.222   13.352
  311.120  167.876   71.321    0.531    0.245   10.880
  311.370  167.671   73.835    0.538    0.252    9.048
  311.620  167.882   75.184    0.543    0.247    7.766
  311.870  168.196   75.799    0.559    0.231    7.204
  312.120  166.435   75.249    0.533    0.229    7.052
  312.370  165.919   75.189    0.526    0.241    7.217
  312.620  165.923   74.456    0.525    0.252    8.240
  312.870  165.926   73.968    0.511    0.260    9.531
  313.120  166.344   75.134    0.488    0.251    9.974
  313.370  166.450   76.422    0.475    0.243    9.983
  313.620  167.906   79.733    0.487    0.218    9.863
  313.870  169.050   83.472    0.500    0.213    9.444
  314.120  170.091   85.741    0.518    0.200    9.123
  314.370  170.095   85.681    0.545    0.205    8.558
  314.620  169.993   85.499    0.556    0.225    8.193
  314.870  167.921   85.685    0.565    0.221    7.832
  315.120  167.094   88.505    0.578    0.217    7.666
  315.370  169.068   92.490    0.602    0.197    7.532
  315.620  170.420   94.391    0.576    0.200    7.386
  315.870  170.838   92.739    0.565    0.203    7.340
  316.120  171.152   91.576    0.556    0.212    7.319
  316.370  170.948   91.333    0.541    0.217    7.420
  316.620  170.328   91.580    0.529    0.216    7.566
  316.870  169.086   92.439    0.506    0.215    7.672
  317.120  167.740   93.973    0.505    0.212    7.750
  317.370  171.997   96.548    0.543    0.203    7.657
  317.620  176.773   98.266    0.548    0.183    7.695
  317.870  179.473   96.858    0.547    0.190    7.815
  318.120  180.514   94.348    0.535    0.189    8.088
  318.370  180.932   92.695    0.507    0.193    8.948
  318.620  181.246   91.349    0.475    0.207   10.122
  318.870  175.854   88.900    0.446    0.212   11.662
  319.120  168.179   84.796    0.399    0.210   12.711
  319.370  167.248   83.572    0.374    0.222   14.063
  319.620  166.317   80.878    0.371    0.236   15.018
  319.870  165.386   80.635    0.383    0.267   15.746
  320.120  165.701   83.088    0.381    0.257   16.267
  320.370  165.912   86.153    0.382    0.268   15.686
  320.620  166.226   88.973    0.433    0.260   14.607
  320.870  166.436   88.056    0.458    0.233   13.882
  321.120  166.438   84.136    0.491    0.200   13.514
  321.370  167.272   78.378    0.458    0.192   13.884
  321.620  167.378   73.233    0.430    0.176   14.688
  321.870  168.211   65.759    0.388    0.143   17.402
  322.120  168.837   60.797    0.258    0.087   21.395
  322.370  169.878   64.660    0.237    0.043   23.494
  322.620  170.918   72.320    0.277    0.059   22.915
  322.870  170.195   78.082    0.359    0.089   20.448
  323.120  169.161   78.758    0.458    0.188   17.034
  323.370  168.437   82.926    0.453    0.201   13.600
  323.620  168.128   85.256    0.460    0.199   11.694
  323.870  168.546   86.300    0.514    0.189   10.186
  324.120  169.587   87.405    0.542    0.176    9.432
  324.370  170.627   89.551    0.547    0.202    9.182
  324.620  170.838   88.879    0.537    0.210    9.807
  324.870  170.530   83.549    0.547    0.221   10.532
  325.120  169.288   80.304    0.552    0.234   11.738
  325.370  167.630   81.592    0.508    0.230   12.582
  325.620  166.597   85.516    0.485    0.210   13.364
  325.870  166.703   85.946    0.454    0.172   14.114
  326.120  166.602   84.661    0.425    0.164   14.908
  326.370  166.708   81.415    0.395    0.166   15.715
  326.620  166.816   81.602    0.361    0.152   15.994
  326.870  166.611   84.176    0.377    0.130   15.033
  327.120  166.821   89.754    0.442    0.151   14.181
  327.370  166.721   90.307    0.508    0.211   13.475
  327.620  166.204   89.083    0.502    0.217   12.854
  327.870  165.897   87.615    0.486    0.221   12.512
  328.120  166.211   88.719    0.457    0.214   12.293
  328.370  166.006   89.089    0.459    0.207   12.285
  328.620  165.594   85.966    0.473    0.198   12.408
  328.870  165.078   84.987    0.449    0.184   12.842
  329.120  165.081   86.214    0.441    0.184   13.539
  329.370  164.980   90.076    0.474    0.175   14.220
  329.620  164.568   88.301    0.499    0.187   14.853
  329.870  164.156   86.771    0.501    0.196   15.004
  330.120  164.160   86.650    0.496    0.217   14.797
  330.370  164.473   87.081    0.505    0.209   14.350
  330.620  164.892   89.043    0.514    0.211   13.974
  330.870  165.621   90.454    0.503    0.204   13.732
  331.120  165.831   90.824    0.493    0.191   13.743
  331.370  165.834   90.825    0.486    0.195   13.753
  331.620  165.941   89.663    0.486    0.185   13.869
  331.870  166.152   88.501    0.477    0.178   13.802
  332.120  166.259   88.196    0.466    0.183   13.713
  332.370  166.572   93.406    0.458    0.194   13.704
  332.620  166.783   94.204    0.452    0.205   13.718
  332.870  166.578   91.633    0.451    0.205   13.725
  333.120  167.515   89.858    0.508    0.197   13.664
  333.370  169.904   89.491    0.525    0.202   13.575
  333.620  169.596   90.167    0.524    0.200   13.437
  333.870  169.289   90.537    0.519    0.189   13.205
  334.120  169.292   90.600    0.516    0.177   13.097
  334.370  169.191   90.785    0.514    0.165   13.032
  334.620  168.674   90.848    0.504    0.158   12.997
  334.870  168.885   90.176    0.494    0.166   12.914
  335.120  169.304   88.401    0.472    0.197   12.925
  335.370  169.306   88.770    0.456    0.199   12.987
  335.620  167.441   91.468    0.462    0.195   12.951
  335.870  170.765   94.411    0.468    0.195   12.986
  336.120  171.701   96.557    0.471    0.193   13.020
  336.370  170.874   94.966    0.462    0.177   12.938
  336.620  172.227   95.274    0.450    0.159   12.851
  336.870  172.747   96.562    0.453    0.167   12.722
  337.120  171.920   95.155    0.475    0.193   12.504
  337.370  170.886   94.605    0.485    0.203   12.306
  337.620  170.370   96.323    0.498    0.205   11.715
  337.870  171.099   97.734    0.507    0.205   11.091
  338.120  171.621   97.797    0.510    0.189   10.562
  338.370  172.247   96.757    0.526    0.170   10.338
  338.620  175.570   96.208    0.522    0.169   10.483
  338.870  171.319   95.045    0.506    0.181   10.628
  339.120  169.765   92.841    0.482    0.190   11.019
  339.370  168.420   83.651    0.458    0.193   11.770
  339.620  168.215   80.222    0.426    0.200   12.338
  339.870  168.322   81.449    0.366    0.178   13.524
  340.120  169.051   83.044    0.403    0.179   14.470
  340.370  168.536   85.435    0.429    0.182   14.894
  340.620  168.538   86.969    0.404    0.177   14.445
  340.870  168.541   83.049    0.385    0.168   14.138
  341.120  168.544   79.803    0.385    0.165   14.936
  341.370  169.377   81.766    0.377    0.162   15.570
  341.620  169.276   79.990    0.381    0.147   17.320
  341.870  169.591   74.110    0.332    0.104   19.055
  342.120  169.594   74.296    0.287    0.094   20.166
  342.370  168.974   78.280    0.293    0.141   21.064
  342.620  167.525   84.348    0.346    0.176   21.276
  342.870  167.321   85.637    0.383    0.210   19.234
  343.120  167.115   86.190    0.394    0.208   17.742
  343.370  166.911   88.275    0.424    0.196   16.278
  343.620  167.121   88.522    0.412    0.189   14.962
  343.870  167.021   83.376    0.406    0.199   14.243
