~VERSION INFORMATION
 VERS.                 2.0:   CWLS LOG ASCII STANDARD -VERSION 2.0
 WRAP.                  NO:   ONE LINE PER DEPTH STEP
~WELL INFORMATION BLOCK
#MNEM.UNIT           DATA                    DESCRIPTION OF MNEMONIC
#---------    -------------------            -------------------------------
# Generated from Intellog Unique Number	CW_70_72/WELL/3031
NULL.         -999.25                        : NULL_VALUE
WELL.         SULPETRO ET AL PARKER 11-23    : Well_name    - WELL              
LOC .         11-23-070-05W5                 : Location     - LOCATION          
UWI .         00/11-23-070-05W5/0            : Uwi          - UNIQUE WELL ID    
ENTR.         JAYE                           : Entered      - ENTERED BY        
SRVC.         SCHLUMBERGER                   : Scn          - SERVICE COMPANY   
DATE.         2 APR 82                       : Date         - LOG DATE          
STRT.M        660                            : top_depth    - START DEPTH       
STOP.M        905                            : bot_depth    - STOP DEPTH        
STEP.M        0.25                           : increment    - STEP LENGTH       
~CURVE INFORMATION BLOCK
#MNEM UNIT       ERCB CURVE CODE    CURVE DESCRIPTION
#-----------   ------------------   ----------------------------------
DEPT.M        00 001 00 00         : DEPTH        - DEPTH                       
ILD .OHMM     00 120 00 00         : RESD         - DEEP RESISTIVITY (DIL)      
CALI.MM       00 280 01 00         : CAL          - CALIPER                     
GR  .API      00 310 00 00         : GR           - GAMMA RAY                   
NPHI.V/V      00 330 00 00         : PHIN         - NEUTRON POROSITY (SANDSTONE)
DPHI.V/V      00 890 00 00         : PHID         - DENSITY POROSITY (SANDSTONE)
~PARAMETER INFORMATION       
#MNEM.UNIT           DATA             DESCRIPTION OF MNEMONIC
#---------         -----------     ------------------------------
GL  .M        779.8                : gl           - GROUND LEVEL ELEVATION      
EREF.M        782.7                : kb           - ELEVATION OF DEPTH REFERENCE
DATM.M        779.8                : datum        - DATUM ELEVATION             
TDD .M        926                  : tdd          - TOTAL DEPTH DRILLER         
RUN .         ONE                  : Run          - RUN NUMBER                  
ENG .         VANDENBRINK          : Engineer     - RECORDING ENGINEER          
WIT .         SPRATT               : Witness      - WITNESSED BY                
BASE.         EDM                  : Branch       - HOME BASE OF LOGGING UNIT   
MUD .         GEL CHEM             : Mud_type     - MUD TYPE                    
MATR.         SANDSTONE            : Logunit      - NEUTRON MATRIX              
TMAX.C        35.5                 : BHT          - MAXIMUM RECORDED TEMPERATURE
BHTD.M        928                  : BHTDEP       - MAXIMUM RECORDED TEMPERATURE
RMT .C        18.8                 : MDTP         - TEMPERATURE OF MUD          
MUDD.KG/M     1210                 : MWT          - MUD DENSITY                 
NEUT.         1                    : NEUTRON      - NEUTRON TYPE                
RESI.         0                    : RESIST       - RESISTIVITY TYPE            
RM  .OHMM     0.644                : RM           - RESISTIVITY OF MUD          
RMC .OHMM     0.25                 : RMC          - RESISTIVITY OF MUD CAKE     
RMF .OHMM     0.598                : RMF          - RESISTIVITY OF MUD FILTRATE 
SUFT.C        0                    : SUFT         - SURFACE TEMPERATURE         
~A  DEPTH     RESD      CAL       GR     PHIN     PHID
# ...
  696.500    2.212  160.006   72.925    0.412    0.244
  696.750    2.210  159.935   70.254    0.401    0.259
  697.000    2.250  159.758   68.959    0.375    0.249
  697.250    2.331  159.899   69.480    0.380    0.220
  697.500    2.419  159.401   71.938    0.397    0.198
  697.750    2.529  159.018   75.462    0.401    0.216
  698.000    2.595  158.947   79.295    0.395    0.241
  698.250    2.573  158.977   83.756    0.391    0.229
  698.500    2.420  160.676   90.219    0.397    0.156
  698.750    2.293  169.156   97.056    0.419    0.141
  699.000    2.210  176.588  100.456    0.475    0.161
  699.250    2.163  178.809   95.156    0.484    0.222
  699.500    2.120  166.539   82.914    0.453    0.222
  699.750    2.099  160.107   74.988    0.430    0.234
  700.000    2.101  156.179   71.693    0.415    0.233
  700.250    2.095  155.064   74.401    0.388    0.218
  700.500    2.097  154.886   83.366    0.397    0.230
  700.750    2.119  155.232   84.011    0.404    0.234
  701.000    2.134  155.787   88.033    0.402    0.220
  701.250    2.148  156.757   92.306    0.420    0.214
  701.500    2.150  157.208   91.887    0.433    0.218
  701.750    2.152  157.967   90.218    0.443    0.204
  702.000    2.188  157.998   88.611    0.444    0.190
  702.250    2.403  157.925   84.562    0.422    0.193
  702.500    3.165  157.646   85.083    0.409    0.216
  702.750    4.761  157.466   83.288    0.403    0.214
  703.000    7.665  156.872   75.862    0.420    0.173
  703.250   16.489  156.592   68.499    0.327    0.128
  703.500   24.565  157.458   61.888    0.227    0.054
  703.750   27.083  159.997   57.341    0.191    0.018
  704.000   28.000  162.319   54.547    0.171   -0.006
  704.250   27.608  162.563   50.561    0.160   -0.006
  704.500   21.770  163.120   47.952    0.154    0.001
  704.750   13.473  163.250   48.347    0.160    0.011
  705.000    8.073  162.447   53.307    0.187    0.023
  705.250    5.879  161.646   54.330    0.206    0.024
  705.500    4.030  160.635   53.785    0.234    0.027
  705.750    2.273  157.750   57.371    0.288    0.054
  706.000    1.792  155.175   60.956    0.342    0.206
  706.250    1.580  153.326   65.040    0.372    0.244
  706.500    1.523  152.630   71.376    0.390    0.259
  706.750    1.525  152.557   70.207    0.394    0.269
  707.000    1.553  153.112   61.907    0.376    0.283
  707.250    1.599  154.292   58.361    0.374    0.280
  707.500    1.653  153.798   59.692    0.391    0.272
  707.750    1.706  154.041   62.777    0.380    0.257
  708.000    1.734  154.707   67.990    0.363    0.248
  708.250    1.736  154.937   71.699    0.381    0.242
  708.500    1.711  155.496   70.092    0.416    0.256
  708.750    1.671  155.627   66.483    0.426    0.264
  709.000    1.639  155.870   64.249    0.418    0.255
  709.250    1.609  155.585   62.079    0.401    0.249
  709.500    1.593  155.733   60.722    0.400    0.264
  709.750    1.582  156.281   61.053    0.401    0.260
  710.000    1.575  156.727   65.640    0.398    0.248
  710.250    1.574  156.759   69.224    0.402    0.249
  710.500    1.576  156.373   69.058    0.400    0.266
  710.750    1.580  156.613   66.010    0.392    0.281
  711.000    1.582  156.550   62.214    0.390    0.291
  711.250    1.578  156.784   60.231    0.397    0.288
  711.500    1.585  156.606   60.813    0.393    0.284
  711.750    1.596  156.951   63.084    0.391    0.286
  712.000    1.607  157.293   68.045    0.391    0.276
  712.250    1.642  157.642   71.504    0.396    0.262
  712.500    1.644  158.093   64.767    0.402    0.258
  712.750    1.621  158.125   64.724    0.405    0.252
  713.000    1.571  157.842   66.870    0.402    0.253
  713.250    1.540  157.769   66.076    0.393    0.264
  713.500    1.516  157.908   62.406    0.388    0.267
  713.750    1.498  158.247   59.922    0.392    0.267
  714.000    1.490  158.599   58.939    0.399    0.263
  714.250    1.492  158.730   62.838    0.411    0.260
  714.500    1.511  158.662   67.235    0.410    0.252
  714.750    1.556  158.687   71.947    0.406    0.248
  715.000    1.615  158.408   71.965    0.412    0.249
  715.250    1.650  158.023   66.668    0.418    0.239
  715.500    1.649  157.432   65.185    0.418    0.221
  715.750    1.638  157.152   68.207    0.427    0.217
  716.000    1.624  157.078   60.719    0.412    0.231
  716.250    1.623  157.109   58.989    0.385    0.248
  716.500    1.627  157.243   62.385    0.390    0.235
  716.750    1.639  157.379   67.533    0.407    0.241
  717.000    1.650  157.417   73.809    0.392    0.264
  717.250    1.683  157.442   82.023    0.417    0.215
  717.500    1.724  157.583   84.732    0.453    0.215
  717.750    1.712  157.612   80.436    0.466    0.232
  718.000    1.632  157.752   73.071    0.448    0.249
  718.250    1.582  157.883   66.335    0.434    0.265
  718.500    1.542  158.232   60.601    0.419    0.280
  718.750    1.532  158.259   58.179    0.413    0.287
  719.000    1.534  158.295   59.573    0.409    0.292
  719.250    1.558  158.325   63.346    0.418    0.276
  719.500    1.578  158.357   71.560    0.426    0.247
  719.750    1.610  158.704   74.331    0.435    0.238
  720.000    1.658  159.056   71.913    0.441    0.230
  720.250    1.691  159.399   68.176    0.440    0.229
  720.500    1.716  159.637   67.070    0.423    0.231
  720.750    1.734  160.190   69.905    0.412    0.228
  721.000    1.742  160.737   74.802    0.414    0.233
  721.250    1.747  160.977   85.457    0.402    0.212
  721.500    1.743  161.634   93.234    0.419    0.188
  721.750    1.731  163.439   97.756    0.458    0.197
  722.000    1.740  172.754  101.528    0.481    0.204
  722.250    1.745  173.615   93.416    0.491    0.196
  722.500    1.724  167.288   94.435    0.481    0.188
  722.750    1.668  170.031   99.834    0.499    0.193
  723.000    1.660  172.983  104.420    0.514    0.199
  723.250    1.739  172.914  107.068    0.521    0.196
  723.500    1.924  172.315  103.833    0.516    0.213
  723.750    2.086  170.160   98.159    0.486    0.228
  724.000    2.353  168.834   93.362    0.454    0.186
  724.250    2.594  163.032   89.879    0.432    0.155
  724.500    3.010  160.458   90.773    0.418    0.171
  724.750    3.293  160.068   92.418    0.408    0.185
  725.000    3.529  161.249   96.630    0.400    0.168
  725.250    3.718  164.100   98.902    0.407    0.152
  725.500    3.888  166.529   99.545    0.420    0.124
  725.750    4.214  168.437  101.503    0.430    0.220
  726.000    5.176  170.029   96.017    0.442    0.301
  726.250    6.144  166.831   71.890    0.459    0.376
  726.500    7.156  164.048   46.761    0.488    0.696
  726.750    7.205  162.721   30.766    0.684    0.752
  727.000    6.013  162.029   31.286    0.769    0.624
  727.250    4.548  161.954   39.876    0.621    0.326
  727.500    3.546  162.612   58.974    0.447    0.281
  727.750    2.877  162.224   65.687    0.346    0.234
  728.000    2.571  159.547   64.204    0.333    0.246
  728.250    2.368  157.599   67.853    0.366    0.255
  728.500    2.278  157.422   65.181    0.373    0.253
  728.750    2.225  157.981   62.261    0.363    0.232
  729.000    2.193  158.319   63.780    0.361    0.223
  729.250    2.171  158.458   66.804    0.366    0.229
  729.500    2.144  158.278   65.695    0.352    0.238
  729.750    2.131  158.831   66.654    0.339    0.249
  730.000    2.133  158.966   72.052    0.347    0.256
  730.250    2.176  158.999   77.389    0.362    0.260
  730.500    2.228  159.134   79.034    0.377    0.248
  730.750    2.304  159.062   82.745    0.384    0.237
  731.000    2.487  159.205   87.017    0.369    0.233
  731.250    2.655  159.442   96.983    0.354    0.237
  731.500    2.851  159.372   98.004    0.344    0.228
  731.750    3.004  159.298   93.956    0.334    0.214
  732.000    3.117  158.602   90.409    0.343    0.197
  732.250    3.253  158.844   87.551    0.354    0.208
  732.500    3.395  159.609   86.570    0.349    0.221
  732.750    3.530  160.779   93.158    0.354    0.227
