~VERSION INFORMATION
 VERS.                 2.0:   CWLS LOG ASCII STANDARD -VERSION 2.0
 WRAP.                  NO:   ONE LINE PER DEPTH STEP
~WELL INFORMATION BLOCK
#MNEM.UNIT           DATA                    DESCRIPTION OF MNEMONIC
#---------    -------------------            -------------------------------
# Generated from Intellog Unique Number	CW_76_78/WELL/913
WELL.         PCP MARTEN HILLS 10-28-076     : Well_name    - WELL
LOC .         00/10-28-076-04W5/0            : Location     - LOCATION
UWI .         00/10-28-076-04W5/0            : Uwi          - UNIQUE WELL ID
ENTR.         JAYE                           : Entered      - ENTERED BY
SRVC.         SCHLUMBERGER                   : Scn          - SERVICE COMPANY
DATE.         18 FEB 74                      : Date         - LOG DATE
STRT.M        463.296                        : top_depth    - START DEPTH
STOP.M        704.046                        : bot_depth    - STOP DEPTH
STEP.M        0.25                           : increment    - STEP LENGTH
 NULL. -999.2500:NULL Value
~CURVE INFORMATION BLOCK
#MNEM UNIT       ERCB CURVE CODE    CURVE DESCRIPTION
#-----------   ------------------   ----------------------------------
DEPT.M        00 001 00 00         : DEPTH        - DEPTH
ILD .OHMM     00 120 00 00         : RESD         - DEEP RESISTIVITY (DIL)
NPHI.V/V      00 330 00 00         : PHIN         - NEUTRON POROSITY (SANDSTONE)
DPHI.V/V      00 890 00 00         : PHID         - DENSITY POROSITY (SANDSTONE)
GR  .API      00 310 00 00         : GR           - GAMMA RAY
CALI.MM       00 280 01 00         : CAL          - CALIPER
~PARAMETER INFORMATION
#MNEM.UNIT           DATA             DESCRIPTION OF MNEMONIC
#---------         -----------     ------------------------------
GL  .M        771.754              : gl           - GROUND LEVEL ELEVATION
EREF.M        775.716              : kb           - ELEVATION OF DEPTH REFERENCE
DATM.M        771.754              : datum        - DATUM ELEVATION
TDD .M        717.804              : tdd          - TOTAL DEPTH DRILLER
RUN .         ONE                  : Run          - RUN NUMBER
MATR.         SANDSTONE            : Logunit      - NEUTRON MATRIX
TMAX.C        31.6667              : BHT          - MAXIMUM RECORDED TEMPERATURE
BHTD.M        717.499              : BHTDEP       - MAXIMUM RECORDED TEMPERATURE
RMT .C        20                   : MDTP         - TEMPERATURE OF MUD
MUDD.KG/M     0                    : MWT          - MUD DENSITY
NEUT.         1                    : NEUTRON      - NEUTRON TYPE
RESI.         0                    : RESIST       - RESISTIVITY TYPE
RM  .OHMM     2.52                 : RM           - RESISTIVITY OF MUD
RMC .OHMM     0                    : RMC          - RESISTIVITY OF MUD CAKE
RMF .OHMM     2.67                 : RMF          - RESISTIVITY OF MUD FILTRATE
SUFT.C        -17.7778             : SUFT         - SURFACE TEMPERATURE
~A  DEPTH     RESD     PHIN     PHID       GR      CAL
# ...
  536.296    8.761    0.437    0.347   33.963  202.037
  536.546    8.763    0.424    0.353   33.285  202.740
  536.796    8.961    0.407    0.331   31.514  202.911
  537.046    9.471    0.385    0.292   28.892  203.195
  537.296   10.214    0.353    0.242   26.755  203.990
  537.546   10.895    0.188    0.158   26.483  203.962
  537.796   11.600    0.216    0.110   27.546  201.253
  538.046   11.862    0.280    0.236   31.282  198.442
  538.296   11.543    0.351    0.357   32.994  195.937
  538.546   10.612    0.404    0.350   31.425  194.880
  538.796    9.828    0.429    0.337   31.395  196.094
  539.046    9.236    0.447    0.358   31.974  197.611
  539.296    8.679    0.462    0.367   32.349  199.650
  539.546    8.232    0.477    0.362   32.236  201.371
  539.796    8.070    0.458    0.349   31.802  202.894
  540.046    7.998    0.445    0.347   31.488  204.526
  540.296    7.727    0.447    0.351   30.810  205.320
  540.546    7.616    0.450    0.364   30.943  206.122
  540.796    7.619    0.443    0.358   31.115  206.491
  541.046    7.734    0.439    0.370   31.369  206.881
  541.296    7.923    0.455    0.358   31.459  207.059
  541.546    7.969    0.469    0.339   31.632  207.135
  541.796    7.971    0.470    0.333   31.725  207.216
  542.046    7.974    0.463    0.347   31.774  207.385
  542.296    7.947    0.466    0.355   31.582  207.665
  542.546    7.891    0.460    0.367   31.593  207.757
  542.796    7.864    0.471    0.355   31.442  207.928
  543.046    7.809    0.464    0.345   31.209  207.994
  543.296    7.826    0.502    0.335   31.057  207.968
  543.546    7.900    0.484    0.334   31.067  208.253
  543.796    7.946    0.489    0.348   31.159  208.437
  544.046    7.905    0.490    0.367   31.170  208.605
  544.296    7.820    0.462    0.361   31.626  198.377
  544.546    7.779    0.440    0.348   31.961  199.482
  544.796    7.739    0.453    0.356   32.214  200.375
  545.046    7.713    0.469    0.361   31.576  201.690
  545.296    7.702    0.467    0.360   28.711  194.949
  545.546    7.620    0.490    0.335   27.425  195.446
  545.796    7.580    0.490    0.329   29.096  199.233
  546.046    7.582    0.464    0.362   32.347  203.842
  546.296    7.570    0.458    0.372   33.410  204.553
  546.546    7.586    0.462    0.364   33.947  204.418
  546.796    7.575    0.443    0.357   34.241  204.287
  547.046    7.535    0.445    0.355   34.982  204.048
  547.296    7.537    0.465    0.353   35.721  203.189
  547.546    7.539    0.483    0.352   35.975  201.922
  547.796    7.542    0.474    0.350   35.904  198.798
  548.046    7.585    0.459    0.362   36.157  197.433
  548.296    7.616    0.457    0.364   36.653  197.404
  548.546    7.688    0.476    0.353   37.555  199.026
  548.796    7.804    0.481    0.342   38.659  201.993
  549.046    7.792    0.441    0.352   39.722  202.376
  549.296    7.667    0.443    0.346   41.274  200.499
  549.546    7.502    0.455    0.352   42.376  199.331
  549.796    7.247    0.469    0.349   43.804  198.270
  550.046    6.835    0.479    0.318   45.516  197.519
  550.296    6.471    0.483    0.326   47.389  195.839
  550.546    6.251    0.488    0.318   47.927  193.647
  550.796    6.299    0.478    0.302   46.722  195.781
  551.046    6.633    0.313    0.277   44.262  200.813
  551.296    7.286    0.207    0.134   40.343  205.218
  551.546    8.137    0.220    0.080   39.342  207.771
  551.796    8.743    0.318    0.078   41.295  207.225
  552.046    8.308    0.529    0.243   46.451  204.216
  552.296    7.295    0.517    0.326   49.377  201.195
  552.546    6.231    0.505    0.325   50.480  199.101
  552.796    4.865    0.529    0.339   50.329  198.242
  553.046    4.007    0.557    0.338   50.582  197.920
  553.296    3.731    0.557    0.330   51.363  198.087
  553.546    3.644    0.544    0.324   51.170  198.781
  553.796    3.639    0.506    0.331   52.112  199.680
  554.046    3.666    0.472    0.321   53.540  201.203
  554.296    3.688    0.494    0.303   55.373  201.897
  554.546    3.709    0.547    0.279   54.898  200.319
  554.796    3.717    0.507    0.288   56.002  194.823
  555.046    3.718    0.504    0.296   57.227  196.546
  555.296    3.719    0.523    0.276   58.332  201.578
  555.546    3.720    0.523    0.281   56.520  203.615
  555.796    3.735    0.493    0.289   56.894  197.807
  556.046    3.729    0.486    0.300   59.983  201.607
  556.296    3.724    0.502    0.273   60.682  204.767
  556.546    3.731    0.507    0.259   60.814  207.419
  556.796    3.746    0.470    0.260   63.052  206.979
  557.046    3.782    0.463    0.269   61.281  205.094
  557.296    3.811    0.455    0.269   60.076  199.188
  557.546    3.854    0.495    0.274   62.192  195.340
  557.796    3.884    0.482    0.258   64.512  199.038
  558.046    3.921    0.468    0.250   64.482  203.548
  558.296    3.943    0.493    0.263   63.358  204.029
  558.546    3.974    0.496    0.247   62.640  204.627
  558.796    3.997    0.483    0.274   62.002  207.585
  559.046    4.005    0.474    0.254   60.757  209.001
  559.296    4.021    0.491    0.236   58.620  207.732
  559.546    4.037    0.507    0.227   55.188  204.415
  559.796    4.039    0.481    0.241   55.604  201.486
  560.046    4.032    0.468    0.248   58.044  204.247
  560.296    4.011    0.500    0.221   58.014  209.067
  560.546    3.990    0.503    0.259   56.728  213.370
  560.796    3.977    0.490    0.256   56.942  213.033
  561.046    3.956    0.515    0.241   56.547  212.182
  561.296    3.950    0.558    0.249   58.057  212.368
  561.546    3.915    0.554    0.242   60.335  212.852
  561.796    3.852    0.546    0.238   61.358  212.926
  562.046    3.742    0.537    0.231   62.057  212.277
  562.296    3.453    0.514    0.249   59.070  208.535
  562.546    3.372    0.478    0.278   56.327  205.206
  562.796    3.590    0.513    0.277   54.717  203.641
  563.046    3.830    0.512    0.264   52.460  204.230
  563.296    4.191    0.443    0.272   50.445  205.534
  563.546    4.698    0.438    0.245   50.091  205.508
  563.796    5.217    0.479    0.223   53.423  201.566
  564.046    5.267    0.478    0.267   54.891  198.131
  564.296    5.088    0.486    0.253   53.929  196.247
  564.546    4.942    0.481    0.241   54.264  198.380
  564.796    4.801    0.470    0.265   54.922  201.048
  565.046    4.706    0.494    0.271   56.715  202.048
  565.296    4.622    0.496    0.255   60.168  202.120
  565.546    4.572    0.472    0.259   58.803  201.996
  565.796    4.540    0.480    0.266   56.746  201.860
  566.046    4.533    0.498    0.270   56.312  199.966
  566.296    4.543    0.505    0.266   56.971  201.089
  566.546    4.552    0.496    0.257   57.588  203.226
  566.796    4.571    0.483    0.244   58.247  204.434
  567.046    4.572    0.527    0.238   58.216  205.135
  567.296    4.565    0.506    0.253   58.308  205.406
  567.546    4.566    0.481    0.236   58.845  205.479
  567.796    4.568    0.499    0.228   59.139  205.240
  568.046    4.561    0.524    0.242   59.271  204.818
  568.296    4.529    0.507    0.242   59.160  204.468
  568.546    4.480    0.477    0.240   57.874  203.615
  568.796    4.425    0.499    0.248   57.481  202.452
  569.046    4.385    0.518    0.278   57.977  201.493
  569.296    4.331    0.511    0.287   56.164  200.537
  569.546    4.276    0.477    0.266   56.053  201.647
  569.796    4.192    0.493    0.261   57.319  202.960
  570.046    4.095    0.506    0.252   55.954  203.855
  570.296    3.898    0.519    0.274   52.764  204.663
  570.546    3.745    0.532    0.312   48.967  205.140
  570.796    3.732    0.520    0.348   46.791  205.114
  571.046    3.781    0.510    0.361   45.626  204.057
  571.296    3.895    0.469    0.345   44.746  201.657
  571.546    4.094    0.464    0.347   44.595  199.773
  571.796    4.311    0.472    0.331   43.431  199.126
  572.046    4.607    0.479    0.311   42.266  199.102
  572.296    4.996    0.503    0.304   42.601  199.065
  572.546    5.359    0.478    0.308   43.827  199.468
