~VERSION INFORMATION
 VERS.                 2.0:   CWLS LOG ASCII STANDARD -VERSION 2.0
 WRAP.                  NO:   ONE LINE PER DEPTH STEP
~WELL INFORMATION BLOCK
#MNEM.UNIT           DATA                    DESCRIPTION OF MNEMONIC
#---------    -------------------            -------------------------------
# Generated from Intellog Unique Number	CS_67_68/WELL/2190
WELL.         10-03-067-08W4                 : Well_name    - WELL
LOC .         00/10-03-067-08W4/0            : Location     - LOCATION
UWI .         00/10-03-067-08W4/0            : Uwi          - UNIQUE WELL ID
ENTR.         SP                             : Entered      - ENTERED BY
SRVC.         SCHLUMBERGER                   : Scn          - SERVICE COMPANY
STRT.M        305                            : top_depth    - START DEPTH
STOP.M        545                            : bot_depth    - STOP DEPTH
STEP.M        0.25                           : increment    - STEP LENGTH
 NULL. -999.2500:NULL Value
~CURVE INFORMATION BLOCK
#MNEM UNIT       ERCB CURVE CODE    CURVE DESCRIPTION
#-----------   ------------------   ----------------------------------
DEPT.M        00 001 00 00         : DEPTH        - DEPTH
ILD .OHMM     00 120 00 00         : RESD         - DEEP RESISTIVITY (DIL)
DPHI.V/V      00 890 00 00         : PHID         - DENSITY POROSITY (LIMESTONE)
NPHI.V/V      00 330 00 00         : PHIN         - NEUTRON POROSITY (LIMESTONE)
GR  .API      00 310 00 00         : GR           - GAMMA RAY
CALI.MM       00 280 01 00         : CAL          - CALIPER
~PARAMETER INFORMATION
#MNEM.UNIT           DATA             DESCRIPTION OF MNEMONIC
#---------         -----------     ------------------------------
GL  .M        609.7                : gl           - GROUND LEVEL ELEVATION
EREF.M        613.4                : kb           - ELEVATION OF DEPTH REFERENCE
DATM.M        613.4                : datum        - DATUM ELEVATION
TDD .M        550                  : tdd          - TOTAL DEPTH DRILLER
RUN .         ONE                  : Run          - RUN NUMBER
ENG .         BILL                 : Engineer     - RECORDING ENGINEER
WIT .         JIM                  : Witness      - WITNESSED BY
MUD .         GEL                  : Mud_type     - MUD TYPE
MATR.         LIMESTONE            : Logunit      - NEUTRON MATRIX
TMAX.C        25                   : BHT          - MAXIMUM RECORDED TEMPERATURE
BHTD.M        554.5                : BHTDEP       - MAXIMUM RECORDED TEMPERATURE
MATR.         1                    : LOGUNIT      - NEUTRON MATRIX
RMT .C        25                   : MDTP         - TEMPERATURE OF MUD
NEUT.         1                    : NEUTRON      - NEUTRON TYPE
RESI.         0                    : RESIST       - RESISTIVITY TYPE
RMC .OHMM     0.25                 : RMC          - RESISTIVITY OF MUD CAKE
RMF .OHMM     0.25                 : RMF          - RESISTIVITY OF MUD FILTRATE
SUFT.C        15                   : SUFT         - SURFACE TEMPERATURE
~A  DEPTH     RESD     PHID     PHIN       GR      CAL
# ...
  414.500    2.869    0.336    0.424   55.958  155.132
  414.750    2.880    0.333    0.445   56.226  154.844
  415.000    2.896    0.329    0.455   57.626  154.877
  415.250    2.907    0.328    0.440   60.349  154.907
  415.500    2.934    0.323    0.443   62.819  155.036
  415.750    2.956    0.313    0.450   64.724  155.169
  416.000    2.996    0.307    0.453   66.314  155.197
  416.250    3.018    0.319    0.460   69.289  155.435
  416.500    3.047    0.327    0.458   70.753  155.463
  416.750    3.099    0.332    0.450   68.695  155.805
  417.000    3.152    0.334    0.443   66.823  155.311
  417.250    3.224    0.321    0.453   65.267  154.708
  417.500    3.317    0.311    0.446   64.591  153.478
  417.750    3.432    0.304    0.453   68.133  151.723
  418.000    3.497    0.308    0.460   71.171  148.293
  418.250    3.517    0.324    0.463   72.948  144.754
  418.500    3.497    0.327    0.456   74.664  136.602
  418.750    3.405    0.314    0.460   76.568  125.305
  419.000    3.354    0.502    0.509   78.221  139.491
  419.250    3.291    0.548    0.542   77.735  167.415
  419.500    3.392    0.570    0.570   79.137  198.587
  419.750    3.576    0.547    0.532   80.727  191.066
  420.000    3.714    0.477    0.494   82.507  173.793
  420.250    3.865    0.327    0.464   83.908  160.294
  420.500    4.014    0.248    0.465   84.239  156.231
  420.750    4.145    0.251    0.461   85.073  153.429
  421.000    4.248    0.260    0.447   86.600  149.367
  421.250    4.329    0.263    0.452   87.812  146.144
  421.500    4.370    0.257    0.466   87.892  147.015
  421.750    4.419    0.251    0.474   86.714  150.394
  422.000    4.419    0.252    0.461   87.738  155.671
  422.250    4.410    0.246    0.451   89.831  158.525
  422.500    4.419    0.231    0.440   91.485  161.911
  422.750    4.427    0.225    0.432   91.249  164.140
  423.000    4.426    0.224    0.428   89.882  164.798
  423.250    4.451    0.218    0.423   87.508  164.306
  423.500    4.477    0.211    0.424   85.323  163.700
  423.750    4.519    0.218    0.451   85.971  162.581
  424.000    4.579    0.227    0.480   86.741  161.872
  424.250    4.649    0.232    0.461   86.128  160.749
  424.500    4.675    0.233    0.449   88.475  159.729
  424.750    4.701    0.232    0.444   90.378  159.124
  425.000    4.665    0.217    0.446   91.403  158.627
  425.250    4.648    0.208    0.446   90.349  158.657
  425.500    4.595    0.228    0.446   92.444  159.524
  425.750    4.551    0.239    0.447   92.838  161.650
  426.000    4.500    0.222    0.428   92.037  164.612
  426.250    4.373    0.223    0.404   89.725  168.627
  426.500    3.730    0.329    0.430   87.667  178.303
  426.750    3.029    0.433    0.552   87.558  202.032
  427.000    2.564    0.457    0.552   84.617  223.662
  427.250    2.376    0.436    0.541   82.620  231.135
  427.500    2.232    0.437    0.561   83.518  231.163
  427.750    2.129    0.426    0.585   84.293  226.053
  428.000    2.081    0.410    0.589   84.624  231.326
  428.250    2.073    0.401    0.545   84.451  235.443
  428.500    2.069    0.392    0.532   83.964  227.716
  428.750    2.129    0.382    0.559   82.974  223.125
  429.000    2.206    0.368    0.577   83.623  224.622
  429.250    2.349    0.350    0.585   83.827  222.658
  429.500    2.434    0.351    0.605   82.900  219.435
  429.750    2.471    0.418    0.620   80.086  233.307
  430.000    2.453    0.479    0.620   76.452  254.309
  430.250    2.557    0.528    0.627   73.701  274.577
  430.500    2.811    0.345    0.576   75.794  273.555
  430.750    3.167    0.293    0.524   77.635  182.140
  431.000    3.915    0.264    0.465   76.772  161.928
  431.250    4.589    0.245    0.446   74.398  152.938
  431.500    5.329    0.249    0.454   76.051  152.968
  431.750    6.154    0.253    0.458   75.818  152.683
  432.000    6.563    0.256    0.448   73.505  152.499
  432.250    7.133    0.253    0.425   74.717  152.010
  432.500    7.380    0.186    0.394   73.288  151.926
  432.750    7.840    0.138    0.369   71.732  153.004
  433.000    8.220    0.101    0.335   73.951  155.864
  433.250    7.944    0.140    0.364   77.743  158.514
  433.500    6.737    0.177    0.391   79.710  160.429
  433.750    6.059    0.221    0.418   81.554  160.668
  434.000    5.522    0.229    0.427   84.337  161.538
  434.250    4.975    0.221    0.443   87.941  161.878
  434.500    4.508    0.213    0.437   91.166  162.326
  434.750    4.357    0.222    0.434   87.726  162.563
  435.000    4.357    0.213    0.434   88.558  161.648
  435.250    4.348    0.222    0.445   88.073  159.893
  435.500    4.340    0.224    0.436   86.894  159.400
  435.750    4.356    0.231    0.430   87.350  161.418
  436.000    4.372    0.271    0.455   88.438  166.481
  436.250    4.389    0.332    0.477   89.399  172.591
  436.500    4.389    0.324    0.471   90.171  180.065
  436.750    4.380    0.270    0.476   90.691  183.974
  437.000    4.372    0.241    0.475   88.884  176.976
  437.250    4.338    0.222    0.462   85.126  170.608
  437.500    4.404    0.210    0.455   82.310  165.713
  437.750    4.600    0.224    0.467   80.252  162.903
  438.000    4.990    0.247    0.460   79.894  163.981
  438.250    5.222    0.269    0.451   79.847  162.960
  438.500    5.444    0.284    0.445   80.428  161.311
  438.750    3.799    0.291    0.508   81.138  160.187
  439.000    3.038    0.294    0.547   79.832  159.800
  439.250    3.137    0.282    0.530   78.717  159.509
  439.500    3.664    0.273    0.478   79.742  159.439
  439.750    4.546    0.260    0.478   80.513  159.355
  440.000    5.588    0.265    0.487   78.517  159.383
  440.250   12.614    0.274    0.456   71.800  159.413
  440.500   15.417    0.268    0.439   65.337  159.440
  440.750   18.420    0.264    0.434   57.867  159.470
  441.000   20.950    0.275    0.441   57.883  159.706
  441.250   23.425    0.272    0.435   57.208  160.055
  441.500   25.507    0.112    0.391   54.080  160.186
  441.750   27.461    0.047    0.196   52.649  161.051
  442.000   29.452    0.007    0.176   51.220  161.816
  442.250   30.185    0.000    0.165   53.754  162.470
  442.500   28.516    0.071    0.155   58.741  162.821
  442.750   26.285    0.147    0.156   65.993  162.851
  443.000   18.446    0.176    0.312   68.716  162.559
  443.250   14.502    0.167    0.399   72.194  161.849
  443.500   11.488    0.168    0.407   75.608  161.774
  443.750    9.345    0.195    0.420   79.463  161.700
  444.000    7.631    0.248    0.431   85.018  161.937
  444.250    6.496    0.237    0.437   85.915  162.176
  444.500    4.946    0.231    0.436   82.283  162.729
  444.750    4.234    0.266    0.455   81.545  163.907
  445.000    3.639    0.280    0.467   80.871  164.983
  445.250    3.618    0.296    0.478   80.514  166.375
  445.500    3.659    0.321    0.499   80.212  167.032
  445.750    3.666    0.314    0.482   77.020  165.908
  446.000    3.700    0.351    0.532   73.261  166.669
  446.250    3.764    0.398    0.575   71.582  168.692
  446.500    3.799    0.444    0.536   73.106  169.662
  446.750    3.850    0.326    0.503   74.256  167.488
  447.000    3.813    0.306    0.488   72.385  165.840
  447.250    3.713    0.293    0.511   71.963  164.713
  447.500    3.650    0.279    0.523   73.805  163.802
  447.750    3.616    0.261    0.491   71.870  163.413
  448.000    3.595    0.284    0.458   72.265  163.125
  448.250    3.541    0.312    0.462   72.659  163.463
  448.500    3.455    0.349    0.485   71.669  163.912
  448.750    3.371    0.360    0.507   74.329  164.046
  449.000    3.208    0.314    0.504   77.114  163.551
  449.250    3.072    0.318    0.505   79.460  163.369
  449.500    2.968    0.329    0.495   78.281  162.874
  449.750    2.891    0.336    0.486   76.410  162.903
  450.000    2.852    0.342    0.483   72.527  163.452
  450.250    2.799    0.355    0.506   73.928  165.474
  450.500    2.783    0.411    0.530   73.756  170.745
  450.750    2.809    0.427    0.543   69.872  176.750
