~VERSION INFORMATION
 VERS.                 2.0:   CWLS LOG ASCII STANDARD -VERSION 2.0
 WRAP.                  NO:   ONE LINE PER DEPTH STEP
~WELL INFORMATION BLOCK
#MNEM.UNIT           DATA                    DESCRIPTION OF MNEMONIC
#---------    -------------------            -------------------------------
# Generated from Intellog Unique Number	CW_82_90/WELL/3442
WELL.         SHERRITT LIEGE 10-25           : Well_name    - WELL
LOC .         00/10-25-089-20W4/0            : Location     - LOCATION
UWI .         00/10-25-089-20W4/0            : Uwi          - UNIQUE WELL ID
ENTR.         JJ                             : Entered      - ENTERED BY
SRVC.         WESTERN ATLAS                  : Scn          - SERVICE COMPANY
DATE.         10 FEB 89                      : Date         - LOG DATE
STRT.M        100                            : top_depth    - START DEPTH
STOP.M        260                            : bot_depth    - STOP DEPTH
STEP.M        0.25                           : increment    - STEP LENGTH
 NULL. -999.2500:NULL Value
~CURVE INFORMATION BLOCK
#MNEM UNIT       ERCB CURVE CODE    CURVE DESCRIPTION
#-----------   ------------------   ----------------------------------
DEPT.M        00 001 00 00         : DEPTH        - DEPTH
DPHI.V/V      00 890 00 00         : PHID         - DENSITY POROSITY (SANDSTONE)
NPHI.V/V      00 330 00 00         : PHIN         - NEUTRON POROSITY (SANDSTONE)
GR  .API      00 310 00 00         : GR           - GAMMA RAY
CALI.MM       00 280 01 00         : CAL          - CALIPER
ILD .OHMM     00 120 00 00         : RESD         - DEEP RESISTIVITY (DIL)
~PARAMETER INFORMATION
#MNEM.UNIT           DATA             DESCRIPTION OF MNEMONIC
#---------         -----------     ------------------------------
GL  .M        514.3                : gl           - GROUND LEVEL ELEVATION
EREF.M        518.4                : kb           - ELEVATION OF DEPTH REFERENCE
DATM.M        518.4                : datum        - DATUM ELEVATION
TDD .M        262.6                : tdd          - TOTAL DEPTH DRILLER
RUN .         ONE                  : Run          - RUN NUMBER
ENG .         SMYTHE/CHAPMAN       : Engineer     - RECORDING ENGINEER
WIT .         WILLIAMS             : Witness      - WITNESSED BY
BASE.         MED. HAT             : Branch       - HOME BASE OF LOGGING UNIT
MUD .         GEL CAUSTIC          : Mud_type     - MUD TYPE
MATR.         SANDSTONE            : Logunit      - NEUTRON MATRIX
TMAX.C        20                   : BHT          - MAXIMUM RECORDED TEMPERATURE
BHTD.M        262.5                : BHTDEP       - MAXIMUM RECORDED TEMPERATURE
RMT .C        18                   : MDTP         - TEMPERATURE OF MUD
MUDD.KG/M     1150                 : MWT          - MUD DENSITY
NEUT.         1                    : NEUTRON      - NEUTRON TYPE
RESI.         0                    : RESIST       - RESISTIVITY TYPE
RM  .OHMM     5.3                  : RM           - RESISTIVITY OF MUD
RMC .OHMM     4.7                  : RMC          - RESISTIVITY OF MUD CAKE
RMF .OHMM     5                    : RMF          - RESISTIVITY OF MUD FILTRATE
SUFT.C        5                    : SUFT         - SURFACE TEMPERATURE
~A  DEPTH     PHID     PHIN       GR      CAL     RESD
  100.000    0.311    0.433   71.350  173.932   15.092
  100.250    0.312    0.438   73.507  174.376   15.178
  100.500    0.312    0.433   72.557  175.738   15.235
  100.750    0.320    0.416   70.021  177.811   15.507
  101.000    0.333    0.393   76.932  176.228   15.784
  101.250    0.331    0.399   74.214  172.817   16.227
  101.500    0.318    0.370   67.292  171.534   16.652
  101.750    0.303    0.399   68.355  171.788   17.749
  102.000    0.315    0.404   65.697  172.847   18.730
  102.250    0.310    0.363   63.346  174.103   18.913
  102.500    0.302    0.366   64.405  175.261   17.173
  102.750    0.306    0.379   68.944  177.029   16.167
  103.000    0.306    0.388   74.082  178.387   14.947
  103.250    0.306    0.391   79.834  179.945   13.847
  103.500    0.308    0.392   81.200  182.332   12.649
  103.750    0.317    0.395   76.228  183.891   13.136
  104.000    0.315    0.399   73.632  185.759   14.171
  104.250    0.295    0.407   70.671  184.784   15.165
  104.500    0.273    0.400   67.163  181.278   16.003
  104.750    0.313    0.364   69.380  182.533   16.387
  105.000    0.322    0.348   72.636  184.807   16.382
  105.250    0.256    0.328   66.810  185.453   16.345
  105.500    0.221    0.366   56.235  182.144   16.604
  105.750    0.300    0.382   48.580  185.738   17.277
  106.000    0.351    0.398   42.756  190.350   18.050
  106.250    0.400    0.404   36.931  192.828   19.162
  106.500    0.386    0.400   45.001  191.042   21.260
  106.750    0.360    0.360   49.350  183.871   23.921
  107.000    0.415    0.387   31.766  183.816   27.678
  107.250    0.460    0.420   28.256  187.509   30.710
  107.500    0.479    0.455   27.671  187.244   36.036
  107.750    0.375    0.425   29.648  170.433   42.119
  108.000    0.381    0.373   32.482  171.081   45.619
  108.250    0.392    0.348   33.963  172.244   47.661
  108.500    0.398    0.332   36.849  172.592   49.496
  108.750    0.381    0.340   37.301  172.725   51.918
  109.000    0.356    0.363   35.373  173.082   54.241
  109.250    0.330    0.380   38.263  173.221   55.879
  109.500    0.359    0.392   41.523  172.554   56.199
  109.750    0.392    0.400   41.114  172.180   55.844
  110.000    0.404    0.414   32.248  171.408   55.158
  110.250    0.396    0.422   32.940  172.263   54.374
  110.500    0.365    0.428   38.021  174.840   53.923
  110.750    0.381    0.372   37.861  173.665   53.692
  111.000    0.396    0.344   35.267  171.676   53.567
  111.250    0.392    0.333   36.692  171.520   53.874
  111.500    0.378    0.354   41.103  172.469   54.292
  111.750    0.379    0.383   43.872  174.743   54.710
  112.000    0.373    0.393   41.949  172.549   54.695
  112.250    0.381    0.409   39.655  170.768   53.809
  112.500    0.401    0.415   36.270  172.635   51.576
  112.750    0.407    0.406   33.611  173.594   49.831
  113.000    0.387    0.331   33.330  173.430   49.419
  113.250    0.391    0.359   34.698  173.166   50.102
  113.500    0.401    0.382   34.973  172.799   51.513
  113.750    0.386    0.383   34.867  171.111   53.816
  114.000    0.384    0.374   34.344  171.253   55.000
  114.250    0.404    0.371   33.398  174.344   55.758
  114.500    0.415    0.375   32.689  175.092   55.407
  114.750    0.410    0.408   32.047  172.700   54.617
  115.000    0.380    0.417   33.105  171.729   53.952
  115.250    0.389    0.370   36.481  171.975   53.503
  115.500    0.389    0.343   37.355  173.024   53.059
  115.750    0.391    0.323   35.003  173.371   52.934
  116.000    0.393    0.327   36.010  172.497   52.920
  116.250    0.397    0.346   37.490  170.816   52.585
  116.500    0.395    0.342   38.126  169.845   52.569
  116.750    0.395    0.342   37.479  170.187   52.660
  117.000    0.402    0.368   35.738  170.840   52.751
  117.250    0.413    0.384   34.057  171.587   53.159
  117.500    0.427    0.391   31.463  173.962   53.571
  117.750    0.442    0.381   32.280  176.654   54.416
  118.000    0.429    0.377   31.939  177.596   54.839
  118.250    0.388    0.365   30.319  173.273   55.485
  118.500    0.392    0.349   31.134  175.757   55.916
  118.750    0.437    0.334   32.316  175.690   55.896
  119.000    0.438    0.368   32.948  172.080   55.882
  119.250    0.403    0.372   32.729  173.746   55.865
  119.500    0.387    0.335   31.900  177.033   55.623
  119.750    0.389    0.359   31.376  179.305   54.722
  120.000    0.420    0.400   30.674  182.097   54.160
  120.250    0.433    0.411   30.513  183.661   53.818
  120.500    0.418    0.356   30.599  185.524   53.584
  120.750    0.398    0.387   31.602  188.307   53.572
  121.000    0.434    0.413   32.478  191.595   53.234
  121.250    0.452    0.385   32.499  195.397   52.793
  121.500    0.401    0.391   31.552  197.474   52.143
  121.750    0.434    0.387   31.030  195.374   51.818
  122.000    0.440    0.360   31.235  192.374   50.977
  122.250    0.444    0.383   31.687  195.460   50.655
  122.500    0.446    0.386   31.892  184.022   50.540
  122.750    0.420    0.367   32.101  178.782   50.627
  123.000    0.405    0.384   32.245  174.153   50.611
  123.250    0.394    0.394   32.392  173.391   50.594
  123.500    0.399    0.383   34.123  174.032   50.373
  123.750    0.410    0.370   33.782  177.019   50.159
  124.000    0.414    0.396   33.867  181.631   50.347
  124.250    0.403    0.413   35.902  177.813   51.143
  124.500    0.406    0.385   36.415  173.184   51.955
  124.750    0.400    0.360   35.281  167.030   52.673
  125.000    0.360    0.350   33.054  163.717   53.081
  125.250    0.298    0.393   31.555  164.583   52.639
  125.500    0.296    0.372   31.882  165.831   51.580
  125.750    0.331    0.370   33.614  170.143   50.138
  126.000    0.395    0.384   35.343  173.941   48.248
  126.250    0.425    0.371   38.599  173.776   47.279
  126.500    0.420    0.355   41.184  170.872   46.234
  126.750    0.403    0.359   41.758  168.675   44.852
  127.000    0.395    0.370   40.624  165.572   42.990
  127.250    0.394    0.391   39.003  164.394   41.788
  127.500    0.387    0.363   38.660  163.426   39.417
  127.750    0.391    0.359   40.149  162.854   33.102
  128.000    0.408    0.391   41.816  162.789   25.916
  128.250    0.412    0.430   47.083  165.685   18.992
  128.500    0.359    0.439   52.772  167.949   13.264
  128.750    0.299    0.420   66.079  172.570   10.057
  129.000    0.278    0.477   92.853  174.940    7.889
  129.250    0.272    0.459   94.585  176.809    6.814
  129.500    0.268    0.438   96.503  177.560    6.224
  129.750    0.275    0.429   96.402  178.011    5.942
  130.000    0.274    0.434   94.656  178.459    5.684
  130.250    0.271    0.431  101.628  178.599    5.603
  130.500    0.268    0.432   98.975  178.436    5.692
  130.750    0.266    0.529   96.076  177.874    5.713
  131.000    0.262    0.554   94.939  177.605    5.898
  131.250    0.267    0.534   99.044  177.546    6.003
  131.500    0.273    0.487  101.206  177.181    6.074
  131.750    0.272    0.442   98.852  177.221    6.270
  132.000    0.265    0.434   98.754  177.775    6.395
  132.250    0.268    0.421  100.362  177.715    6.457
  132.500    0.275    0.404  102.766  177.947    6.533
  132.750    0.274    0.413  104.008  178.298    6.557
  133.000    0.272    0.429  100.680  178.745    6.569
  133.250    0.273    0.428   96.804  178.987    6.554
  133.500    0.276    0.427   98.902  179.027    6.604
  133.750    0.279    0.438  100.084  178.866    6.790
  134.000    0.276    0.446   96.882  178.706    6.981
  134.250    0.233    0.421   93.678  174.986    7.049
  134.500    0.209    0.404   90.168  170.256    6.977
  134.750    0.271    0.428   88.364  176.295    6.933
  135.000    0.294    0.440   89.303  177.961    6.862
  135.250    0.299    0.446   88.045  178.207    6.818
  135.500    0.294    0.438   91.544  178.453    6.748
  135.750    0.286    0.427   96.381  178.082    6.692
  136.000    0.282    0.422   98.844  177.509    6.744
  136.250    0.280    0.430   95.824  176.738    6.906
