~VERSION INFORMATION
 VERS.                 2.0:   CWLS LOG ASCII STANDARD -VERSION 2.0
 WRAP.                  NO:   ONE LINE PER DEPTH STEP
~WELL INFORMATION BLOCK
#MNEM.UNIT           DATA                    DESCRIPTION OF MNEMONIC
#---------    -------------------            -------------------------------
# Generated from Intellog Unique Number	CW_79_81/WELL/2491
WELL.         14-17-081-24W4                 : Well_name    - WELL
LOC .         00/14-17-081-24W4/0            : Location     - LOCATION
UWI .         00/14-17-081-24W4/0            : Uwi          - UNIQUE WELL ID
ENTR.         MAX                            : Entered      - ENTERED BY
SRVC.         WESTERN ATLAS                  : Scn          - SERVICE COMPANY
STRT.M        215                            : top_depth    - START DEPTH
STOP.M        459.75                         : bot_depth    - STOP DEPTH
STEP.M        0.25                           : increment    - STEP LENGTH
 NULL. -999.2500:NULL Value
~CURVE INFORMATION BLOCK
#MNEM UNIT       ERCB CURVE CODE    CURVE DESCRIPTION
#-----------   ------------------   ----------------------------------
DEPT.M        00 001 00 00         : DEPTH        - DEPTH
ILD .OHMM     00 120 00 00         : RESD         - DEEP RESISTIVITY (DIL)
NPHI.V/V      00 330 00 00         : PHIN         - NEUTRON POROSITY (SANDSTONE)
DPHI.V/V      00 890 00 00         : PHID         - DENSITY POROSITY (SANDSTONE)
GR  .API      00 310 00 00         : GR           - GAMMA RAY
CALI.MM       00 280 01 00         : CAL          - CALIPER
~PARAMETER INFORMATION
#MNEM.UNIT           DATA             DESCRIPTION OF MNEMONIC
#---------         -----------     ------------------------------
GL  .M        602.08               : gl           - GROUND LEVEL ELEVATION
EREF.M        605.78               : kb           - ELEVATION OF DEPTH REFERENCE
DATM.M        602.08               : datum        - DATUM ELEVATION
TDD .M        462                  : tdd          - TOTAL DEPTH DRILLER
RUN .         ONE                  : Run          - RUN NUMBER
ENG .         BILL                 : Engineer     - RECORDING ENGINEER
WIT .         JIM                  : Witness      - WITNESSED BY
MUD .         GEL                  : Mud_type     - MUD TYPE
MATR.         SANDSTONE            : Logunit      - NEUTRON MATRIX
TMAX.C        22                   : BHT          - MAXIMUM RECORDED TEMPERATURE
BHTD.M        462                  : BHTDEP       - MAXIMUM RECORDED TEMPERATURE
MATR.         1                    : LOGUNIT      - NEUTRON MATRIX
RMT .C        13                   : MDTP         - TEMPERATURE OF MUD
NEUT.         1                    : NEUTRON      - NEUTRON TYPE
RESI.         0                    : RESIST       - RESISTIVITY TYPE
RMC .OHMM     4.2                  : RMC          - RESISTIVITY OF MUD CAKE
RMF .OHMM     2.5                  : RMF          - RESISTIVITY OF MUD FILTRATE
SUFT.C        -20                  : SUFT         - SURFACE TEMPERATURE
~A  DEPTH     RESD     PHIN     PHID       GR      CAL
# ...
  324.500    8.831    0.373    0.269   69.764  224.097
  324.750    9.157    0.365    0.291   65.360  224.124
  325.000    9.141    0.360    0.308   62.696  224.146
  325.250    8.908    0.360    0.316   62.360  224.166
  325.500    8.700    0.365    0.311   63.828  224.187
  325.750    8.932    0.370    0.297   65.569  224.295
  326.000    9.495    0.373    0.302   66.067  224.722
  326.250    9.989    0.375    0.302   68.640  225.135
  326.500   10.623    0.380    0.309   68.072  225.544
  326.750   11.026    0.381    0.315   65.642  225.759
  327.000   11.086    0.379    0.318   62.921  225.781
  327.250   11.151    0.379    0.320   62.063  225.806
  327.500   11.496    0.382    0.317   63.534  225.832
  327.750   11.081    0.389    0.317   65.407  225.852
  328.000    7.001    0.397    0.326   68.329  227.330
  328.250    5.135    0.426    0.360   72.066  228.905
  328.500    4.520    0.465    0.400   75.278  229.896
  328.750    4.527    0.462    0.382   75.671  230.471
  329.000    4.739    0.434    0.350   76.413  231.305
  329.250    4.878    0.427    0.328   77.589  231.325
  329.500    4.780    0.423    0.323   77.197  231.055
  329.750    4.556    0.421    0.323   77.792  230.689
  330.000    4.306    0.423    0.323   79.840  230.616
  330.250    4.080    0.434    0.329   82.104  231.338
  330.500    4.018    0.455    0.336   84.057  230.958
  330.750    4.018    0.466    0.346   87.331  230.202
  331.000    4.106    0.465    0.351   89.031  229.449
  331.250    4.257    0.459    0.350   88.927  228.889
  331.500    4.471    0.449    0.342   87.370  228.622
  331.750    4.820    0.437    0.321   85.585  228.653
  332.000    5.046    0.427    0.302   87.050  228.674
  332.250    5.308    0.415    0.307   85.899  228.695
  332.500    5.615    0.404    0.309   83.878  228.427
  332.750    5.953    0.397    0.316   82.496  228.255
  333.000    6.268    0.400    0.328   81.752  228.273
  333.250    6.483    0.410    0.332   80.236  228.299
  333.500    6.632    0.397    0.326   80.737  228.327
  333.750    6.680    0.390    0.316   81.215  228.733
  334.000    6.728    0.390    0.309   81.343  229.435
  334.250    6.753    0.389    0.307   80.425  230.234
  334.500    6.764    0.386    0.309   79.101  231.129
  334.750    6.834    0.388    0.301   79.835  232.403
  335.000    6.938    0.386    0.286   82.272  232.828
  335.250    7.194    0.380    0.279   82.286  233.236
  335.500    7.541    0.379    0.265   79.506  233.644
  335.750    8.019    0.372    0.241   76.843  233.859
  336.000    8.525    0.351    0.196   76.566  233.882
  336.250    8.590    0.320    0.122   81.274  233.911
  336.500    8.025    0.339    0.133   86.136  233.932
  336.750    7.678    0.351    0.163   89.871  233.954
  337.000    7.389    0.353    0.198   90.642  233.688
  337.250    7.123    0.349    0.203   89.028  233.322
  337.500    6.894    0.348    0.177   87.122  232.955
  337.750    6.754    0.369    0.169   89.113  232.514
  338.000    6.805    0.389    0.219   92.036  232.133
  338.250    6.955    0.389    0.216   89.723  231.766
  338.500    7.146    0.389    0.210   90.028  231.692
  338.750    7.279    0.388    0.210   92.252  231.911
  339.000    7.291    0.385    0.214   94.823  232.323
  339.250    7.141    0.382    0.213   95.158  232.817
  339.500    6.926    0.380    0.209   94.445  233.238
  339.750    6.726    0.379    0.207   93.529  233.648
  340.000    6.604    0.379    0.205   94.182  234.062
  340.250    6.556    0.381    0.200   96.057  234.472
  340.500    6.567    0.385    0.195   97.991  234.685
  340.750    6.604    0.384    0.194   97.230  233.839
  341.000    6.554    0.359    0.197   93.366  231.439
  341.250    6.364    0.350    0.254   88.262  229.913
  341.500    6.422    0.360    0.267   88.564  229.546
  341.750    6.704    0.372    0.265   88.112  229.568
  342.000    7.173    0.378    0.257   85.567  229.593
  342.250    7.952    0.370    0.220   84.274  229.538
  342.500    9.352    0.359    0.146   83.561  229.153
  342.750   10.944    0.383    0.156   87.761  229.177
  343.000   12.317    0.384    0.184   87.774  229.491
  343.250   13.082    0.369    0.226   84.529  230.096
  343.500   12.978    0.352    0.270   79.191  230.699
  343.750   11.533    0.356    0.296   73.740  230.722
  344.000    9.432    0.375    0.267   76.662  230.747
  344.250    8.697    0.391    0.224   83.422  230.768
  344.500    8.529    0.394    0.210   87.043  230.791
  344.750    8.529    0.393    0.208   88.918  230.815
  345.000    8.543    0.390    0.209   89.048  230.934
  345.250    8.605    0.383    0.210   85.990  231.349
  345.500    8.604    0.382    0.212   85.764  231.370
  345.750    8.793    0.381    0.212   85.776  231.390
  346.000    8.793    0.381    0.213   86.487  231.123
  346.250    8.761    0.384    0.214   87.082  230.757
  346.500    8.760    0.389    0.214   87.445  230.294
  346.750    8.759    0.391    0.212   88.401  229.305
  347.000    8.758    0.389    0.213   89.626  228.114
  347.250    8.821    0.378    0.210   88.012  227.749
  347.500    8.885    0.374    0.211   87.269  227.676
  347.750    9.015    0.370    0.205   88.212  227.698
  348.000    9.197    0.365    0.193   90.727  227.720
  348.250    9.360    0.368    0.196   93.575  227.749
  348.500    9.503    0.383    0.213   92.622  227.770
  348.750    9.712    0.383    0.216   89.376  227.790
  349.000    9.819    0.381    0.223   86.655  227.521
  349.250    9.890    0.379    0.224   85.504  227.351
  349.500    9.870    0.377    0.219   86.329  227.375
  349.750    9.479    0.370    0.216   88.985  227.527
  350.000    8.979    0.371    0.222   89.396  228.160
  350.250    8.655    0.362    0.219   89.160  228.158
  350.500    8.482    0.364    0.221   89.979  228.449
  350.750    8.418    0.383    0.220   91.619  228.642
  351.000    8.534    0.401    0.215   93.376  228.444
  351.250    9.228    0.383    0.221   92.759  227.252
  351.500   10.265    0.362    0.235   86.163  225.214
  351.750   10.411    0.359    0.258   78.893  223.649
  352.000   10.445    0.357    0.277   76.370  223.255
  352.250   10.479    0.360    0.283   72.969  223.058
  352.500   10.551    0.370    0.278   68.278  222.762
  352.750   10.623    0.381    0.276   67.397  222.759
  353.000   10.620    0.388    0.271   68.861  222.757
  353.250   10.693    0.403    0.277   70.032  222.755
  353.500   10.825    0.402    0.284   69.093  222.752
  353.750   11.058    0.392    0.285   68.153  222.945
  354.000   11.420    0.381    0.272   68.562  223.431
  354.250   12.032    0.377    0.241   71.931  224.291
  354.500   12.589    0.381    0.260   77.059  224.696
  354.750   13.715    0.385    0.245   77.995  224.693
  355.000   14.101    0.384    0.229   76.294  224.691
  355.250   13.786    0.377    0.227   73.830  224.884
  355.500   13.150    0.362    0.238   72.656  225.175
  355.750   12.502    0.342    0.239   76.367  225.009
  356.000   11.681    0.345    0.235   83.205  224.192
  356.250   10.852    0.352    0.237   82.266  223.800
  356.500   10.029    0.360    0.235   82.381  224.872
  356.750    9.041    0.369    0.232   83.552  228.191
  357.000    8.171    0.374    0.227   85.720  232.097
  357.250    7.810    0.371    0.219   89.548  232.403
  357.500    7.748    0.368    0.210   93.455  231.994
  357.750    8.205    0.364    0.211   91.577  231.992
  358.000    9.014    0.368    0.219   90.052  232.282
  358.250   10.013    0.375    0.234   87.588  230.130
  358.500   10.822    0.382    0.250   85.594  225.732
  358.750   10.667    0.384    0.266   88.367  222.293
  359.000    9.967    0.381    0.279   89.342  222.697
  359.250    8.725    0.388    0.282   84.417  222.695
  359.500    7.957    0.401    0.282   78.436  222.693
  359.750    7.708    0.406    0.269   76.207  222.690
  360.000    8.006    0.389    0.228   77.788  222.590
  360.250    9.160    0.328    0.127   76.732  222.278
  360.500   10.034    0.294    0.102   67.937  222.683
  360.750   10.031    0.308    0.114   70.515  222.680
