~VERSION INFORMATION
 VERS.                 2.0:   CWLS LOG ASCII STANDARD -VERSION 2.0
 WRAP.                  NO:   ONE LINE PER DEPTH STEP
~WELL INFORMATION BLOCK
#MNEM.UNIT           DATA                    DESCRIPTION OF MNEMONIC
#---------    -------------------            -------------------------------
# Generated from Intellog Unique Number	CS_71_72/WELL/923
WELL.         BRENDA IPIATIK                 : Well_name    - WELL
LOC .         00/14-04-071-09W4/0            : Location     - LOCATION
UWI .         00/14-04-071-09W4/0            : Uwi          - UNIQUE WELL ID
ENTR.         SP                             : Entered      - ENTERED BY
SRVC.         SCHLUMBERGER                   : Scn          - SERVICE COMPANY
STRT.M        250                            : top_depth    - START DEPTH
STOP.M        450                            : bot_depth    - STOP DEPTH
STEP.M        0.25                           : increment    - STEP LENGTH
 NULL. -999.2500:NULL Value
~CURVE INFORMATION BLOCK
#MNEM UNIT       ERCB CURVE CODE    CURVE DESCRIPTION
#-----------   ------------------   ----------------------------------
DEPT.M        00 001 00 00         : DEPTH        - DEPTH
ILD .OHMM     00 120 00 00         : RESD         - DEEP RESISTIVITY (DIL)
DPHI.V/V      00 890 00 00         : PHID         - DENSITY POROSITY (LIMESTONE)
NPHI.V/V      00 330 00 00         : PHIN         - NEUTRON POROSITY (LIMESTONE)
GR  .API      00 310 00 00         : GR           - GAMMA RAY
~PARAMETER INFORMATION
#MNEM.UNIT           DATA             DESCRIPTION OF MNEMONIC
#---------         -----------     ------------------------------
GL  .M        604.92               : gl           - GROUND LEVEL ELEVATION
EREF.M        608.28               : kb           - ELEVATION OF DEPTH REFERENCE
DATM.M        604.92               : datum        - DATUM ELEVATION
TDD .M        460                  : tdd          - TOTAL DEPTH DRILLER
RUN .         ONE                  : Run          - RUN NUMBER
ENG .         BILL                 : Engineer     - RECORDING ENGINEER
WIT .         JIM                  : Witness      - WITNESSED BY
MUD .         GEL                  : Mud_type     - MUD TYPE
MATR.         LIMESTONE            : Logunit      - NEUTRON MATRIX
TMAX.C        15                   : BHT          - MAXIMUM RECORDED TEMPERATURE
BHTD.M        460                  : BHTDEP       - MAXIMUM RECORDED TEMPERATURE
MATR.         1                    : LOGUNIT      - NEUTRON MATRIX
RMT .C        25                   : MDTP         - TEMPERATURE OF MUD
NEUT.         1                    : NEUTRON      - NEUTRON TYPE
RESI.         0                    : RESIST       - RESISTIVITY TYPE
RMC .OHMM     0.25                 : RMC          - RESISTIVITY OF MUD CAKE
RMF .OHMM     0.25                 : RMF          - RESISTIVITY OF MUD FILTRATE
SUFT.C        15                   : SUFT         - SURFACE TEMPERATURE
~A  DEPTH     RESD     PHID     PHIN       GR
# ...
  424.000    7.076    0.234    0.386   83.728
  424.250    6.915    0.232    0.396   82.757
  424.500    6.782    0.245    0.407   83.251
  424.750    6.741    0.261    0.419   83.988
  425.000    6.699    0.255    0.428   85.945
  425.250    6.658    0.249    0.430   88.448
  425.500    6.642    0.264    0.421   93.329
  425.750    6.701    0.270    0.412   98.576
  426.000    6.889    0.249    0.412  101.446
  426.250    7.216    0.231    0.418   99.257
  426.500    7.559    0.226    0.406   89.450
  426.750    7.756    0.217    0.388   78.118
  427.000    7.665    0.203    0.380   64.958
  427.250    7.378    0.265    0.382   65.208
  427.500    7.049    0.299    0.381   72.346
  427.750    6.672    0.285    0.374   74.665
  428.000    6.460    0.260    0.367   77.475
  428.250    6.218    0.245    0.364   82.052
  428.500    6.168    0.233    0.365   86.629
  428.750    6.294    0.225    0.362   90.413
  429.000    6.469    0.222    0.356   94.807
  429.250    6.613    0.214    0.353   98.226
  429.500    6.723    0.204    0.354  100.608
  429.750    6.820    0.199    0.360  101.406
  430.000    6.827    0.203    0.365   98.424
  430.250    6.813    0.214    0.374   87.580
  430.500    6.758    0.213    0.379   77.346
  430.750    6.717    0.221    0.375   72.049
  431.000    6.663    0.249    0.372   71.871
  431.250    6.573    0.248    0.369   75.899
  431.500    6.459    0.230    0.370   83.890
  431.750    6.371    0.212    0.371   89.259
  432.000    6.285    0.203    0.384   84.997
  432.250    6.165    0.213    0.400   80.614
  432.500    5.878    0.242    0.400   88.970
  432.750    5.512    0.242    0.393   99.155
  433.000    5.227    0.212    0.410  107.023
  433.250    4.948    0.194    0.466  112.453
  433.500    4.528    0.175    0.480  114.896
  433.750    4.058    0.167    0.490  114.719
  434.000    4.591    0.157    0.501  113.993
  434.250    4.891    0.155    0.516  108.939
  434.500    4.962    0.170    0.520   97.181
  434.750    4.950    0.193    0.510   88.105
  435.000    4.938    0.246    0.413   80.917
  435.250    4.973    0.280    0.374   68.854
  435.500    5.017    0.318    0.367   61.728
  435.750    5.119    0.307    0.362   63.441
  436.000    5.164    0.295    0.356   69.481
  436.250    5.152    0.289    0.351   74.667
  436.500    5.044    0.258    0.347   78.024
  436.750    4.846    0.239    0.357   70.228
  437.000    4.613    0.244    0.369   63.772
  437.250    4.441    0.274    0.373   58.779
  437.500    4.307    0.291    0.375   54.031
  437.750    4.256    0.305    0.364   51.354
  438.000    4.327    0.312    0.361   55.383
  438.250    4.456    0.304    0.365   57.704
  438.500    4.589    0.290    0.374   59.964
  438.750    4.613    0.270    0.371   62.592
  439.000    4.499    0.255    0.365   64.486
  439.250    4.355    0.246    0.371   67.113
  439.500    4.378    0.265    0.386   69.190
  439.750    4.743    0.297    0.389   72.976
  440.000    5.197    0.283    0.382   75.844
  440.250    5.610    0.266    0.377   82.372
  440.500    6.136    0.256    0.381   88.899
  440.750    6.710    0.238    0.376   93.658
  441.000    7.016    0.208    0.371   97.138
  441.250    7.321    0.187    0.379   99.704
  441.500    7.455    0.180    0.378  101.842
  441.750    7.466    0.183    0.377  104.164
  442.000    7.448    0.192    0.386  105.816
  442.250    7.528    0.197    0.397  106.430
  442.500    8.327    0.189    0.404  104.911
  442.750    9.473    0.169    0.412   99.127
  443.000   10.817    0.126    0.416   89.806
  443.250   12.658    0.096    0.319   73.476
  443.500   15.407    0.064    0.240   61.413
  443.750   20.254    0.015    0.206   41.184
  444.000   25.308    0.059    0.187   35.886
  444.250   28.362    0.076    0.175   32.173
  444.500   30.961    0.086    0.166   28.460
  444.750   33.420    0.066    0.162   25.053
  445.000   34.943    0.053    0.163   22.803
  445.250   34.597    0.047    0.169   21.284
  445.500   33.430    0.050    0.177   19.766
  445.750   32.301    0.055    0.184   19.223
  446.000   31.095    0.036    0.188   20.081
  446.250   29.431    0.057    0.181   23.683
  446.500   27.700    0.067    0.172   28.930
  446.750   25.924    0.054    0.187   34.361
  447.000   24.034    0.065    0.230   38.145
  447.250   22.837    0.085    0.258   41.502
  447.500   21.413    0.084    0.260   41.142
  447.750   20.459    0.069    0.250   39.197
  448.000   20.680    0.067    0.244   39.447
  448.250   22.073    0.081    0.281   39.817
  448.500   23.735    0.083    0.284   40.676
  448.750   25.668    0.073    0.250   34.891
  449.000   26.990    0.064    0.211   28.558
  449.250   28.484    0.070    0.199   25.334
  449.500   28.629    0.072    0.204   23.997
  449.750   26.493    0.067    0.202   23.576
  450.000   23.971    0.078    0.196   23.277
