~VERSION INFORMATION
 VERS.                 2.0:   CWLS LOG ASCII STANDARD -VERSION 2.0
 WRAP.                  NO:   ONE LINE PER DEPTH STEP
~WELL INFORMATION BLOCK
#MNEM.UNIT           DATA                    DESCRIPTION OF MNEMONIC
#---------    -------------------            -------------------------------
# Generated from Intellog Unique Number	CW_73_75/WELL/2746
WELL.         GAO ET AL KELLY                : Well_name    - WELL
LOC .         00/11-21-073-19W4/0            : Location     - LOCATION
UWI .         00/11-21-073-19W4/0            : Uwi          - UNIQUE WELL ID
ENTR.         JAYE                           : Entered      - ENTERED BY
SRVC.         SCHLUMBERGER                   : Scn          - SERVICE COMPANY
DATE.         20 JAN 77                      : Date         - LOG DATE
STRT.M        350.52                         : top_depth    - START DEPTH
STOP.M        585.27                         : bot_depth    - STOP DEPTH
STEP.M        0.25                           : increment    - STEP LENGTH
 NULL. -999.2500:NULL Value
~CURVE INFORMATION BLOCK
#MNEM UNIT       ERCB CURVE CODE    CURVE DESCRIPTION
#-----------   ------------------   ----------------------------------
DEPT.M        00 001 00 00         : DEPTH        - DEPTH
ILD .OHMM     00 120 00 00         : RESD         - DEEP RESISTIVITY (DIL)
NPHI.V/V      00 330 00 00         : PHIN         - NEUTRON POROSITY (SANDSTONE)
DPHI.V/V      00 890 00 00         : PHID         - DENSITY POROSITY (SANDSTONE)
GR  .API      00 310 00 00         : GR           - GAMMA RAY
CALI.MM       00 280 01 00         : CAL          - CALIPER
~PARAMETER INFORMATION
#MNEM.UNIT           DATA             DESCRIPTION OF MNEMONIC
#---------         -----------     ------------------------------
GL  .M        654.71               : gl           - GROUND LEVEL ELEVATION
EREF.M        658.368              : kb           - ELEVATION OF DEPTH REFERENCE
DATM.M        654.71               : datum        - DATUM ELEVATION
TDD .M        620.268              : tdd          - TOTAL DEPTH DRILLER
RUN .         ONE                  : Run          - RUN NUMBER
MATR.         SANDSTONE            : Logunit      - NEUTRON MATRIX
TMAX.C        30                   : BHT          - MAXIMUM RECORDED TEMPERATURE
BHTD.M        620.268              : BHTDEP       - MAXIMUM RECORDED TEMPERATURE
RMT .C        15.5556              : MDTP         - TEMPERATURE OF MUD
MUDD.KG/M     0                    : MWT          - MUD DENSITY
NEUT.         1                    : NEUTRON      - NEUTRON TYPE
RESI.         0                    : RESIST       - RESISTIVITY TYPE
RM  .OHMM     8.1                  : RM           - RESISTIVITY OF MUD
RMC .OHMM     9.2                  : RMC          - RESISTIVITY OF MUD CAKE
RMF .OHMM     6.3                  : RMF          - RESISTIVITY OF MUD FILTRATE
SUFT.C        -17.7778             : SUFT         - SURFACE TEMPERATURE
~A  DEPTH     RESD     PHIN     PHID       GR      CAL
# ...
  423.520    7.149    0.468    0.347   63.779  159.225
  423.770    7.250    0.456    0.342   67.664  159.021
  424.020    7.314    0.450    0.338   66.993  158.887
  424.270    7.389    0.449    0.333   66.746  158.681
  424.520    7.440    0.450    0.327   67.533  158.584
  424.770    7.478    0.445    0.322   68.497  158.457
  425.020    7.529    0.436    0.319   70.085  158.468
  425.270    7.593    0.435    0.336   72.199  158.677
  425.520    7.646    0.438    0.340   74.018  158.964
  425.770    7.740    0.442    0.338   75.176  159.165
  426.020    7.807    0.444    0.334   75.717  159.267
  426.270    7.846    0.444    0.331   74.436  159.664
  426.520    7.884    0.443    0.330   73.641  160.157
  426.770    7.880    0.448    0.335   74.368  160.483
  427.020    7.804    0.452    0.342   75.641  160.665
  427.270    7.729    0.459    0.342   76.606  160.865
  427.520    7.640    0.467    0.336   76.660  161.283
  427.770    7.650    0.478    0.334   76.109  161.364
  428.020    7.674    0.475    0.341   77.201  161.469
  428.270    7.628    0.465    0.331   77.076  161.466
  428.520    7.596    0.473    0.327   76.773  161.657
  428.770    7.633    0.479    0.336   79.019  161.754
  429.020    7.728    0.460    0.324   80.957  161.959
  429.270    8.190    0.446    0.336   83.141  162.050
  429.520    9.530    0.460    0.336   83.686  161.937
  429.770   12.423    0.472    0.293   81.126  162.032
  430.020   16.283    0.452    0.290   76.925  162.125
  430.270   20.955    0.382    0.232   68.408  162.320
  430.520   23.853    0.291    0.094   63.852  162.341
  430.770   20.552    0.199    0.063   69.010  162.207
  431.020   16.518    0.174    0.104   76.483  162.201
  431.270   13.471    0.252    0.254   82.745  162.296
  431.520   11.313    0.333    0.276   90.406  162.501
  431.770    9.928    0.374    0.300   96.111  162.908
  432.020    8.858    0.440    0.308  102.430  163.010
  432.270    8.152    0.466    0.309  108.086  163.194
  432.520    7.854    0.463    0.306  112.273  163.294
  432.770    7.735    0.467    0.314  115.007  163.400
  433.020    7.718    0.484    0.312  117.859  163.704
  433.270    7.756    0.479    0.305  120.107  164.199
  433.520    7.766    0.466    0.297  116.454  165.014
  433.770    7.819    0.453    0.305  111.829  165.629
  434.020    7.857    0.445    0.313  113.284  166.238
  434.270    7.883    0.458    0.314  114.376  166.651
  434.520    7.850    0.463    0.305  113.275  167.151
  434.770    7.815    0.481    0.308  112.668  167.670
  435.020    7.812    0.492    0.314  111.506  168.179
  435.270    7.808    0.472    0.307  108.582  168.585
  435.520    7.804    0.448    0.297  108.455  168.776
  435.770    7.729    0.452    0.303  108.089  168.874
  436.020    7.543    0.463    0.310  107.840  169.175
  436.270    7.791    0.467    0.310  107.292  169.064
  436.520    8.212    0.471    0.307  107.162  169.166
  436.770    8.283    0.456    0.292  112.874  169.151
  437.020    8.099    0.447    0.276  121.141  169.352
  437.270    7.675    0.449    0.228  128.614  169.673
  437.520    7.315    0.404    0.172  123.685  169.759
  437.770    6.794    0.351    0.130  117.722  169.953
  438.020    6.463    0.361    0.102  122.100  169.945
  438.270    6.158    0.402    0.140  130.975  170.136
  438.520    5.977    0.437    0.194  141.852  170.760
  438.770    5.888    0.456    0.215  144.229  171.152
  439.020    5.852    0.473    0.228  141.357  171.254
  439.270    5.881    0.478    0.228  135.878  171.356
  439.520    5.921    0.474    0.216  135.643  171.652
  439.770    5.961    0.478    0.202  136.176  171.848
  440.020    6.002    0.475    0.209  135.990  172.264
  440.270    6.031    0.470    0.219  134.892  172.663
  440.520    6.028    0.458    0.212  135.743  173.280
  440.770    6.048    0.452    0.204  139.385  173.676
  441.020    6.011    0.455    0.229  145.519  174.179
  441.270    5.931    0.441    0.220  145.397  174.599
  441.520    5.778    0.434    0.205  145.450  174.993
  441.770    5.557    0.448    0.179  145.690  175.194
  442.020    5.364    0.457    0.174  146.235  175.696
  442.270    5.130    0.458    0.184  142.580  176.205
  442.520    4.925    0.451    0.193  138.077  176.941
  442.770    4.711    0.454    0.191  135.093  177.228
  443.020    4.432    0.472    0.197  135.517  177.433
  443.270    4.102    0.480    0.194  137.399  177.622
  443.520    3.803    0.478    0.190  139.646  177.717
  443.770    3.526    0.475    0.197  142.381  178.123
  444.020    3.543    0.484    0.202  143.830  178.630
  444.270    3.783    0.500    0.211  140.668  180.792
  444.520    4.166    0.516    0.226  128.195  187.067
  444.770    4.839    0.466    0.257  121.806  196.321
  445.020    5.589    0.431    0.333  113.778  178.395
  445.270    6.270    0.437    0.313  106.232  164.396
  445.520    6.278    0.440    0.313   99.241  163.247
  445.770    6.240    0.439    0.323   94.555  163.667
  446.020    6.236    0.437    0.323   92.181  163.984
  446.270    6.267    0.426    0.328   90.045  164.262
  446.520    6.299    0.423    0.338   90.890  164.460
  446.770    6.341    0.423    0.345   94.967  164.759
  447.020    6.362    0.423    0.338   96.844  165.083
  447.270    6.334    0.423    0.338   94.404  165.366
  447.520    6.308    0.431    0.343   88.748  165.690
  447.770    6.247    0.429    0.336   89.356  166.082
  448.020    6.221    0.432    0.332   91.845  166.577
  448.270    6.217    0.451    0.330   93.848  167.205
  448.520    6.237    0.470    0.323   94.881  167.616
  448.770    6.268    0.472    0.313   95.189  167.917
  449.020    6.265    0.457    0.330   95.471  168.099
  449.270    6.273    0.439    0.337   96.142  168.201
  449.520    6.304    0.429    0.327   96.870  168.191
  449.770    6.358    0.437    0.321   96.317  168.202
  450.020    6.473    0.442    0.329   95.037  167.981
  450.270    6.674    0.446    0.320   93.146  167.761
  450.520    6.806    0.441    0.319   91.436  167.641
  450.770    6.839    0.425    0.335   87.233  167.432
  451.020    6.849    0.399    0.325   88.513  167.118
  451.270    6.757    0.391    0.309   93.615  166.705
  451.520    6.607    0.417    0.314   97.315  166.489
  451.770    6.401    0.436    0.325   97.135  165.979
  452.020    6.270    0.438    0.322   97.006  165.648
  452.270    6.164    0.433    0.324   97.623  165.329
  452.520    6.116    0.450    0.337   97.914  165.137
  452.770    6.057    0.447    0.338   98.025  165.014
  453.020    6.053    0.432    0.328   98.513  164.911
  453.270    6.094    0.428    0.303   98.997  164.926
  453.520    6.136    0.438    0.304   99.107  164.804
  453.770    6.178    0.430    0.324   99.286  164.787
  454.020    6.197    0.429    0.333   98.919  164.767
  454.270    6.194    0.444    0.328  101.715  164.783
  454.520    6.190    0.453    0.319  100.554  164.777
  454.770    6.187    0.454    0.306   99.526  164.772
  455.020    6.195    0.437    0.296   99.024  164.862
  455.270    6.181    0.454    0.322   96.531  164.747
  455.520    6.076    0.465    0.340   95.002  164.646
  455.770    6.061    0.462    0.327   94.456  164.631
  456.020    6.092    0.453    0.333   93.901  164.408
  456.270    6.385    0.443    0.340   93.291  164.304
  456.520    6.969    0.427    0.309   92.798  164.306
  456.770    7.903    0.409    0.267   93.524  164.296
  457.020    8.865    0.374    0.206   95.646  164.279
  457.270   10.128    0.344    0.136   93.457  164.273
  457.520   11.320    0.298    0.071   86.279  164.488
  457.770   12.399    0.235    0.067   81.166  164.681
  458.020   12.902    0.223    0.087   77.331  164.778
  458.270   12.918    0.234    0.098   77.087  164.780
  458.520   11.213    0.245    0.095   77.753  164.854
  458.770    9.912    0.259    0.097   79.636  164.956
  459.020    8.715    0.295    0.122   81.393  164.953
  459.270    7.732    0.323    0.147   84.971  165.053
  459.520    6.675    0.455    0.301   94.819  164.952
  459.770    5.933    0.448    0.329   98.768  164.921
