~VERSION INFORMATION
 VERS.                 2.0:   CWLS LOG ASCII STANDARD -VERSION 2.0
 WRAP.                  NO:   ONE LINE PER DEPTH STEP
~WELL INFORMATION BLOCK
#MNEM.UNIT           DATA                    DESCRIPTION OF MNEMONIC
#---------    -------------------            -------------------------------
# Generated from Intellog Unique Number	CW_70_72/WELL/3034
NULL.         -999.25                        : NULL_VALUE
WELL.         MIAMI AMOCO HONDO 11-32        : Well_name    - WELL              
LOC .         11-32-070-02W5                 : Location     - LOCATION          
UWI .         00/11-32-070-02W5/0            : Uwi          - UNIQUE WELL ID    
ENTR.         J                              : Entered      - ENTERED BY        
SRVC.         SCHLUMBERGER                   : Scn          - SERVICE COMPANY   
DATE.         30 JAN 75                      : Date         - LOG DATE          
STRT.M        417.576                        : top_depth    - START DEPTH       
STOP.M        634.076                        : bot_depth    - STOP DEPTH        
STEP.M        0.25                           : increment    - STEP LENGTH       
~CURVE INFORMATION BLOCK
#MNEM UNIT       ERCB CURVE CODE    CURVE DESCRIPTION
#-----------   ------------------   ----------------------------------
DEPT.M        00 001 00 00         : DEPTH        - DEPTH                       
ILD .OHMM     00 120 00 00         : RESD         - DEEP RESISTIVITY (DIL)      
CALI.MM       00 280 01 00         : CAL          - CALIPER                     
GR  .API      00 310 00 00         : GR           - GAMMA RAY                   
NPHI.V/V      00 330 00 00         : PHIN         - NEUTRON POROSITY (SANDSTONE)
DPHI.V/V      00 890 00 00         : PHID         - DENSITY POROSITY (SANDSTONE)
~PARAMETER INFORMATION       
#MNEM.UNIT           DATA             DESCRIPTION OF MNEMONIC
#---------         -----------     ------------------------------
GL  .M        591.617              : gl           - GROUND LEVEL ELEVATION      
EREF.M        596.189              : kb           - ELEVATION OF DEPTH REFERENCE
DATM.M        591.617              : datum        - DATUM ELEVATION             
TDD .M        653.796              : tdd          - TOTAL DEPTH DRILLER         
RUN .         ONE                  : Run          - RUN NUMBER                  
ENG .         LAVERDIERE           : Engineer     - RECORDING ENGINEER          
WIT .         MCTAGGART            : Witness      - WITNESSED BY                
BASE.         EDM                  : Branch       - HOME BASE OF LOGGING UNIT   
MUD .         GEL                  : Mud_type     - MUD TYPE                    
MATR.         SANDSTONE            : Logunit      - NEUTRON MATRIX              
TMAX.C        28.3333              : BHT          - MAXIMUM RECORDED TEMPERATURE
BHTD.M        653.796              : BHTDEP       - MAXIMUM RECORDED TEMPERATURE
RMT .C        19.4444              : MDTP         - TEMPERATURE OF MUD          
MUDD.KG/M     1152                 : MWT          - MUD DENSITY                 
NEUT.         1                    : NEUTRON      - NEUTRON TYPE                
RESI.         0                    : RESIST       - RESISTIVITY TYPE            
RM  .OHMM     0.61                 : RM           - RESISTIVITY OF MUD          
RMC .OHMM     0.92                 : RMC          - RESISTIVITY OF MUD CAKE     
RMF .OHMM     0.25                 : RMF          - RESISTIVITY OF MUD FILTRATE 
SUFT.C        -17.7778             : SUFT         - SURFACE TEMPERATURE         
~A  DEPTH     RESD      CAL       GR     PHIN     PHID
# ...
  454.076    2.449  160.168   72.586    0.411    0.203
  454.326    2.846  159.866   78.971    0.433    0.179
  454.576    3.086  161.313   82.319    0.468    0.159
  454.826    3.116  164.511   81.957    0.496    0.172
  455.076    3.020  165.237   83.055    0.464    0.185
  455.326    2.966  163.700   83.241    0.458    0.195
  455.576    2.936  161.648   81.543    0.464    0.201
  455.826    2.908  160.317   78.994    0.466    0.179
  456.076    2.882  158.986   77.904    0.466    0.190
  456.326    2.851  158.889   77.179    0.459    0.191
  456.576    2.821  158.998   75.421    0.450    0.199
  456.826    2.785  159.416   73.662    0.437    0.212
  457.076    2.720  159.939   70.930    0.458    0.195
  457.326    2.637  160.769   67.227    0.458    0.208
  457.576    2.538  161.083   64.617    0.440    0.222
  457.826    2.376  160.986   65.776    0.479    0.230
  458.076    2.213  160.479   64.443    0.470    0.227
  458.326    2.050  160.485   58.004    0.444    0.236
  458.576    1.909  161.109   61.533    0.414    0.225
  458.826    1.837  160.806   67.250    0.399    0.202
  459.076    1.885  161.534   72.663    0.410    0.177
  459.326    2.120  162.364   75.645    0.423    0.170
  459.576    2.294  163.502   76.439    0.430    0.185
  459.826    2.446  165.156   76.504    0.438    0.201
  460.076    2.538  165.265   77.906    0.452    0.209
  460.326    2.479  164.964   79.489    0.478    0.165
  460.576    2.373  164.558   74.874    0.473    0.199
  460.826    2.222  164.152   69.226    0.444    0.229
  461.076    2.047  163.027   71.783    0.431    0.200
  461.326    1.984  162.416   74.643    0.446    0.204
  461.576    2.294  162.629   76.531    0.453    0.170
  461.826    2.550  162.944   75.987    0.466    0.169
  462.076    2.801  163.260   70.886    0.476    0.192
  462.326    2.895  163.061   63.839    0.455    0.218
  462.576    2.818  163.066   56.975    0.448    0.246
  462.826    2.692  162.662   54.183    0.459    0.276
  463.076    2.502  161.640   51.453    0.467    0.305
  463.326    2.271  160.925   48.600    0.449    0.332
  463.576    2.028  160.314   47.449    0.444    0.307
  463.826    1.840  160.321   48.669    0.453    0.314
  464.076    1.680  160.532   49.645    0.447    0.297
  464.326    1.606  160.951   50.439    0.440    0.299
  464.576    1.672  161.473   50.199    0.436    0.273
  464.826    1.822  161.684   50.325    0.396    0.245
  465.076    1.975  161.794   50.876    0.409    0.217
  465.326    2.073  161.697   51.365    0.446    0.276
  465.576    2.092  161.910   52.524    0.449    0.286
  465.826    2.069  161.608   52.832    0.449    0.256
  466.076    1.988  160.894   50.648    0.450    0.252
  466.326    1.899  160.694   52.293    0.445    0.266
  466.576    1.778  161.009   54.789    0.431    0.272
  466.826    1.684  160.913   56.312    0.429    0.262
  467.076    1.663  161.126   58.930    0.433    0.251
  467.326    1.780  161.545   59.905    0.434    0.242
  467.576    1.866  161.757   58.997    0.443    0.235
  467.826    1.943  161.765   56.692    0.423    0.255
  468.076    1.927  161.976   56.088    0.406    0.273
  468.326    1.888  162.600   57.003    0.402    0.273
  468.576    1.830  163.635   59.134    0.413    0.261
  468.826    1.811  164.259   61.569    0.424    0.247
  469.076    1.862  164.266   64.370    0.437    0.240
  469.326    1.917  164.169   66.804    0.445    0.243
  469.576    2.015  163.970   71.123    0.410    0.249
  469.826    2.122  164.285   74.895    0.411    0.238
  470.076    2.213  164.087   76.480    0.427    0.196
  470.326    2.305  163.681   75.329    0.449    0.195
  470.576    2.339  163.481   71.443    0.450    0.209
  470.826    2.361  163.592   69.198    0.445    0.224
  471.076    2.366  163.597   67.803    0.445    0.228
  471.326    2.384  163.707   67.686    0.450    0.217
  471.576    2.389  163.610   69.270    0.461    0.206
  471.826    2.416  163.309   67.876    0.462    0.215
  472.076    2.438  162.698   67.030    0.450    0.178
  472.326    2.479  162.600   71.105    0.436    0.174
  472.576    2.549  161.991   73.600    0.433    0.198
  472.826    2.577  161.894   73.969    0.441    0.223
  473.076    2.601  162.003   71.177    0.439    0.256
  473.326    2.517  162.112   67.717    0.473    0.280
  473.576    2.383  162.222   65.836    0.507    0.309
  473.826    2.433  162.641   60.310    0.553    0.387
  474.076    2.555  162.337   61.651    0.590    0.435
  474.326    2.817  161.418   60.864    0.608    0.463
  474.576    3.304  159.983   44.701    0.601    0.430
  474.826    4.998  157.623   36.257    0.472    0.595
  475.076    5.714  157.939   40.880    0.400    0.372
  475.326    5.244  159.593   41.674    0.384    0.306
  475.576    3.751  160.524   40.219    0.380    0.293
  475.826    2.413  161.561   46.301    0.383    0.327
  476.076    1.899  162.184   54.267    0.413    0.349
  476.326    1.593  162.912   59.072    0.447    0.355
  476.576    1.697  163.227   66.977    0.432    0.258
  476.826    1.986  163.336   71.661    0.402    0.239
  477.076    2.394  163.754   69.537    0.381    0.229
  477.326    2.798  163.555   68.022    0.358    0.218
  477.576    2.925  163.151   67.965    0.358    0.230
  477.826    2.979  163.260   68.880    0.372    0.220
  478.076    2.968  163.061   70.586    0.363    0.224
  478.326    2.893  163.169   75.452    0.367    0.230
  478.576    2.765  163.484   76.671    0.373    0.224
  478.826    2.671  160.714   77.952    0.376    0.222
  479.076    2.614  160.308   79.962    0.376    0.217
  479.326    2.582  159.596   81.181    0.369    0.218
  479.576    2.552  159.806   78.692    0.377    0.220
  479.826    2.564  159.712   76.266    0.391    0.223
  480.076    2.587  159.715   76.027    0.385    0.206
  480.326    2.602  160.031   76.518    0.379    0.200
  480.576    2.635  160.244   76.947    0.377    0.193
  480.826    2.694  160.559   77.679    0.399    0.207
  481.076    2.750  161.286   78.656    0.433    0.213
  481.326    2.806  162.837   80.725    0.452    0.201
  481.576    2.890  164.592   85.166    0.465    0.190
  481.826    2.965  166.554   89.181    0.452    0.170
  482.076    3.055  168.311   91.555    0.428    0.142
  482.326    3.140  169.449   87.791    0.438    0.127
  482.576    3.199  169.867   80.380    0.458    0.138
  482.826    3.182  167.198   69.809    0.467    0.159
  483.076    3.029  162.676   63.917    0.405    0.198
  483.326    2.709  158.772   57.843    0.387    0.262
  483.576    2.311  157.235   54.200    0.385    0.275
  483.826    2.000  158.064   53.353    0.393    0.271
  484.076    1.845  161.365   53.539    0.412    0.259
  484.326    1.731  163.223   52.449    0.426    0.261
  484.576    1.691  160.657   51.663    0.438    0.272
  484.826    1.683  156.650   53.126    0.450    0.289
  485.076    1.686  154.186   54.892    0.445    0.296
  485.326    1.701  156.662   55.200    0.425    0.286
  485.576    1.730  161.713   55.144    0.406    0.270
  485.826    1.743  163.262   53.931    0.421    0.274
  486.076    1.756  162.960   52.658    0.437    0.284
  486.326    1.750  162.659   52.237    0.440    0.272
  486.576    1.707  162.562   53.456    0.434    0.270
  486.826    1.693  162.569   52.063    0.428    0.287
  487.076    1.691  162.576   50.972    0.452    0.305
  487.326    1.741  162.273   50.977    0.471    0.323
  487.576    1.807  161.354   51.770    0.473    0.308
  487.826    1.921  161.463   52.626    0.467    0.300
  488.076    1.959  161.160   52.871    0.461    0.311
  488.326    1.981  160.756   52.511    0.452    0.308
  488.576    1.949  160.762   51.542    0.445    0.290
  488.826    1.855  160.460   50.331    0.431    0.294
  489.076    1.750  160.054   48.998    0.424    0.291
  489.326    1.658  160.472   47.785    0.422    0.293
  489.576    1.621  160.582   46.817    0.434    0.307
  489.826    1.581  160.383   46.760    0.451    0.316
  490.076    1.573  160.492   46.764    0.479    0.330
  490.326    1.575  160.293   46.464    0.512    0.363
