~VERSION INFORMATION
 VERS.                 2.0:   CWLS LOG ASCII STANDARD -VERSION 2.0
 WRAP.                  NO:   ONE LINE PER DEPTH STEP
~WELL INFORMATION BLOCK
#MNEM.UNIT           DATA                    DESCRIPTION OF MNEMONIC
#---------    -------------------            -------------------------------
# Generated from Intellog Unique Number	CN_94_101/WELL/3714
WELL.         PACIFIC PETROLEUMS LTD.        : Well_name    - WELL
LOC .         00/10-06-096-21W4/0            : Location     - LOCATION
UWI .         00/10-06-096-21W4/0            : Uwi          - UNIQUE WELL ID
ENTR.         JOETTE                         : Entered      - ENTERED BY
SRVC.         COMPUTALOG                     : Scn          - SERVICE COMPANY
DATE.         08/10/92                       : Date         - LOG DATE
STRT.M        400                            : top_depth    - START DEPTH
STOP.M        570                            : bot_depth    - STOP DEPTH
STEP.M        0.25                           : increment    - STEP LENGTH
 NULL. -999.2500:NULL Value
~CURVE INFORMATION BLOCK
#MNEM UNIT       ERCB CURVE CODE    CURVE DESCRIPTION
#-----------   ------------------   ----------------------------------
DEPT.M        00 001 00 00         : DEPTH        - DEPTH
ILD .OHMM     00 120 00 00         : RESD         - DEEP RESISTIVITY (DIL)
GR  .API      00 310 00 00         : GR           - GAMMA RAY
NPHI.V/V      00 330 00 00         : PHIN         - NEUTRON POROSITY (SANDSTONE)
DPHI.V/V      00 890 00 00         : PHID         - DENSITY POROSITY (SANDSTONE)
~PARAMETER INFORMATION
#MNEM.UNIT           DATA             DESCRIPTION OF MNEMONIC
#---------         -----------     ------------------------------
GL  .M        819.4                : gl           - GROUND LEVEL ELEVATION
EREF.M        822.9                : kb           - ELEVATION OF DEPTH REFERENCE
DATM.M        822.9                : datum        - DATUM ELEVATION
TDD .M        566.4                : tdd          - TOTAL DEPTH DRILLER
RUN .         ONE                  : Run          - RUN NUMBER
ENG .         BILL                 : Engineer     - RECORDING ENGINEER
WIT .         JIM                  : Witness      - WITNESSED BY
MUD .         GEL                  : Mud_type     - MUD TYPE
MATR.         SANDSTONE            : Logunit      - NEUTRON MATRIX
TMAX.C        25                   : BHT          - MAXIMUM RECORDED TEMPERATURE
BHTD.M        566.4                : BHTDEP       - MAXIMUM RECORDED TEMPERATURE
RMT .C        14                   : MDTP         - TEMPERATURE OF MUD
MUDD.KG/M     1402                 : MWT          - MUD DENSITY
NEUT.         1                    : NEUTRON      - NEUTRON TYPE
RESI.         0                    : RESIST       - RESISTIVITY TYPE
RM  .OHMM     7.8                  : RM           - RESISTIVITY OF MUD
RMC .OHMM     7.8                  : RMC          - RESISTIVITY OF MUD CAKE
RMF .OHMM     7.8                  : RMF          - RESISTIVITY OF MUD FILTRATE
SUFT.C        4                    : SUFT         - SURFACE TEMPERATURE
~A  DEPTH     RESD       GR     PHIN     PHID
# ...
  443.500    3.300   58.968    0.560    0.214
  443.750    3.304   63.841    0.564    0.213
  444.000    3.307   66.896    0.529    0.193
  444.250    3.311   62.685    0.536    0.189
  444.500    3.377   62.704    0.531    0.202
  444.750    3.380   62.729    0.548    0.210
  445.000    3.383   62.154    0.572    0.209
  445.250    3.386   62.179    0.590    0.234
  445.500    3.391   62.810    0.590    0.234
  445.750    3.394   65.865    0.606    0.223
  446.000    3.397   67.109    0.563    0.221
  446.250    3.337   65.922    0.573    0.226
  446.500    3.279   68.371    0.613    0.229
  446.750    3.223   69.602    0.575    0.226
  447.000    3.166   64.173    0.548    0.214
  447.250    3.170   63.592    0.532    0.203
  447.500    3.294   64.829    0.529    0.210
  447.750    3.620   63.642    0.537    0.228
  448.000    3.833   60.643    0.549    0.241
  448.250    3.697   53.996    0.492    0.239
  448.500    3.565   50.385    0.437    0.235
  448.750    3.374   55.864    0.455    0.243
  449.000    3.315   62.555    0.557    0.248
  449.250    3.576   66.216    0.592    0.238
  449.500    4.004   55.939    0.578    0.240
  449.750    4.571   51.722    0.512    0.236
  450.000    4.662   62.056    0.449    0.224
  450.250    4.495   60.263    0.428    0.231
  450.500    4.334   59.082    0.413    0.224
  450.750    4.028   60.313    0.456    0.219
  451.000    3.883   55.490    0.473    0.220
  451.250    3.744   51.279    0.461    0.217
  451.500    3.679   55.540    0.477    0.234
  451.750    3.682   59.207    0.511    0.237
  452.000    3.618   56.802    0.549    0.229
  452.250    3.621   62.281    0.539    0.235
  452.500    3.625   65.948    0.511    0.244
  452.750    3.697   59.301    0.528    0.238
  453.000    3.771   56.296    0.554    0.229
  453.250    3.848   57.533    0.514    0.238
  453.500    3.997   62.406    0.535    0.253
  453.750    4.312   67.898    0.584    0.252
  454.000    4.829   64.275    0.596    0.236
  454.250    5.020   58.240    0.602    0.231
  454.500    5.026   53.417    0.555    0.228
  454.750    4.936   54.054    0.552    0.234
  455.000    4.671   57.715    0.549    0.245
  455.250    4.259   59.558    0.555    0.243
  455.500    4.031   53.523    0.578    0.246
  455.750    3.887   60.820    0.521    0.242
  456.000    4.040   64.487    0.467    0.233
  456.250    4.198   63.301    0.544    0.222
  456.500    4.446   60.289    0.599    0.233
  456.750    4.709   57.285    0.471    0.231
  457.000    4.801   56.703    0.469    0.228
  457.250    4.897   56.729    0.497    0.228
  457.500    4.904   53.118    0.440    0.244
  457.750    4.906   52.543    0.407    0.235
  458.000    4.912   54.992    0.403    0.237
  458.250    4.563   53.799    0.405    0.240
  458.500    4.159   50.794    0.411    0.249
  458.750    3.585   47.795    0.421    0.260
  459.000    3.090   48.426    0.458    0.268
  459.250    2.566   50.875    0.468    0.246
  459.500    2.384   55.142    0.428    0.222
  459.750    2.256   59.409    0.436    0.253
  460.000    2.301   60.653    0.471    0.259
  460.250    2.347   66.125    0.520    0.250
  460.500    2.485   69.180    0.618    0.243
  460.750    2.631   61.334    0.608    0.245
  461.000    2.785   63.177    0.600    0.256
  461.250    3.122   65.014    0.609    0.253
  461.500    3.304   55.949    0.638    0.247
  461.750    3.498   54.156    0.553    0.244
  462.000    3.846   59.635    0.538    0.261
  462.250    3.921   65.726    0.539    0.259
  462.500    4.077   59.685    0.546    0.261
  462.750    4.079   57.292    0.578    0.250
  463.000    4.010   56.099    0.572    0.254
  463.250    3.864   54.306    0.584    0.286
  463.500    3.460   58.579    0.562    0.240
  463.750    3.213   60.422    0.536    0.246
  464.000    3.042   56.818    0.529    0.230
  464.250    3.044   58.055    0.529    0.236
  464.500    2.991   56.262    0.542    0.238
  464.750    2.938   55.675    0.586    0.236
  465.000    2.887   53.882    0.601    0.236
  465.250    2.890   53.907    0.592    0.244
  465.500    2.839   58.180    0.596    0.261
  465.750    2.842   61.229    0.565    0.259
  466.000    2.845   63.678    0.538    0.246
  466.250    2.848   65.521    0.533    0.243
  466.500    2.905   69.788    0.561    0.248
  466.750    2.963   67.995    0.600    0.245
  467.000    3.080   61.960    0.620    0.241
  467.250    3.323   67.445    0.567    0.246
  467.500    3.388   72.931    0.537    0.253
  467.750    3.655   65.072    0.500    0.246
  468.000    3.943   57.212    0.567    0.239
  468.250    4.098   53.602    0.546    0.254
  468.500    4.260   52.415    0.491    0.253
  468.750    4.263   57.294    0.423    0.242
  469.000    4.035   62.773    0.478    0.228
  469.250    3.748   66.434    0.522    0.228
  469.500    4.276   67.671    0.538    0.246
  469.750    4.789   60.424    0.513    0.260
  470.000    5.890   50.753    0.512    0.260
  470.250    6.236   43.506    0.409    0.241
  470.500    6.130   40.508    0.369    0.123
  470.750    5.800   42.957    0.392    0.119
  471.000    5.386   47.224    0.478    0.163
  471.250    4.821   50.279    0.458    0.206
  471.500    4.478   52.115    0.447    0.279
  471.750    4.159   47.899    0.433    0.269
  472.000    3.863   47.318    0.450    0.259
  472.250    3.458   50.379    0.476    0.273
  472.500    3.152   51.610    0.484    0.279
  472.750    2.928   55.877    0.507    0.249
  473.000    2.670   63.180    0.549    0.218
  473.250    2.575   61.999    0.559    0.177
  473.500    2.577   61.412    0.438    0.175
  473.750    2.580   68.103    0.453    0.208
  474.000    2.582   70.558    0.485    0.168
  474.250    2.683   64.523    0.561    0.157
  474.500    2.788   67.579    0.528    0.220
  474.750    2.952   71.839    0.546    0.223
  475.000    3.011   66.410    0.530    0.154
  475.250    2.904   65.223    0.508    0.163
  475.500    2.855   61.612    0.523    0.188
  475.750    2.857   66.486    0.561    0.167
  476.000    2.861   68.329    0.552    0.178
  476.250    2.916   68.354    0.556    0.208
  476.500    2.921   69.603    0.567    0.224
  476.750    2.978   69.628    0.575    0.230
  477.000    3.037   69.653    0.607    0.223
  477.250    3.217   70.890    0.602    0.226
  477.500    3.280   71.521    0.585    0.232
  477.750    3.539   72.752    0.594    0.241
  478.000    3.676   77.019    0.608    0.235
  478.250    4.358   75.226    0.550    0.223
  478.500    4.700   66.161    0.510    0.211
  478.750    5.069   69.216    0.478    0.225
  479.000    5.784   61.970    0.469    0.231
  479.250    6.239   55.935    0.408    0.219
  479.500    6.363   60.202    0.387    0.217
  479.750    6.370   63.863    0.400    0.221
  480.000    6.378   62.682    0.417    0.222
  480.250    6.628   61.495    0.381    0.228
  480.500    6.888   56.666    0.360    0.233
  480.750    6.767   53.061    0.368    0.223
  481.000    5.725   53.086    0.383    0.219
  481.250    4.754   56.141    0.397    0.210
  481.500    4.023   60.402    0.367    0.208
  481.750    3.599   58.010    0.348    0.219
  482.000    3.342   58.641    0.354    0.229
  482.250    2.829   68.362    0.399    0.240
  482.500    2.940   77.476    0.496    0.245
  482.750    3.171   74.478    0.544    0.251
  483.000    3.357   68.437    0.531    0.256
  483.250    3.690   64.832    0.547    0.264
  483.500    3.763   66.675    0.539    0.256
  483.750    3.910   68.518    0.528    0.246
  484.000    3.843   66.725    0.528    0.238
  484.250    3.636   64.320    0.493    0.230
  484.500    3.379   57.679    0.455    0.235
  484.750    3.258   63.158    0.429    0.238
  485.000    3.387   73.485    0.416    0.247
  485.250    3.652   68.056    0.460    0.241
  485.500    4.014   59.603    0.518    0.241
  485.750    4.580   67.507    0.521    0.253
  486.000    5.326   66.320    0.536    0.259
  486.250    5.853   58.467    0.582    0.262
  486.500    6.680   54.849    0.500    0.272
  486.750    7.206   50.027    0.480    0.288
