~VERSION INFORMATION
 VERS.                 2.0:   CWLS LOG ASCII STANDARD -VERSION 2.0
 WRAP.                  NO:   ONE LINE PER DEPTH STEP
~WELL INFORMATION BLOCK
#MNEM.UNIT           DATA                    DESCRIPTION OF MNEMONIC
#---------    -------------------            -------------------------------
# Generated from Intellog Unique Number	CN_91_93/WELL/1168
WELL.         COSEKA RESOURCES LTD.          : Well_name    - WELL
LOC .         00/11-13-091-21W4/0            : Location     - LOCATION
UWI .         00/11-13-091-21W4/0            : Uwi          - UNIQUE WELL ID
ENTR.         JOETTE                         : Entered      - ENTERED BY
SRVC.         SCHLUMBERGER                   : Scn          - SERVICE COMPANY
DATE.         01/31/92                       : Date         - LOG DATE
STRT.F        328.084                        : top_depth    - START DEPTH
STOP.F        721.785                        : bot_depth    - STOP DEPTH
STEP.F        0.82                           : increment    - STEP LENGTH
 NULL. -999.2500:NULL Value
~CURVE INFORMATION BLOCK
#MNEM UNIT       ERCB CURVE CODE    CURVE DESCRIPTION
#-----------   ------------------   ----------------------------------
DEPT.F        00 001 00 00         : DEPTH        - DEPTH
ILD .OHMM     00 120 00 00         : RESD         - DEEP RESISTIVITY (DIL)
DPHI.V/V      00 890 00 00         : PHID         - DENSITY POROSITY (SANDSTONE)
NPHI.V/V      00 330 00 00         : PHIN         - NEUTRON POROSITY (SANDSTONE)
GR  .API      00 310 00 00         : GR           - GAMMA RAY
~PARAMETER INFORMATION
#MNEM.UNIT           DATA             DESCRIPTION OF MNEMONIC
#---------         -----------     ------------------------------
GL  .F        1683.79              : gl           - GROUND LEVEL ELEVATION
EREF.F        1693.64              : kb           - ELEVATION OF DEPTH REFERENCE
DATM.F        1693.64              : datum        - DATUM ELEVATION
TDD .F        739.173              : tdd          - TOTAL DEPTH DRILLER
RUN .         ONE                  : Run          - RUN NUMBER
ENG .         BILL                 : Engineer     - RECORDING ENGINEER
WIT .         JIM                  : Witness      - WITNESSED BY
MUD .         GEL                  : Mud_type     - MUD TYPE
MATR.         SANDSTONE            : Logunit      - NEUTRON MATRIX
TMAX.F        73.4                 : BHT          - MAXIMUM RECORDED TEMPERATURE
BHTD.F        739.173              : BHTDEP       - MAXIMUM RECORDED TEMPERATURE
RMT .F        47                   : MDTP         - TEMPERATURE OF MUD
MUDD.LB/G     8.83333              : MWT          - MUD DENSITY
NEUT.         1                    : NEUTRON      - NEUTRON TYPE
RESI.         0                    : RESIST       - RESISTIVITY TYPE
RM  .OHMM     2.8                  : RM           - RESISTIVITY OF MUD
RMC .OHMM     7.42                 : RMC          - RESISTIVITY OF MUD CAKE
RMF .OHMM     1.8                  : RMF          - RESISTIVITY OF MUD FILTRATE
SUFT.F        39.2                 : SUFT         - SURFACE TEMPERATURE
~A  DEPTH     RESD     PHID     PHIN       GR
  328.084    0.000    0.368    0.425   63.310
  328.904    0.000    0.364    0.464   63.902
  329.724    0.000    0.358    0.501   69.342
  330.545    0.000    0.361    0.490   72.660
  331.365    0.000    0.361    0.469   75.068
  332.185    0.000    0.355    0.457   75.060
  333.005    0.000    0.356    0.432   73.532
  333.825    0.000    0.349    0.432   75.035
  334.646    0.000    0.345    0.414   77.749
  335.466    0.000    0.344    0.398   79.553
  336.286    0.000    0.352    0.412   78.936
  337.106    0.000    0.358    0.417   76.501
  337.927    0.000    0.364    0.466   75.578
  338.747    0.000    0.367    0.542   78.593
  339.567    0.000    0.367    0.532   79.488
  340.387    0.000    0.360    0.511   79.477
  341.207    0.000    0.352    0.490   78.861
  342.028    0.000    0.343    0.454   77.334
  342.848    0.000    0.335    0.417   76.411
  343.668    0.000    0.329    0.394   76.703
  344.488    0.000    0.327    0.389   75.173
  345.308    0.000    0.328    0.414   74.557
  346.129    0.000    0.331    0.440   76.060
  346.949    0.000    0.334    0.469   76.348
  347.769    0.000    0.339    0.481   73.004
  348.589    0.000    0.346    0.451   69.358
  349.409    0.000    0.354    0.453   66.010
  350.230    0.000    0.366    0.418   65.091
  351.050    0.000    0.370    0.449   63.867
  351.870    0.000    0.366    0.461   62.038
  352.690    0.000    0.356    0.500   62.629
  353.510    0.000    0.356    0.445   61.100
  354.331    0.000    0.373    0.416   58.971
  355.151    0.000    0.383    0.402   57.138
  355.971    0.000    0.392    0.428   56.523
  356.791    0.000    0.402    0.433   56.812
  357.612    0.000    0.407    0.439   56.801
  358.432    0.000    0.396    0.534   52.245
  359.252    0.000    0.404    0.552   45.567
  360.072    0.000    0.418    0.518   42.827
  360.892    0.000    0.419    0.428   42.209
  361.713    0.000    0.392    0.375   42.197
  362.533    0.000    0.366    0.382   41.578
  363.353    0.000    0.356    0.431   43.082
  364.173    0.000    0.377    0.440   52.763
  364.993    0.000    0.381    0.445   59.718
  365.814    0.000    0.379    0.439   64.855
  366.634    0.000    0.382    0.431   70.598
  367.454    0.000    0.388    0.428   74.522
  368.274    0.000    0.392    0.425   69.360
  369.094    0.000    0.406    0.440   67.530
  369.915    0.000    0.399    0.449   67.212
  370.735    0.000    0.386    0.470   66.294
  371.555    0.000    0.383    0.522   64.765
  372.375    0.000    0.378    0.474   68.389
  373.196    0.000    0.347    0.452   72.313
  374.016    0.000    0.353    0.419   74.723
  374.836    0.000    0.378    0.434   73.502
  375.656    0.000    0.381    0.444   71.367
  376.476    0.000    0.383    0.457   70.145
  377.297    0.000    0.384    0.469   66.797
  378.117    0.000    0.378    0.479   63.455
  378.937    0.000    0.352    0.460   65.560
  379.757    0.000    0.340    0.406   68.277
  380.577    0.000    0.348    0.398   69.476
  381.398    0.000    0.350    0.438   70.371
  382.218    0.000    0.358    0.463   71.874
  383.038    0.000    0.368    0.450   75.497
  383.858    0.000    0.359    0.429   75.788
  384.678    0.000    0.371    0.428   75.168
  385.499    0.000    0.373    0.421   73.639
  386.319    0.000    0.375    0.436   72.113
  387.139    0.000    0.378    0.440   74.222
  387.959    0.000    0.372    0.445   74.812
  388.780    0.000    0.360    0.465   72.077
  389.600    0.000    0.357    0.471   68.430
  390.420    0.000    0.361    0.459   63.569
  391.240    0.000    0.347    0.442   63.555
  392.060    0.000    0.355    0.429   65.969
  392.881    0.000    0.357    0.415   67.770
  393.701    0.000    0.369    0.402   66.546
  394.521    0.000    0.352    0.429   65.628
  395.341    0.000    0.319    0.447   67.130
  396.161    0.000    0.319    0.497   72.570
  396.982    0.000    0.332    0.547   78.312
  397.802    0.000    0.347    0.533   80.421
  398.622    0.000    0.358    0.518   77.683
  399.442    0.000    0.362    0.509   73.430
  400.262    0.000    0.364    0.506   70.994
  401.083    0.000    0.364    0.486   73.403
  401.903    0.000    0.364    0.486   74.904
  402.723    0.000    0.364    0.475   74.589
  403.543    0.000    0.364    0.545   73.666
  404.364    0.000    0.366    0.510   71.836
  405.184    0.000    0.363    0.488   70.010
  406.004    0.000    0.350    0.474   69.087
  406.824    0.000    0.343    0.456   70.286
  407.644    0.000    0.341    0.461   73.910
  408.465    0.000    0.341    0.480   77.230
  409.285    0.000    0.350    0.457   79.034
  410.105    0.000    0.358    0.460   78.417
  410.925    0.000    0.367    0.449   78.100
  411.745    0.000    0.371    0.457   76.269
  412.566    0.000    0.360    0.437   74.439
  413.386    0.000    0.337    0.433   74.427
  414.206    0.000    0.316    0.406   73.810
  415.026    0.000    0.320    0.410   77.433
  415.846    0.000    0.337    0.418   79.238
  416.667    0.000    0.347    0.446   79.528
  417.487    0.000    0.347    0.454   81.635
  418.307    0.000    0.343    0.474   76.168
  419.127    0.000    0.331    0.441   71.311
  419.948    0.000    0.321    0.415   63.726
  420.768    0.000    0.331    0.408   58.867
  421.588    0.000    0.327    0.381   62.793
  422.408    0.000    0.325    0.374   69.444
  423.228    0.000    0.321    0.387   74.580
  424.049    0.000    0.325    0.390   73.962
  424.869    0.000    0.326    0.403   71.528
  425.689    0.000    0.328    0.420   66.970
  426.509    0.000    0.332    0.465   62.413
  427.329    0.000    0.344    0.472   58.159
  428.150    0.000    0.366    0.434   52.696
  428.970    0.000    0.426    0.411   50.563
  429.790    0.000    0.473    0.379   54.792
  430.610    0.000    0.544    0.364   57.809
  431.430    0.000    0.535    0.381   61.431
  432.251    0.000    0.528    0.384   67.174
  433.071    0.000    0.483    0.375   70.186
  433.891    0.000    0.451    0.380   70.781
  434.711    0.000    0.471    0.467   71.982
  435.531    0.000    0.491    0.554   73.484
  436.352    0.000    0.482    0.574   78.016
  437.172    0.000    0.446    0.573   78.608
  437.992    0.000    0.436    0.514   77.687
  438.812    0.000    0.356    0.453   79.190
  439.633    0.000    0.365    0.421   78.875
  440.453    0.000    0.377    0.431   81.587
  441.273    0.000    0.376    0.469   78.849
  442.093    0.000    0.376    0.510   77.926
  442.913    0.000    0.374    0.495   78.824
  443.734    0.000    0.379    0.478   82.144
  444.554    0.000    0.381    0.447   79.102
  445.374    0.000    0.376    0.475   74.546
  446.194    0.000    0.370    0.515   71.200
  447.014    0.000    0.358    0.504   69.674
  447.835    0.000    0.343    0.469   68.448
  448.655    0.000    0.334    0.449   66.618
  449.475    0.000    0.323    0.435   66.303
  450.295    0.000    0.320    0.422   68.110
  451.115    0.000    0.318    0.405   73.550
  451.936    0.000    0.303    0.411   77.778
  452.756    0.000    0.284    0.419   84.733
  453.576    0.000    0.308    0.451  116.527
  454.396    0.000    0.438    0.438  151.350
  455.217    0.000    0.488    0.433  151.639
  456.037    0.000    0.591    0.482  138.603
  456.857    0.000    0.630    0.489   90.426
  457.677    0.000    0.662    0.473   88.292
  458.497    0.000    0.673    0.455   89.493
  459.318    0.000    0.679    0.411   91.599
  460.138    0.000    0.671    0.404   90.980
  460.958    0.000    0.662    0.431   89.453
  461.778    0.000    0.656    0.501   88.229
  462.598    0.000    0.661    0.493   88.216
  463.419    0.000    0.657    0.490   89.114
  464.239    0.000    0.658    0.495   89.405
  465.059    0.000    0.656    0.507   89.998
  465.879    0.000    0.645    0.529   86.654
  466.699    0.000    0.632    0.515   84.520
  467.520    0.000    0.617    0.493   83.296
  468.340    0.000    0.601    0.476   82.070
  469.160    0.000    0.598    0.468   79.030
  469.980    0.000    0.575    0.456   74.171
