~VERSION INFORMATION
 VERS.                 2.0:   CWLS LOG ASCII STANDARD -VERSION 2.0
 WRAP.                  NO:   ONE LINE PER DEPTH STEP
~WELL INFORMATION BLOCK
#MNEM.UNIT           DATA                    DESCRIPTION OF MNEMONIC
#---------    -------------------            -------------------------------
# Generated from Intellog Unique Number	CS_71_72/WELL/2055
WELL.         ACL BVX UNIGAS CALL            : Well_name    - WELL
LOC .         00/11-08-072-17W4/0            : Location     - LOCATION
UWI .         00/11-08-072-17W4/0            : Uwi          - UNIQUE WELL ID
ENTR.         TIM                            : Entered      - ENTERED BY
SRVC.         SCHLUMBERGER                   : Scn          - SERVICE COMPANY
DATE.         04/09/92                       : Date         - LOG DATE
STRT.M        274.32                         : top_depth    - START DEPTH
STOP.M        466.32                         : bot_depth    - STOP DEPTH
STEP.M        0.25                           : increment    - STEP LENGTH
 NULL. -999.2500:NULL Value
~CURVE INFORMATION BLOCK
#MNEM UNIT       ERCB CURVE CODE    CURVE DESCRIPTION
#-----------   ------------------   ----------------------------------
DEPT.M        00 001 00 00         : DEPTH        - DEPTH
ILD .OHMM     00 120 00 00         : RESD         - DEEP RESISTIVITY (DIL)
NPHI.V/V      00 330 00 00         : PHIN         - NEUTRON POROSITY (SANDSTONE)
GR  .API      00 310 00 00         : GR           - GAMMA RAY
~PARAMETER INFORMATION
#MNEM.UNIT           DATA             DESCRIPTION OF MNEMONIC
#---------         -----------     ------------------------------
GL  .M        590.398              : gl           - GROUND LEVEL ELEVATION
EREF.M        593.446              : kb           - ELEVATION OF DEPTH REFERENCE
DATM.M        593.446              : datum        - DATUM ELEVATION
TDD .M        473.05               : tdd          - TOTAL DEPTH DRILLER
RUN .         ONE                  : Run          - RUN NUMBER
ENG .         BILL                 : Engineer     - RECORDING ENGINEER
WIT .         JIM                  : Witness      - WITNESSED BY
MUD .         GEL                  : Mud_type     - MUD TYPE
MATR.         SANDSTONE            : Logunit      - NEUTRON MATRIX
TMAX.C        21.6667              : BHT          - MAXIMUM RECORDED TEMPERATURE
BHTD.M        471.221              : BHTDEP       - MAXIMUM RECORDED TEMPERATURE
RMT .C        21.1111              : MDTP         - TEMPERATURE OF MUD
MUDD.KG/M     9250                 : MWT          - MUD DENSITY
NEUT.         1                    : NEUTRON      - NEUTRON TYPE
RESI.         0                    : RESIST       - RESISTIVITY TYPE
RM  .OHMM     2.06                 : RM           - RESISTIVITY OF MUD
RMC .OHMM     2.06                 : RMC          - RESISTIVITY OF MUD CAKE
RMF .OHMM     2.06                 : RMF          - RESISTIVITY OF MUD FILTRATE
SUFT.C        4                    : SUFT         - SURFACE TEMPERATURE
~A  DEPTH     RESD     PHIN       GR
# ...
  382.820    4.323    0.541   70.766
  383.070    4.326    0.541   73.186
  383.320    4.408    0.540   75.000
  383.570    4.412    0.539   75.000
  383.820    4.413    0.539   73.186
  384.070    4.497    0.534   72.581
  384.320    4.501    0.526   72.581
  384.570    4.503    0.522   73.186
  384.820    4.507    0.517   74.395
  385.070    4.508    0.513   73.790
  385.320    4.511    0.511   72.581
  385.570    4.514    0.507   70.161
  385.820    4.516    0.499   71.976
  386.070    4.518    0.489   72.581
  386.320    4.521    0.488   71.976
  386.570    4.524    0.496   71.976
  386.820    4.528    0.509   72.581
  387.070    4.529    0.520   73.186
  387.320    4.532    0.526   73.186
  387.570    4.619    0.529   73.186
  387.820    4.622    0.530   73.186
  388.070    4.624    0.518   71.976
  388.320    4.543    0.503   70.766
  388.570    4.463    0.491   71.371
  388.820    4.465    0.490   75.605
  389.070    4.468    0.493   75.605
  389.320    4.470    0.493   74.395
  389.570    4.640    0.492   72.581
  389.820    4.906    0.490   73.186
  390.070    5.000    0.487   74.395
  390.320    5.003    0.482   76.814
  390.570    4.566    0.469   79.839
  390.820    4.093    0.448   83.468
  391.070    3.737    0.428   87.702
  391.320    3.603    0.410   90.121
  391.570    3.350    0.414   91.331
  391.820    3.231    0.420   91.936
  392.070    3.293    0.431   92.540
  392.320    3.546    0.440   93.145
  392.570    3.819    0.427   93.750
  392.820    4.037    0.426   94.355
  393.070    4.347    0.429   94.355
  393.320    4.595    0.420   93.750
  393.570    4.858    0.421   93.750
  393.820    5.043    0.424   94.960
  394.070    5.236    0.426   94.960
  394.320    5.237    0.431   92.540
  394.570    5.242    0.437   88.306
  394.820    5.245    0.437   88.306
  395.070    5.247    0.415   92.540
  395.320    5.347    0.396   90.121
  395.570    5.450    0.402   86.492
  395.820    5.452    0.411   84.677
  396.070    5.455    0.424   84.073
  396.320    5.458    0.430   85.887
  396.570    5.462    0.430   90.726
  396.820    5.465    0.434   90.121
  397.070    5.470    0.440   89.516
  397.320    5.472    0.443   89.516
  397.570    5.475    0.443   88.306
  397.820    5.379    0.442   85.887
  398.070    5.284    0.442   82.863
  398.320    5.287    0.443   82.863
  398.570    5.289    0.445   84.073
  398.820    5.294    0.444   84.677
  399.070    5.295    0.436   84.677
  399.320    5.397    0.431   84.677
  399.570    5.401    0.436   83.468
  399.820    5.404    0.444   83.468
  400.070    5.407    0.451   84.073
  400.320    5.121    0.460   81.653
  400.570    4.849    0.479   78.629
  400.820    4.763    0.471   73.186
  401.070    4.594    0.451   71.371
  401.320    4.513    0.460   71.371
  401.570    4.600    0.483   70.766
  401.820    4.862    0.497   68.347
  402.070    5.140    0.492   64.718
  402.320    5.435    0.486   62.903
  402.570    5.852    0.472   60.484
  402.820    6.075    0.453   58.065
  403.070    6.306    0.439   57.460
  403.320    6.309    0.472   60.484
  403.570    5.974    0.491   61.694
  403.820    5.257    0.500   61.694
  404.070    4.711    0.503   60.484
  404.320    4.380    0.506   61.089
  404.570    4.304    0.510   61.694
  404.820    4.228    0.511   62.903
  405.070    4.230    0.511   62.903
  405.320    4.233    0.507   61.694
  405.570    4.476    0.501   61.694
  405.820    4.732    0.489   62.903
  406.070    5.002    0.484   64.113
  406.320    5.192    0.491   65.927
  406.570    5.195    0.490   64.113
  406.820    5.104    0.491   62.298
  407.070    4.744    0.498   59.879
  407.320    3.809    0.497   58.669
  407.570    3.541    0.497   57.460
  407.820    3.480    0.498   57.460
  408.070    3.679    0.496   57.460
  408.320    3.680    0.481   59.879
  408.570    3.891    0.433   61.089
  408.820    4.039    0.450   61.089
  409.070    4.349    0.474   61.089
  409.320    4.432    0.493   61.694
  409.570    4.517    0.512   62.903
  409.820    4.437    0.513   64.718
  410.070    4.281    0.514   65.323
  410.320    4.283    0.516   65.323
  410.570    4.207    0.518   67.137
  410.820    4.133    0.518   67.742
  411.070    4.135    0.517   67.742
  411.320    4.139    0.513   67.742
  411.570    4.140    0.509   67.742
  411.820    4.143    0.503   67.742
  412.070    4.144    0.496   68.347
  412.320    4.148    0.490   68.952
  412.570    4.149    0.480   70.161
  412.820    4.230    0.474   72.581
  413.070    4.311    0.464   75.000
  413.320    4.312    0.454   76.814
  413.570    4.477    0.444   78.629
  413.820    4.562    0.438   79.234
  414.070    4.649    0.439   83.468
  414.320    4.402    0.443   88.911
  414.570    4.093    0.444   92.540
  414.820    3.805    0.443   93.750
  415.070    3.670    0.437   94.960
  415.320    3.673    0.428   97.379
  415.570    3.675    0.422   98.589
  415.820    3.677    0.415   96.169
  416.070    3.680    0.420   91.936
  416.320    3.681    0.423   93.145
  416.570    3.752    0.424   94.355
  416.820    3.754    0.423   94.960
  417.070    3.756    0.421   96.169
  417.320    3.827    0.420   96.169
  417.570    3.830    0.419   93.750
  417.820    3.903    0.413   91.936
  418.070    3.906    0.409   91.331
  418.320    3.980    0.408   91.331
  418.570    3.984    0.408   91.936
  418.820    3.985    0.403   93.145
  419.070    4.061    0.397   94.960
  419.320    4.064    0.388   96.774
  419.570    4.066    0.382   96.774
  419.820    4.144    0.379   97.984
  420.070    4.146    0.380   97.984
  420.320    4.225    0.383   97.984
  420.570    4.386    0.383   97.379
  420.820    4.637    0.377   95.564
  421.070    5.276    0.359   92.540
  421.320    5.893    0.282   85.887
  421.570    6.583    0.280   72.581
  421.820    7.219    0.300   65.323
  422.070    7.774    0.327   70.766
  422.320    8.373    0.343   70.161
  422.570    8.225    0.358   67.742
  422.820    7.507    0.405   65.323
  423.070    6.606    0.426   67.742
  423.320    5.920    0.426   70.766
  423.570    5.406    0.421   75.000
  423.820    5.309    0.414   81.653
  424.070    5.121    0.408   82.863
  424.320    5.031    0.390   82.258
  424.570    5.318    0.379   79.234
  424.820    6.278    0.341   75.605
  425.070    7.012    0.321   73.186
  425.320    7.833    0.346   72.581
  425.570    8.750    0.369   73.790
  425.820    8.757    0.392   82.258
  426.070    8.292    0.400   85.887
  426.320    7.710    0.393   85.887
  426.570    7.037    0.388   87.097
  426.820    6.424    0.388   87.702
  427.070    6.310    0.392   87.702
  427.320    6.200    0.395   87.702
  427.570    6.090    0.396   86.492
  427.820    6.095    0.395   85.282
  428.070    6.097    0.394   84.677
  428.320    6.101    0.390   84.073
  428.570    6.105    0.387   87.097
  428.820    6.108    0.376   91.936
  429.070    6.111    0.369   95.564
  429.320    6.115    0.366   94.960
  429.570    6.233    0.362   92.540
  429.820    6.235    0.356   91.331
  430.070    6.239    0.348   88.911
  430.320    6.242    0.344   84.073
  430.570    6.248    0.366   86.492
  430.820    6.251    0.378   90.121
  431.070    6.141    0.390   96.774
  431.320    6.144    0.393  101.613
  431.570    6.148    0.397   97.379
  431.820    6.150    0.395   92.540
  432.070    6.154    0.389   92.540
  432.320    6.157    0.382   92.540
  432.570    6.162    0.375   92.540
  432.820    6.165    0.366   90.121
  433.070    6.056    0.370   87.702
  433.320    6.060    0.375   79.839
  433.570    6.064    0.381   77.419
  433.820    5.958    0.388   79.839
  434.070    5.961    0.392   83.468
  434.320    5.855    0.394   87.097
  434.570    5.545    0.401   88.911
  434.820    4.878    0.403   90.726
  435.070    4.138    0.407   93.750
  435.320    3.446    0.412   94.355
  435.570    2.923    0.417   94.960
  435.820    2.669    0.419   95.564
  436.070    2.574    0.421   96.169
  436.320    2.437    0.419   96.169
  436.570    2.394    0.412   94.960
  436.820    2.485    0.410   93.750
