~VERSION INFORMATION
 VERS.                 2.0:   CWLS LOG ASCII STANDARD -VERSION 2.0
 WRAP.                  NO:   ONE LINE PER DEPTH STEP
~WELL INFORMATION BLOCK
#MNEM.UNIT           DATA                    DESCRIPTION OF MNEMONIC
#---------    -------------------            -------------------------------
# Generated from Intellog Unique Number	CS_67_68/WELL/2204
WELL.         11-05-067-07W4                 : Well_name    - WELL
LOC .         00/11-05-067-07W4/0            : Location     - LOCATION
UWI .         00/11-05-067-07W4/0            : Uwi          - UNIQUE WELL ID
ENTR.         SP                             : Entered      - ENTERED BY
SRVC.         SCHLUMBERGER                   : Scn          - SERVICE COMPANY
STRT.M        315                            : top_depth    - START DEPTH
STOP.M        540                            : bot_depth    - STOP DEPTH
STEP.M        0.25                           : increment    - STEP LENGTH
 NULL. -999.2500:NULL Value
~CURVE INFORMATION BLOCK
#MNEM UNIT       ERCB CURVE CODE    CURVE DESCRIPTION
#-----------   ------------------   ----------------------------------
DEPT.M        00 001 00 00         : DEPTH        - DEPTH
ILD .OHMM     00 120 00 00         : RESD         - DEEP RESISTIVITY (DIL)
DPHI.V/V      00 890 00 00         : PHID         - DENSITY POROSITY (LIMESTONE)
NPHI.V/V      00 330 00 00         : PHIN         - NEUTRON POROSITY (LIMESTONE)
GR  .API      00 310 00 00         : GR           - GAMMA RAY
CALI.MM       00 280 01 00         : CAL          - CALIPER
~PARAMETER INFORMATION
#MNEM.UNIT           DATA             DESCRIPTION OF MNEMONIC
#---------         -----------     ------------------------------
GL  .M        621.33               : gl           - GROUND LEVEL ELEVATION
EREF.M        625.23               : kb           - ELEVATION OF DEPTH REFERENCE
DATM.M        625.23               : datum        - DATUM ELEVATION
TDD .M        550                  : tdd          - TOTAL DEPTH DRILLER
RUN .         ONE                  : Run          - RUN NUMBER
ENG .         BILL                 : Engineer     - RECORDING ENGINEER
WIT .         JIM                  : Witness      - WITNESSED BY
MUD .         GEL                  : Mud_type     - MUD TYPE
MATR.         LIMESTONE            : Logunit      - NEUTRON MATRIX
TMAX.C        25                   : BHT          - MAXIMUM RECORDED TEMPERATURE
BHTD.M        549.5                : BHTDEP       - MAXIMUM RECORDED TEMPERATURE
MATR.         1                    : LOGUNIT      - NEUTRON MATRIX
RMT .C        25                   : MDTP         - TEMPERATURE OF MUD
NEUT.         1                    : NEUTRON      - NEUTRON TYPE
RESI.         0                    : RESIST       - RESISTIVITY TYPE
RMC .OHMM     0.25                 : RMC          - RESISTIVITY OF MUD CAKE
RMF .OHMM     0.25                 : RMF          - RESISTIVITY OF MUD FILTRATE
SUFT.C        15                   : SUFT         - SURFACE TEMPERATURE
~A  DEPTH     RESD     PHID     PHIN       GR      CAL
# ...
  497.500    5.649    0.185    0.334  102.867  156.282
  497.750    5.631    0.185    0.349  103.508  156.955
  498.000    5.720    0.180    0.359  102.122  157.717
  498.250    5.811    0.178    0.367  101.615  157.971
  498.500    5.728    0.189    0.373  101.707  158.326
  498.750    5.550    0.198    0.362  102.342  158.066
  499.000    5.358    0.197    0.352  102.315  157.911
  499.250    5.133    0.198    0.346  102.467  157.439
  499.500    4.993    0.203    0.358   99.994  157.192
  499.750    4.968    0.215    0.355   93.425  156.947
  500.000    5.066    0.232    0.358   88.084  156.483
  500.250    5.166    0.246    0.365   90.129  156.025
  500.500    5.338    0.229    0.371   98.526  155.667
  500.750    5.443    0.216    0.375  107.893  155.517
  501.000    5.571    0.204    0.383  112.876  155.567
  501.250    5.627    0.191    0.408  116.692  155.919
  501.500    5.620    0.210    0.419  109.516  156.581
  501.750    5.602    0.249    0.391   95.867  157.240
  502.000    5.659    0.266    0.365   84.292  157.694
  502.250    5.717    0.241    0.335   75.041  157.854
  502.500    5.698    0.220    0.315   74.274  157.391
  502.750    5.574    0.200    0.345   86.886  158.140
  503.000    5.163    0.176    0.397  102.306  158.802
  503.250    4.736    0.157    0.441  111.985  159.462
  503.500    4.321    0.187    0.469   96.443  159.419
  503.750    4.116    0.219    0.424   73.937  159.373
  504.000    4.310    0.241    0.396   66.333  159.011
  504.250    4.775    0.266    0.376   60.927  157.945
  504.500    5.341    0.246    0.371   55.890  156.261
  504.750    5.644    0.182    0.332   50.846  154.888
  505.000    5.955    0.010    0.224   47.521  154.723
  505.250    6.072    0.000    0.111   42.481  155.391
  505.500    5.720    0.045    0.097   39.092  156.158
  505.750    5.347    0.164    0.142   46.513  156.810
  506.000    4.860    0.233    0.221   57.656  157.274
  506.250    4.745    0.187    0.273   75.946  157.931
  506.500    4.748    0.174    0.303   87.886  158.595
  506.750    4.832    0.200    0.331   77.961  159.662
  507.000    4.910    0.221    0.332   75.425  160.426
  507.250    4.968    0.219    0.320   77.838  161.086
  507.500    5.046    0.199    0.329   77.496  161.132
  507.750    5.107    0.187    0.336   75.327  160.979
  508.000    5.237    0.215    0.343   80.611  160.923
  508.250    5.463    0.201    0.406   94.445  160.663
  508.500    5.688    0.177    0.448  109.010  160.409
  508.750    5.854    0.159    0.421  113.253  160.462
  509.000    6.049    0.144    0.396  106.015  160.522
  509.250    6.156    0.144    0.380   97.678  160.773
  509.500    6.184    0.158    0.369   92.761  161.127
  509.750    6.118    0.157    0.357   93.886  161.385
  510.000    6.064    0.151    0.347   94.045  161.513
  510.250    6.160    0.145    0.357   97.494  161.457
  510.500    6.366    0.143    0.373  105.946  161.327
  510.750    6.527    0.138    0.382  110.379  161.563
  511.000    6.694    0.135    0.395  114.192  161.829
  511.250    6.825    0.138    0.412  115.567  162.286
  511.500    6.868    0.141    0.400  115.293  163.044
  511.750    6.783    0.143    0.383  110.863  163.505
  512.000    6.711    0.144    0.394  108.389  163.459
  512.250    6.804    0.150    0.404  107.260  163.407
  512.500    6.951    0.148    0.393  107.229  163.149
  512.750    7.048    0.141    0.387  107.868  162.592
  513.000    7.079    0.134    0.398  107.349  162.234
  513.250    7.004    0.125    0.390  105.548  162.077
  513.500    6.929    0.117    0.379  103.867  161.711
  513.750    6.778    0.115    0.369  105.119  161.667
  514.000    6.433    0.121    0.372  109.972  161.000
  514.250    6.106    0.137    0.380  113.972  160.344
  514.500    5.698    0.160    0.370  109.605  159.680
  514.750    5.377    0.169    0.363   90.275  158.816
  515.000    4.924    0.192    0.372   70.093  158.051
  515.250    4.603    0.232    0.383   67.002  157.290
  515.500    4.377    0.248    0.392   65.812  156.729
  515.750    4.306    0.255    0.408   62.302  155.954
  516.000    4.466    0.239    0.395   65.320  155.096
  516.250    4.606    0.222    0.372   71.708  153.724
  516.500    4.680    0.209    0.353   76.683  153.264
  516.750    4.700    0.202    0.341   76.346  153.818
  517.000    4.606    0.207    0.339   79.610  154.378
  517.250    4.388    0.211    0.350   81.168  154.627
  517.500    4.173    0.245    0.374   72.954  154.678
  517.750    3.975    0.281    0.385   66.207  154.524
  518.000    3.816    0.284    0.393   57.199  154.376
  518.250    3.761    0.270    0.378   57.283  154.213
  518.500    3.778    0.251    0.356   61.347  154.167
  518.750    3.795    0.237    0.338   64.557  154.220
  519.000    3.783    0.270    0.374   60.800  154.163
  519.250    3.785    0.285    0.374   56.861  153.999
  519.500    3.788    0.277    0.365   55.973  154.060
  519.750    3.762    0.263    0.357   60.092  154.110
  520.000    3.757    0.264    0.363   62.566  154.166
  520.250    3.752    0.271    0.382   55.265  154.212
  520.500    3.733    0.275    0.395   51.511  154.365
  520.750    3.728    0.277    0.379   48.550  154.720
  521.000    3.738    0.270    0.364   50.107  155.072
  521.250    3.775    0.260    0.354   54.896  155.416
  521.500    3.814    0.248    0.375   58.715  155.565
  521.750    3.859    0.236    0.362   63.083  155.726
  522.000    3.691    0.242    0.352   67.692  155.987
  522.250    3.484    0.271    0.369   59.782  156.230
  522.500    3.408    0.286    0.374   50.470  156.495
  522.750    3.390    0.283    0.377   47.505  156.539
  523.000    3.477    0.253    0.382   53.155  156.589
  523.250    3.593    0.256    0.395   60.391  156.736
  523.500    3.677    0.275    0.391   60.906  156.998
  523.750    3.785    0.257    0.377   58.677  157.250
  524.000    3.823    0.215    0.367   67.383  157.301
  524.250    3.818    0.231    0.392   78.711  157.649
  524.500    3.645    0.252    0.386   70.252  157.807
  524.750    3.512    0.266    0.382   59.349  158.065
  525.000    3.371    0.280    0.392   54.855  158.209
  525.250    3.182    0.286    0.399   55.013  158.264
  525.500    3.077    0.286    0.405   53.699  158.111
  525.750    3.005    0.295    0.401   48.234  158.058
  526.000    3.058    0.307    0.395   43.011  158.003
  526.250    3.209    0.317    0.389   41.692  157.847
  526.500    3.296    0.287    0.385   47.831  157.592
  526.750    3.544    0.276    0.373   53.727  157.439
  527.000    3.717    0.266    0.353   60.047  157.087
  527.250    3.884    0.252    0.339   66.672  157.034
  527.500    3.998    0.233    0.348   63.340  157.079
  527.750    3.903    0.219    0.360   60.622  157.028
  528.000    3.782    0.227    0.353   62.547  156.878
  528.250    3.523    0.268    0.385   59.523  157.031
  528.500    3.269    0.286    0.388   56.502  157.184
  528.750    3.144    0.285    0.384   54.272  157.432
  529.000    3.163    0.248    0.381   52.712  157.375
  529.250    3.256    0.224    0.376   56.285  157.322
  529.500    3.339    0.232    0.372   63.460  157.067
  529.750    3.431    0.250    0.371   71.915  156.818
  530.000    3.472    0.258    0.375   66.875  156.464
  530.250    3.481    0.262    0.381   60.066  156.105
  530.500    3.463    0.265    0.386   56.797  155.641
  530.750    3.479    0.269    0.398   54.751  155.290
  531.000    3.487    0.280    0.376   53.441  154.724
  531.250    3.624    0.253    0.348   58.233  154.270
  531.500    3.675    0.219    0.366   70.536  153.808
  531.750    3.561    0.228    0.411   75.149  153.227
  532.000    3.451    0.253    0.410   56.858  153.080
  532.250    3.300    0.271    0.394   47.178  152.738
  532.500    3.180    0.290    0.376   52.825  152.579
  532.750    3.081    0.245    0.370   63.422  152.634
  533.000    3.020    0.262    0.391   68.582  152.756
  533.250    3.102    0.291    0.381   54.685  152.825
  533.500    3.248    0.309    0.365   44.638  153.079
  533.750    3.350    0.279    0.351   49.982  153.332
