~VERSION INFORMATION
 VERS.                 2.0:   CWLS LOG ASCII STANDARD -VERSION 2.0
 WRAP.                  NO:   ONE LINE PER DEPTH STEP
~WELL INFORMATION BLOCK
#MNEM.UNIT           DATA                    DESCRIPTION OF MNEMONIC
#---------    -------------------            -------------------------------
# Generated from Intellog Unique Number	CW_70_72/WELL/3023
NULL.         -999.25                        : NULL_VALUE
WELL.         CHIEFCO POR ER AL RANCH 10-23  : Well_name    - WELL              
LOC .         10-23-070-26W4                 : Location     - LOCATION          
UWI .         00/10-23-070-26W4/0            : Uwi          - UNIQUE WELL ID    
ENTR.         J                              : Entered      - ENTERED BY        
SRVC.         WESTERN ATLAS                  : Scn          - SERVICE COMPANY   
DATE.         17 JUNE 75                     : Date         - LOG DATE          
STRT.M        454.152                        : top_depth    - START DEPTH       
STOP.M        670.652                        : bot_depth    - STOP DEPTH        
STEP.M        0.25                           : increment    - STEP LENGTH       
~CURVE INFORMATION BLOCK
#MNEM UNIT       ERCB CURVE CODE    CURVE DESCRIPTION
#-----------   ------------------   ----------------------------------
DEPT.M        00 001 00 00         : DEPTH        - DEPTH                       
ILD .OHMM     00 120 00 00         : RESD         - DEEP RESISTIVITY (DIL)      
CALI.MM       00 280 01 00         : CAL          - CALIPER                     
GR  .API      00 310 00 00         : GR           - GAMMA RAY                   
NPHI.V/V      00 330 00 00         : PHIN         - NEUTRON POROSITY (SANDSTONE)
DPHI.V/V      00 890 00 00         : PHID         - DENSITY POROSITY (SANDSTONE)
~PARAMETER INFORMATION       
#MNEM.UNIT           DATA             DESCRIPTION OF MNEMONIC
#---------         -----------     ------------------------------
GL  .M        633.191              : gl           - GROUND LEVEL ELEVATION      
EREF.M        635.813              : kb           - ELEVATION OF DEPTH REFERENCE
DATM.M        633.191              : datum        - DATUM ELEVATION             
TDD .M        688.543              : tdd          - TOTAL DEPTH DRILLER         
RUN .         ONE                  : Run          - RUN NUMBER                  
ENG .         GAU-ROBERGE          : Engineer     - RECORDING ENGINEER          
WIT .         COULSON              : Witness      - WITNESSED BY                
MUD .         MUD GEL              : Mud_type     - MUD TYPE                    
MATR.         SANDSTONE            : Logunit      - NEUTRON MATRIX              
TMAX.C        27.2222              : BHT          - MAXIMUM RECORDED TEMPERATURE
BHTD.M        687.629              : BHTDEP       - MAXIMUM RECORDED TEMPERATURE
RMT .C        15.5556              : MDTP         - TEMPERATURE OF MUD          
MUDD.KG/M     1140                 : MWT          - MUD DENSITY                 
NEUT.         1                    : NEUTRON      - NEUTRON TYPE                
RESI.         0                    : RESIST       - RESISTIVITY TYPE            
RM  .OHMM     2.9                  : RM           - RESISTIVITY OF MUD          
RMC .OHMM     0.25                 : RMC          - RESISTIVITY OF MUD CAKE     
RMF .OHMM     0.25                 : RMF          - RESISTIVITY OF MUD FILTRATE 
SUFT.C        -17.7778             : SUFT         - SURFACE TEMPERATURE         
~A  DEPTH     RESD      CAL       GR     PHIN     PHID
# ...
  636.652    6.771  164.621   87.292    0.244    0.070
  636.902    5.799  163.934   72.279    0.210    0.222
  637.152    4.682  164.995   81.708    0.258    0.240
  637.402    3.596  167.509   96.028    0.408    0.246
  637.652    2.930  170.340  105.331    0.414    0.235
  637.902    2.538  170.369  104.922    0.363    0.190
  638.152    2.773  167.094   96.691    0.333    0.173
  638.402    3.720  165.360   91.704    0.318    0.176
  638.652    4.846  163.635   87.872    0.311    0.173
  638.902    5.873  162.939   85.014    0.304    0.150
  639.152    5.798  162.557   80.453    0.304    0.145
  639.402    5.427  162.385   79.799    0.312    0.153
  639.652    4.940  162.830   83.850    0.317    0.154
  639.902    3.995  163.581   88.207    0.320    0.160
  640.152    2.824  163.720   91.891    0.328    0.164
  640.402    2.201  163.649   91.053    0.336    0.159
  640.652    1.889  163.681   94.007    0.347    0.164
  640.902    2.084  163.708   95.307    0.351    0.183
  641.152    2.954  163.741   97.402    0.353    0.180
  641.402    3.357  164.913   99.623    0.339    0.167
  641.652    3.716  165.353  102.573    0.323    0.164
  641.902    4.152  165.287  104.242    0.314    0.163
  642.152    4.430  164.692  104.138    0.307    0.155
  642.402    4.762  164.109   99.879    0.302    0.150
  642.652    4.942  163.828   98.002    0.296    0.142
  642.902    4.738  164.272   94.599    0.292    0.139
  643.152    4.467  164.404   90.341    0.292    0.140
  643.402    4.142  164.542   88.650    0.300    0.146
  643.652    3.978  164.780   91.479    0.309    0.161
  643.902    3.764  164.915   98.708    0.321    0.166
  644.152    3.675  164.945  103.433    0.329    0.198
  644.402    3.576  165.288  106.626    0.340    0.207
  644.652    3.466  166.046  109.947    0.357    0.201
  644.902    3.366  166.081  112.591    0.341    0.196
  645.152    3.317  165.906  108.209    0.339    0.191
  645.402    3.305  165.928  101.447    0.354    0.188
  645.652    3.263  165.754  105.315    0.361    0.197
  645.902    3.187  165.680  107.350    0.354    0.204
  646.152    3.112  165.303  107.611    0.351    0.188
  646.402    3.033  165.128  106.838    0.356    0.185
  646.652    3.000  164.949  105.694    0.352    0.175
  646.902    2.973  165.085  105.345    0.359    0.135
  647.152    3.007  165.734  105.729    0.355    0.121
  647.402    3.075  166.075  106.789    0.335    0.127
  647.652    3.329  165.486  108.577    0.337    0.146
  647.902    3.618  165.621  110.673    0.357    0.108
  648.152    3.947  165.761  112.099    0.374    0.061
  648.402    4.258  165.897  108.451    0.347    0.047
  648.652    4.646  165.926  100.832    0.329    0.129
  648.902    5.031  165.851   82.335    0.316    0.143
  649.152    5.240  165.157   84.187    0.306    0.152
  649.402    5.290  164.678   84.939    0.304    0.163
  649.652    5.340  164.499   79.947    0.304    0.175
  649.902    5.361  164.426   75.443    0.302    0.173
  650.152    5.352  164.145   84.752    0.297    0.152
  650.402    5.344  164.280   87.582    0.289    0.135
  650.652    5.344  164.523   85.642    0.281    0.127
  650.902    5.365  164.862  100.081    0.286    0.142
  651.152    5.386  165.202  113.236    0.301    0.143
  651.402    5.386  165.758  109.895    0.302    0.139
  651.652    5.386  166.092   96.472    0.294    0.132
  651.902    5.369  166.021   94.045    0.293    0.141
  652.152    5.370  165.847   96.507    0.296    0.142
  652.402    5.371  165.882   97.444    0.316    0.134
  652.652    5.412  165.605  102.654    0.300    0.134
  652.902    5.433  165.219  102.189    0.286    0.146
  653.152    5.444  164.937   97.317    0.286    0.151
  653.402    5.435  164.554  100.388    0.303    0.147
  653.652    5.435  164.380  101.695    0.292    0.144
  653.902    5.435  164.411   98.353    0.284    0.137
  654.152    5.378  164.446   96.534    0.292    0.131
  654.402    5.439  164.477   99.180    0.320    0.131
  654.652    5.825  164.399   99.812    0.303    0.141
  654.902    6.261  163.299   95.185    0.291    0.142
  655.152    8.292  163.229   93.127    0.300    0.111
  655.402    9.247  163.156   92.289    0.285    0.125
  655.652   11.124  162.766   89.740    0.250    0.061
  655.902   13.163  162.285   81.144    0.216    0.053
  656.152   15.177  161.898   69.002    0.174    0.064
  656.402   16.044  161.831   51.424    0.139    0.077
  656.652   14.024  161.241   51.442    0.155    0.087
  656.902   11.511  161.064   59.102    0.178    0.117
  657.152    9.023  160.885   57.529    0.235    0.127
  657.402    7.448  160.404   61.213    0.271    0.145
  657.652    6.486  160.229   84.452    0.297    0.155
  657.902    6.115  160.361   89.483    0.301    0.164
  658.152    5.916  161.231   89.927    0.294    0.179
  658.402    5.885  161.465   81.879    0.278    0.181
  658.652    5.843  162.420   77.439    0.266    0.187
  658.902    5.876  162.977   78.007    0.267    0.178
  659.152    5.921  163.413   79.919    0.288    0.169
  659.402    6.043  163.758   83.116    0.308    0.161
  659.652    6.307  164.411   89.489    0.331    0.158
  659.902    6.717  164.856   95.616    0.350    0.153
  660.152    7.354  164.886  100.156    0.335    0.161
  660.402    7.832  165.024   99.260    0.319    0.140
  660.652    8.311  164.740   91.395    0.298    0.112
  660.902    8.452  164.566   92.085    0.265    0.112
  661.152    8.283  164.494   88.682    0.227    0.110
  661.402    7.471  164.526   82.406    0.225    0.136
  661.652    6.726  164.455   73.321    0.247    0.146
  661.902    5.977  164.383   82.750    0.293    0.146
  662.152    5.292  164.416   92.422    0.349    0.136
  662.402    4.935  164.345  101.485    0.374    0.125
  662.652    4.864  164.474  100.221    0.356    0.124
  662.902    4.937  164.615   93.519    0.341    0.141
  663.152    5.086  164.846   89.870    0.332    0.147
  663.402    5.386  165.189   94.716    0.359    0.152
  663.652    5.715  165.222  122.842    0.390    0.150
  663.902    6.042  165.257  129.458    0.337    0.150
  664.152    6.411  165.181  121.533    0.294    0.192
  664.402    6.878  164.900  108.537    0.257    0.263
  664.652    7.008  164.313   88.635    0.268    0.269
  664.902    6.743  163.416   66.047    0.268    0.222
  665.152    6.345  163.028   57.511    0.254    0.194
  665.402    6.083  163.793   61.077    0.248    0.176
  665.652    5.874  163.819   72.334    0.245    0.170
  665.902    5.886  163.643   88.729    0.256    0.167
  666.152    6.131  162.846   96.692    0.274    0.152
  666.402    6.889  161.738   97.871    0.291    0.122
  666.652    8.017  160.219   91.475    0.325    0.145
  666.902    9.192  158.493   82.449    0.335    0.160
  667.152   10.102  157.382   74.585    0.329    0.173
  667.402    9.028  156.279   56.028    0.329    0.184
  667.652    7.661  155.903   45.720    0.334    0.167
  667.902    6.974  155.928   40.545    0.340    0.164
  668.152    6.759  156.375   42.154    0.347    0.170
  668.402    7.851  157.234   47.183    0.353    0.174
  668.652   11.133  159.540   48.360    0.359    0.176
  668.902   12.931  162.777   48.379    0.363    0.194
  669.152   14.529  161.358   47.786    0.364    0.201
  669.402   13.698  153.631   51.167    0.359    0.213
  669.652   11.929  151.488   54.241    0.341    0.216
  669.902    9.865  153.284   57.008    0.330    0.209
  670.152    8.143  156.419   56.540    0.319    0.197
  670.402    6.623  159.655   53.379    0.321    0.197
  670.652    5.548  159.995   51.565    0.331    0.190
