~VERSION INFORMATION
 VERS.                 2.0:   CWLS LOG ASCII STANDARD -VERSION 2.0
 WRAP.                  NO:   ONE LINE PER DEPTH STEP
~WELL INFORMATION BLOCK
#MNEM.UNIT           DATA                    DESCRIPTION OF MNEMONIC
#---------    -------------------            -------------------------------
# Generated from Intellog Unique Number	CS_71_72/WELL/901
WELL.         AQUITAINE COMPANY              : Well_name    - WELL
LOC .         00/11-19-071-18W4/0            : Location     - LOCATION
UWI .         00/11-19-071-18W4/0            : Uwi          - UNIQUE WELL ID
ENTR.         SP                             : Entered      - ENTERED BY
SRVC.         SCHLUMBERGER                   : Scn          - SERVICE COMPANY
STRT.M        250                            : top_depth    - START DEPTH
STOP.M        490                            : bot_depth    - STOP DEPTH
STEP.M        0.25                           : increment    - STEP LENGTH
 NULL. -999.2500:NULL Value
~CURVE INFORMATION BLOCK
#MNEM UNIT       ERCB CURVE CODE    CURVE DESCRIPTION
#-----------   ------------------   ----------------------------------
DEPT.M        00 001 00 00         : DEPTH        - DEPTH
ILD .OHMM     00 120 00 00         : RESD         - DEEP RESISTIVITY (DIL)
DPHI.V/V      00 890 00 00         : PHID         - DENSITY POROSITY (LIMESTONE)
NPHI.V/V      00 330 00 00         : PHIN         - NEUTRON POROSITY (LIMESTONE)
GR  .API      00 310 00 00         : GR           - GAMMA RAY
~PARAMETER INFORMATION
#MNEM.UNIT           DATA             DESCRIPTION OF MNEMONIC
#---------         -----------     ------------------------------
GL  .M        573                  : gl           - GROUND LEVEL ELEVATION
EREF.M        575                  : kb           - ELEVATION OF DEPTH REFERENCE
DATM.M        573                  : datum        - DATUM ELEVATION
TDD .M        492                  : tdd          - TOTAL DEPTH DRILLER
RUN .         ONE                  : Run          - RUN NUMBER
ENG .         BILL                 : Engineer     - RECORDING ENGINEER
WIT .         JIM                  : Witness      - WITNESSED BY
MUD .         GEL                  : Mud_type     - MUD TYPE
MATR.         LIMESTONE            : Logunit      - NEUTRON MATRIX
TMAX.C        18                   : BHT          - MAXIMUM RECORDED TEMPERATURE
BHTD.M        492                  : BHTDEP       - MAXIMUM RECORDED TEMPERATURE
MATR.         0                    : LOGUNIT      - NEUTRON MATRIX
RMT .C        25                   : MDTP         - TEMPERATURE OF MUD
NEUT.         1                    : NEUTRON      - NEUTRON TYPE
RESI.         0                    : RESIST       - RESISTIVITY TYPE
RMC .OHMM     0.25                 : RMC          - RESISTIVITY OF MUD CAKE
RMF .OHMM     0.25                 : RMF          - RESISTIVITY OF MUD FILTRATE
SUFT.C        15                   : SUFT         - SURFACE TEMPERATURE
~A  DEPTH     RESD     PHID     PHIN       GR
# ...
  337.000    7.910    0.209    0.433   53.979
  337.250    7.320    0.186    0.432   61.415
  337.500    6.865    0.182    0.418   69.095
  337.750    6.560    0.196    0.409   72.181
  338.000    6.281    0.205    0.404   74.604
  338.250    6.036    0.203    0.411   77.330
  338.500    5.856    0.190    0.430   76.734
  338.750    5.745    0.177    0.432   74.751
  339.000    5.755    0.170    0.434   73.249
  339.250    5.853    0.199    0.441   65.105
  339.500    6.008    0.236    0.434   59.257
  339.750    6.075    0.252    0.425   58.057
  340.000    6.155    0.250    0.417   63.382
  340.250    6.142    0.242    0.395   65.199
  340.500    6.072    0.229    0.382   66.961
  340.750    5.947    0.217    0.390   68.175
  341.000    5.715    0.206    0.405   70.597
  341.250    5.451    0.205    0.439   78.336
  341.500    5.379    0.194    0.470   82.091
  341.750    5.439    0.184    0.484   82.700
  342.000    5.583    0.191    0.474   81.382
  342.250    5.797    0.215    0.471   76.135
  342.500    6.063    0.225    0.451   70.225
  342.750    6.201    0.207    0.411   69.569
  343.000    6.390    0.223    0.409   67.102
  343.250    6.510    0.250    0.432   63.427
  343.500    6.633    0.278    0.431   57.578
  343.750    6.670    0.269    0.434   54.325
  344.000    6.581    0.250    0.418   51.857
  344.250    6.445    0.237    0.407   50.960
  344.500    6.311    0.230    0.415   50.185
  344.750    6.158    0.250    0.417   49.950
  345.000    5.974    0.266    0.435   47.965
  345.250    5.839    0.272    0.425   45.016
  345.500    5.729    0.276    0.421   44.298
  345.750    5.653    0.279    0.419   46.360
  346.000    5.599    0.283    0.425   49.388
  346.250    5.546    0.288    0.434   50.845
  346.500    5.503    0.292    0.446   51.156
  346.750    5.491    0.287    0.461   47.057
  347.000    5.449    0.284    0.470   44.710
  347.250    5.448    0.282    0.453   45.323
  347.500    5.437    0.288    0.441   44.304
  347.750    5.325    0.292    0.434   42.502
  348.000    5.294    0.293    0.435   42.329
  348.250    5.293    0.291    0.453   45.962
  348.500    5.222    0.289    0.481   50.618
  348.750    5.202    0.285    0.488   57.029
  349.000    5.162    0.280    0.480   58.726
  349.250    5.142    0.277    0.468   52.274
  349.500    5.111    0.283    0.458   47.813
  349.750    5.082    0.289    0.444   51.022
  350.000    5.072    0.292    0.450   47.831
  350.250    5.042    0.301    0.445   45.000
  350.500    5.013    0.301    0.442   46.819
  350.750    4.984    0.292    0.459   41.393
  351.000    4.973    0.289    0.469   45.389
  351.250    4.982    0.293    0.473   50.348
  351.500    4.981    0.299    0.477   54.100
  351.750    4.980    0.302    0.463   55.134
  352.000    4.980    0.306    0.455   52.365
  352.250    4.979    0.303    0.455   48.568
  352.500    4.978    0.302    0.445   47.188
  352.750    4.958    0.310    0.453   48.465
  353.000    4.957    0.305    0.443   49.078
  353.250    4.957    0.310    0.433   49.206
  353.500    4.946    0.318    0.443   46.618
  353.750    4.918    0.310    0.439   43.727
  354.000    4.898    0.308    0.433   42.166
  354.250    4.870    0.317    0.440   45.133
  354.500    4.878    0.305    0.430   47.254
  354.750    4.886    0.316    0.421   49.436
  355.000    4.922    0.332    0.419   51.559
  355.250    5.006    0.318    0.414   53.320
  355.500    5.397    0.309    0.458   54.112
  355.750    6.345    0.305    0.357   54.120
  356.000    7.225    0.295    0.300   56.121
  356.250    8.526    0.229    0.200   57.276
  356.500   10.100    0.131    0.178   51.246
  356.750   11.457    0.077    0.168   47.390
  357.000   12.563    0.060    0.162   45.406
  357.250   13.192    0.050    0.164   44.147
  357.500   13.747    0.041    0.166   43.128
  357.750   14.300    0.032    0.162   41.988
  358.000   15.474    0.026    0.156   40.608
  358.250   16.096    0.023    0.149   43.938
  358.500   17.094    0.022    0.139   48.294
  358.750   19.101    0.020    0.129   45.645
  359.000   18.951    0.017    0.121   42.634
  359.250   18.915    0.012    0.114   40.770
  359.500   18.006    0.006    0.114   43.375
  359.750   17.668   -0.001    0.135   44.833
  360.000   17.335   -0.006    0.148   45.203
  360.250   16.660    0.002    0.161   43.581
  360.500   16.316    0.033    0.153   45.522
  360.750   15.157    0.024    0.141   41.787
  361.000   13.157    0.008    0.129   36.179
  361.250   10.834   -0.001    0.128   33.107
  361.500    8.431    0.027    0.166   38.128
  361.750    6.800    0.073    0.293   41.459
  362.000    5.837    0.200    0.341   45.091
  362.250    5.192    0.256    0.433   46.728
  362.500    4.906    0.290    0.443   47.158
  362.750    4.768    0.293    0.430   46.927
  363.000    4.758    0.291    0.421   46.752
  363.250    4.812    0.292    0.412   45.674
  363.500    4.875    0.292    0.430   44.354
  363.750    4.911    0.288    0.443   43.275
  364.000    5.003    0.286    0.434   42.860
  364.250    5.078    0.291    0.416   44.802
  364.500    5.116    0.293    0.401   46.500
  364.750    5.163    0.284    0.403   43.550
  365.000    5.211    0.277    0.412   45.671
  365.250    5.230    0.274    0.411   47.673
  365.500    5.269    0.278    0.401   47.318
  365.750    5.298    0.282    0.407   45.938
  366.000    5.357    0.287    0.398   48.604
  366.250    5.437    0.280    0.393   51.148
  366.500    5.498    0.268    0.407   53.028
  366.750    5.612    0.254    0.404   50.802
  367.000    5.686    0.243    0.410   50.690
  367.250    5.761    0.231    0.417   58.187
  367.500    5.814    0.216    0.443   64.113
  367.750    5.846    0.204    0.469   68.347
  368.000    5.878    0.196    0.467   72.945
  368.250    5.877    0.206    0.476   70.538
  368.500    5.843    0.214    0.427   67.345
  368.750    5.787    0.203    0.410   72.004
  369.000    5.753    0.190    0.413   75.213
  369.250    5.752    0.183    0.451   71.960
  369.500    5.762    0.181    0.474   75.531
  369.750    5.838    0.180    0.467   79.344
  370.000    5.903    0.180    0.449   76.393
  370.250    5.980    0.183    0.439   74.771
  370.500    6.024    0.179    0.444   78.164
  370.750    6.058    0.169    0.432   79.558
  371.000    6.068    0.157    0.422   76.306
  371.250    6.032    0.149    0.416   73.958
  371.500    5.975    0.157    0.426   78.799
  371.750    5.885    0.163    0.444   81.825
  372.000    5.731    0.171    0.459   77.003
  372.250    5.364    0.165    0.442   71.999
  372.500    4.890    0.158    0.429   74.181
  372.750    4.383    0.153    0.441   70.748
  373.000    4.041    0.165    0.450   72.507
  373.250    3.854    0.182    0.449   77.467
  373.500    3.615    0.218    0.466   68.962
  373.750    3.409    0.250    0.455   61.905
  374.000    3.295    0.267    0.467   57.565
  374.250    3.306    0.275    0.497   66.148
  374.500    3.388    0.260    0.486   73.402
  374.750    3.524    0.247    0.468   75.947
  375.000    3.807    0.242    0.443   76.137
  375.250    4.073    0.238    0.436   71.375
  375.500    4.285    0.238    0.430   69.148
  375.750    4.440    0.242    0.445   68.976
  376.000    4.575    0.247    0.471   67.474
  376.250    4.644    0.253    0.481   61.867
  376.500    4.678    0.257    0.471   56.200
  376.750    4.686    0.257    0.461   53.670
  377.000    4.730    0.251    0.469   53.860
  377.250    4.846    0.252    0.481   59.062
  377.500    5.215    0.255    0.490   63.901
  377.750    5.871    0.254    0.437   67.773
  378.000    6.235    0.238    0.333   64.341
  378.250    6.596    0.173    0.305   58.613
  378.500    6.823    0.098    0.284   56.265
  378.750    6.809    0.080    0.356   55.186
  379.000    6.618    0.170    0.389   55.013
  379.250    5.788    0.222    0.416   53.635
  379.500    5.377    0.252    0.434   52.676
  379.750    5.061    0.260    0.414   55.823
  380.000    4.966    0.266    0.389   59.334
  380.250    4.965    0.261    0.394   62.786
