~VERSION INFORMATION
 VERS.                 2.0:   CWLS LOG ASCII STANDARD -VERSION 2.0
 WRAP.                  NO:   ONE LINE PER DEPTH STEP
~WELL INFORMATION BLOCK
#MNEM.UNIT           DATA                    DESCRIPTION OF MNEMONIC
#---------    -------------------            -------------------------------
# Generated from Intellog Unique Number	CW_73_75/WELL/993
WELL.         HB MARTEN HILLS 10-27          : Well_name    - WELL
LOC .         00/10-27-074-01W5/0            : Location     - LOCATION
UWI .         00/10-27-074-01W5/0            : Uwi          - UNIQUE WELL ID
ENTR.         JAYE                           : Entered      - ENTERED BY
SRVC.         SCHLUMBERGER                   : Scn          - SERVICE COMPANY
DATE.         3 MAR 75                       : Date         - LOG DATE
STRT.M        466.344                        : top_depth    - START DEPTH
STOP.M        673.594                        : bot_depth    - STOP DEPTH
STEP.M        0.25                           : increment    - STEP LENGTH
 NULL. -999.2500:NULL Value
~CURVE INFORMATION BLOCK
#MNEM UNIT       ERCB CURVE CODE    CURVE DESCRIPTION
#-----------   ------------------   ----------------------------------
DEPT.M        00 001 00 00         : DEPTH        - DEPTH
ILD .OHMM     00 120 00 00         : RESD         - DEEP RESISTIVITY (DIL)
NPHI.V/V      00 330 00 00         : PHIN         - NEUTRON POROSITY (SANDSTONE)
DPHI.V/V      00 890 00 00         : PHID         - DENSITY POROSITY (SANDSTONE)
GR  .API      00 310 00 00         : GR           - GAMMA RAY
CALI.MM       00 280 01 00         : CAL          - CALIPER
~PARAMETER INFORMATION
#MNEM.UNIT           DATA             DESCRIPTION OF MNEMONIC
#---------         -----------     ------------------------------
GL  .M        720.547              : gl           - GROUND LEVEL ELEVATION
EREF.M        730.301              : kb           - ELEVATION OF DEPTH REFERENCE
DATM.M        720.547              : datum        - DATUM ELEVATION
TDD .M        688.848              : tdd          - TOTAL DEPTH DRILLER
RUN .         ONE                  : Run          - RUN NUMBER
ENG .         CROCKFORD            : Engineer     - RECORDING ENGINEER
WIT .         CAMPBELL/GARBIES     : Witness      - WITNESSED BY
BASE.         EDM                  : Branch       - HOME BASE OF LOGGING UNIT
MUD .         GEL CHEM             : Mud_type     - MUD TYPE
MATR.         SANDSTONE            : Logunit      - NEUTRON MATRIX
TMAX.C        25.5556              : BHT          - MAXIMUM RECORDED TEMPERATURE
BHTD.M        690.982              : BHTDEP       - MAXIMUM RECORDED TEMPERATURE
RMT .C        18.3333              : MDTP         - TEMPERATURE OF MUD
MUDD.KG/M     1152                 : MWT          - MUD DENSITY
NEUT.         1                    : NEUTRON      - NEUTRON TYPE
RESI.         0                    : RESIST       - RESISTIVITY TYPE
RM  .OHMM     5.2                  : RM           - RESISTIVITY OF MUD
RMC .OHMM     0                    : RMC          - RESISTIVITY OF MUD CAKE
RMF .OHMM     0                    : RMF          - RESISTIVITY OF MUD FILTRATE
SUFT.C        -17.7778             : SUFT         - SURFACE TEMPERATURE
~A  DEPTH     RESD     PHIN     PHID       GR      CAL
# ...
  612.344    5.818    0.413    0.256   63.593  199.165
  612.594    5.561    0.436    0.264   67.434  199.542
  612.844    5.396    0.434    0.264   70.654  199.804
  613.094    5.245    0.422    0.251   76.146  200.063
  613.344    5.184    0.409    0.234   81.086  200.651
  613.594    5.285    0.413    0.214   76.212  201.216
  613.844    5.409    0.426    0.208   74.593  201.894
  614.094    5.617    0.441    0.205   73.520  202.469
  614.344    5.834    0.455    0.221   71.652  202.943
  614.594    6.070    0.441    0.246   69.907  203.309
  614.844    6.316    0.428    0.262   68.409  203.276
  615.094    6.669    0.418    0.260   67.644  203.009
  615.344    7.199    0.409    0.236   66.512  203.177
  615.594    7.714    0.403    0.215   64.335  203.233
  615.844    8.282    0.400    0.209   61.609  203.384
  616.094    8.989    0.389    0.211   60.354  203.663
  616.344    9.440    0.379    0.217   59.958  203.620
  616.594    8.667    0.371    0.202   60.544  203.665
  616.844    8.692    0.364    0.197   63.521  203.721
  617.094    8.590    0.396    0.211   65.156  203.468
  617.344    8.258    0.410    0.236   65.489  203.322
  617.594    8.086    0.422    0.252   65.405  203.055
  617.844    8.169    0.420    0.240   65.374  203.023
  618.094    8.721    0.411    0.228   64.550  202.963
  618.344    9.312    0.398    0.215   64.090  202.614
  618.594    9.582    0.384    0.211   64.002  202.362
  618.844    9.348    0.376    0.216   63.789  202.207
  619.094    8.888    0.379    0.211   63.638  202.361
  619.344    8.544    0.388    0.221   62.936  202.535
  619.594    8.305    0.394    0.221   64.198  202.586
  619.844    7.955    0.403    0.224   65.088  202.642
  620.094    7.563    0.416    0.234   66.348  202.491
  620.344    7.271    0.428    0.254   69.452  202.648
  620.594    6.900    0.422    0.248   68.564  202.802
  620.844    6.646    0.410    0.235   67.430  203.069
  621.094    6.425    0.395    0.232   65.931  203.140
  621.344    6.222    0.415    0.245   66.272  203.089
  621.594    6.286    0.420    0.242   64.282  203.031
  621.844    6.824    0.411    0.218   59.040  203.086
  622.094    7.943    0.396    0.193   53.616  203.348
  622.344    9.806    0.335    0.166   49.169  203.514
  622.594   14.687    0.280    0.135   42.087  203.776
  622.844   19.091    0.275    0.104   45.679  204.152
  623.094   25.746    0.281    0.086   50.803  204.198
  623.344   31.035    0.271    0.065   55.683  204.258
  623.594   25.052    0.280    0.057   60.686  204.210
  623.844   18.753    0.318    0.131   66.299  203.853
  624.094   13.530    0.372    0.161   72.467  203.390
  624.344   10.508    0.414    0.200   76.670  203.339
  624.594    8.191    0.411    0.212   80.753  203.297
  624.844    6.563    0.396    0.191   82.872  203.256
  625.094    6.137    0.390    0.182   82.355  203.093
  625.344    6.409    0.387    0.181   79.997  202.734
  625.594    7.099    0.383    0.175   78.065  202.068
  625.844    7.777    0.374    0.164   75.338  201.497
  626.094    8.092    0.345    0.126   72.121  201.034
  626.344    8.011    0.359    0.077   76.079  201.098
  626.594    7.702    0.343    0.081   82.799  201.356
  626.844    7.216    0.339    0.074   88.660  201.830
  627.094    6.748    0.368    0.109   94.458  202.415
  627.344    6.475    0.407    0.159   95.412  202.878
  627.594    6.271    0.402    0.147   94.590  203.461
  627.844    6.163    0.391    0.157   94.254  204.029
  628.094    6.090    0.405    0.173   94.347  204.085
  628.344    6.064    0.412    0.170   95.301  204.148
  628.594    6.171    0.412    0.157   97.481  203.896
  628.844    6.374    0.406    0.159   98.986  203.850
  629.094    6.511    0.399    0.150   98.223  203.900
  629.344    6.578    0.392    0.155   94.640  203.651
  629.594    6.620    0.387    0.159   93.137  203.494
  629.844    6.726    0.390    0.148   94.030  203.029
  630.094    6.884    0.404    0.158   95.415  202.565
  630.344    7.071    0.408    0.178   96.307  201.591
  630.594    7.467    0.399    0.170   91.861  200.088
  630.844    8.105    0.387    0.188   86.128  198.791
  631.094    8.878    0.356    0.183   89.111  198.748
  631.344    9.427    0.372    0.162   89.140  198.804
  631.594    9.954    0.377    0.159   87.703  198.855
  631.844   10.242    0.342    0.119   87.797  198.921
  632.094   10.103    0.320    0.108   91.511  199.283
  632.344    9.803    0.337    0.156   94.610  199.959
  632.594    9.372    0.361    0.161   96.115  201.164
  632.844    8.828    0.355    0.142   96.027  202.256
  633.094    8.504    0.361    0.140   94.775  202.933
  633.344    8.235    0.363    0.151   92.107  203.412
  633.594    8.569    0.349    0.150   89.015  202.847
  633.844   10.048    0.318    0.105   85.059  201.756
  634.094   12.002    0.293    0.035   78.957  200.257
  634.344   14.282    0.261    0.016   71.140  200.002
  634.594   13.678    0.287    0.049   76.206  200.366
  634.844   12.629    0.328    0.118   82.005  201.258
  635.094   11.195    0.363    0.151   89.886  202.775
  635.344   10.019    0.358    0.146   95.931  203.659
  635.594    8.817    0.339    0.143   97.868  204.228
  635.844    8.262    0.348    0.146  100.170  204.389
  636.094    7.812    0.348    0.131  104.008  204.860
  636.344    8.187    0.359    0.113  103.795  204.920
  636.594    9.637    0.344    0.086   94.320  203.936
  636.844   11.384    0.267    0.007   86.258  204.410
  637.094   12.609    0.240   -0.008   75.128  204.984
  637.344   12.927    0.225   -0.020   69.149  205.767
  637.594   12.090    0.267    0.029   73.110  206.241
  637.844   10.818    0.299    0.077   79.031  206.403
  638.094    9.261    0.322    0.133   85.199  206.460
  638.344    8.136    0.388    0.126   89.219  206.414
  638.594    7.443    0.403    0.134   92.012  206.580
  638.844    6.947    0.412    0.109   90.082  206.525
  639.094    6.828    0.412    0.085   85.576  206.484
  639.344    6.924    0.398    0.085   85.366  206.637
  639.594    7.406    0.400    0.100   85.767  206.589
  639.844    8.370    0.388    0.110   82.429  206.865
  640.094    9.409    0.375    0.094   78.657  207.221
  640.344   11.013    0.336    0.077   73.908  207.179
  640.594   11.758    0.257    0.003   71.547  207.132
  640.844   11.220    0.276    0.027   72.870  206.875
  641.094   10.226    0.331    0.048   79.099  206.730
  641.344    9.117    0.363    0.091   87.105  206.372
  641.594    8.068    0.365    0.109   88.610  206.119
  641.844    7.407    0.368    0.103   87.785  205.750
  642.094    6.826    0.381    0.096   86.899  205.088
  642.344    6.349    0.392    0.089   89.017  204.833
  642.594    6.025    0.381    0.114   93.040  204.777
  642.844    6.234    0.377    0.140   98.102  204.837
  643.094    6.779    0.388    0.142  100.590  204.996
  643.344    6.887    0.390    0.128  100.132  204.848
  643.594    6.881    0.386    0.113   96.424  204.904
  643.844    6.838    0.368    0.095   94.493  204.962
  644.094    6.695    0.362    0.092   94.098  205.028
  644.344    6.606    0.378    0.134   98.917  205.285
  644.594    6.686    0.378    0.104   97.542  205.239
  644.844    6.956    0.380    0.072   93.462  205.302
  645.094    7.454    0.368    0.014   89.877  205.140
  645.344    7.727    0.308    0.022   88.561  205.202
  645.594    8.011    0.331    0.074   94.425  205.260
  645.844    7.946    0.355    0.110  102.675  204.996
  646.094    7.057    0.370    0.124   99.457  204.846
  646.344    5.254    0.377    0.136  102.189  204.697
  646.594    3.861    0.401    0.162  108.663  204.858
  646.844    3.054    0.471    0.195  114.157  205.329
  647.094    2.605    0.513    0.200  114.681  205.591
  647.344    2.441    0.519    0.160  109.561  205.758
  647.594    2.421    0.500    0.131  106.159  205.916
  647.844    2.652    0.476    0.114  102.942  205.770
  648.094    3.281    0.461    0.070   95.312  205.712
  648.344    4.815    0.343   -0.005   86.264  205.672
  648.594    5.719    0.348   -0.009   85.010  205.421
