~VERSION INFORMATION
 VERS.                 2.0:   CWLS LOG ASCII STANDARD -VERSION 2.0
 WRAP.                  NO:   ONE LINE PER DEPTH STEP
~WELL INFORMATION BLOCK
#MNEM.UNIT           DATA                    DESCRIPTION OF MNEMONIC
#---------    -------------------            -------------------------------
# Generated from Intellog Unique Number	CW_70_72/WELL/3311
NULL.         -999.25                        : NULL_VALUE
WELL.         CALSTAN SOBC MITSUE            : Well_name    - WELL              
LOC .         16-12-071-05W5                 : Location     - LOCATION          
UWI .         00/16-12-071-05W5/0            : Uwi          - UNIQUE WELL ID    
ENTR.         CAMPBELL                       : Entered      - ENTERED BY        
SRVC.         SCHLUMBERGER                   : Scn          - SERVICE COMPANY   
DATE.         12 JULY 1965                   : Date         - LOG DATE          
STRT.M        667.512                        : top_depth    - START DEPTH       
STOP.M        813.762                        : bot_depth    - STOP DEPTH        
STEP.M        0.25                           : increment    - STEP LENGTH       
~CURVE INFORMATION BLOCK
#MNEM UNIT       ERCB CURVE CODE    CURVE DESCRIPTION
#-----------   ------------------   ----------------------------------
DEPT.M        00 001 00 00         : DEPTH        - DEPTH                       
ILD .OHMM     00 120 00 00         : RESD         - DEEP RESISTIVITY (DIL)      
DELT.US/F     00 520 00 00         : DELT         - SONIC TRAVEL TIME           
GR  .API      00 310 00 00         : GR           - GAMMA RAY                   
~PARAMETER INFORMATION       
#MNEM.UNIT           DATA             DESCRIPTION OF MNEMONIC
#---------         -----------     ------------------------------
GL  .M        752.46               : gl           - GROUND LEVEL ELEVATION      
EREF.M        756.27               : kb           - ELEVATION OF DEPTH REFERENCE
DATM.M        756.27               : datum        - DATUM ELEVATION             
TDD .M        1864.77              : tdd          - TOTAL DEPTH DRILLER         
RUN .         ONE                  : Run          - RUN NUMBER                  
ENG .         HAMILTON             : Engineer     - RECORDING ENGINEER          
WIT .         BROWN                : Witness      - WITNESSED BY                
MUD .         GEL                  : Mud_type     - MUD TYPE                    
MATR.         SANDSTONE            : Logunit      - NEUTRON MATRIX              
TMAX.C        52.2222              : BHT          - MAXIMUM RECORDED TEMPERATURE
BHTD.M        1864.77              : BHTDEP       - MAXIMUM RECORDED TEMPERATURE
RMT .C        20                   : MDTP         - TEMPERATURE OF MUD          
MUDD.KG/M     10000                : MWT          - MUD DENSITY                 
NEUT.         1                    : NEUTRON      - NEUTRON TYPE                
RESI.         0                    : RESIST       - RESISTIVITY TYPE            
RM  .OHMM     1.5                  : RM           - RESISTIVITY OF MUD          
RMC .OHMM     1.62                 : RMC          - RESISTIVITY OF MUD CAKE     
RMF .OHMM     1.25                 : RMF          - RESISTIVITY OF MUD FILTRATE 
SUFT.C        20                   : SUFT         - SURFACE TEMPERATURE         
~A  DEPTH     RESD     DELT       GR
# ...
  721.762    2.216  349.183   81.447
  722.012    2.220  346.503   79.937
  722.262    2.227  345.764   79.362
  722.512    2.232  345.386   79.104
  722.762    2.236  344.656   78.855
  723.012    2.242  344.270   72.576
  723.262    2.249  343.531   75.818
  723.512    2.253  343.145   89.225
  723.762    2.259  343.076   78.185
  724.012    2.265  343.660   75.388
  724.262    2.370  343.265   73.870
  724.512    2.375  342.544   71.399
  724.762    2.580  341.487   66.081
  725.012    2.687  341.092   75.362
  725.262    2.593  341.024   74.787
  725.512    2.597  341.926   71.681
  725.762    2.602  344.142   74.288
  726.012    2.608  346.702   80.713
  726.262    2.615  351.856   85.542
  726.512    2.820  360.610   91.966
  726.762    3.023  373.598   88.543
  727.012    3.427  367.328   90.833
  727.262    3.533  357.784   79.468
  727.512    3.241  340.733   73.506
  727.762    3.046  310.934   78.017
  728.012    2.952  307.274   81.268
  728.262    2.759  306.879   83.558
  728.512    2.664  323.141   89.665
  728.762    2.869  327.316   88.781
  729.012    2.875  343.250   85.993
  729.262    2.781  349.710   94.956
  729.512    2.786  350.947   89.312
  729.762    2.693  350.887   84.611
  730.012    2.698  349.496   85.314
  730.262    2.705  349.110   87.921
  730.512    2.808  348.371   87.672
  730.762    2.815  347.340   86.788
  731.012    2.821  346.945   88.135
  731.262    2.826  351.438   86.934
  731.512    2.831  347.452   84.154
  731.762    2.837  345.099   85.484
  732.012    2.842  342.410   93.812
  732.262    2.949  344.961   94.524
  732.512    2.954  350.116   91.418
  732.762    2.960  348.406   88.948
  733.012    3.064  346.061   87.112
  733.262    3.071  345.340   85.902
  733.512    3.076  345.263   78.979
  733.762    3.082  345.194   75.874
  734.012    3.087  342.188   79.433
  734.262    3.092  337.214   80.780
  734.512    3.098  331.923   85.609
  734.762    3.104  348.510   85.994
  735.012    3.110  357.590   78.763
  735.262    3.115  357.848   72.475
  735.512    3.120  344.061   67.157
  735.762    3.126  317.535   64.043
  736.012    3.032  306.359   71.419
  736.262    2.838  312.493   72.131
  736.512    2.646  343.125   71.873
  736.762    2.451  348.288   71.624
  737.012    2.457  351.810   72.962
  737.262    2.462  354.997   72.087
  737.512    2.468  357.213   71.829
  737.762    2.474  356.483   77.936
  738.012    2.480  354.147   81.178
  738.262    2.485  348.838   77.756
  738.512    2.491  345.841   72.437
  738.762    2.397  346.425   73.457
  739.012    2.402  355.170   72.565
  739.262    2.407  352.490   72.951
  739.512    2.413  347.851   73.019
  739.762    2.420  341.572   76.278
  740.012    2.524  342.809   72.847
  740.262    2.530  346.975   64.981
  740.512    2.537  350.162   64.414
  740.762    2.541  352.722   65.118
  741.012    2.451  355.274   63.590
  741.262    2.454  360.093   58.898
  741.512    2.358  363.624   60.553
  741.762    2.365  367.128   60.939
  742.012    2.371  369.680   65.468
  742.262    2.276  372.223   69.662
  742.512    2.182  374.121   69.087
  742.762    2.189  371.115   63.768
  743.012    2.189  366.141   64.154
  743.262    2.199  366.734   62.944
  743.512    2.204  368.607   63.982
  743.762    2.110  368.220   61.503
  744.012    2.016  368.160   62.840
  744.262    2.022  369.397   61.648
  744.512    2.028  367.680   60.129
  744.762    2.033  365.987   58.611
  745.012    2.040  362.972   56.449
  745.262    2.045  361.280   59.373
  745.512    2.051  364.476   64.854
  745.762    2.056  367.336   60.145
  746.012    2.061  368.582   60.213
  746.262    2.166  368.505   63.472
  746.512    2.072  367.792   64.802
  746.762    2.178  354.984   58.840
  747.012    2.582  327.470   57.330
  747.262    2.687  309.113   56.763
  747.512    2.692  291.727   58.419
  747.762    2.698  297.869   61.652
  748.012    2.108  327.840   68.402
  748.262    1.913  339.213   67.201
  748.512    1.818  369.837   68.856
  748.762    1.725  369.116   74.638
  749.012    1.731  368.721   75.032
  749.262    1.737  369.305   70.331
  749.512    1.741  369.898   66.908
  749.762    1.846  373.094   67.294
  750.012    1.852  374.331   65.141
  750.262    1.857  371.977   61.074
  750.512    1.863  369.941   61.469
  750.762    1.769  369.538   62.489
  751.012    1.576  367.846   61.614
  751.262    1.582  368.748   58.182
  751.512    2.285  368.679   56.355
  751.762    2.689  366.661   55.145
  752.012    2.893  359.402   62.196
  752.262    2.999  351.491   69.255
  752.512    2.904  346.526   65.197
  752.762    2.810  340.891   63.679
  753.012    2.716  341.148   64.699
  753.262    2.624  344.026   59.372
  753.512    2.633  347.540   58.806
  753.762    2.635  351.405   60.461
  754.012    2.540  355.580   64.029
  754.262    2.546  362.367   63.463
  754.512    2.451  367.856   63.531
  754.762    2.357  369.419   63.917
  755.012    2.263  369.677   61.446
  755.262    2.169  369.600   64.053
  755.512    2.174  368.226   65.391
  755.762    2.081  363.587   60.699
  756.012    2.086  356.647   59.197
  756.262    2.092  353.649   59.248
  756.512    2.098  353.580   58.373
  756.762    2.104  353.821   58.750
  757.012    2.108  352.455   59.779
  757.262    2.115  352.051   61.761
  757.512    2.120  351.991   65.629
  757.762    2.226  354.852   66.332
  758.012    2.231  355.445   63.552
  758.262    2.236  354.723   65.533
  758.512    2.243  353.014   63.680
  758.762    2.148  351.958   61.844
  759.012    2.153  352.233   63.191
  759.262    2.160  353.779   69.924
  759.512    2.164  355.686   77.300
  759.762    2.171  359.535   75.790
  760.012    2.176  362.077   72.050
  760.262    2.182  363.959   71.801
  760.512    2.088  366.175   71.861
  760.762    1.796  369.379   68.756
  761.012    1.800  368.976   65.968
  761.262    1.706  369.560   61.910
  761.512    1.712  372.111   65.469
  761.762    1.617  371.381   64.277
  762.012    1.623  368.375   68.145
  762.262    1.629  366.013   64.088
  762.512    1.635  364.312   68.925
  762.762    1.641  362.938   73.754
  763.012    1.647  362.216   78.591
  763.262    1.651  361.495   82.159
  763.512    1.657  361.108   71.111
  763.762    1.663  360.387   65.775
  764.012    1.769  360.963   68.065
  764.262    1.774  361.865   72.585
  764.512    1.879  362.457   70.758
  764.762    1.884  363.351   69.874
  765.012    1.891  363.617   69.943
  765.262    1.896  363.540   74.772
  765.512    2.000  363.489   73.888
  765.762    2.106  363.738   70.774
  766.012    2.211  365.310   74.977
  766.262    2.317  364.580   75.045
  766.512    2.422  361.574   71.305
  766.762    2.526  357.914   70.421
  767.012    2.632  352.949   75.250
  767.262    2.837  346.996   76.596
  767.512    2.843  336.474   79.521
  767.762    2.849  329.224   78.002
  768.012    2.854  315.754   70.145
  768.262    2.859  314.380   67.022
  768.512    2.864  327.377   79.803
  768.762    2.870  335.804   77.006
  769.012    2.875  340.623   80.900
  769.262    2.983  343.166   85.094
  769.512    2.987  343.759   80.393
  769.762    2.992  341.397   75.066
  770.012    2.999  340.349   73.239
  770.262    3.003  340.280   75.520
  770.512    3.009  343.158   83.532
  770.762    3.014  342.428   86.465
  771.012    3.120  342.677   85.255
  771.262    3.127  348.175   82.150
  771.512    3.131  351.044   79.362
  771.762    3.436  342.807   77.852
  772.012    3.642  338.168   81.403
  772.262    3.746  325.687   85.296
  772.512    3.851  326.597   87.904
  772.762    3.956  338.941   84.790
  773.012    4.161  340.823   79.471
  773.262    4.167  341.081   81.435
  773.512    4.273  332.199   84.360
  773.762    4.278  295.218   85.063
  774.012    4.284  299.719   91.487
  774.262    4.289  308.138   93.469
  774.512    4.295  315.259   86.863
  774.762    4.300  317.802   86.297
  775.012    4.305  322.630   84.778
  775.262    4.311  324.193   86.434
  775.512    4.317  327.071   85.232
  775.762    4.323  323.730   82.127
