~VERSION INFORMATION
 VERS.                 2.0:   CWLS LOG ASCII STANDARD -VERSION 2.0
 WRAP.                  NO:   ONE LINE PER DEPTH STEP
~WELL INFORMATION BLOCK
#MNEM.UNIT           DATA                    DESCRIPTION OF MNEMONIC
#---------    -------------------            -------------------------------
# Generated from Intellog Unique Number	CW_73_75/WELL/924
WELL.         GULF POC DROWNED 10-16         : Well_name    - WELL
LOC .         00/10-16-075-21W4/0            : Location     - LOCATION
UWI .         00/10-16-075-21W4/0            : Uwi          - UNIQUE WELL ID
ENTR.         JAYE                           : Entered      - ENTERED BY
SRVC.         SCHLUMBERGER                   : Scn          - SERVICE COMPANY
DATE.         6 MAR 78                       : Date         - LOG DATE
STRT.M        356.616                        : top_depth    - START DEPTH
STOP.M        566.866                        : bot_depth    - STOP DEPTH
STEP.M        0.25                           : increment    - STEP LENGTH
 NULL. -999.2500:NULL Value
~CURVE INFORMATION BLOCK
#MNEM UNIT       ERCB CURVE CODE    CURVE DESCRIPTION
#-----------   ------------------   ----------------------------------
DEPT.M        00 001 00 00         : DEPTH        - DEPTH
ILD .OHMM     00 120 00 00         : RESD         - DEEP RESISTIVITY (DIL)
NPHI.V/V      00 330 00 00         : PHIN         - NEUTRON POROSITY (SANDSTONE)
DPHI.V/V      00 890 00 00         : PHID         - DENSITY POROSITY (SANDSTONE)
GR  .API      00 310 00 00         : GR           - GAMMA RAY
CALI.MM       00 280 01 00         : CAL          - CALIPER
~PARAMETER INFORMATION
#MNEM.UNIT           DATA             DESCRIPTION OF MNEMONIC
#---------         -----------     ------------------------------
GL  .M        666.598              : gl           - GROUND LEVEL ELEVATION
EREF.M        670.712              : kb           - ELEVATION OF DEPTH REFERENCE
DATM.M        666.598              : datum        - DATUM ELEVATION
TDD .M        569.976              : tdd          - TOTAL DEPTH DRILLER
RUN .         ONE                  : Run          - RUN NUMBER
ENG .         VERRAIRES            : Engineer     - RECORDING ENGINEER
WIT .         BRINKMAN/ROZENHART   : Witness      - WITNESSED BY
BASE.         EDM                  : Branch       - HOME BASE OF LOGGING UNIT
MUD .         GEL CHEM             : Mud_type     - MUD TYPE
MATR.         SANDSTONE            : Logunit      - NEUTRON MATRIX
TMAX.C        17.2222              : BHT          - MAXIMUM RECORDED TEMPERATURE
BHTD.M        569.671              : BHTDEP       - MAXIMUM RECORDED TEMPERATURE
RMT .C        17.7778              : MDTP         - TEMPERATURE OF MUD
MUDD.KG/M     1116                 : MWT          - MUD DENSITY
NEUT.         1                    : NEUTRON      - NEUTRON TYPE
RESI.         0                    : RESIST       - RESISTIVITY TYPE
RM  .OHMM     4.87                 : RM           - RESISTIVITY OF MUD
RMC .OHMM     0                    : RMC          - RESISTIVITY OF MUD CAKE
RMF .OHMM     5.89                 : RMF          - RESISTIVITY OF MUD FILTRATE
SUFT.C        -17.7778             : SUFT         - SURFACE TEMPERATURE
~A  DEPTH     RESD     PHIN     PHID       GR      CAL
# ...
  502.616    6.105    0.431    0.198   92.582  161.555
  502.866    5.958    0.449    0.214   92.470  161.679
  503.116    5.913    0.466    0.208   94.467  162.432
  503.366    5.922    0.451    0.180   96.901  163.716
  503.616    5.964    0.439    0.191   98.340  164.574
  503.866    6.062    0.441    0.216   99.096  164.910
  504.116    6.139    0.439    0.207  100.474  163.563
  504.366    6.217    0.427    0.193  101.975  161.796
  504.616    6.227    0.432    0.190  103.537  161.921
  504.866    6.236    0.446    0.190  104.481  161.944
  505.116    6.234    0.441    0.189  103.748  162.176
  505.366    6.233    0.430    0.186  103.015  161.986
  505.616    6.265    0.438    0.179  105.820  162.109
  505.866    6.356    0.447    0.171  109.369  161.501
  506.116    6.437    0.436    0.164  111.118  161.309
  506.366    6.507    0.422    0.171  106.600  160.804
  506.616    6.590    0.425    0.192  103.882  160.719
  506.866    6.637    0.434    0.166  104.390  160.845
  507.116    6.684    0.435    0.169  107.877  160.968
  507.366    6.707    0.437    0.177  111.364  161.097
  507.616    6.717    0.443    0.178  113.549  161.429
  507.866    6.740    0.436    0.172  110.767  161.663
  508.116    6.775    0.414    0.163  106.497  162.206
  508.366    6.811    0.393    0.156  106.077  162.223
  508.616    6.834    0.394    0.169  106.335  162.244
  508.866    6.831    0.403    0.180  107.154  162.266
  509.116    6.792    0.414    0.176  109.772  162.495
  509.366    6.740    0.427    0.158  115.183  163.040
  509.616    6.700    0.435    0.152  113.086  163.585
  509.866    6.686    0.443    0.163  109.125  163.921
  510.116    6.647    0.451    0.174  108.019  164.261
  510.366    6.633    0.461    0.132  111.258  164.281
  510.616    6.606    0.458    0.134  112.511  164.404
  510.866    6.568    0.455    0.148  109.421  164.317
  511.116    6.554    0.457    0.168  108.564  163.917
  511.366    6.516    0.448    0.171  109.135  163.937
  511.616    6.502    0.437    0.170  109.581  163.853
  511.866    6.499    0.435    0.174  109.594  163.873
  512.116    6.558    0.440    0.188  109.108  163.891
  512.366    6.641    0.449    0.175  106.885  163.708
  512.616    6.738    0.447    0.159  103.546  163.515
  512.866    6.861    0.438    0.134  103.434  163.112
  513.116    6.961    0.415    0.128  108.906  162.605
  513.366    6.985    0.403    0.179  110.347  162.102
  513.616    6.957    0.404    0.186  108.248  161.495
  513.866    6.891    0.410    0.190  103.419  161.406
  514.116    6.850    0.420    0.193  100.328  161.006
  514.366    6.798    0.424    0.187  101.208  160.923
  514.616    6.721    0.422    0.158  105.627  160.732
  514.866    6.608    0.416    0.142  110.169  160.329
  515.116    6.546    0.418    0.123  112.911  161.821
  515.366    6.448    0.421    0.170  115.779  163.838
  515.616    6.328    0.423    0.170  119.018  165.750
  515.866    6.396    0.436    0.159  122.319  167.663
  516.116    6.586    0.432    0.172  121.275  168.418
  516.366    6.973    0.418    0.180  113.405  167.703
  516.616    7.645    0.401    0.164  109.136  165.308
  516.866    8.244    0.376    0.127  107.038  163.539
  517.116    8.599    0.371    0.126  106.863  161.981
  517.366    8.407    0.381    0.143  107.309  160.217
  517.616    8.026    0.386    0.160  107.384  159.080
  517.866    7.920    0.392    0.172  107.147  158.155
  518.116    8.021    0.399    0.170  105.420  157.124
  518.366    8.397    0.408    0.122  101.274  155.778
  518.616    9.275    0.395    0.139   96.507  154.957
  518.866   10.207    0.365    0.130   90.252  155.923
  519.116   11.484    0.342    0.095   85.919  157.203
  519.366   12.545    0.354    0.090   80.159  158.801
  519.616   12.870    0.351    0.091   79.055  160.293
  519.866   11.285    0.338    0.050   90.857  161.153
  520.116    9.571    0.328    0.063   99.744  161.908
  520.366    8.408    0.366    0.087  103.790  163.613
  520.616    7.441    0.406    0.125  107.277  164.154
  520.866    6.871    0.408    0.119  110.764  164.385
  521.116    6.534    0.422    0.121  115.555  164.198
  521.366    6.593    0.422    0.145  111.534  164.110
  521.616    6.689    0.410    0.142  108.504  164.026
  521.866    6.887    0.400    0.132  102.931  164.368
  522.116    6.975    0.408    0.121  107.038  164.697
  522.366    7.050    0.417    0.121  109.966  165.035
  522.616    7.074    0.408    0.136  108.241  165.263
  522.866    7.046    0.396    0.141  106.825  165.493
  523.116    6.966    0.399    0.118  106.900  166.040
  523.366    6.837    0.406    0.134  107.409  166.480
  523.616    6.747    0.422    0.143  107.668  166.603
  523.866    6.708    0.427    0.150  110.286  166.835
  524.116    6.743    0.412    0.161  113.898  167.065
  524.366    6.917    0.419    0.149  113.599  167.086
  524.616    7.242    0.414    0.117  110.757  167.105
  524.866    7.402    0.388    0.112  113.437  167.126
  525.116    7.291    0.387    0.128  118.662  167.150
  525.366    7.064    0.401    0.145  117.432  167.166
  525.616    6.831    0.410    0.158  113.598  166.974
  525.866    6.654    0.399    0.157  107.464  166.683
  526.116    6.567    0.390    0.144  103.443  166.493
  526.366    6.565    0.383    0.127  106.375  166.511
  526.616    6.587    0.369    0.095  102.721  166.321
  526.866    6.525    0.345    0.072  103.539  166.132
  527.116    6.427    0.395    0.091  106.470  166.569
  527.366    6.112    0.409    0.132  108.280  167.010
  527.616    5.500    0.411    0.158  108.354  167.766
  527.866    4.770    0.415    0.149  104.580  169.047
  528.116    3.813    0.442    0.143  104.533  171.484
  528.366    3.240    0.491    0.163  105.476  175.077
  528.616    2.738    0.585    0.187  106.791  179.511
  528.866    2.396    0.549    0.205  107.669  186.363
  529.116    2.209    0.543    0.222  109.171  188.378
  529.366    2.237    0.537    0.238  110.858  183.987
  529.616    2.248    0.526    0.256  112.858  181.379
  529.866    2.488    0.496    0.220  114.170  177.721
  530.116    2.846    0.482    0.188  115.672  171.645
  530.366    3.360    0.419    0.145  111.277  166.309
  530.616    3.930    0.408    0.122  106.946  164.229
  530.866    4.779    0.404    0.112  106.647  162.878
  531.116    6.018    0.407    0.115  107.714  161.639
  531.366    6.746    0.412    0.129  114.491  161.134
  531.616    6.933    0.424    0.105  109.166  160.629
  531.866    6.854    0.340    0.083  103.716  160.227
  532.116    6.447    0.346    0.035  102.859  160.247
  532.366    6.143    0.370    0.025  109.821  160.588
  532.616    5.897    0.395    0.124  113.371  160.916
  532.866    5.671    0.411    0.137  110.217  161.779
  533.116    5.463    0.422    0.149  113.084  162.533
  533.366    5.302    0.429    0.140  117.875  163.607
  533.616    5.233    0.431    0.129  112.612  163.729
  533.866    5.338    0.415    0.099  105.300  163.647
  534.116    5.447    0.386    0.061   98.858  163.142
  534.366    5.598    0.371    0.030   95.890  162.949
  534.616    5.817    0.381    0.020  100.062  162.764
  534.866    5.968    0.395    0.023  103.237  162.675
  535.116    5.977    0.414    0.049  105.173  162.698
  535.366    5.877    0.408    0.093  101.585  162.928
  535.616    5.683    0.409    0.149  110.037  162.948
  535.866    5.608    0.404    0.168  111.104  162.861
  536.116    5.648    0.383    0.182  107.827  162.670
  536.366    5.913    0.392    0.149  101.386  162.065
  536.616    6.483    0.380    0.146   95.439  161.974
  536.866    7.148    0.351    0.158   90.300  162.522
  537.116    7.983    0.339    0.125   87.767  162.541
  537.366    8.999    0.307    0.078   88.337  162.771
  537.616    9.958    0.289    0.045   95.487  162.477
  537.866   10.291    0.300    0.024  101.705  162.601
  538.116    9.860    0.314    0.064  106.247  162.941
  538.366    9.240    0.355    0.085  113.954  163.272
  538.616    8.299    0.382    0.108  126.440  163.712
  538.866    7.468    0.393    0.125  128.067  164.471
