~VERSION INFORMATION
 VERS.                 2.0:   CWLS LOG ASCII STANDARD -VERSION 2.0
 WRAP.                  NO:   ONE LINE PER DEPTH STEP
~WELL INFORMATION BLOCK
#MNEM.UNIT           DATA                    DESCRIPTION OF MNEMONIC
#---------    -------------------            -------------------------------
# Generated from Intellog Unique Number	CW_70_72/WELL/1061
NULL.         -999.25                        : NULL_VALUE
WELL.         WINCAN ET AL GAMBLER 11-22     : Well_name    - WELL              
LOC .         11-22-071-21W4                 : Location     - LOCATION          
UWI .         00/11-22-071-21W4/0            : Uwi          - UNIQUE WELL ID    
ENTR.         JAYE                           : Entered      - ENTERED BY        
SRVC.         SCHLUMBERGER                   : Scn          - SERVICE COMPANY   
DATE.         19 MAR 83                      : Date         - LOG DATE          
STRT.M        335                            : top_depth    - START DEPTH       
STOP.M        518                            : bot_depth    - STOP DEPTH        
STEP.M        0.25                           : increment    - STEP LENGTH       
~CURVE INFORMATION BLOCK
#MNEM UNIT       ERCB CURVE CODE    CURVE DESCRIPTION
#-----------   ------------------   ----------------------------------
DEPT.M        00 001 00 00         : DEPTH        - DEPTH                       
DPHI.V/V      00 890 00 00         : PHID         - DENSITY POROSITY (SANDSTONE)
NPHI.V/V      00 330 00 00         : PHIN         - NEUTRON POROSITY (SANDSTONE)
GR  .API      00 310 00 00         : GR           - GAMMA RAY                   
CALI.MM       00 280 01 00         : CAL          - CALIPER                     
ILD .OHMM     00 120 00 00         : RESD         - DEEP RESISTIVITY (DIL)      
~PARAMETER INFORMATION       
#MNEM.UNIT           DATA             DESCRIPTION OF MNEMONIC
#---------         -----------     ------------------------------
GL  .M        600.05               : gl           - GROUND LEVEL ELEVATION      
EREF.M        603.25               : kb           - ELEVATION OF DEPTH REFERENCE
DATM.M        600.05               : datum        - DATUM ELEVATION             
TDD .M        518                  : tdd          - TOTAL DEPTH DRILLER         
RUN .         ONE                  : Run          - RUN NUMBER                  
ENG .         GAGGINO              : Engineer     - RECORDING ENGINEER          
WIT .         LYSZKIEWICZ          : Witness      - WITNESSED BY                
BASE.         EDM                  : Branch       - HOME BASE OF LOGGING UNIT   
MUD .         GEL CHEM             : Mud_type     - MUD TYPE                    
MATR.         SANDSTONE            : Logunit      - NEUTRON MATRIX              
TMAX.C        28.8                 : BHT          - MAXIMUM RECORDED TEMPERATURE
BHTD.M        517.7                : BHTDEP       - MAXIMUM RECORDED TEMPERATURE
RMT .C        16.6                 : MDTP         - TEMPERATURE OF MUD          
MUDD.KG/M     1240                 : MWT          - MUD DENSITY                 
NEUT.         1                    : NEUTRON      - NEUTRON TYPE                
RESI.         0                    : RESIST       - RESISTIVITY TYPE            
RM  .OHMM     4.02                 : RM           - RESISTIVITY OF MUD          
RMC .OHMM     0                    : RMC          - RESISTIVITY OF MUD CAKE     
RMF .OHMM     3.26                 : RMF          - RESISTIVITY OF MUD FILTRATE 
SUFT.C        0                    : SUFT         - SURFACE TEMPERATURE         
~A  DEPTH     PHID     PHIN       GR      CAL     RESD
# ...
  371.500    0.184    0.449   59.016  214.688    4.682
  371.750    0.220    0.436   59.344  214.288    4.822
  372.000    0.240    0.413   59.488  214.209    4.949
  372.250    0.241    0.405   59.563  214.131    5.108
  372.500    0.223    0.423   58.636  214.260    5.183
  372.750    0.209    0.434   56.959  214.181    5.259
  373.000    0.223    0.438   55.843  213.583    5.409
  373.250    0.239    0.446   55.169  213.501    5.603
  373.500    0.243    0.427   55.183  213.629    5.762
  373.750    0.234    0.433   56.453  213.967    5.845
  374.000    0.222    0.418   58.350  214.829    5.887
  374.250    0.207    0.391   60.748  216.105    5.819
  374.500    0.220    0.398   58.631  217.805    5.677
  374.750    0.234    0.409   54.819  217.828    5.284
  375.000    0.233    0.420   52.511  217.538    4.845
  375.250    0.246    0.464   52.778  216.937    4.319
  375.500    0.261    0.414   53.484  216.129    3.983
  375.750    0.277    0.395   54.254  215.734    3.827
  376.000    0.268    0.394   55.331  215.756    3.884
  376.250    0.255    0.406   59.613  215.678    4.107
  376.500    0.234    0.387   67.030  215.702    4.501
  376.750    0.218    0.387   63.658  215.520    4.805
  377.000    0.208    0.396   60.850  215.647    4.997
  377.250    0.195    0.409   60.552  215.776    5.108
  377.500    0.205    0.432   61.632  216.222    5.165
  377.750    0.199    0.455   63.341  216.662    5.173
  378.000    0.198    0.436   64.424  217.107    5.151
  378.250    0.202    0.455   60.424  216.924    5.121
  378.500    0.192    0.472   61.066  216.319    5.100
  378.750    0.180    0.456   65.157  215.403    5.068
  379.000    0.169    0.461   67.871  214.590    5.039
  379.250    0.180    0.442   65.375  213.051    5.008
  379.500    0.184    0.427   66.582  212.341    4.949
  379.750    0.196    0.436   61.516  211.424    4.884
  380.000    0.214    0.433   55.759  211.139    4.846
  380.250    0.236    0.427   50.254  211.164    4.779
  380.500    0.260    0.422   48.638  210.877    4.646
  380.750    0.265    0.416   47.773  210.795    4.490
  381.000    0.257    0.416   46.160  210.610    4.298
  381.250    0.271    0.432   44.603  210.110    4.092
  381.500    0.285    0.447   41.984  209.196    3.910
  381.750    0.301    0.464   41.811  208.173    3.792
  382.000    0.312    0.449   42.642  207.362    3.700
  382.250    0.311    0.427   45.606  208.955    3.691
  382.500    0.296    0.418   48.694  212.326    3.760
  382.750    0.281    0.439   52.662  214.546    3.888
  383.000    0.260    0.447   53.365  214.990    3.990
  383.250    0.247    0.401   46.166  214.701    4.079
  383.500    0.236    0.421   40.534  213.789    4.140
  383.750    0.256    0.436   34.527  212.975    4.154
  384.000    0.271    0.441   32.536  212.268    4.053
  384.250    0.281    0.389   32.926  211.767    3.969
  384.500    0.284    0.406   35.138  211.791    3.899
  384.750    0.285    0.418   36.031  211.816    3.812
  385.000    0.283    0.406   35.607  212.472    3.748
  385.250    0.283    0.392   35.309  212.913    3.711
  385.500    0.287    0.379   35.322  213.356    3.661
  385.750    0.294    0.393   35.901  214.116    3.638
  386.000    0.300    0.394   37.609  214.663    3.611
  386.250    0.299    0.384   36.558  215.108    3.587
  386.500    0.292    0.384   35.947  215.336    3.554
  386.750    0.296    0.385   38.973  215.470    3.519
  387.000    0.300    0.388   41.183  215.705    3.491
  387.250    0.296    0.392   37.873  215.727    3.445
  387.500    0.292    0.408   37.951  215.749    3.404
  387.750    0.293    0.401   39.220  215.776    3.359
  388.000    0.307    0.403   38.670  215.487    3.308
  388.250    0.312    0.405   36.175  215.304    3.281
  388.500    0.314    0.394   32.866  215.329    3.249
  388.750    0.313    0.383   33.698  215.144    3.211
  389.000    0.313    0.381   35.531  215.166    3.211
  389.250    0.313    0.392   36.549  215.192    3.221
  389.500    0.316    0.403   35.562  215.216    3.251
  389.750    0.319    0.412   33.757  215.138    3.280
  390.000    0.320    0.422   29.946  214.952    3.316
  390.250    0.318    0.421   30.335  214.663    3.396
  390.500    0.312    0.402   32.547  214.480    3.592
  390.750    0.310    0.386   33.000  214.295    4.034
  391.000    0.317    0.387   31.509  214.638    4.404
  391.250    0.234    0.339   32.402  214.869    4.623
  391.500    0.253    0.321   34.299  215.105    4.418
  391.750    0.298    0.341   36.950  215.235    4.136
  392.000    0.320    0.392   38.597  215.256    3.915
  392.250    0.327    0.418   36.980  215.177    3.643
  392.500    0.326    0.437   34.046  215.203    3.430
  392.750    0.320    0.459   32.492  215.227    3.278
  393.000    0.316    0.454   33.322  215.459    3.145
  393.250    0.314    0.444   35.846  215.693    3.067
  393.500    0.312    0.439   36.614  216.034    2.987
  393.750    0.308    0.433   37.571  216.371    2.946
  394.000    0.306    0.419   38.904  216.504    2.934
  394.250    0.310    0.442   39.797  216.528    3.028
  394.500    0.304    0.458   38.557  216.864    3.325
  394.750    0.231    0.434   35.623  218.039    3.797
  395.000    0.096    0.224   32.877  220.678    4.461
  395.250    0.074    0.175   29.382  221.853    5.483
  395.500    0.123    0.207   28.831  221.040    6.157
  395.750    0.201    0.266   29.033  219.289    6.248
  396.000    0.251    0.299   30.179  217.641    5.476
  396.250    0.306    0.414   31.447  216.306    4.529
  396.500    0.330    0.459   33.343  215.807    3.745
  396.750    0.334    0.463   35.368  215.625    3.132
  397.000    0.331    0.440   33.436  215.861    2.871
  397.250    0.329    0.441   30.691  216.095    2.755
  397.500    0.331    0.446   31.772  216.012    2.703
  397.750    0.333    0.446   35.113  216.146    2.687
  398.000    0.330    0.432   36.446  216.167    2.680
  398.250    0.326    0.438   34.012  216.611    2.699
  398.500    0.322    0.444   31.015  217.056    2.739
  398.750    0.321    0.433   30.404  217.289    2.770
  399.000    0.328    0.418   30.732  217.416    2.794
  399.250    0.340    0.406   31.626  217.864    2.819
  399.500    0.334    0.441   33.335  218.097    2.840
  399.750    0.330    0.460   36.611  218.226    2.856
  400.000    0.325    0.460   36.940  218.247    2.875
  400.250    0.324    0.453   36.641  218.068    2.908
  400.500    0.332    0.444   35.402  217.881    2.934
  400.750    0.335    0.438   34.852  217.801    2.960
  401.000    0.334    0.441   35.807  217.827    2.970
  401.250    0.331    0.449   37.831  217.538    2.996
  401.500    0.327    0.430   39.601  217.351    3.030
  401.750    0.324    0.433   39.742  216.852    3.063
  402.000    0.324    0.451   40.073  217.608    3.073
  402.250    0.326    0.453   40.650  218.261    3.084
  402.500    0.329    0.451   41.919  218.181    3.106
  402.750    0.327    0.441   43.754  218.212    3.123
  403.000    0.322    0.445   42.892  217.926    3.145
  403.250    0.314    0.457   41.651  217.529    3.155
  403.500    0.312    0.448   40.724  217.237    3.171
  403.750    0.318    0.421   38.794  216.846    3.176
  404.000    0.316    0.455   36.864  216.554    3.181
  404.250    0.314    0.457   39.827  216.370    3.169
  404.500    0.312    0.433   40.030  216.395    3.155
  404.750    0.311    0.428   38.855  216.108    3.150
  405.000    0.311    0.420   39.810  216.025    3.153
  405.250    0.307    0.410   40.076  216.053    3.157
  405.500    0.302    0.418   37.895  215.866    3.168
  405.750    0.313    0.431   37.658  215.894    3.196
  406.000    0.325    0.440   42.379  216.234    3.214
  406.250    0.327    0.449   45.907  216.673    3.261
  406.500    0.326    0.455   46.049  217.329    3.321
  406.750    0.324    0.451   45.751  217.458    3.579
  407.000    0.314    0.439   45.764  217.483    3.997
  407.250    0.297    0.454   45.278  217.505    4.705
  407.500    0.213    0.403   43.785  217.426    5.264
  407.750    0.160    0.371   39.723  217.457    5.683
