~VERSION INFORMATION
 VERS.                 2.0:   CWLS LOG ASCII STANDARD -VERSION 2.0
 WRAP.                  NO:   ONE LINE PER DEPTH STEP
~WELL INFORMATION BLOCK
#MNEM.UNIT           DATA                    DESCRIPTION OF MNEMONIC
#---------    -------------------            -------------------------------
# Generated from Intellog Unique Number	CW_76_78/WELL/1034
WELL.         OAKPETROREP ET AL MARTEN 16-12 : Well_name    - WELL
LOC .         00/16-12-076-03W5/0            : Location     - LOCATION
UWI .         00/16-12-076-03W5/0            : Uwi          - UNIQUE WELL ID
ENTR.         JAYE                           : Entered      - ENTERED BY
SRVC.         SCHLUMBERGER                   : Scn          - SERVICE COMPANY
DATE.         16 FEB 79                      : Date         - LOG DATE
STRT.M        550                            : top_depth    - START DEPTH
STOP.M        760                            : bot_depth    - STOP DEPTH
STEP.M        0.25                           : increment    - STEP LENGTH
 NULL. -999.2500:NULL Value
~CURVE INFORMATION BLOCK
#MNEM UNIT       ERCB CURVE CODE    CURVE DESCRIPTION
#-----------   ------------------   ----------------------------------
DEPT.M        00 001 00 00         : DEPTH        - DEPTH
ILD .OHMM     00 120 00 00         : RESD         - DEEP RESISTIVITY (DIL)
NPHI.V/V      00 330 00 00         : PHIN         - NEUTRON POROSITY (SANDSTONE)
DPHI.V/V      00 890 00 00         : PHID         - DENSITY POROSITY (SANDSTONE)
GR  .API      00 310 00 00         : GR           - GAMMA RAY
CALI.MM       00 280 01 00         : CAL          - CALIPER
~PARAMETER INFORMATION
#MNEM.UNIT           DATA             DESCRIPTION OF MNEMONIC
#---------         -----------     ------------------------------
GL  .M        834.8                : gl           - GROUND LEVEL ELEVATION
EREF.M        838.8                : kb           - ELEVATION OF DEPTH REFERENCE
DATM.M        834.8                : datum        - DATUM ELEVATION
TDD .M        809                  : tdd          - TOTAL DEPTH DRILLER
RUN .         ONE                  : Run          - RUN NUMBER
ENG .         GILLUS               : Engineer     - RECORDING ENGINEER
WIT .         LILLICO              : Witness      - WITNESSED BY
BASE.         EDM                  : Branch       - HOME BASE OF LOGGING UNIT
MUD .         GEL MUD              : Mud_type     - MUD TYPE
MATR.         SANDSTONE            : Logunit      - NEUTRON MATRIX
TMAX.C        28                   : BHT          - MAXIMUM RECORDED TEMPERATURE
BHTD.M        809.3                : BHTDEP       - MAXIMUM RECORDED TEMPERATURE
RMT .C        20                   : MDTP         - TEMPERATURE OF MUD
MUDD.KG/M     1080                 : MWT          - MUD DENSITY
NEUT.         1                    : NEUTRON      - NEUTRON TYPE
RESI.         0                    : RESIST       - RESISTIVITY TYPE
RM  .OHMM     3.53                 : RM           - RESISTIVITY OF MUD
RMC .OHMM     0                    : RMC          - RESISTIVITY OF MUD CAKE
RMF .OHMM     3.35                 : RMF          - RESISTIVITY OF MUD FILTRATE
SUFT.C        0                    : SUFT         - SURFACE TEMPERATURE
~A  DEPTH     RESD     PHIN     PHID       GR      CAL
# ...
  586.500    4.513    0.526    0.316   80.014  201.055
  586.750    5.051    0.508    0.346   74.224  201.430
  587.000    5.717    0.485    0.341   68.686  203.994
  587.250    6.435    0.485    0.377   61.395  203.634
  587.500    6.887    0.495    0.393   59.552  203.482
  587.750    6.892    0.507    0.359   60.026  204.587
  588.000    6.845    0.520    0.388   67.511  200.053
  588.250    6.862    0.519    0.361   69.613  192.597
  588.500    6.653    0.498    0.336   70.212  191.297
  588.750    6.353    0.477    0.332   69.997  198.141
  589.000    5.956    0.457    0.340   70.719  198.928
  589.250    5.656    0.468    0.345   71.758  197.941
  589.500    5.422    0.477    0.345   71.919  196.852
  589.750    5.286    0.490    0.323   70.577  196.076
  590.000    5.647    0.484    0.307   67.103  195.504
  590.250    5.921    0.481    0.333   63.132  195.465
  590.500    6.115    0.482    0.335   63.793  195.307
  590.750    6.352    0.483    0.335   61.699  195.372
  591.000    6.647    0.487    0.341   59.855  195.423
  591.250    6.854    0.481    0.351   62.583  195.487
  591.500    6.897    0.457    0.356   63.995  195.959
  591.750    6.812    0.472    0.344   62.714  196.536
  592.000    6.666    0.481    0.337   59.492  197.119
  592.250    6.510    0.477    0.357   59.090  197.806
  592.500    6.346    0.477    0.376   61.064  198.178
  592.750    6.164    0.476    0.388   62.416  198.758
  593.000    6.111    0.453    0.412   61.576  199.237
  593.250    6.092    0.461    0.429   58.917  200.339
  593.500    6.107    0.504    0.418   58.074  204.051
  593.750    6.134    0.523    0.459   56.794  209.434
  594.000    6.151    0.510    0.436   55.704  218.884
  594.250    6.108    0.491    0.405   56.303  222.386
  594.500    6.135    0.484    0.411   59.218  222.132
  594.750    6.174    0.500    0.389   60.631  225.009
  595.000    6.259    0.516    0.365   62.669  234.462
  595.250    6.334    0.509    0.353   63.895  240.365
  595.500    6.374    0.493    0.371   62.303  227.375
  595.750    6.378    0.482    0.372   60.083  216.163
  596.000    6.276    0.488    0.366   55.795  263.606
  596.250    6.005    0.507    0.364   54.392  250.827
  596.500    5.619    0.516    0.362   54.302  229.802
  596.750    5.426    0.522    0.368   55.839  216.397
  597.000    5.481    0.498    0.384   57.441  239.312
  597.250    5.736    0.477    0.387   56.972  260.558
  597.500    5.903    0.464    0.407   56.068  249.759
  597.750    6.007    0.468    0.419   55.415  248.985
  598.000    6.011    0.473    0.432   55.138  269.397
  598.250    5.970    0.473    0.459   55.173  288.448
  598.500    5.865    0.477    0.458   57.087  246.655
  598.750    5.749    0.485    0.431   59.250  207.889
  599.000    5.615    0.494    0.445   57.970  202.101
  599.250    5.535    0.516    0.442   55.563  219.695
  599.500    5.528    0.529    0.452   54.969  240.104
  599.750    5.678    0.535    0.455   55.818  267.926
  600.000    5.877    0.503    0.395   57.357  290.321
  600.250    6.014    0.449    0.364   58.334  251.865
  600.500    6.165    0.447    0.346   57.743  263.613
  600.750    6.309    0.474    0.361   57.903  283.398
  601.000    6.433    0.494    0.349   60.630  276.672
  601.250    6.413    0.511    0.342   63.673  197.409
  601.500    6.369    0.486    0.354   60.136  207.277
  601.750    6.176    0.457    0.336   57.165  224.558
  602.000    6.099    0.469    0.351   55.572  243.613
  602.250    6.013    0.484    0.370   54.918  195.033
  602.500    5.994    0.498    0.398   55.330  206.051
  602.750    6.020    0.514    0.431   56.430  199.742
  603.000    6.126    0.528    0.451   58.156  196.461
  603.250    6.143    0.516    0.423   59.692  199.440
  603.500    6.123    0.495    0.413   60.794  198.142
  603.750    6.127    0.480    0.436   63.521  198.094
  604.000    5.951    0.479    0.462   66.626  204.105
  604.250    5.548    0.493    0.485   70.228  220.551
  604.500    5.152    0.508    0.359   75.087  209.337
  604.750    4.722    0.519    0.298   83.135  202.507
  605.000    4.225    0.537    0.263   89.435  211.957
  605.250    3.851    0.504    0.253   90.221  212.643
  605.500    3.583    0.508    0.240   88.939  206.125
  605.750    3.416    0.494    0.240   88.910  212.758
  606.000    3.280    0.496    0.236   89.012  212.819
  606.250    3.180    0.491    0.253   85.791  219.866
  606.500    3.141    0.488    0.271   82.128  207.610
  606.750    3.268    0.468    0.255   79.156  202.239
  607.000    3.498    0.477    0.257   76.121  200.840
  607.250    3.772    0.491    0.273   73.779  201.938
  607.500    4.151    0.493    0.289   71.313  202.103
  607.750    4.418    0.497    0.302   68.778  199.030
  608.000    4.667    0.491    0.317   66.435  204.414
  608.250    4.821    0.469    0.312   65.028  223.674
  608.500    4.933    0.448    0.293   64.377  232.086
  608.750    5.086    0.459    0.283   64.284  234.126
  609.000    5.283    0.464    0.294   64.760  205.796
  609.250    5.427    0.465    0.311   66.796  217.335
  609.500    5.441    0.469    0.309   68.774  207.792
  609.750    5.444    0.466    0.331   69.434  199.084
  610.000    5.437    0.457    0.313   66.966  201.540
  610.250    5.401    0.453    0.306   61.614  211.619
  610.500    5.335    0.465    0.327   60.648  223.994
  610.750    5.298    0.467    0.358   61.248  235.741
  611.000    5.184    0.459    0.341   61.968  227.137
  611.250    5.063    0.466    0.329   62.191  234.711
  611.500    4.900    0.469    0.322   62.604  233.830
  611.750    4.776    0.474    0.326   64.331  235.662
  612.000    4.682    0.487    0.346   65.426  229.564
  612.250    4.642    0.501    0.358   66.029  202.277
  612.500    4.645    0.479    0.357   65.814  231.142
  612.750    4.622    0.460    0.346   64.782  204.790
  613.000    4.643    0.476    0.351   64.130  224.682
  613.250    4.663    0.479    0.357   65.666  205.534
  613.500    4.701    0.490    0.313   66.768  220.312
  613.750    4.713    0.509    0.336   65.612  219.534
  614.000    4.743    0.506    0.343   64.397  201.742
  614.250    4.781    0.492    0.334   67.875  198.253
  614.500    4.821    0.498    0.324   67.782  203.012
  614.750    4.833    0.497    0.322   66.567  211.628
  615.000    4.854    0.484    0.346   65.474  203.126
  615.250    4.885    0.482    0.324   66.826  199.950
  615.500    4.906    0.466    0.318   71.054  198.753
  615.750    4.946    0.453    0.306   72.844  199.015
  616.000    4.987    0.460    0.322   69.936  199.394
  616.250    5.075    0.443    0.321   65.711  199.662
  616.500    5.203    0.421    0.287   62.490  200.034
  616.750    5.404    0.394    0.259   59.333  200.189
  617.000    5.730    0.349    0.203   56.800  200.359
  617.250    6.296    0.298    0.149   55.646  201.030
  617.500    6.687    0.281    0.129   55.682  201.718
  617.750    7.373    0.255    0.087   56.406  202.400
  618.000    8.535    0.208    0.059   58.506  203.098
  618.250    9.588    0.184    0.059   63.740  203.779
  618.500   11.434    0.167    0.030   61.958  204.671
  618.750   13.586    0.157    0.008   56.608  205.357
  619.000   15.066    0.148   -0.010   50.380  205.208
  619.250   15.706    0.193   -0.015   50.978  204.629
  619.500   15.688    0.241    0.024   52.767  204.279
  619.750   13.725    0.268    0.070   55.368  203.817
  620.000   11.480    0.301    0.126   58.286  203.566
  620.250    9.132    0.328    0.179   60.700  203.192
  620.500    8.033    0.371    0.200   61.800  203.056
  620.750    7.309    0.389    0.229   63.150  202.279
  621.000    6.687    0.405    0.252   65.566  199.729
  621.250    5.994    0.424    0.269   67.040  193.523
  621.500    5.303    0.453    0.284   67.700  194.102
  621.750    4.860    0.470    0.288   68.487  196.142
  622.000    4.514    0.465    0.308   67.397  198.605
  622.250    4.425    0.467    0.317   64.050  200.541
  622.500    4.453    0.479    0.323   64.834  201.330
  622.750    4.506    0.481    0.317   67.252  201.494
