~VERSION INFORMATION
 VERS.                 2.0:   CWLS LOG ASCII STANDARD -VERSION 2.0
 WRAP.                  NO:   ONE LINE PER DEPTH STEP
~WELL INFORMATION BLOCK
#MNEM.UNIT           DATA                    DESCRIPTION OF MNEMONIC
#---------    -------------------            -------------------------------
# Generated from Intellog Unique Number	CS_67_68/WELL/2212
WELL.         GEOG et al HYLO                : Well_name    - WELL
LOC .         00/12-08-067-14W4/0            : Location     - LOCATION
UWI .         00/12-08-067-14W4/0            : Uwi          - UNIQUE WELL ID
ENTR.         SP                             : Entered      - ENTERED BY
SRVC.         SCHLUMBERGER                   : Scn          - SERVICE COMPANY
STRT.M        300                            : top_depth    - START DEPTH
STOP.M        485                            : bot_depth    - STOP DEPTH
STEP.M        0.25                           : increment    - STEP LENGTH
 NULL. -999.2500:NULL Value
~CURVE INFORMATION BLOCK
#MNEM UNIT       ERCB CURVE CODE    CURVE DESCRIPTION
#-----------   ------------------   ----------------------------------
DEPT.M        00 001 00 00         : DEPTH        - DEPTH
ILD .OHMM     00 120 00 00         : RESD         - DEEP RESISTIVITY (DIL)
DPHI.V/V      00 890 00 00         : PHID         - DENSITY POROSITY (LIMESTONE)
NPHI.V/V      00 330 00 00         : PHIN         - NEUTRON POROSITY (LIMESTONE)
GR  .API      00 310 00 00         : GR           - GAMMA RAY
CALI.MM       00 280 01 00         : CAL          - CALIPER
~PARAMETER INFORMATION
#MNEM.UNIT           DATA             DESCRIPTION OF MNEMONIC
#---------         -----------     ------------------------------
GL  .M        565.5                : gl           - GROUND LEVEL ELEVATION
EREF.M        568.7                : kb           - ELEVATION OF DEPTH REFERENCE
DATM.M        568.7                : datum        - DATUM ELEVATION
TDD .M        494.5                : tdd          - TOTAL DEPTH DRILLER
RUN .         ONE                  : Run          - RUN NUMBER
ENG .         BILL                 : Engineer     - RECORDING ENGINEER
WIT .         JIM                  : Witness      - WITNESSED BY
MUD .         GEL                  : Mud_type     - MUD TYPE
MATR.         LIMESTONE            : Logunit      - NEUTRON MATRIX
TMAX.C        24                   : BHT          - MAXIMUM RECORDED TEMPERATURE
BHTD.M        493.2                : BHTDEP       - MAXIMUM RECORDED TEMPERATURE
MATR.         1                    : LOGUNIT      - NEUTRON MATRIX
RMT .C        25                   : MDTP         - TEMPERATURE OF MUD
NEUT.         1                    : NEUTRON      - NEUTRON TYPE
RESI.         0                    : RESIST       - RESISTIVITY TYPE
RMC .OHMM     0.25                 : RMC          - RESISTIVITY OF MUD CAKE
RMF .OHMM     0.25                 : RMF          - RESISTIVITY OF MUD FILTRATE
SUFT.C        15                   : SUFT         - SURFACE TEMPERATURE
~A  DEPTH     RESD     PHID     PHIN       GR      CAL
# ...
  409.500    2.026    0.323    0.347   46.931  159.649
  409.750    2.136    0.299    0.373   49.782  159.722
  410.000    2.137    0.298    0.387   52.633  159.693
  410.250    2.013    0.284    0.392   54.447  159.457
  410.500    1.815    0.241    0.343   50.827  159.323
  410.750    1.601    0.196    0.311   47.815  158.988
  411.000    1.531    0.243    0.354   45.720  158.652
  411.250    1.506    0.287    0.379   47.900  158.620
  411.500    1.518    0.315    0.391   49.530  158.386
  411.750    1.573    0.327    0.385   48.900  157.848
  412.000    1.616    0.332    0.396   46.134  157.813
  412.250    1.663    0.337    0.394   47.457  157.581
  412.500    1.711    0.329    0.385   50.431  157.244
  412.750    1.754    0.320    0.397   52.003  156.908
  413.000    1.791    0.315    0.409   52.106  156.979
  413.250    1.822    0.327    0.404   53.064  157.149
  413.500    1.861    0.341    0.410   53.045  157.122
  413.750    1.904    0.341    0.416   52.843  156.987
  414.000    1.959    0.333    0.417   53.191  156.854
  414.250    2.012    0.323    0.408   54.027  156.613
  414.500    2.032    0.319    0.411   55.840  156.284
  414.750    1.998    0.321    0.429   56.434  156.351
  415.000    1.969    0.322    0.428   55.804  156.629
  415.250    1.947    0.320    0.415   56.335  157.308
  415.500    1.944    0.316    0.403   60.589  157.382
  415.750    2.113    0.312    0.406   60.574  157.555
  416.000    2.318    0.320    0.412   55.424  157.319
  416.250    2.586    0.331    0.412   52.656  157.082
  416.500    2.917    0.341    0.409   50.197  156.643
  416.750    3.230    0.348    0.402   50.789  156.611
  417.000    3.464    0.324    0.351   49.670  157.194
  417.250    3.551    0.293    0.293   48.186  157.874
  417.500    3.339    0.196    0.273   47.801  158.556
  417.750    3.092    0.164    0.344   52.115  158.524
  418.000    2.810    0.207    0.383   54.848  158.391
  418.250    2.597    0.248    0.402   58.370  158.261
  418.500    2.465    0.277    0.408   60.490  158.332
  418.750    2.406    0.265    0.414   61.267  158.199
  419.000    2.353    0.274    0.417   60.511  157.963
  419.250    2.302    0.294    0.418   59.641  157.629
  419.500    2.259    0.299    0.417   56.995  157.596
  419.750    2.239    0.304    0.420   58.749  157.465
  420.000    2.291    0.312    0.423   60.013  157.329
  420.250    2.452    0.315    0.413   58.650  157.400
  420.500    2.640    0.311    0.405   56.003  157.671
  420.750    2.778    0.322    0.411   53.602  158.154
  421.000    2.875    0.306    0.428   51.754  159.139
  421.250    2.849    0.208    0.427   50.391  160.129
  421.500    2.765    0.175    0.303   50.371  160.403
  421.750    2.619    0.160    0.274   53.102  160.063
  422.000    2.421    0.233    0.301   55.344  160.033
  422.250    2.217    0.288    0.350   57.891  159.999
  422.500    2.116    0.304    0.382   59.947  160.071
  422.750    2.046    0.305    0.393   61.149  159.840
  423.000    2.031    0.308    0.404   61.621  159.402
  423.250    2.047    0.312    0.413   61.114  159.165
  423.500    2.063    0.314    0.422   61.279  159.136
  423.750    2.064    0.310    0.402   62.054  159.204
  424.000    2.073    0.307    0.387   63.071  159.380
  424.250    2.101    0.304    0.399   64.276  159.348
  424.500    2.137    0.307    0.419   63.586  159.008
  424.750    2.183    0.290    0.411   62.833  158.979
  425.000    2.233    0.270    0.405   63.182  159.254
  425.250    2.311    0.253    0.418   64.874  159.531
  425.500    2.427    0.260    0.404   66.809  160.314
  425.750    2.603    0.258    0.390   70.700  161.604
  426.000    2.781    0.241    0.381   76.789  163.203
  426.250    2.994    0.226    0.411   84.158  164.798
  426.500    3.193    0.215    0.433   89.392  166.191
  426.750    3.360    0.210    0.426   92.488  167.590
  427.000    3.393    0.207    0.418   93.753  168.982
  427.250    3.220    0.218    0.442   95.140  170.273
  427.500    2.819    0.231    0.460   97.869  171.157
  427.750    2.610    0.241    0.471   99.989  172.045
  428.000    2.454    0.242    0.487  100.458  172.921
  428.250    2.369    0.233    0.507   99.278  173.404
  428.500    2.303    0.232    0.528   98.772  174.186
  428.750    2.265    0.234    0.531   98.631  174.873
  429.000    2.224    0.231    0.515  100.320  175.449
  429.250    2.179    0.227    0.504  102.441  176.133
  429.500    2.188    0.234    0.499  104.438  177.423
  429.750    2.247    0.244    0.511  106.373  178.413
  430.000    2.338    0.235    0.505  103.789  180.213
  430.250    2.480    0.217    0.487   99.129  181.403
  430.500    2.649    0.206    0.474   96.485  180.661
  430.750    2.799    0.196    0.461   94.939  172.895
  431.000    2.962    0.201    0.449   96.934  167.466
  431.250    3.054    0.195    0.438   98.505  165.199
  431.500    3.078    0.190    0.440   98.671  164.656
  431.750    3.120    0.197    0.435   98.163  164.320
  432.000    3.228    0.197    0.425   96.617  164.084
  432.250    3.475    0.199    0.420   91.958  163.646
  432.500    3.884    0.218    0.406   86.565  163.310
  432.750    4.317    0.236    0.383   82.270  163.991
  433.000    4.917    0.250    0.370   77.794  164.571
  433.250    5.455    0.248    0.349   72.217  165.151
  433.500    5.872    0.073    0.319   65.054  165.528
  433.750    6.122    0.083    0.326   67.234  165.597
  434.000    6.299    0.140    0.398   76.559  164.652
  434.250    6.421    0.180    0.409   80.510  162.382
  434.500    6.423    0.176    0.389   79.209  161.334
  434.750    6.119    0.161    0.371   73.935  161.912
  435.000    5.624    0.166    0.385   74.347  163.509
  435.250    5.228    0.185    0.403   80.555  164.798
  435.500    5.046    0.199    0.415   83.776  165.280
  435.750    4.726    0.204    0.406   85.405  164.836
  436.000    4.587    0.196    0.401   86.732  163.994
  436.250    4.313    0.186    0.400   87.996  163.248
  436.500    4.306    0.179    0.396   85.289  162.714
  436.750    4.506    0.165    0.382   72.139  162.473
  437.000    4.860    0.113    0.344   63.326  162.142
  437.250    5.291    0.056    0.257   60.988  162.111
  437.500    5.600    0.132    0.337   70.741  162.079
  437.750    5.850    0.161    0.372   79.395  162.149
  438.000    5.940    0.178    0.387   83.285  162.724
  438.250    5.898    0.185    0.385   84.243  162.700
  438.500    5.555    0.190    0.374   82.698  162.568
  438.750    5.232    0.193    0.371   85.428  162.433
  439.000    5.117    0.194    0.384   88.462  162.601
  439.250    5.109    0.196    0.393   88.198  163.085
  439.500    5.130    0.180    0.402   86.347  163.664
  439.750    5.229    0.152    0.410   83.581  164.142
  440.000    5.260    0.116    0.325   78.921  164.312
  440.250    5.116    0.081    0.301   78.717  164.181
  440.500    4.846    0.148    0.351   81.572  163.947
  440.750    4.651    0.180    0.381   85.644  163.509
  441.000    4.591    0.197    0.401   88.923  163.270
  441.250    4.593    0.198    0.388   91.409  163.141
  441.500    4.629    0.200    0.392   91.818  163.416
  441.750    4.666    0.203    0.391   93.693  163.385
  442.000    4.720    0.197    0.380   96.117  163.762
  442.250    4.731    0.191    0.372   96.099  164.029
  442.500    4.688    0.186    0.366   93.881  164.612
  442.750    4.672    0.198    0.386   88.610  164.681
  443.000    4.673    0.203    0.403   87.309  164.654
  443.250    4.701    0.207    0.393   87.779  163.810
  443.500    4.738    0.198    0.388   86.966  162.454
  443.750    4.678    0.189    0.383   84.810  162.931
  444.000    4.575    0.185    0.379   86.623  164.219
  444.250    4.690    0.196    0.392   90.145  164.905
  444.500    4.973    0.190    0.391   92.389  165.481
  444.750    5.264    0.212    0.394   90.660  164.948
  445.000    5.508    0.235    0.406   87.710  163.084
  445.250    5.679    0.253    0.418   85.310  161.930
  445.500    5.734    0.238    0.403   83.642  162.106
  445.750    5.483    0.211    0.399   85.699  162.785
