~VERSION INFORMATION
 VERS.                 2.0:   CWLS LOG ASCII STANDARD -VERSION 2.0
 WRAP.                  NO:   ONE LINE PER DEPTH STEP
~WELL INFORMATION BLOCK
#MNEM.UNIT           DATA                    DESCRIPTION OF MNEMONIC
#---------    -------------------            -------------------------------
# Generated from Intellog Unique Number	CS_77_79/WELL/1022
WELL.         C.W.W.E. HARDY                 : Well_name    - WELL
LOC .         00/15-07-078-04W4/0            : Location     - LOCATION
UWI .         00/15-07-078-04W4/0            : Uwi          - UNIQUE WELL ID
ENTR.         JHS                            : Entered      - ENTERED BY
SRVC.         SCHLUMBERGER                   : Scn          - SERVICE COMPANY
STRT.M        165                            : top_depth    - START DEPTH
STOP.M        420                            : bot_depth    - STOP DEPTH
STEP.M        0.25                           : increment    - STEP LENGTH
 NULL. -999.2500:NULL Value
~CURVE INFORMATION BLOCK
#MNEM UNIT       ERCB CURVE CODE    CURVE DESCRIPTION
#-----------   ------------------   ----------------------------------
DEPT.M        00 001 00 00         : DEPTH        - DEPTH
DPHI.V/V      00 890 00 00         : PHID         - DENSITY POROSITY (LIMESTONE)
NPHI.V/V      00 330 00 00         : PHIN         - NEUTRON POROSITY (LIMESTONE)
GR  .API      00 310 00 00         : GR           - GAMMA RAY
ILD .OHMM     00 120 00 00         : RESD         - DEEP RESISTIVITY (DIL)
RHOB.KG/M3    00 350 00 00         : DENS         - BULK DENSITY
~PARAMETER INFORMATION
#MNEM.UNIT           DATA             DESCRIPTION OF MNEMONIC
#---------         -----------     ------------------------------
GL  .M        579.2                : gl           - GROUND LEVEL ELEVATION
EREF.M        583.1                : kb           - ELEVATION OF DEPTH REFERENCE
DATM.M        583.1                : datum        - DATUM ELEVATION
TDD .M        425.3                : tdd          - TOTAL DEPTH DRILLER
RUN .         ONE                  : Run          - RUN NUMBER
ENG .         BILL                 : Engineer     - RECORDING ENGINEER
WIT .         JIM                  : Witness      - WITNESSED BY
MUD .         GEL                  : Mud_type     - MUD TYPE
MATR.         LIMESTONE            : Logunit      - NEUTRON MATRIX
TMAX.C        20                   : BHT          - MAXIMUM RECORDED TEMPERATURE
BHTD.M        425.3                : BHTDEP       - MAXIMUM RECORDED TEMPERATURE
MATR.         1                    : LOGUNIT      - NEUTRON MATRIX
RMT .C        25                   : MDTP         - TEMPERATURE OF MUD
NEUT.         1                    : NEUTRON      - NEUTRON TYPE
RESI.         0                    : RESIST       - RESISTIVITY TYPE
RMC .OHMM     0.25                 : RMC          - RESISTIVITY OF MUD CAKE
RMF .OHMM     0.25                 : RMF          - RESISTIVITY OF MUD FILTRATE
SUFT.C        15                   : SUFT         - SURFACE TEMPERATURE
~A  DEPTH     PHID     PHIN       GR     RESD     DENS
# ...
  238.000    0.268    0.437  101.830   12.701    0.000
  238.250    0.285    0.426   94.479   15.355    0.000
  238.500    0.296    0.415   90.197   18.559    0.000
  238.750    0.286    0.399   92.059   21.204    0.000
  239.000    0.255    0.389   99.459   22.464    0.000
  239.250    0.217    0.391   89.646   23.355    0.000
  239.500    0.163    0.403   75.529   22.935    0.000
  239.750    0.076    0.416   70.632   22.534    0.000
  240.000    0.066    0.434   81.725   21.720    0.000
  240.250    0.137    0.484   90.356   20.935    0.000
  240.500    0.174    0.516   93.448   19.810    0.000
  240.750    0.167    0.523   94.083   19.821    0.000
  241.000    0.158    0.502   91.035   19.847    0.000
  241.250    0.171    0.448   83.061   21.017    0.000
  241.500    0.171    0.373   67.719   24.015    0.000
  241.750    0.076    0.337   57.904   24.494    0.000
  242.000    0.041    0.300   51.163   23.614    0.000
  242.250    0.036    0.279   53.033   21.918    0.000
  242.500    0.217    0.285   57.971   19.966    0.000
  242.750    0.275    0.376   65.987   18.530    0.000
  243.000    0.287    0.419   69.079   16.880    0.000
  243.250    0.291    0.429   68.494   15.378    0.000
  243.500    0.300    0.429   66.052   15.102    0.000
  243.750    0.311    0.419   63.001   14.836    0.000
  244.000    0.315    0.413   61.794   14.850    0.000
  244.250    0.315    0.419   63.048   15.155    0.000
  244.500    0.317    0.431   63.066   15.459    0.000
  244.750    0.327    0.430   61.865   15.469    0.000
  245.000    0.333    0.435   62.502   15.779    0.000
  245.250    0.329    0.436   61.910   15.802    0.000
  245.500    0.323    0.425   61.315   15.811    0.000
  245.750    0.319    0.425   60.722   15.533    0.000
  246.000    0.324    0.434   60.129   15.547    0.000
  246.250    0.334    0.423   57.696   15.563    0.000
  246.500    0.338    0.413   58.947   16.179    0.000
  246.750    0.330    0.408   58.354   16.506    0.000
  247.000    0.320    0.416   58.373   16.525    0.000
  247.250    0.319    0.414   59.630   16.849    0.000
  247.500    0.323    0.412   57.803   16.553    0.000
  247.750    0.329    0.422   55.367   16.263    0.000
  248.000    0.331    0.430   56.010   16.280    0.000
  248.250    0.331    0.427   57.871   16.291    0.000
  248.500    0.331    0.427   57.283   16.003    0.000
  248.750    0.335    0.434   59.148   15.725    0.000
  249.000    0.324    0.440   57.943   15.444    0.000
  249.250    0.320    0.447   56.730   15.170    0.000
  249.500    0.327    0.439   57.988   14.629    0.000
  249.750    0.329    0.416   59.237   14.369    0.000
  250.000    0.324    0.405   60.489   14.377    0.000
  250.250    0.316    0.421   61.128   14.126    0.000
  250.500    0.316    0.425   64.844   14.137    0.000
  250.750    0.306    0.414   66.090   14.156    0.000
  251.000    0.300    0.406   66.725   14.438    0.000
  251.250    0.301    0.422   66.138   14.730    0.000
  251.500    0.310    0.436   64.308   15.022    0.000
  251.750    0.320    0.436   60.642   15.325    0.000
  252.000    0.334    0.438   55.135   15.633    0.000
  252.250    0.344    0.441   55.157   15.948    0.000
  252.500    0.350    0.436   56.407   15.372    0.000
  252.750    0.333    0.427   60.738   14.820    0.000
  253.000    0.318    0.437   64.447   14.015    0.000
  253.250    0.309    0.442   64.476   13.010    0.000
  253.500    0.309    0.442   65.105   13.021    0.000
  253.750    0.309    0.443   67.584   13.537    0.000
  254.000    0.298    0.448   71.913   14.072    0.000
  254.250    0.294    0.454   71.934   14.908    0.000
  254.500    0.302    0.459   70.734   15.208    0.000
  254.750    0.301    0.459   70.757   15.512    0.000
  255.000    0.302    0.451   68.936   15.825    0.000
  255.250    0.303    0.454   69.563   15.256    0.000
  255.500    0.303    0.464   72.043   14.431    0.000
  255.750    0.295    0.445   80.677   13.394    0.000
  256.000    0.280    0.436   86.230   11.970    0.000
  256.250    0.271    0.460   88.714   10.501    0.000
  256.500    0.257    0.473   88.741    9.745    0.000
  256.750    0.244    0.466   90.601    8.881    0.000
  257.000    0.241    0.456   94.308    8.720    0.000
  257.250    0.242    0.455   91.880    8.567    0.000
  257.500    0.244    0.457   90.666    8.415    0.000
  257.750    0.242    0.448   93.763    8.266    0.000
  258.000    0.234    0.442   95.017    8.119    0.000
  258.250    0.234    0.437   93.192    8.127    0.000
  258.500    0.236    0.437   91.372    8.292    0.000
  258.750    0.228    0.437   92.623    8.457    0.000
  259.000    0.222    0.432   95.103    8.791    0.000
  259.250    0.222    0.425   95.126    8.800    0.000
  259.500    0.222    0.426   92.079    8.809    0.000
  259.750    0.217    0.446   92.716    8.655    0.000
  260.000    0.217    0.449   99.495    8.504    0.000
  260.250    0.219    0.438  104.439    8.351    0.000
  260.500    0.224    0.434  101.385    8.203    0.000
  260.750    0.224    0.440   97.725    8.059    0.000
  261.000    0.223    0.442   98.973    8.068    0.000
  261.250    0.219    0.432   98.380    8.072    0.000
  261.500    0.215    0.424   96.562    7.930    0.000
  261.750    0.216    0.424   97.812    7.790    0.000
  262.000    0.223    0.430   95.988    7.509    0.000
  262.250    0.231    0.427   94.167    7.378    0.000
  262.500    0.240    0.425   92.344    7.249    0.000
  262.750    0.232    0.439   92.981    7.390    0.000
  263.000    0.232    0.456   94.232    7.262    0.000
  263.250    0.237    0.441   96.105    7.135    0.000
  263.500    0.228    0.429   96.741    7.006    0.000
  263.750    0.221    0.431   97.989    6.883    0.000
  264.000    0.220    0.445   98.627    6.762    0.000
  264.250    0.221    0.432   98.032    6.640    0.000
  264.500    0.220    0.422   96.826    6.523    0.000
  264.750    0.218    0.424   96.237    6.408    0.000
  265.000    0.212    0.451   96.876    6.295    0.000
  265.250    0.214    0.458   97.510    6.300    0.000
  265.500    0.227    0.457   97.531    6.428    0.000
  265.750    0.226    0.448   96.937    6.435    0.000
  266.000    0.224    0.446   96.345    6.318    0.000
  266.250    0.233    0.456   95.142    6.207    0.000
  266.500    0.235    0.467   93.933    5.985    0.000
  266.750    0.250    0.468   92.111    5.880    0.000
  267.000    0.292    0.460   88.442    5.883    0.000
  267.250    0.287    0.455   84.165    6.117    0.000
  267.500    0.275    0.463   88.491    6.358    0.000
  267.750    0.276    0.479   86.668    6.735    0.000
  268.000    0.309    0.463   77.469    7.411    0.000
  268.250    0.309    0.428   76.268    8.000    0.000
  268.500    0.305    0.425   76.907    8.471    0.000
  268.750    0.305    0.430   75.694    8.975    0.000
  269.000    0.309    0.445   73.876    9.154    0.000
  269.250    0.304    0.466   73.278    8.994    0.000
  269.500    0.307    0.462   71.458    8.833    0.000
  269.750    0.311    0.447   69.019    8.843    0.000
  270.000    0.310    0.433   67.199    9.191    0.000
  270.250    0.305    0.423   65.996    9.558    0.000
  270.500    0.306    0.431   66.635    9.567    0.000
  270.750    0.311    0.449   68.496    9.397    0.000
  271.000    0.309    0.466   69.746    9.057    0.000
  271.250    0.295    0.484   74.073    8.566    0.000
  271.500    0.283    0.493   79.016    7.952    0.000
  271.750    0.269    0.469   85.184    7.245    0.000
  272.000    0.253    0.468   90.123    6.723    0.000
  272.250    0.252    0.487   93.834    6.010    0.000
  272.500    0.258    0.499   97.547    5.581    0.000
  272.750    0.261    0.505   95.116    5.583    0.000
  273.000    0.263    0.504   92.674    5.383    0.000
  273.250    0.255    0.499   91.462    5.390    0.000
  273.500    0.245    0.500   89.645    5.497    0.000
  273.750    0.239    0.502   90.896    5.609    0.000
  274.000    0.245    0.495   92.154    5.612    0.000
  274.250    0.241    0.496   91.551    5.725    0.000
