~VERSION INFORMATION
 VERS.                 2.0:   CWLS LOG ASCII STANDARD -VERSION 2.0
 WRAP.                  NO:   ONE LINE PER DEPTH STEP
~WELL INFORMATION BLOCK
#MNEM.UNIT           DATA                    DESCRIPTION OF MNEMONIC
#---------    -------------------            -------------------------------
# Generated from Intellog Unique Number	CC_80_83/WELL/2395
NULL.         -999.25                        : NULL_VALUE
WELL.         BVX ET AL WATCHUSK             : Well_name    - WELL
LOC .         11-11-081-02W4                 : Location     - LOCATION          
UWI .         00/11-11-081-02W400            : Uwi          - UNIQUE WELL ID    
ENTR.         DW                             : Entered      - ENTERED BY        
SRVC.         SCHLUMBERGER                   : Scn          - SERVICE COMPANY   
DATE.         08 MAR 78                      : Date         - LOG DATE
STRT.M        109.728                        : top_depth    - START DEPTH       
STOP.M        295.655                        : bot_depth    - STOP DEPTH        
STEP.M        0.305                          : increment    - STEP LENGTH       
~CURVE INFORMATION BLOCK
#MNEM UNIT       ERCB CURVE CODE    CURVE DESCRIPTION
#-----------   ------------------   ----------------------------------
DEPT.M        00 001 00 00         : DEPTH        - DEPTH                       
ILD .OHMM     00 120 00 00         : RESD         - DEEP RESISTIVITY (DIL)      
GR  .API      00 310 00 00         : GR           - GAMMA RAY                   
NPHI.V/V      00 330 00 00         : PHIN         - NEUTRON POROSITY (LIMESTONE)
DPHI.V/V      00 890 00 00         : PHID         - DENSITY POROSITY (LIMESTONE)
~PARAMETER INFORMATION       
#MNEM.UNIT           DATA             DESCRIPTION OF MNEMONIC
#---------         -----------     ------------------------------
GL  .M        502.92               : gl           - GROUND LEVEL ELEVATION      
EREF.M        505.968              : kb           - ELEVATION OF DEPTH REFERENCE
DATM.M        505.968              : datum        - DATUM ELEVATION             
TDD .M        302.971              : tdd          - TOTAL DEPTH DRILLER         
RUN .         ONE                  : Run          - RUN NUMBER                  
ENG .         BILL                 : Engineer     - RECORDING ENGINEER          
WIT .         JIM                  : Witness      - WITNESSED BY                
MUD .         GEL                  : Mud_type     - MUD TYPE                    
MATR.         LIMESTONE            : Logunit      - NEUTRON MATRIX              
TMAX.C        21.1111              : BHT          - MAXIMUM RECORDED TEMPERATURE
BHTD.M        302.971              : BHTDEP       - MAXIMUM RECORDED TEMPERATURE
MATR.         1                    : LOGUNIT      - NEUTRON MATRIX              
RMT .C        25                   : MDTP         - TEMPERATURE OF MUD          
NEUT.         1                    : NEUTRON      - NEUTRON TYPE                
RESI.         0                    : RESIST       - RESISTIVITY TYPE            
RMC .OHMM     0.25                 : RMC          - RESISTIVITY OF MUD CAKE     
RMF .OHMM     0.25                 : RMF          - RESISTIVITY OF MUD FILTRATE 
SUFT.C        15                   : SUFT         - SURFACE TEMPERATURE         
~A  DEPTH     RESD       GR     PHIN     PHID
# ...
  162.763    6.892   67.378    0.461    0.302
  163.067    6.892   70.444    0.462    0.300
  163.372    6.764   74.751    0.463    0.291
  163.677    6.639   79.053    0.461    0.280
  163.982    6.640   81.506    0.453    0.265
  164.287    6.642   78.399    0.440    0.265
  164.591    6.643   73.446    0.436    0.273
  164.896    6.519   76.515    0.462    0.276
  165.201    6.398   82.047    0.457    0.275
  165.506    6.399   83.274    0.447    0.269
  165.811    6.280   85.107    0.456    0.276
  166.115    6.281   81.382    0.471    0.279
  166.420    6.403   75.812    0.479    0.271
  166.725    6.527   72.709    0.482    0.264
  167.030    6.653   73.923    0.457    0.266
  167.335    6.654   75.144    0.447    0.281
  167.639    6.531   71.421    0.450    0.310
  167.944    6.533   61.531    0.450    0.319
  168.249    6.533   62.131    0.456    0.323
  168.554    6.535   64.581    0.470    0.322
  168.859    6.661   66.417    0.474    0.322
  169.163    6.663   65.164    0.460    0.324
  169.468    6.664   62.681    0.422    0.327
  169.773    6.665   66.977    0.414    0.329
  170.078    6.666   68.203    0.421    0.334
  170.383    6.668   69.415    0.437    0.336
  170.687    6.669   67.550    0.460    0.332
  170.992    6.545   65.062    0.459    0.322
  171.297    6.546   68.128    0.455    0.315
  171.602    6.548   71.811    0.461    0.311
  171.906    6.549   73.652    0.464    0.338
  172.211    6.551   68.697    0.460    0.336
  172.516    6.677   62.510    0.457    0.315
  172.821    6.679   63.104    0.453    0.299
  173.126    6.680   66.791    0.457    0.315
  173.430    6.556   68.012    0.458    0.325
  173.735    6.557   66.141    0.448    0.315
  174.040    6.558   64.275    0.443    0.314
  174.345    6.560   63.022    0.449    0.314
  174.650    6.561   63.623    0.453    0.314
  174.954    6.687   67.310    0.442    0.315
  175.259    6.689   69.144    0.420    0.312
  175.564    6.690   66.656    0.400    0.308
  175.869    6.566   66.018    0.421    0.302
  176.174    6.568   67.855    0.431    0.296
  176.478    6.445   70.309    0.428    0.287
  176.783    6.326   68.441    0.442    0.286
  177.088    6.327   65.333    0.461    0.295
  177.393    6.328   66.547    0.439    0.298
  177.698    6.451   67.155    0.429    0.303
  178.002    6.829   67.137    0.423    0.303
  178.307    7.230   64.650    0.439    0.301
  178.612    7.232   64.633    0.445    0.295
  178.917    7.372   65.850    0.422    0.286
  179.222    7.235   62.748    0.381    0.270
  179.526    6.837   62.110    0.397    0.289
  179.831    6.709   64.560    0.432    0.317
  180.136    6.460   65.162    0.450    0.329
  180.441    6.105   64.525    0.445    0.328
  180.746    5.991   65.131    0.440    0.321
  181.050    5.880   66.342    0.447    0.315
  181.355    5.994   66.328    0.449    0.314
  181.660    6.346   68.161    0.453    0.316
  181.965    6.718   68.143    0.456    0.317
  182.270    7.529   67.508    0.458    0.307
  182.574    8.764   66.263    0.445    0.271
  182.879   11.004   63.775    0.379    0.101
  183.184   12.332   60.668    0.215    0.090
  183.489   12.571   60.039    0.224    0.182
  183.793   10.601   59.406    0.272    0.260
  184.098    8.608   61.241    0.327    0.297
  184.403    6.858   67.394    0.367    0.325
  184.708    6.007   72.313    0.433    0.330
  185.013    5.785   72.294    0.444    0.308
  185.317    5.786   71.655    0.438    0.303
  185.622    5.787   71.645    0.452    0.307
  185.927    5.899   73.482    0.456    0.319
  186.232    5.900   69.762    0.453    0.305
  186.537    5.901   69.127    0.448    0.293
  186.841    5.902   72.805    0.434    0.304
  187.146    5.792   73.407    0.439    0.317
  187.451    5.685   74.010    0.469    0.317
  187.756    5.579   72.143    0.482    0.307
  188.061    5.580   66.573    0.465    0.302
  188.365    5.688   70.875    0.456    0.307
  188.670    5.798   73.944    0.441    0.308
  188.975    5.799   63.428    0.417    0.316
  189.280    5.801   65.264    0.435    0.322
  189.585    5.693   68.329    0.454    0.318
  189.889    5.694   68.321    0.465    0.314
  190.194    5.588   68.916    0.467    0.312
  190.499    5.484   71.368    0.448    0.306
  190.804    5.485   71.353    0.446    0.310
  191.109    5.592   67.629    0.464    0.320
  191.413    5.593   65.767    0.453    0.320
  191.718    5.594   65.132    0.437    0.305
  192.023    5.595   70.670    0.433    0.288
  192.328    5.491   78.677    0.459    0.256
  192.633    5.492   99.641    0.492    0.235
  192.937    5.493  100.862    0.518    0.211
  193.242    5.391   98.996    0.521    0.230
  193.547    5.290  102.062    0.497    0.237
  193.852    5.095   98.344    0.474    0.251
  194.156    4.724  100.790    0.496    0.252
  194.461    4.379   98.926    0.534    0.250
  194.766    4.138   94.584    0.548    0.241
  195.071    4.061  101.977    0.528    0.240
  195.376    4.062  105.659    0.521    0.242
  195.680    4.063  105.640    0.512    0.241
  195.985    4.064  106.244    0.493    0.234
  196.290    3.913  109.311    0.490    0.231
  196.595    3.628  113.000    0.511    0.228
  196.900    3.428  116.071    0.538    0.225
  197.204    3.240  112.349    0.546    0.230
  197.509    3.179  113.564    0.557    0.243
  197.814    3.241  114.780    0.584    0.238
  198.119    3.632  114.147    0.590    0.241
  198.424    4.308  106.726    0.563    0.219
  198.728    4.921   98.683    0.537    0.206
  199.033    5.837   98.668    0.511    0.203
  199.338    6.925  102.346    0.493    0.201
  199.643    7.761  102.337    0.473    0.197
  199.948    8.062  101.082    0.462    0.202
  200.252    8.375   99.217    0.456    0.229
  200.557    8.219   94.260    0.451    0.239
  200.862    7.337   89.922    0.446    0.217
  201.167    5.957   90.520    0.447    0.209
  201.472    4.837   96.678    0.471    0.228
  201.776    4.318  109.008    0.508    0.223
  202.081    4.402  101.581    0.547    0.212
  202.386    4.572   96.626    0.541    0.214
  202.691    4.841   94.760    0.518    0.209
  202.996    5.125   97.829    0.509    0.207
  203.300    5.426   99.657    0.508    0.215
  203.605    5.855   98.410    0.508    0.247
  203.910    6.317   96.537    0.501    0.248
  204.215    6.947   95.901    0.492    0.241
  204.519    7.934   94.037    0.471    0.075
  204.824    8.725   79.207    0.322    0.179
  205.129    9.063   74.252    0.346    0.223
  205.434    8.564   82.259    0.411    0.248
  205.739    7.502   88.414    0.443    0.271
  206.043    6.570   89.016    0.462    0.245
  206.348    5.437   92.702    0.467    0.226
  206.653    4.585   97.000    0.474    0.244
  206.958    3.794   95.753    0.490    0.263
  207.263    3.200   93.268    0.515    0.268
  207.567    2.911   98.187    0.546    0.266
  207.872    2.750   96.938    0.537    0.268
  208.177    2.550   90.127    0.533    0.276
  208.482    2.551   91.965    0.538    0.275
  208.787    2.650   94.415    0.556    0.266
  209.091    2.914   93.782    0.570    0.249
  209.396    3.457   90.679    0.579    0.212
  209.701    3.874   90.040    0.585    0.224
  210.006    4.424   93.111    0.582    0.219
  210.311    5.053   98.031    0.469    0.205
  210.615    5.452   99.863    0.481    0.179
  210.920    5.995   98.614    0.483    0.120
  211.225    7.248   87.490    0.478    0.019
  211.530    7.970   76.361    0.321    0.098
  211.835    8.600   73.256    0.311    0.189
  212.139    8.440   80.031    0.378    0.226
  212.444    6.724   92.975    0.444    0.242
  212.749    5.564  105.302    0.459    0.246
  213.054    4.604  110.836    0.455    0.238
  213.359    4.189  112.677    0.465    0.233
  213.663    4.111  110.808    0.482    0.231
  213.968    4.035  101.527    0.494    0.216
  214.273    4.113  100.277    0.514    0.208
  214.578    4.192  102.112    0.497    0.220
  214.882    4.273  107.031    0.500    0.221
  215.187    4.194  108.251    0.511    0.214
  215.492    4.038  107.613    0.524    0.210
