~VERSION INFORMATION
 VERS.                 2.0:   CWLS LOG ASCII STANDARD -VERSION 2.0
 WRAP.                  NO:   ONE LINE PER DEPTH STEP
~WELL INFORMATION BLOCK
#MNEM.UNIT           DATA                    DESCRIPTION OF MNEMONIC
#---------    -------------------            -------------------------------
# Generated from Intellog Unique Number	CX_WELLS/WELL/3977
WELL.         BOW VALLEY INDUSTRIES          : Well_name    - WELL
LOC .         00/11-02-071-15W4/0            : Location     - LOCATION
UWI .         00/11-02-071-15W4/0            : Uwi          - UNIQUE WELL ID
ENTR.         SP                             : Entered      - ENTERED BY
SRVC.         SCHLUMBERGER                   : Scn          - SERVICE COMPANY
STRT.M        265                            : top_depth    - START DEPTH
STOP.M        485                            : bot_depth    - STOP DEPTH
STEP.M        0.25                           : increment    - STEP LENGTH
 NULL. -999.2500:NULL Value
~CURVE INFORMATION BLOCK
#MNEM UNIT       ERCB CURVE CODE    CURVE DESCRIPTION
#-----------   ------------------   ----------------------------------
DEPT.M        00 001 00 00         : DEPTH        - DEPTH
NPHI.V/V      00 330 00 00         : PHIN         - NEUTRON POROSITY (LIMESTONE)
ILD .OHMM     00 120 00 00         : RESD         - DEEP RESISTIVITY (DIL)
GR  .API      00 310 00 00         : GR           - GAMMA RAY
DPHI.V/V      00 890 00 00         : PHID         - DENSITY POROSITY (LIMESTONE)
~PARAMETER INFORMATION
#MNEM.UNIT           DATA             DESCRIPTION OF MNEMONIC
#---------         -----------     ------------------------------
GL  .M        569.5                : gl           - GROUND LEVEL ELEVATION
EREF.M        572.7                : kb           - ELEVATION OF DEPTH REFERENCE
DATM.M        569.5                : datum        - DATUM ELEVATION
TDD .M        484                  : tdd          - TOTAL DEPTH DRILLER
RUN .         ONE                  : Run          - RUN NUMBER
ENG .         BILL                 : Engineer     - RECORDING ENGINEER
WIT .         JIM                  : Witness      - WITNESSED BY
MUD .         GEL                  : Mud_type     - MUD TYPE
MATR.         LIMESTONE            : Logunit      - NEUTRON MATRIX
TMAX.C        26                   : BHT          - MAXIMUM RECORDED TEMPERATURE
BHTD.M        484                  : BHTDEP       - MAXIMUM RECORDED TEMPERATURE
MATR.         1                    : LOGUNIT      - NEUTRON MATRIX
RMT .C        25                   : MDTP         - TEMPERATURE OF MUD
NEUT.         1                    : NEUTRON      - NEUTRON TYPE
RESI.         0                    : RESIST       - RESISTIVITY TYPE
RMC .OHMM     0.25                 : RMC          - RESISTIVITY OF MUD CAKE
RMF .OHMM     0.25                 : RMF          - RESISTIVITY OF MUD FILTRATE
SUFT.C        15                   : SUFT         - SURFACE TEMPERATURE
~A  DEPTH     PHIN     RESD       GR     PHID
  265.000    0.408    3.526  111.129    0.203
  265.250    0.408    3.657  113.771    0.210
  265.500    0.416    3.709  115.494    0.215
  265.750    0.407    3.718  116.420    0.215
  266.000    0.399    3.686  116.311    0.215
  266.250    0.403    3.607  115.344    0.217
  266.500    0.423    3.503  111.259    0.215
  266.750    0.441    3.401  109.558    0.210
  267.000    0.462    3.266  110.547    0.207
  267.250    0.487    3.154  113.004    0.204
  267.500    0.501    3.115  114.055    0.199
  267.750    0.482    3.123  114.249    0.197
  268.000    0.477    3.161  116.586    0.196
  268.250    0.466    3.248  118.367    0.197
  268.500    0.446    3.293  121.070    0.201
  268.750    0.436    3.333  122.241    0.206
  269.000    0.465    3.310  118.769    0.210
  269.250    0.482    3.257  117.435    0.218
  269.500    0.455    3.273  118.485    0.224
  269.750    0.439    3.394  115.930    0.222
  270.000    0.426    3.540  112.822    0.213
  270.250    0.417    3.616  108.923    0.208
  270.500    0.412    3.565  105.817    0.208
  270.750    0.417    3.481  103.993    0.213
  271.000    0.432    3.281  109.691    0.227
  271.250    0.445    3.150  113.001    0.241
  271.500    0.458    3.129  115.397    0.254
  271.750    0.455    3.492  106.789    0.269
  272.000    0.410    3.913  101.421    0.301
  272.250    0.383    4.134   99.050    0.310
  272.500    0.356    4.486   96.920    0.296
  272.750    0.342    4.796   92.716    0.283
  273.000    0.340    4.872   89.852    0.275
  273.250    0.349    4.875   89.925    0.267
  273.500    0.366    4.897   93.238    0.261
  273.750    0.352    5.294   95.449    0.259
  274.000    0.348    5.931   96.499    0.271
  274.250    0.353    6.796   91.009    0.313
  274.500    0.323    7.980   71.398    0.362
  274.750    0.249    9.971   48.242    0.386
  275.000    0.202   12.935   34.072    0.389
  275.250    0.166   16.132   28.277    0.383
  275.500    0.146   18.764   31.039    0.374
  275.750    0.140   20.670   32.578    0.366
  276.000    0.137   21.886   33.202    0.357
  276.250    0.136   22.151   33.275    0.353
  276.500    0.143   18.025   32.612    0.353
  276.750    0.154   12.361   31.951    0.355
  277.000    0.174    9.578   32.879    0.354
  277.250    0.214    7.677   35.337    0.348
  277.500    0.247    6.223   37.608    0.343
  277.750    0.279    4.831   39.210    0.338
  278.000    0.300    3.730   36.410    0.332
  278.250    0.313    3.087   31.713    0.327
  278.500    0.327    2.817   29.646    0.323
  278.750    0.336    2.711   34.425    0.319
  279.000    0.341    2.657   39.939    0.316
  279.250    0.337    2.654   43.679    0.313
  279.500    0.342    2.646   47.237    0.313
  279.750    0.336    2.608   49.999    0.316
  280.000    0.327    2.600   51.782    0.318
  280.250    0.330    2.612   53.752    0.319
  280.500    0.338    2.580   57.794    0.323
  280.750    0.349    2.572   64.286    0.323
  281.000    0.351    2.628   70.043    0.314
  281.250    0.359    2.798   73.967    0.300
  281.500    0.373    3.135   76.666    0.286
  281.750    0.352    3.668   80.712    0.273
  282.000    0.338    4.040   88.793    0.259
  282.250    0.328    4.578   93.083    0.246
  282.500    0.337    4.940   95.783    0.233
  282.750    0.326    5.209   94.694    0.225
  283.000    0.314    5.738   88.715    0.222
  283.250    0.306    5.646   83.775    0.229
  283.500    0.317    5.066   80.485    0.241
  283.750    0.324    4.572   78.358    0.251
  284.000    0.327    4.172   72.011    0.231
  284.250    0.320    3.851   65.787    0.207
  284.500    0.301    3.554   61.520    0.219
  284.750    0.304    3.226   58.964    0.289
  285.000    0.322    3.074   57.508    0.295
  285.250    0.340    3.042   56.420    0.289
  285.500    0.343    3.044   61.870    0.273
  285.750    0.336    3.087   85.416    0.252
  286.000    0.339    3.214   95.941    0.235
  286.250    0.361    3.500  104.266    0.228
  286.500    0.384    4.065  112.530    0.215
  286.750    0.403    4.279  118.716    0.189
  287.000    0.425    4.421  123.006    0.168
  287.250    0.403    4.525  126.073    0.159
  287.500    0.385    4.547  128.590    0.161
  287.750    0.376    4.541  131.107    0.173
  288.000    0.407    4.452  132.464    0.178
  288.250    0.436    4.363  131.558    0.175
  288.500    0.456    4.199  129.246    0.175
  288.750    0.469    4.154  125.593    0.172
  289.000    0.446    4.071  124.624    0.161
  289.250    0.436    3.946  124.455    0.151
  289.500    0.441    3.775  124.831    0.146
  289.750    0.456    3.491  126.615    0.150
  290.000    0.462    3.296  133.226    0.172
  290.250    0.478    3.117  137.394    0.199
  290.500    0.491    3.004  142.540    0.221
  290.750    0.469    2.967  146.647    0.238
  291.000    0.438    3.148  140.423    0.249
  291.250    0.420    3.481  125.887    0.263
  291.500    0.416    3.798  115.384    0.261
  291.750    0.415    4.160  109.344    0.246
  292.000    0.408    4.599  106.728    0.231
  292.250    0.400    5.057  106.005    0.221
  292.500    0.399    5.435  107.361    0.226
  292.750    0.390    5.756  110.433    0.228
  293.000    0.385    5.836  111.723    0.222
  293.250    0.395    5.785  113.568    0.215
  293.500    0.411    5.535  113.274    0.206
  293.750    0.407    5.235  119.398    0.197
  294.000    0.412    5.093  125.216    0.189
  294.250    0.420    4.809  129.934    0.180
  294.500    0.423    4.539  124.690    0.180
  294.750    0.425    4.246  127.695    0.189
  295.000    0.432    4.107  131.496    0.196
  295.250    0.442    4.033  135.422    0.178
  295.500    0.455    4.059  131.825    0.160
  295.750    0.465    4.234  127.438    0.146
  296.000    0.411    4.492  126.957    0.179
  296.250    0.386    4.756  127.520    0.206
  296.500    0.367    5.190  126.735    0.222
  296.750    0.360    5.485  121.673    0.232
  297.000    0.368    5.829  113.432    0.244
  297.250    0.377    6.186  103.786    0.256
  297.500    0.377    6.165  104.286    0.259
  297.750    0.370    5.045  109.738    0.255
  298.000    0.369    5.107  113.721    0.247
  298.250    0.383    5.257  112.450    0.242
  298.500    0.396    5.442  115.028    0.237
  298.750    0.406    5.528  120.114    0.234
  299.000    0.384    5.638  122.386    0.239
  299.250    0.368    5.740  117.386    0.249
  299.500    0.379    5.437  111.466    0.246
  299.750    0.384    5.320  109.951    0.238
  300.000    0.378    5.284  116.257    0.232
  300.250    0.367    5.318  120.365    0.225
  300.500    0.355    5.404  118.725    0.236
  300.750    0.370    5.438  123.446    0.246
  301.000    0.394    5.472  126.327    0.259
  301.250    0.389    5.528  124.017    0.269
  301.500    0.375    5.564  118.953    0.255
  301.750    0.361    5.600  116.705    0.247
  302.000    0.352    5.678  118.487    0.231
  302.250    0.378    5.834  120.271    0.219
  302.500    0.395    5.983  120.771    0.204
  302.750    0.397    6.090  123.106    0.198
  303.000    0.381    6.094  127.153    0.192
  303.250    0.373    6.030  130.956    0.192
  303.500    0.390    5.834  133.165    0.189
  303.750    0.396    5.519  132.870    0.190
  304.000    0.399    5.308  130.558    0.212
  304.250    0.402    4.992  133.993    0.227
  304.500    0.405    4.678  137.184    0.219
  304.750    0.398    4.417  129.675    0.216
  305.000    0.392    4.266  118.806    0.223
  305.250    0.385    4.214  110.687    0.241
  305.500    0.377    4.186  112.411    0.255
  305.750    0.380    4.186  117.251    0.263
  306.000    0.389    4.151  116.468    0.261
  306.250    0.376    4.139  106.700    0.260
  306.500    0.362    4.134  104.876    0.260
  306.750    0.358    4.160  105.560    0.261
  307.000    0.374    4.429  106.977    0.256
  307.250    0.385    4.917  109.250    0.252
  307.500    0.370    5.186  110.912    0.251
  307.750    0.342    5.627   98.392    0.259
  308.000    0.322    6.083   87.524    0.253
  308.250    0.306    6.404   80.750    0.229
