~VERSION INFORMATION
 VERS.                 2.0:   CWLS LOG ASCII STANDARD -VERSION 2.0
 WRAP.                  NO:   ONE LINE PER DEPTH STEP
~WELL INFORMATION BLOCK
#MNEM.UNIT           DATA                    DESCRIPTION OF MNEMONIC
#---------    -------------------            -------------------------------
# Generated from Intellog Unique Number	CS_67_68/WELL/2202
WELL.         BVX LAC LA BICHE               : Well_name    - WELL
LOC .         00/11-03-067-13W4/0            : Location     - LOCATION
UWI .         00/11-03-067-13W4/0            : Uwi          - UNIQUE WELL ID
ENTR.         SP                             : Entered      - ENTERED BY
SRVC.         SCHLUMBERGER                   : Scn          - SERVICE COMPANY
STRT.M        310                            : top_depth    - START DEPTH
STOP.M        495                            : bot_depth    - STOP DEPTH
STEP.M        0.25                           : increment    - STEP LENGTH
 NULL. -999.2500:NULL Value
~CURVE INFORMATION BLOCK
#MNEM UNIT       ERCB CURVE CODE    CURVE DESCRIPTION
#-----------   ------------------   ----------------------------------
DEPT.M        00 001 00 00         : DEPTH        - DEPTH
ILD .OHMM     00 120 00 00         : RESD         - DEEP RESISTIVITY (DIL)
DPHI.V/V      00 890 00 00         : PHID         - DENSITY POROSITY (LIMESTONE)
NPHI.V/V      00 330 00 00         : PHIN         - NEUTRON POROSITY (LIMESTONE)
GR  .API      00 310 00 00         : GR           - GAMMA RAY
CALI.MM       00 280 01 00         : CAL          - CALIPER
~PARAMETER INFORMATION
#MNEM.UNIT           DATA             DESCRIPTION OF MNEMONIC
#---------         -----------     ------------------------------
GL  .M        577.4                : gl           - GROUND LEVEL ELEVATION
EREF.M        580.3                : kb           - ELEVATION OF DEPTH REFERENCE
DATM.M        580.3                : datum        - DATUM ELEVATION
TDD .M        498                  : tdd          - TOTAL DEPTH DRILLER
RUN .         ONE                  : Run          - RUN NUMBER
ENG .         BILL                 : Engineer     - RECORDING ENGINEER
WIT .         JIM                  : Witness      - WITNESSED BY
MUD .         GEL                  : Mud_type     - MUD TYPE
MATR.         LIMESTONE            : Logunit      - NEUTRON MATRIX
TMAX.C        22                   : BHT          - MAXIMUM RECORDED TEMPERATURE
BHTD.M        495                  : BHTDEP       - MAXIMUM RECORDED TEMPERATURE
MATR.         1                    : LOGUNIT      - NEUTRON MATRIX
RMT .C        25                   : MDTP         - TEMPERATURE OF MUD
NEUT.         1                    : NEUTRON      - NEUTRON TYPE
RESI.         0                    : RESIST       - RESISTIVITY TYPE
RMC .OHMM     0.25                 : RMC          - RESISTIVITY OF MUD CAKE
RMF .OHMM     0.25                 : RMF          - RESISTIVITY OF MUD FILTRATE
SUFT.C        15                   : SUFT         - SURFACE TEMPERATURE
~A  DEPTH     RESD     PHID     PHIN       GR      CAL
  310.000    2.623    0.182    0.462  111.881  201.972
  310.250    2.590    0.200    0.480  110.855  203.596
  310.500    2.673    0.204    0.489  109.527  197.341
  310.750    2.744    0.211    0.488  109.168  193.411
  311.000    2.865    0.189    0.486  110.387  190.894
  311.250    3.035    0.182    0.440  111.179  188.578
  311.500    3.128    0.201    0.470  111.971  186.769
  311.750    3.163    0.189    0.500  113.491  191.423
  312.000    3.049    0.201    0.510  115.073  187.190
  312.250    2.841    0.205    0.495  114.835  174.369
  312.500    2.643    0.182    0.481  115.447  167.508
  312.750    2.576    0.199    0.476  116.481  168.729
  313.000    2.635    0.184    0.485  116.971  177.424
  313.250    2.844    0.177    0.488  113.704  186.826
  313.500    3.122    0.185    0.472  110.072  180.067
  313.750    3.510    0.117    0.412  106.259  185.429
  314.000    3.817    0.083    0.369  103.960  178.569
  314.250    4.236    0.111    0.367  107.480  165.951
  314.500    4.564    0.155    0.394  111.546  157.372
  314.750    4.651    0.169    0.413  115.854  155.563
  315.000    4.801    0.168    0.415  113.496  161.531
  315.250    5.144    0.175    0.423  114.410  168.813
  315.500    5.762    0.181    0.424  107.081  168.820
  315.750    6.455    0.229    0.323   93.208  162.263
  316.000    7.191    0.273    0.226   82.909  158.433
  316.250    8.011    0.317    0.211   69.338  157.330
  316.500    8.599    0.346    0.232   57.585  156.025
  316.750    7.882    0.370    0.254   59.227  154.821
  317.000    6.499    0.368    0.274   64.080  153.314
  317.250    5.318    0.343    0.288   67.358  151.707
  317.500    4.484    0.324    0.303   67.121  152.220
  317.750    3.752    0.333    0.321   62.884  154.046
  318.000    3.116    0.345    0.347   60.100  155.975
  318.250    2.546    0.324    0.335   61.075  157.800
  318.500    2.236    0.291    0.371   64.292  159.122
  318.750    2.008    0.272    0.386   67.570  159.534
  319.000    2.027    0.260    0.388   71.212  158.532
  319.250    2.212    0.267    0.386   72.914  157.431
  319.500    2.433    0.248    0.388   74.675  156.630
  319.750    2.823    0.195    0.393   80.438  156.335
  320.000    3.216    0.181    0.384   88.383  157.353
  320.250    3.510    0.194    0.394   94.691  158.878
  320.500    3.740    0.200    0.391   99.787  159.794
  320.750    3.804    0.208    0.418  102.156  160.207
  321.000    3.840    0.224    0.409  103.554  158.902
  321.250    3.892    0.237    0.390   98.348  156.587
  321.500    3.943    0.227    0.393   99.868  155.282
  321.750    3.966    0.214    0.404  105.206  155.695
  322.000    4.004    0.215    0.419  105.453  156.208
  322.250    4.020    0.198    0.426  110.185  156.923
  322.500    3.918    0.173    0.433  116.494  157.437
  322.750    3.658    0.151    0.440  118.075  159.466
  323.000    3.124    0.130    0.447  121.231  163.008
  323.250    2.566    0.115    0.468  128.630  169.483
  323.500    2.176    0.190    0.485  133.908  176.662
  323.750    2.221    0.217    0.501  130.883  185.762
  324.000    2.420    0.224    0.501  124.827  186.881
  324.250    2.671    0.239    0.510  117.256  180.526
  324.500    2.943    0.212    0.516  107.019  173.666
  324.750    3.212    0.220    0.444   98.357  167.612
  325.000    3.303    0.254    0.413   91.816  160.853
  325.250    3.261    0.252    0.415   84.972  160.255
  325.500    3.062    0.223    0.420   78.917  159.859
  325.750    2.935    0.199    0.421   78.679  159.969
  326.000    2.865    0.198    0.433   83.472  160.282
  326.250    2.887    0.235    0.427   86.083  159.481
  326.500    2.964    0.246    0.423   92.937  158.479
  326.750    3.066    0.233    0.430   98.337  157.983
  327.000    3.165    0.237    0.434  101.310  158.395
  327.250    3.267    0.228    0.423  103.316  159.413
  327.500    3.311    0.218    0.412  104.594  159.724
  327.750    3.373    0.212    0.411  107.568  159.126
  328.000    3.470    0.213    0.427  101.997  157.216
  328.250    3.582    0.205    0.439  108.185  157.830
  328.500    3.739    0.227    0.444  111.644  158.849
  328.750    4.021    0.224    0.429  112.861  156.129
  329.000    4.236    0.208    0.425  109.957  151.491
  329.250    4.472    0.200    0.439  109.477  156.347
  329.500    4.407    0.210    0.443  113.179  159.588
  329.750    4.138    0.206    0.437  116.214  160.001
  330.000    3.885    0.215    0.445  119.674  157.585
  330.250    3.655    0.203    0.450  122.831  161.431
  330.500    3.432    0.189    0.455  125.866  167.906
  330.750    3.259    0.214    0.484  128.356  173.469
  331.000    3.377    0.221    0.495  130.542  181.963
  331.250    3.466    0.220    0.469  132.062  184.800
  331.500    3.322    0.209    0.439  131.704  180.767
  331.750    2.972    0.221    0.427  124.012  174.512
  332.000    2.534    0.233    0.432  100.137  166.440
  332.250    2.093    0.256    0.430   90.263  158.064
  332.500    1.944    0.273    0.423   85.966  155.548
  332.750    2.010    0.287    0.424   83.789  155.759
  333.000    2.162    0.286    0.419   88.945  155.361
  333.250    2.373    0.300    0.398   97.799  155.171
  333.500    2.638    0.282    0.400  104.107  155.280
  333.750    2.843    0.259    0.421  109.870  155.184
  334.000    3.006    0.244    0.422  109.087  155.496
  334.250    3.156    0.245    0.415  104.970  156.921
  334.500    3.204    0.253    0.412  100.672  156.421
  334.750    3.216    0.261    0.421   91.223  153.501
  335.000    3.193    0.263    0.428   96.198  151.186
  335.250    3.100    0.233    0.437  100.869  152.103
  335.500    3.089    0.232    0.445  106.329  153.323
  335.750    3.125    0.252    0.443  110.213  155.554
  336.000    3.298    0.254    0.442  113.127  158.087
  336.250    3.462    0.227    0.447  119.132  159.813
  336.500    3.509    0.212    0.428  126.106  158.003
  336.750    3.407    0.217    0.440  130.475  157.708
  337.000    3.169    0.222    0.461  116.540  158.019
  337.250    2.835    0.240    0.465   99.333  159.443
  337.500    2.594    0.257    0.450   89.762  159.956
  337.750    2.463    0.277    0.437   86.858  157.338
  338.000    2.383    0.282    0.453   89.105  156.336
  338.250    2.432    0.274    0.471   91.413  155.942
  338.500    2.506    0.275    0.470   90.933  155.647
  338.750    2.583    0.281    0.448   91.423  155.756
  339.000    2.716    0.277    0.435   95.126  155.966
  339.250    2.926    0.265    0.437   96.767  157.186
  339.500    3.206    0.261    0.446   97.257  158.507
  339.750    3.486    0.249    0.456   96.716  158.212
  340.000    3.728    0.228    0.465   93.994  156.099
  340.250    3.764    0.202    0.423   91.211  156.310
  340.500    3.675    0.186    0.388   87.458  157.833
  340.750    3.319    0.199    0.372   84.372  158.346
  341.000    3.047    0.241    0.398   88.075  158.456
  341.250    2.809    0.253    0.442   91.292  157.858
  341.500    2.632    0.270    0.461   93.237  157.260
  341.750    2.537    0.281    0.451   93.059  156.764
  342.000    2.609    0.282    0.447   94.034  156.673
  342.250    2.744    0.276    0.454   98.099  156.680
  342.500    2.833    0.266    0.466  101.620  156.082
  342.750    3.001    0.258    0.476  102.171  155.483
  343.000    3.145    0.254    0.468  104.236  154.481
  343.250    3.228    0.228    0.445  107.150  153.380
  343.500    3.271    0.211    0.434  107.276  152.882
  343.750    3.254    0.220    0.448  102.736  152.890
  344.000    3.189    0.231    0.459  100.922  153.102
  344.250    3.085    0.241    0.446   99.412  154.321
  344.500    3.062    0.237    0.442   99.114  157.360
  344.750    3.092    0.250    0.448  100.877  160.601
  345.000    3.064    0.230    0.443   99.973  162.528
  345.250    2.969    0.213    0.433   97.008  159.405
  345.500    2.846    0.238    0.427   94.225  155.273
  345.750    2.677    0.257    0.430   92.472  153.159
  346.000    2.561    0.272    0.434   90.477  152.258
  346.250    2.450    0.264    0.436   86.180  152.569
