~VERSION INFORMATION
 VERS.                 2.0:   CWLS LOG ASCII STANDARD -VERSION 2.0
 WRAP.                  NO:   ONE LINE PER DEPTH STEP
~WELL INFORMATION BLOCK
#MNEM.UNIT           DATA                    DESCRIPTION OF MNEMONIC
#---------    -------------------            -------------------------------
# Generated from Intellog Unique Number	CW_82_90/WELL/1036
WELL.         PARA ET AL GRANOR  14-35       : Well_name    - WELL
LOC .         00/14-35-082-19W4/0            : Location     - LOCATION
UWI .         00/14-35-082-19W400            : Uwi          - UNIQUE WELL ID
ENTR.         JAYE                           : Entered      - ENTERED BY
SRVC.         COMPUTALOG                     : Scn          - SERVICE COMPANY
DATE.         26 MAR 80                      : Date         - LOG DATE
STRT.M        190                            : top_depth    - START DEPTH
STOP.M        340                            : bot_depth    - STOP DEPTH
STEP.M        0.25                           : increment    - STEP LENGTH
 NULL. -999.2500:NULL Value
~CURVE INFORMATION BLOCK
#MNEM UNIT       ERCB CURVE CODE    CURVE DESCRIPTION
#-----------   ------------------   ----------------------------------
DEPT.M        00 001 00 00         : DEPTH        - DEPTH
CALI.MM       00 280 01 00         : CAL          - CALIPER
GR  .API      00 310 00 00         : GR           - GAMMA RAY
NPHI.V/V      00 330 00 00         : PHIN         - NEUTRON POROSITY (SANDSTONE)
DPHI.V/V      00 890 00 00         : PHID         - DENSITY POROSITY (SANDSTONE)
ILD .OHMM     00 120 00 00         : RESD         - DEEP RESISTIVITY (DIL)
~PARAMETER INFORMATION
#MNEM.UNIT           DATA             DESCRIPTION OF MNEMONIC
#---------         -----------     ------------------------------
GL  .M        581.58               : gl           - GROUND LEVEL ELEVATION
EREF.M        584.85               : kb           - ELEVATION OF DEPTH REFERENCE
DATM.M        581.58               : datum        - DATUM ELEVATION
TDD .M        341.5                : tdd          - TOTAL DEPTH DRILLER
RUN .         ONE                  : Run          - RUN NUMBER
ENG .         JBSIOIOWSKI          : Engineer     - RECORDING ENGINEER
WIT .         IRWIN                : Witness      - WITNESSED BY
BASE.         EDMONTON             : Branch       - HOME BASE OF LOGGING UNIT
MUD .         GEL CHEM             : Mud_type     - MUD TYPE
MATR.         SANDSTONE            : Logunit      - NEUTRON MATRIX
TMAX.C        16                   : BHT          - MAXIMUM RECORDED TEMPERATURE
BHTD.M        341.5                : BHTDEP       - MAXIMUM RECORDED TEMPERATURE
RMT .C        13                   : MDTP         - TEMPERATURE OF MUD
MUDD.KG/M     1070                 : MWT          - MUD DENSITY
NEUT.         1                    : NEUTRON      - NEUTRON TYPE
RESI.         0                    : RESIST       - RESISTIVITY TYPE
RM  .OHMM     1.5                  : RM           - RESISTIVITY OF MUD
RMC .OHMM     0.25                 : RMC          - RESISTIVITY OF MUD CAKE
RMF .OHMM     1.4                  : RMF          - RESISTIVITY OF MUD FILTRATE
SUFT.C        4                    : SUFT         - SURFACE TEMPERATURE
~A  DEPTH      CAL       GR     PHIN     PHID     RESD
# ...
  263.000  152.420   85.142    0.342    0.262    8.178
  263.250  152.690   84.058    0.362    0.218    7.869
  263.500  154.407   83.901    0.375    0.178    7.573
  263.750  158.829   88.604    0.383    0.216    7.370
  264.000  157.941   86.085    0.399    0.206    7.171
  264.250  159.671   85.056    0.332    0.193    6.811
  264.500  161.271   83.719    0.353    0.321    6.322
  264.750  163.305   82.138    0.395    0.429    5.717
  265.000  165.744   85.032    0.441    0.462    5.227
  265.250  199.544   93.039    0.575    0.441    4.909
  265.500  175.514   87.775    0.496    0.363    4.913
  265.750  160.097   76.159    0.456    0.331    5.549
  266.000  151.534   78.746    0.425    0.302    6.245
  266.250  152.011   76.411    0.378    0.281    7.134
  266.500  152.477   69.218    0.360    0.270    8.258
  266.750  152.747   71.679    0.369    0.234    9.051
  267.000  152.701   80.807    0.384    0.242    9.061
  267.250  152.651   77.912    0.385    0.224    8.475
  267.500  152.083   80.064    0.366    0.237    8.048
  267.750  151.513   77.106    0.376    0.249    7.818
  268.000  147.723   73.278    0.365    0.262    7.917
  268.250  142.899   82.030    0.345    0.285    7.969
  268.500  147.011   83.434    0.372    0.222    7.384
  268.750  148.417   81.348    0.420    0.248    7.381
  269.000  147.124   83.999    0.425    0.250    7.472
  269.250  146.139   77.928    0.371    0.243    7.550
  269.500  144.950   71.610    0.365    0.250    7.645
  269.750  143.864   75.999    0.392    0.240    7.609
  270.000  146.516   78.958    0.414    0.227    7.475
  270.250  149.266   82.369    0.393    0.206    7.235
  270.500  152.850   86.629    0.388    0.202    7.066
  270.750  153.744   85.971    0.425    0.232    6.942
  271.000  153.802   86.876    0.350    0.224    6.976
  271.250  153.230   90.151    0.383    0.225    6.738
  271.500  153.700   88.499    0.404    0.229    7.111
  271.750  152.612   87.542    0.396    0.221    7.323
  272.000  153.293   88.752    0.370    0.221    7.372
  272.250  151.581   92.959    0.396    0.212    7.326
  272.500  155.895   93.926    0.415    0.198    7.143
  272.750  160.212   93.463    0.401    0.160    6.770
  273.000  162.133   91.063    0.396    0.176    6.441
  273.250  166.249   90.727    0.411    0.217    6.363
  273.500  168.056   90.693    0.448    0.229    6.492
  273.750  168.633   92.097    0.390    0.253    6.762
  274.000  170.038   94.248    0.360    0.274    6.897
  274.250  167.916   89.297    0.388    0.243    7.064
  274.500  162.050   88.896    0.420    0.223    7.219
  274.750  164.497   91.232    0.411    0.234    7.562
  275.000  164.040   88.211    0.386    0.225    8.011
  275.250  160.038   90.362    0.415    0.206    8.439
  275.500  154.593   93.760    0.412    0.244    8.724
  275.750  152.987   92.859    0.381    0.254    8.848
  276.000  152.636   88.406    0.351    0.224    8.825
  276.250  152.903   88.441    0.404    0.193    8.240
  276.500  152.854   84.049    0.442    0.232    8.050
  276.750  152.908   80.095    0.363    0.232    8.212
  277.000  153.271   80.998    0.369    0.239    8.520
  277.250  153.841   85.765    0.406    0.238    8.991
  277.500  155.349   84.365    0.431    0.213    9.365
  277.750  156.445   89.568    0.338    0.195    9.884
  278.000  156.084   95.831    0.315    0.174   10.314
  278.250  154.687   90.694    0.362    0.191   10.584
  278.500  153.603   89.114    0.397    0.230   10.573
  278.750  154.070   85.775    0.368    0.219   10.487
  279.000  155.061   87.808    0.349    0.219   10.477
  279.250  154.308   94.066    0.370    0.217   10.509
  279.500  153.633   89.300    0.359    0.209   10.560
  279.750  153.152   85.097    0.352    0.219   10.814
  280.000  153.319   83.573    0.378    0.247   10.993
  280.250  153.682   81.427    0.448    0.247   11.361
  280.500  155.504   82.516    0.559    0.205   12.593
  280.750  158.784   78.188    0.203    0.083   14.939
  281.000  160.185   68.385    0.132    0.005   15.355
  281.250  160.569   77.506    0.150    0.091   14.665
  281.500  161.026   87.694    0.360    0.197   13.742
  281.750  161.183   92.837    0.373    0.220   12.217
  282.000  161.454   89.939    0.383    0.207   11.321
  282.250  161.499   84.117    0.393    0.211   10.770
  282.500  161.989   93.877    0.405    0.196   10.211
  282.750  161.829   99.071    0.423    0.203   10.086
  283.000  161.463   90.943    0.343    0.204    9.963
  283.250  161.520   94.532    0.339    0.181    9.918
  283.500  161.475   83.159    0.361    0.206    9.988
  283.750  161.626   72.977    0.393    0.197    9.998
  284.000  162.207   77.929    0.408    0.200   10.029
  284.250  161.646   87.618    0.428    0.206   10.078
  284.500  158.375   93.757    0.401    0.205   10.067
  284.750  160.516   91.110    0.393    0.208   10.193
  285.000  161.386   87.654    0.396    0.218   10.399
  285.250  161.981   84.386    0.389    0.195   10.470
  285.500  162.120   87.346    0.361    0.171   10.304
  285.750  162.287   91.552    0.331    0.168   10.048
  286.000  162.026   93.890    0.343    0.150    9.926
  286.250  161.768   98.844    0.365    0.164    9.681
  286.500  161.626  104.114    0.389    0.210    9.508
  286.750  162.515  108.379    0.425    0.208    9.218
  287.000  163.394  104.487    0.444    0.189    8.820
  287.250  164.693   97.231    0.398    0.171    8.487
  287.500  165.994   91.346    0.372    0.208    8.416
  287.750  166.362   89.510    0.382    0.227    8.316
  288.000  165.384   99.385    0.407    0.224    8.325
  288.250  161.285  101.290    0.442    0.205    8.492
  288.500  153.758   94.469    0.445    0.208    8.880
  288.750  152.157   89.392    0.462    0.187    8.956
  289.000  153.563   80.456    0.409    0.166    7.901
  289.250  156.316   79.677    0.389    0.150    7.225
  289.500  160.006   86.314    0.429    0.211    6.914
  289.750  165.459   94.444    0.400    0.262    6.830
  290.000  170.497   93.172    0.434    0.325    6.928
  290.250  174.815   94.583    0.485    0.312    7.368
  290.500  175.393   93.234    0.440    0.253    7.923
  290.750  171.499   84.359    0.360    0.214    8.800
  291.000  153.703   81.775    0.377    0.227    9.663
  291.250  154.169   75.765    0.344    0.248   10.371
  291.500  155.154   71.437    0.284    0.286   11.114
  291.750  152.934   68.419    0.310    0.272   11.575
  292.000  153.510   66.083    0.358    0.237   12.308
  292.250  155.337   65.930    0.406    0.206   14.438
  292.500  156.432   66.337    0.279    0.119   17.256
  292.750  156.791   66.681    0.232    0.067   21.420
  293.000  156.848   61.979    0.183    0.032   24.886
  293.250  157.013   57.464    0.144    0.009   25.105
  293.500  156.750   56.188    0.144    0.037   21.011
  293.750  155.243   66.002    0.255    0.095   18.675
  294.000  151.464   79.676    0.337    0.148   15.719
  294.250  152.764   76.407    0.390    0.179   13.082
  294.500  154.895   74.268    0.414    0.196   11.218
  294.750  155.883   77.720    0.394    0.229    9.972
  295.000  156.666   84.418    0.357    0.236    9.085
  295.250  158.799   92.861    0.346    0.247    8.497
  295.500  161.867   97.379    0.360    0.272    8.009
  295.750  187.053  103.892    0.340    0.274    8.108
  296.000  181.287   97.942    0.356    0.313    8.591
  296.250  173.144   84.085    0.407    0.384    8.981
  296.500  161.566   73.525    0.418    0.271    9.588
  296.750  154.666   75.990    0.428    0.239    9.946
  297.000  169.570   79.325    0.434    0.247   10.420
  297.250  153.947   75.119    0.437    0.189   11.039
  297.500  158.474   72.849    0.523    0.169   11.716
  297.750  159.980   69.269    0.287    0.141   13.285
  298.000  157.755   63.070    0.175    0.027   14.808
  298.250  158.015   59.247    0.110   -0.009   18.728
  298.500  158.193   64.008    0.103   -0.044   19.696
  298.750  158.228   74.010    0.128   -0.026   18.558
  299.000  159.333   83.761    0.208    0.099   15.560
  299.250  160.208   90.831    0.295    0.199   13.221
