~VERSION INFORMATION
 VERS.                 2.0:   CWLS LOG ASCII STANDARD -VERSION 2.0
 WRAP.                  NO:   ONE LINE PER DEPTH STEP
~WELL INFORMATION BLOCK
#MNEM.UNIT           DATA                    DESCRIPTION OF MNEMONIC
#---------    -------------------            -------------------------------
# Generated from Intellog Unique Number	CW_70_72/WELL/1040
NULL.         -999.25                        : NULL_VALUE
WELL.         BRASCAN AMOCO MEYER 10-18      : Well_name    - WELL              
LOC .         10-18-071-25W4                 : Location     - LOCATION          
UWI .         00/10-18-071-25W4/0            : Uwi          - UNIQUE WELL ID    
ENTR.         JAYE                           : Entered      - ENTERED BY        
SRVC.         SCHLUMBERGER                   : Scn          - SERVICE COMPANY   
DATE.         25 NOV 73                      : Date         - LOG DATE          
STRT.M        435.864                        : top_depth    - START DEPTH       
STOP.M        646.114                        : bot_depth    - STOP DEPTH        
STEP.M        0.25                           : increment    - STEP LENGTH       
~CURVE INFORMATION BLOCK
#MNEM UNIT       ERCB CURVE CODE    CURVE DESCRIPTION
#-----------   ------------------   ----------------------------------
DEPT.M        00 001 00 00         : DEPTH        - DEPTH                       
DPHI.V/V      00 890 00 00         : PHID         - DENSITY POROSITY (SANDSTONE)
NPHI.V/V      00 330 00 00         : PHIN         - NEUTRON POROSITY (SANDSTONE)
GR  .API      00 310 00 00         : GR           - GAMMA RAY                   
CALI.MM       00 280 01 00         : CAL          - CALIPER                     
ILD .OHMM     00 120 00 00         : RESD         - DEEP RESISTIVITY (DIL)      
~PARAMETER INFORMATION       
#MNEM.UNIT           DATA             DESCRIPTION OF MNEMONIC
#---------         -----------     ------------------------------
GL  .M        609.905              : gl           - GROUND LEVEL ELEVATION      
EREF.M        612.953              : kb           - ELEVATION OF DEPTH REFERENCE
DATM.M        609.905              : datum        - DATUM ELEVATION             
TDD .M        644.652              : tdd          - TOTAL DEPTH DRILLER         
RUN .         ONE                  : Run          - RUN NUMBER                  
MATR.         SANDSTONE            : Logunit      - NEUTRON MATRIX              
TMAX.C        28.8889              : BHT          - MAXIMUM RECORDED TEMPERATURE
BHTD.M        645.566              : BHTDEP       - MAXIMUM RECORDED TEMPERATURE
RMT .C        20                   : MDTP         - TEMPERATURE OF MUD          
MUDD.KG/M     0                    : MWT          - MUD DENSITY                 
NEUT.         1                    : NEUTRON      - NEUTRON TYPE                
RESI.         0                    : RESIST       - RESISTIVITY TYPE            
RM  .OHMM     2.72                 : RM           - RESISTIVITY OF MUD          
RMC .OHMM     0                    : RMC          - RESISTIVITY OF MUD CAKE     
RMF .OHMM     2.56                 : RMF          - RESISTIVITY OF MUD FILTRATE 
SUFT.C        0                    : SUFT         - SURFACE TEMPERATURE         
~A  DEPTH     PHID     PHIN       GR      CAL     RESD
  435.864    0.151    0.374  101.089  158.201    3.766
  436.114    0.143    0.386  101.291  154.951    3.218
  436.364    0.158    0.591  106.037  160.524    2.905
  436.614    0.154    0.593  108.723  171.227    2.552
  436.864    0.153    0.571  104.865  178.651    2.250
  437.114    0.146    0.556  101.490  189.767    2.142
  437.364    0.132    0.572  104.782  181.592    2.208
  437.614    0.148    0.554  108.922  191.476    2.504
  437.864    0.168    0.523  111.306  197.976    2.856
  438.114    0.174    0.499  110.357  191.544    3.239
  438.364    0.172    0.462  105.529  177.931    3.540
  438.614    0.170    0.466   96.213  171.802    3.878
  438.864    0.162    0.447   86.658  167.113    4.063
  439.114    0.164    0.412   80.011  165.919    3.934
  439.364    0.165    0.394   70.273  160.099    3.720
  439.614    0.153    0.411   62.474  153.152    3.641
  439.864    0.139    0.425   59.828  148.267    3.493
  440.114    0.183    0.427   60.453  148.498    3.383
  440.364    0.238    0.414   61.745  155.923    3.317
  440.614    0.248    0.414   65.946  154.315    3.271
  440.864    0.252    0.425   64.268  151.581    3.208
  441.114    0.252    0.425   58.470  149.557    3.118
  441.364    0.252    0.405   54.187  150.306    3.053
  441.614    0.245    0.388   54.933  150.752    3.016
  441.864    0.235    0.392   63.619  151.295    2.980
  442.114    0.232    0.411   61.761  151.331    2.966
  442.364    0.233    0.411   57.599  151.363    3.046
  442.614    0.234    0.408   61.375  151.908    3.168
  442.864    0.226    0.410   67.395  153.276    3.363
  443.114    0.208    0.416   72.990  155.258    3.609
  443.364    0.194    0.424   81.979  155.500    3.845
  443.614    0.200    0.440   79.879  155.939    3.993
  443.864    0.214    0.442   71.472  155.362    4.078
  444.114    0.193    0.422   64.522  154.571    4.126
  444.364    0.204    0.412   65.270  153.577    4.198
  444.614    0.192    0.422   71.411  152.793    4.264
  444.864    0.183    0.437   78.521  152.821    4.307
  445.114    0.184    0.452   77.206  152.854    4.366
  445.364    0.184    0.442   78.925  153.200    4.426
  445.614    0.181    0.447   83.245  153.230    4.430
  445.864    0.172    0.449   85.446  152.757    4.305
  446.114    0.163    0.428   82.921  152.172    3.726
  446.364    0.171    0.402   77.062  151.894    3.249
  446.614    0.174    0.341   70.112  152.338    2.848
  446.864    0.172    0.354   74.676  153.291    2.600
  447.114    0.188    0.514   82.332  158.767    2.395
  447.364    0.216    0.531   91.200  165.774    2.358
  447.614    0.244    0.505   90.734  178.842    2.498
  447.864    0.253    0.476   87.967  173.229    2.797
  448.114    0.255    0.458   80.410  159.511    3.052
  448.364    0.240    0.432   68.310  147.229    3.270
  448.614    0.241    0.425   71.784  153.317    3.490
  448.864    0.233    0.417   79.621  153.457    3.767
  449.114    0.212    0.407   88.489  152.666    3.947
  449.364    0.189    0.414   94.871  153.111    4.076
  449.614    0.174    0.411  100.954  153.963    4.109
  449.864    0.183    0.400  106.123  155.338    4.127
  450.114    0.183    0.397  111.232  158.958    4.139
  450.364    0.169    0.405  115.251  166.379    4.126
  450.614    0.170    0.409  105.574  171.242    4.168
  450.864    0.191    0.402   91.473  171.372    4.226
  451.114    0.192    0.424   83.493  166.787    4.284
  451.364    0.200    0.443   77.453  159.432    4.319
  451.614    0.214    0.445   75.108  155.257    4.330
  451.864    0.221    0.428   79.916  153.751    4.263
  452.114    0.227    0.428   82.177  152.654    4.150
  452.364    0.231    0.432   79.652  152.381    4.033
  452.614    0.235    0.425   74.703  152.002    3.834
  452.864    0.241    0.412   64.845  151.830    3.519
  453.114    0.249    0.414   59.650  150.937    3.143
  453.364    0.244    0.421   59.851  148.917    2.864
  453.614    0.253    0.411   58.598  147.515    2.658
  453.864    0.266    0.392   53.587  147.045    2.583
  454.114    0.267    0.414   50.395  147.281    2.590
  454.364    0.261    0.407   48.960  148.228    2.699
  454.614    0.253    0.393   46.254  150.626    2.823
  454.864    0.263    0.399   48.150  150.862    3.190
  455.114    0.263    0.408   55.018  151.099    3.658
  455.364    0.258    0.401   61.281  150.619    4.304
  455.614    0.251    0.408   62.694  149.012    5.140
  455.864    0.235    0.409   63.988  147.504    5.786
  456.114    0.211    0.364   67.035  146.921    6.130
  456.364    0.183    0.339   71.964  150.756    5.495
  456.614    0.135    0.320   85.377  154.588    5.099
  456.864    0.134    0.393   92.610  157.900    4.621
  457.114    0.160    0.385   97.417  161.317    4.188
  457.364    0.171    0.394   92.709  164.842    3.944
  457.614    0.149    0.405   95.213  167.544    3.798
  457.864    0.143    0.416   96.991  168.707    3.739
  458.114    0.142    0.415   94.343  167.408    3.715
  458.364    0.137    0.427   93.091  167.540    3.738
  458.614    0.138    0.446   96.384  169.631    3.755
  458.864    0.149    0.494   99.009  169.764    3.799
  459.114    0.153    0.477  102.240  168.254    3.931
  459.364    0.138    0.455  102.925  165.207    4.059
  459.614    0.135    0.442  100.642  161.343    4.176
  459.864    0.144    0.437   97.389  158.500    4.264
  460.114    0.164    0.445   92.136  155.557    4.371
  460.364    0.186    0.443   87.912  153.743    4.448
  460.614    0.184    0.427   86.781  153.060    4.543
  460.864    0.169    0.426   89.590  152.579    4.613
  461.114    0.145    0.427   92.940  153.537    4.668
  461.364    0.152    0.431   95.324  155.316    4.664
  461.614    0.144    0.440   96.981  157.603    4.659
  461.864    0.141    0.455   97.605  161.129    4.671
  462.114    0.148    0.476  102.051  159.826    4.658
  462.364    0.173    0.463  100.252  158.113    4.636
  462.614    0.192    0.434   93.666  156.201    4.623
  462.864    0.203    0.415   86.896  154.798    4.576
  463.114    0.209    0.407   82.190  153.188    4.555
  463.364    0.219    0.413   79.603  151.577    4.492
  463.614    0.222    0.425   75.803  149.452    4.381
  463.864    0.231    0.428   72.370  146.716    4.352
  464.114    0.243    0.424   73.237  146.132    4.404
  464.364    0.238    0.418   74.650  148.627    4.498
  464.614    0.227    0.409   70.489  151.740    4.845
  464.864    0.208    0.402   67.234  153.214    5.670
  465.114    0.184    0.389   64.468  153.455    6.478
  465.364    0.150    0.322   65.638  153.691    7.360
  465.614    0.114    0.283   64.870  153.822    8.165
  465.864    0.091    0.317   63.798  153.862    8.779
  466.114    0.113    0.345   65.877  154.096    7.217
  466.364    0.139    0.368   65.533  154.333    6.009
  466.614    0.162    0.364   54.828  153.956    5.396
  466.864    0.181    0.328   43.210  153.066    4.792
  467.114    0.199    0.340   37.291  149.505    4.472
  467.364    0.216    0.358   37.312  148.513    4.259
  467.614    0.211    0.336   38.056  150.086    4.216
  467.864    0.200    0.295   40.015  153.916    4.346
  468.114    0.180    0.270   43.492  156.623    4.446
  468.364    0.200    0.354   47.206  156.754    4.491
  468.614    0.213    0.401   54.739  154.631    4.348
  468.864    0.195    0.457   64.153  152.097    3.868
  469.114    0.194    0.499   83.203  153.056    3.857
  469.364    0.207    0.449   88.555  154.937    3.997
  469.614    0.226    0.426   85.666  156.307    4.136
  469.864    0.226    0.447   84.777  156.339    4.255
  470.114    0.239    0.473   88.736  156.986    4.329
  470.364    0.262    0.495   87.603  162.048    4.446
  470.614    0.295    0.528   82.592  165.772    4.608
  470.864    0.312    0.611   75.765  165.703    4.882
  471.114    0.250    0.592   72.148  160.707    4.940
  471.364    0.230    0.554   71.803  158.893    5.111
  471.614    0.219    0.528   74.370  160.260    5.134
  471.864    0.211    0.499   75.175  161.115    4.809
  472.114    0.202    0.490   73.742  162.688    4.504
