~VERSION INFORMATION
 VERS.                 2.0:   CWLS LOG ASCII STANDARD -VERSION 2.0
 WRAP.                  NO:   ONE LINE PER DEPTH STEP
~WELL INFORMATION BLOCK
#MNEM.UNIT           DATA                    DESCRIPTION OF MNEMONIC
#---------    -------------------            -------------------------------
# Generated from Intellog Unique Number	CS_77_79/WELL/1002
WELL.         MAYNARD ET AL THORNBURY        : Well_name    - WELL
LOC .         00/11-29-079-11W4/0            : Location     - LOCATION
UWI .         00/11-29-079-11W4/0            : Uwi          - UNIQUE WELL ID
ENTR.         JHS                            : Entered      - ENTERED BY
SRVC.         SCHLUMBERGER                   : Scn          - SERVICE COMPANY
STRT.M        250                            : top_depth    - START DEPTH
STOP.M        495                            : bot_depth    - STOP DEPTH
STEP.M        0.25                           : increment    - STEP LENGTH
 NULL. -999.2500:NULL Value
~CURVE INFORMATION BLOCK
#MNEM UNIT       ERCB CURVE CODE    CURVE DESCRIPTION
#-----------   ------------------   ----------------------------------
DEPT.M        00 001 00 00         : DEPTH        - DEPTH
DPHI.V/V      00 890 00 00         : PHID         - DENSITY POROSITY (LIMESTONE)
NPHI.V/V      00 330 00 00         : PHIN         - NEUTRON POROSITY (LIMESTONE)
GR  .API      00 310 00 00         : GR           - GAMMA RAY
ILD .OHMM     00 120 00 00         : RESD         - DEEP RESISTIVITY (DIL)
RHOB.KG/M3    00 350 00 00         : DENS         - BULK DENSITY
~PARAMETER INFORMATION
#MNEM.UNIT           DATA             DESCRIPTION OF MNEMONIC
#---------         -----------     ------------------------------
GL  .M        690.19               : gl           - GROUND LEVEL ELEVATION
EREF.M        693.39               : kb           - ELEVATION OF DEPTH REFERENCE
DATM.M        693.39               : datum        - DATUM ELEVATION
TDD .M        500                  : tdd          - TOTAL DEPTH DRILLER
RUN .         ONE                  : Run          - RUN NUMBER
ENG .         BILL                 : Engineer     - RECORDING ENGINEER
WIT .         JIM                  : Witness      - WITNESSED BY
MUD .         GEL                  : Mud_type     - MUD TYPE
MATR.         LIMESTONE            : Logunit      - NEUTRON MATRIX
TMAX.C        22                   : BHT          - MAXIMUM RECORDED TEMPERATURE
BHTD.M        500                  : BHTDEP       - MAXIMUM RECORDED TEMPERATURE
MATR.         1                    : LOGUNIT      - NEUTRON MATRIX
RMT .C        25                   : MDTP         - TEMPERATURE OF MUD
NEUT.         1                    : NEUTRON      - NEUTRON TYPE
RESI.         0                    : RESIST       - RESISTIVITY TYPE
RMC .OHMM     0.25                 : RMC          - RESISTIVITY OF MUD CAKE
RMF .OHMM     0.25                 : RMF          - RESISTIVITY OF MUD FILTRATE
SUFT.C        15                   : SUFT         - SURFACE TEMPERATURE
~A  DEPTH     PHID     PHIN       GR     RESD     DENS
# ...
  469.000    0.298    0.365   42.565   18.820 2200.190
  469.250    0.297    0.368   38.294   18.573 2202.340
  469.500    0.316    0.373   37.697   16.920 2168.880
  469.750    0.321    0.381   42.000   14.110 2160.560
  470.000    0.321    0.389   47.522   11.466 2160.620
  470.250    0.311    0.396   51.820   10.805 2177.440
  470.500    0.309    0.387   56.732   11.383 2181.640
  470.750    0.303    0.373   60.421   13.367 2192.170
  471.000    0.298    0.358   64.721   21.311 2200.580
  471.250    0.302    0.347   64.126   28.689 2194.360
  471.500    0.314    0.341   43.321   36.885 2173.460
  471.750    0.314    0.336   39.664   45.082 2173.510
  472.000    0.321    0.335   38.453   53.279 2161.010
  472.250    0.325    0.337   37.855   60.656 2154.770
  472.500    0.334    0.337   37.257   61.475 2138.070
  472.750    0.336    0.336   37.886   53.279 2136.030
  473.000    0.337    0.341   39.735   41.803 2133.980
  473.250    0.343    0.353   42.197   31.148 2123.550
  473.500    0.331    0.361   47.114   25.410 2144.560
  473.750    0.328    0.366   50.799   13.700 2148.780
  474.000    0.324    0.370   54.487    8.990 2155.120
  474.250    0.328    0.370   48.378    6.593 2148.880
  474.500    0.342    0.367   42.886    5.271 2125.910
  474.750    0.331    0.368   44.123    4.445 2144.800
  475.000    0.299    0.372   53.321    4.115 2199.280
  475.250    0.281    0.376   62.518    4.032 2228.650
  475.500    0.272    0.379   69.268    4.033 2245.440
  475.750    0.270    0.382   70.508    4.198 2247.600
  476.000    0.273    0.379   62.561    4.694 2243.450
  476.250    0.284    0.381   58.291    4.860 2224.660
  476.500    0.294    0.383   50.958    4.860 2207.960
  476.750    0.290    0.378   46.689    4.943 2214.280
  477.000    0.276    0.372   49.152    5.108 2237.360
  477.250    0.273    0.363   54.066    5.522 2243.700
  477.500    0.284    0.363   54.083    6.266 2224.900
  477.750    0.301    0.368   50.420    7.671 2195.640
  478.000    0.312    0.366   44.923    9.902 2176.840
  478.250    0.304    0.362   41.874   11.225 2189.480
  478.500    0.304    0.358   38.829   11.969 2189.510
  478.750    0.312    0.356   33.947   12.548 2177.000
  479.000    0.328    0.359   30.285   11.556 2149.830
  479.250    0.341    0.363   31.529    9.325 2126.840
  479.500    0.329    0.364   34.601    6.846 2147.820
  479.750    0.316    0.368   37.677    5.441 2168.820
  480.000    0.292    0.372   46.264    5.028 2210.740
  480.250    0.281    0.375   50.563    4.863 2229.640
  480.500    0.278    0.375   53.638    5.111 2233.880
  480.750    0.280    0.370   52.428    5.359 2231.830
  481.000    0.309    0.365   48.159    6.021 2181.620
  481.250    0.324    0.364   43.890    6.434 2156.560
  481.500    0.326    0.360   43.289    6.186 2152.430
  481.750    0.330    0.353   43.304    5.939 2146.180
  482.000    0.338    0.349   40.871    5.774 2131.570
  482.250    0.347    0.348   40.271    5.939 2116.970
  482.500    0.326    0.354   42.120    6.435 2152.600
  482.750    0.322    0.369   40.299    6.683 2158.940
  483.000    0.315    0.377   36.642    6.932 2171.550
  483.250    0.325    0.372   33.593    7.097 2154.850
  483.500    0.341    0.359   31.160    7.015 2127.670
  483.750    0.337    0.348   31.175    6.519 2134.010
  484.000    0.326    0.343   32.412    6.106 2152.910
  484.250    0.323    0.343   30.591    5.610 2157.140
  484.500    0.318    0.350   28.156    5.280 2165.580
  484.750    0.317    0.359   27.562    5.115 2167.710
  485.000    0.302    0.371   28.797    4.785 2192.880
  485.250    0.293    0.391   33.709    4.454 2209.680
  485.500    0.299    0.402   36.174    4.206 2199.270
  485.750    0.315    0.403   34.963    3.546 2172.100
  486.000    0.332    0.400   33.752    2.967 2142.840
  486.250    0.322    0.394   35.605    2.720 2159.640
  486.500    0.294    0.378   40.518    2.472 2207.840
  486.750    0.250    0.352   43.594    2.307 2283.270
  487.000    0.225    0.299   40.549    2.472 2325.200
  487.250    0.189    0.262   36.886    2.555    0.000
  487.500    0.111    0.235   32.004    2.969    0.000
  487.750    0.066    0.211   28.956    3.382    0.000
  488.000    0.073    0.186   27.133    3.961    0.000
  488.250    0.077    0.171   25.925    4.374    0.000
  488.500    0.079    0.164   21.654    5.449    0.000
  488.750    0.089    0.156   18.608    6.027    0.000
  489.000    0.097    0.148   15.559    6.358    0.000
  489.250    0.112    0.143   13.123    6.772    0.000
  489.500    0.101    0.141   11.303    7.102    0.000
  489.750    0.091    0.141    8.868    7.103    0.000
  490.000    0.078    0.144    8.269    7.103    0.000
  490.250    0.062    0.146    8.287    7.021    0.000
  490.500    0.087    0.149   10.137    6.855    0.000
  490.750    0.108    0.151   13.825    6.773    0.000
  491.000    0.098    0.152   19.349    6.856    0.000
  491.250    0.092    0.157   24.872    6.856    0.000
  491.500    0.087    0.165   29.785    6.526    0.000
  491.750    0.084    0.167   32.250    6.443    0.000
  492.000    0.097    0.166   29.202    6.526    0.000
  492.250    0.093    0.163   19.420    6.609    0.000
  492.500    0.099    0.163   12.699    6.609    0.000
  492.750    0.098    0.164    7.819    6.609    0.000
  493.000    0.115    0.169    6.608    6.114    0.000
  493.250    0.106    0.170    6.622    5.370    0.000
  493.500    0.092    0.168    7.252    4.792    0.000
  493.750    0.086    0.164    6.652    4.048    0.000
  494.000    0.080    0.164    6.056    3.718    0.000
  494.250    0.081    0.167    7.302    3.553    0.000
  494.500    0.080    0.172    8.536    3.553    0.000
  494.750    0.085    0.174   10.383    3.553    0.000
  495.000    0.086    0.175   11.008    3.636    0.000
