~VERSION INFORMATION
 VERS.                 2.0:   CWLS LOG ASCII STANDARD -VERSION 2.0
 WRAP.                  NO:   ONE LINE PER DEPTH STEP
~WELL INFORMATION BLOCK
#MNEM.UNIT           DATA                    DESCRIPTION OF MNEMONIC
#---------    -------------------            -------------------------------
# Generated from Intellog Unique Number	CS_71_72/WELL/856
WELL.         PEX PHILLIPS AEC WIAU          : Well_name    - WELL
LOC .         00/10-15-071-07W4/0            : Location     - LOCATION
UWI .         00/10-15-071-07W4/0            : Uwi          - UNIQUE WELL ID
ENTR.         SP                             : Entered      - ENTERED BY
SRVC.         SCHLUMBERGER                   : Scn          - SERVICE COMPANY
STRT.M        290                            : top_depth    - START DEPTH
STOP.M        507                            : bot_depth    - STOP DEPTH
STEP.M        0.25                           : increment    - STEP LENGTH
 NULL. -999.2500:NULL Value
~CURVE INFORMATION BLOCK
#MNEM UNIT       ERCB CURVE CODE    CURVE DESCRIPTION
#-----------   ------------------   ----------------------------------
DEPT.M        00 001 00 00         : DEPTH        - DEPTH
ILD .OHMM     00 120 00 00         : RESD         - DEEP RESISTIVITY (DIL)
DPHI.V/V      00 890 00 00         : PHID         - DENSITY POROSITY (LIMESTONE)
NPHI.V/V      00 330 00 00         : PHIN         - NEUTRON POROSITY (LIMESTONE)
GR  .API      00 310 00 00         : GR           - GAMMA RAY
~PARAMETER INFORMATION
#MNEM.UNIT           DATA             DESCRIPTION OF MNEMONIC
#---------         -----------     ------------------------------
GL  .M        647.2                : gl           - GROUND LEVEL ELEVATION
EREF.M        650.2                : kb           - ELEVATION OF DEPTH REFERENCE
DATM.M        647.2                : datum        - DATUM ELEVATION
TDD .M        510                  : tdd          - TOTAL DEPTH DRILLER
RUN .         ONE                  : Run          - RUN NUMBER
ENG .         BILL                 : Engineer     - RECORDING ENGINEER
WIT .         JIM                  : Witness      - WITNESSED BY
MUD .         GEL                  : Mud_type     - MUD TYPE
MATR.         LIMESTONE            : Logunit      - NEUTRON MATRIX
TMAX.C        25                   : BHT          - MAXIMUM RECORDED TEMPERATURE
BHTD.M        510                  : BHTDEP       - MAXIMUM RECORDED TEMPERATURE
MATR.         1                    : LOGUNIT      - NEUTRON MATRIX
RMT .C        25                   : MDTP         - TEMPERATURE OF MUD
NEUT.         1                    : NEUTRON      - NEUTRON TYPE
RESI.         0                    : RESIST       - RESISTIVITY TYPE
RMC .OHMM     0.25                 : RMC          - RESISTIVITY OF MUD CAKE
RMF .OHMM     0.25                 : RMF          - RESISTIVITY OF MUD FILTRATE
SUFT.C        15                   : SUFT         - SURFACE TEMPERATURE
~A  DEPTH     RESD     PHID     PHIN       GR
  290.000    3.877    0.240    0.589  107.083
  290.250    3.749    0.233    0.594  104.834
  290.500    3.539    0.223    0.605  105.798
  290.750    3.322    0.232    0.608  107.124
  291.000    3.141    0.240    0.607  104.633
  291.250    3.049    0.247    0.613  103.657
  291.500    3.054    0.251    0.619  105.529
  291.750    3.169    0.260    0.615  105.523
  292.000    3.288    0.251    0.610  103.153
  292.250    3.349    0.245    0.612  102.722
  292.500    3.355    0.249    0.615  103.927
  292.750    3.348    0.249    0.614  108.466
  293.000    3.347    0.244    0.608  109.671
  293.250    3.359    0.242    0.604  106.756
  293.500    3.396    0.246    0.609  103.053
  293.750    3.459    0.247    0.605  101.409
  294.000    3.562    0.237    0.614  101.283
  294.250    3.649    0.242    0.618  102.185
  294.500    3.723    0.252    0.620  103.391
  294.750    3.702    0.250    0.602  101.263
  295.000    3.547    0.248    0.578   99.560
  295.250    3.262    0.247    0.562   98.039
  295.500    3.062    0.247    0.588   97.608
  295.750    3.010    0.254    0.610   97.359
  296.000    3.254    0.262    0.600   94.565
  296.250    4.050    0.276    0.586   91.589
  296.500    4.768    0.339    0.572   89.643
  296.750    5.530    0.405    0.557   95.212
  297.000    6.332    0.450    0.597   99.811
  297.250    7.426    0.486    0.613   89.321
  297.500    8.346    0.524    0.626   81.254
  297.750    9.328    0.454    0.602   77.430
  298.000   10.026    0.355    0.582   73.060
  298.250    9.677    0.333    0.359   70.751
  298.500    9.067    0.321    0.396   70.684
  298.750    8.369    0.315    0.415   70.677
  299.000    7.827    0.320    0.416   70.368
  299.250    7.347    0.334    0.419   68.725
  299.500    7.038    0.342    0.427   66.416
  299.750    6.984    0.326    0.438   67.924
  300.000    7.023    0.306    0.444   73.008
  300.250    7.166    0.293    0.454   77.607
  300.500    7.232    0.289    0.465   80.873
  300.750    7.284    0.289    0.474   83.110
  301.000    7.324    0.279    0.483   87.103
  301.250    7.188    0.266    0.480   91.883
  301.500    6.911    0.258    0.478   95.877
  301.750    6.609    0.249    0.485   99.688
  302.000    6.632    0.240    0.497  101.864
  302.250    6.755    0.231    0.506  101.857
  302.500    6.906    0.236    0.493   93.426
  302.750    7.021    0.268    0.488   87.663
  303.000    7.165    0.295    0.483   82.687
  303.250    7.325    0.314    0.476   80.621
  303.500    7.433    0.317    0.481   83.341
  303.750    7.459    0.305    0.483   84.608
  304.000    7.458    0.301    0.481   84.601
  304.250    7.429    0.311    0.487   83.867
  304.500    7.345    0.297    0.479   83.558
  304.750    7.209    0.287    0.468   84.218
  305.000    7.101    0.292    0.472   84.999
  305.250    6.995    0.309    0.463   86.749
  305.500    6.878    0.304    0.452   87.774
  305.750    6.839    0.281    0.455   89.403
  306.000    6.812    0.266    0.469   90.851
  306.250    6.824    0.301    0.474   90.845
  306.500    6.886    0.306    0.464   92.595
  306.750    6.923    0.301    0.466   94.043
  307.000    6.909    0.291    0.470   93.735
  307.250    6.831    0.287    0.476   84.880
  307.500    6.692    0.307    0.466   75.662
  307.750    6.568    0.320    0.461   65.051
  308.000    6.470    0.321    0.472   56.984
  308.250    6.302    0.320    0.458   49.220
  308.500    6.185    0.322    0.449   47.457
  308.750    6.026    0.329    0.443   59.691
  309.000    5.816    0.310    0.434   71.684
  309.250    5.582    0.263    0.462   94.282
  309.500    5.408    0.208    0.494  103.972
  309.750    5.171    0.164    0.516  108.693
  310.000    4.917    0.146    0.534  113.292
  310.250    4.667    0.178    0.538  118.619
  310.500    4.422    0.223    0.549  122.430
  310.750    4.166    0.233    0.559  121.878
  311.000    3.947    0.225    0.567  120.962
  311.250    3.774    0.221    0.578  122.046
  311.500    3.536    0.229    0.589  122.161
  311.750    3.313    0.229    0.596  121.852
  312.000    3.093    0.230    0.608  119.966
  312.250    2.985    0.242    0.624  116.870
  312.500    2.908    0.252    0.633  113.166
  312.750    3.062    0.261    0.634  107.342
  313.000    3.410    0.267    0.621  102.973
  313.250    3.861    0.272    0.594   98.361
  313.500    4.578    0.284    0.571   93.626
  313.750    4.604    0.299    0.544   91.257
  314.000    4.939    0.284    0.519   89.615
  314.250    5.173    0.267    0.527   87.850
  314.500    5.348    0.259    0.529   84.935
  314.750    5.498    0.268    0.513   83.716
  315.000    5.610    0.269    0.503   84.377
  315.250    5.714    0.261    0.500   84.552
  315.500    5.863    0.254    0.518   82.424
  315.750    6.039    0.247    0.539   77.691
  316.000    6.290    0.318    0.553   73.926
  316.250    6.551    0.345    0.538   71.860
  316.500    6.709    0.358    0.525   72.157
  316.750    6.859    0.361    0.521   74.271
  317.000    6.934    0.352    0.533   77.355
  317.250    6.933    0.348    0.545   80.742
  317.500    6.907    0.355    0.549   82.856
  317.750    6.867    0.364    0.551   79.700
  318.000    6.840    0.367    0.556   75.391
  318.250    6.788    0.354    0.559   74.233
  318.500    6.762    0.352    0.540   78.105
  318.750    6.723    0.356    0.520   80.583
  319.000    6.722    0.353    0.521   80.334
  319.250    6.746    0.345    0.544   78.024
  319.500    6.757    0.340    0.563   78.806
  319.750    6.743    0.339    0.553   80.435
  320.000    6.729    0.348    0.539   81.398
  320.250    6.716    0.346    0.528   80.786
  320.500    6.714    0.338    0.513   79.265
  320.750    6.713    0.336    0.495   79.743
  321.000    6.712    0.337    0.481   81.130
  321.250    6.711    0.339    0.477   81.124
  321.500    6.709    0.338    0.487   79.906
  321.750    6.746    0.336    0.492   79.838
  322.000    6.782    0.343    0.488   80.922
  322.250    6.844    0.350    0.485   81.462
  322.500    7.208    0.353    0.488   81.395
  322.750    7.301    0.347    0.492   80.722
  323.000    7.464    0.344    0.496   78.836
  323.250    7.759    0.344    0.491   77.073
  323.500    8.340    0.334    0.475   75.914
  323.750    9.549    0.293    0.439   74.514
  324.000   11.666    0.157    0.268   71.963
  324.250   14.628    0.126    0.251   69.957
  324.500   16.999    0.102    0.273   69.526
  324.750   18.718    0.127    0.301   69.337
  325.000   18.680    0.135    0.297   69.573
  325.250   16.615    0.120    0.342   71.930
  325.500   13.823    0.231    0.398   74.893
  325.750   11.310    0.299    0.429   77.129
  326.000    9.693    0.326    0.470   79.183
  326.250    8.898    0.338    0.491   80.630
  326.500    8.214    0.351    0.489   81.351
  326.750    7.682    0.362    0.500   81.587
  327.000    7.414    0.360    0.506   79.945
  327.250    7.331    0.346    0.508   78.180
  327.500    7.302    0.348    0.511   77.023
  327.750    7.287    0.355    0.506   76.471
  328.000    7.299    0.344    0.506   76.404
  328.250    7.325    0.340    0.509   77.124
  328.500    7.337    0.341    0.498   78.572
  328.750    7.309    0.346    0.489   80.445
  329.000    7.294    0.354    0.493   81.529
  329.250    7.279    0.339    0.481   79.764
  329.500    7.184    0.331    0.454   79.395
  329.750    7.129    0.322    0.436   81.934
  330.000    7.049    0.315    0.446   86.715
  330.250    6.892    0.301    0.461   91.920
  330.500    6.677    0.290    0.458   96.277
  330.750    6.361    0.275    0.452  101.785
  331.000    6.083    0.248    0.452  106.506
  331.250    5.904    0.231    0.468  110.256
  331.500    5.730    0.240    0.482  112.008
  331.750    5.634    0.242    0.480  113.759
  332.000    5.550    0.254    0.482  112.480
  332.250    5.457    0.257    0.496  104.958
  332.500    5.386    0.254    0.505  101.013
  332.750    5.365    0.254    0.510  100.280
  333.000    5.394    0.260    0.510  100.636
  333.250    5.638    0.262    0.501  101.176
