~VERSION INFORMATION
 VERS.                 2.0:   CWLS LOG ASCII STANDARD -VERSION 2.0
 WRAP.                  NO:   ONE LINE PER DEPTH STEP
~WELL INFORMATION BLOCK
#MNEM.UNIT           DATA                    DESCRIPTION OF MNEMONIC
#---------    -------------------            -------------------------------
# Generated from Intellog Unique Number	CS_67_68/WELL/2200
WELL.         10-33-067-05W4                 : Well_name    - WELL
LOC .         00/10-33-067-05W4/0            : Location     - LOCATION
UWI .         00/10-33-067-05W4/0            : Uwi          - UNIQUE WELL ID
ENTR.         SP                             : Entered      - ENTERED BY
SRVC.         SCHLUMBERGER                   : Scn          - SERVICE COMPANY
STRT.M        320                            : top_depth    - START DEPTH
STOP.M        535                            : bot_depth    - STOP DEPTH
STEP.M        0.25                           : increment    - STEP LENGTH
 NULL. -999.2500:NULL Value
~CURVE INFORMATION BLOCK
#MNEM UNIT       ERCB CURVE CODE    CURVE DESCRIPTION
#-----------   ------------------   ----------------------------------
DEPT.M        00 001 00 00         : DEPTH        - DEPTH
ILD .OHMM     00 120 00 00         : RESD         - DEEP RESISTIVITY (DIL)
DPHI.V/V      00 890 00 00         : PHID         - DENSITY POROSITY (LIMESTONE)
NPHI.V/V      00 330 00 00         : PHIN         - NEUTRON POROSITY (LIMESTONE)
GR  .API      00 310 00 00         : GR           - GAMMA RAY
CALI.MM       00 280 01 00         : CAL          - CALIPER
~PARAMETER INFORMATION
#MNEM.UNIT           DATA             DESCRIPTION OF MNEMONIC
#---------         -----------     ------------------------------
GL  .M        667.11               : gl           - GROUND LEVEL ELEVATION
EREF.M        671.01               : kb           - ELEVATION OF DEPTH REFERENCE
DATM.M        671.01               : datum        - DATUM ELEVATION
TDD .M        543                  : tdd          - TOTAL DEPTH DRILLER
RUN .         ONE                  : Run          - RUN NUMBER
ENG .         BILL                 : Engineer     - RECORDING ENGINEER
WIT .         JIM                  : Witness      - WITNESSED BY
MUD .         GEL                  : Mud_type     - MUD TYPE
MATR.         LIMESTONE            : Logunit      - NEUTRON MATRIX
TMAX.C        25.5                 : BHT          - MAXIMUM RECORDED TEMPERATURE
BHTD.M        543                  : BHTDEP       - MAXIMUM RECORDED TEMPERATURE
MATR.         1                    : LOGUNIT      - NEUTRON MATRIX
RMT .C        25                   : MDTP         - TEMPERATURE OF MUD
NEUT.         1                    : NEUTRON      - NEUTRON TYPE
RESI.         0                    : RESIST       - RESISTIVITY TYPE
RMC .OHMM     0.25                 : RMC          - RESISTIVITY OF MUD CAKE
RMF .OHMM     0.25                 : RMF          - RESISTIVITY OF MUD FILTRATE
SUFT.C        15                   : SUFT         - SURFACE TEMPERATURE
~A  DEPTH     RESD     PHID     PHIN       GR      CAL
# ...
  356.500    7.374    0.283    0.441   90.022  162.098
  356.750    7.248    0.275    0.454   91.992  162.942
  357.000    7.262    0.270    0.441   92.805  163.578
  357.250    7.193    0.266    0.435   92.391  164.418
  357.500    7.124    0.265    0.438   91.673  164.851
  357.750    7.096    0.265    0.451   90.711  164.878
  358.000    7.042    0.279    0.467   90.909  164.496
  358.250    6.949    0.288    0.482   93.920  164.624
  358.500    6.870    0.281    0.482   96.075  164.855
  358.750    6.766    0.271    0.477   97.313  165.286
  359.000    6.652    0.275    0.478   97.326  166.230
  359.250    6.614    0.280    0.483   95.142  167.069
  359.500    6.514    0.269    0.471   94.977  168.725
  359.750    6.404    0.256    0.461   97.190  170.995
  360.000    6.319    0.241    0.460   99.406  173.054
  360.250    6.236    0.226    0.464  100.887  175.320
  360.500    6.188    0.254    0.472  101.269  176.977
  360.750    6.210    0.272    0.482  100.676  174.965
  361.000    6.469    0.279    0.457   97.636  169.493
  361.250    6.481    0.281    0.417   94.291  166.361
  361.500    6.740    0.277    0.404   91.555  164.961
  361.750    7.022    0.271    0.415   89.249  163.665
  362.000    7.194    0.274    0.421   87.921  162.880
  362.250    7.301    0.279    0.421   91.236  162.392
  362.500    7.341    0.279    0.413   94.979  162.010
  362.750    7.353    0.277    0.419   96.888  161.426
  363.000    7.270    0.275    0.420   96.477  161.147
  363.250    7.201    0.271    0.417   93.683  160.770
  363.500    7.199    0.269    0.429   92.597  160.791
  363.750    7.266    0.272    0.440   87.971  161.123
  364.000    7.333    0.273    0.428   84.073  161.150
  364.250    7.373    0.272    0.429   81.401  161.177
  364.500    7.330    0.275    0.442   80.256  161.204
  364.750    7.206    0.311    0.448   78.073  161.227
  365.000    7.045    0.328    0.456   76.500  161.253
  365.250    6.964    0.345    0.467   75.965  161.177
  365.500    7.042    0.348    0.443   75.677  161.100
  365.750    7.054    0.338    0.432   75.813  161.028
  366.000    7.106    0.323    0.439   76.134  160.852
  366.250    7.239    0.303    0.448   76.149  160.774
  366.500    7.485    0.283    0.438   76.226  160.494
  366.750    7.814    0.273    0.457   76.608  160.314
  367.000    7.886    0.292    0.477   75.524  160.238
  367.250    7.709    0.292    0.414   73.706  160.061
  367.500    7.578    0.291    0.412   75.189  159.781
  367.750    7.577    0.291    0.443   78.138  159.603
  368.000    7.435    0.299    0.451   81.147  159.426
  368.250    6.922    0.296    0.445   84.769  159.451
  368.500    6.883    0.289    0.453   87.043  159.683
  368.750    6.741    0.282    0.480   88.465  159.714
  369.000    6.664    0.284    0.483   86.831  159.532
  369.250    6.676    0.304    0.467   82.263  159.665
  369.500    6.700    0.314    0.454   78.003  159.583
  369.750    6.786    0.307    0.447   76.306  159.616
  370.000    6.798    0.313    0.458   76.872  159.635
  370.250    6.797    0.333    0.481   76.276  159.558
  370.500    6.570    0.334    0.469   72.565  159.690
  370.750    6.545    0.323    0.451   68.426  159.716
  371.000    6.519    0.313    0.448   64.959  159.744
  371.250    6.518    0.323    0.455   63.202  160.072
  371.500    6.541    0.330    0.453   68.351  159.792
  371.750    6.651    0.302    0.431   71.788  159.817
  372.000    6.637    0.284    0.420   72.475  159.538
  372.250    6.599    0.316    0.440   71.758  159.462
  372.500    6.524    0.326    0.441   71.896  159.385
  372.750    6.295    0.314    0.431   73.624  159.105
  373.000    6.142    0.309    0.423   77.060  159.335
  373.250    6.061    0.305    0.424   80.497  159.565
  373.500    6.026    0.308    0.418   83.141  159.998
  373.750    6.115    0.325    0.409   84.683  160.229
  374.000    6.253    0.344    0.403   79.077  160.253
  374.250    6.394    0.345    0.416   75.182  160.281
  374.500    6.502    0.335    0.421   78.498  160.104
  374.750    6.636    0.327    0.422   81.384  159.928
  375.000    6.748    0.319    0.427   81.341  160.052
  375.250    6.861    0.314    0.437   80.012  160.284
  375.500    6.963    0.306    0.447   78.743  160.613
  375.750    6.949    0.298    0.443   85.479  161.254
  376.000    7.000    0.289    0.439   90.933  161.582
  376.250    6.985    0.284    0.442   90.155  161.913
  376.500    6.971    0.281    0.444   87.299  162.143
  376.750    6.957    0.282    0.447   87.681  162.476
  377.000    6.956    0.283    0.433   89.957  162.705
  377.250    6.941    0.293    0.425   91.745  162.935
  377.500    6.940    0.292    0.432   92.496  163.271
  377.750    6.991    0.286    0.449   90.553  163.293
  378.000    7.003    0.288    0.459   80.549  163.421
  378.250    7.014    0.272    0.448   73.048  163.752
  378.500    6.948    0.258    0.430   81.863  163.879
  378.750    6.805    0.264    0.420   84.996  163.803
  379.000    6.665    0.280    0.425   77.617  163.629
  379.250    6.455    0.297    0.441   73.357  163.447
  379.500    6.310    0.309    0.451   74.779  163.168
  379.750    6.262    0.313    0.467   75.647  162.787
  380.000    6.342    0.316    0.483   75.973  162.719
  380.250    6.402    0.310    0.459   75.923  162.533
  380.500    6.620    0.305    0.428   76.367  162.561
  380.750    6.782    0.300    0.411   73.085  162.383
  381.000    6.935    0.295    0.396   69.860  162.509
  381.250    7.078    0.280    0.381   70.793  162.539
  381.500    7.063    0.270    0.372   74.046  162.664
  381.750    6.944    0.264    0.381   75.529  162.692
  382.000    6.891    0.265    0.380   80.739  162.720
  382.250    6.761    0.267    0.371   85.154  162.745
  382.500    6.573    0.272    0.399   88.162  162.971
  382.750    6.450    0.293    0.429   86.161  162.895
  383.000    6.293    0.308    0.419   77.808  162.820
  383.250    6.199    0.317    0.409   71.345  162.745
  383.500    6.350    0.321    0.407   65.922  162.871
  383.750    6.457    0.318    0.426   66.366  162.694
  384.000    6.627    0.315    0.416   66.992  162.517
  384.250    6.676    0.311    0.406   66.947  162.137
  384.500    6.637    0.310    0.402   67.146  162.163
  384.750    6.673    0.316    0.409   63.800  162.187
  385.000    6.760    0.326    0.413   58.931  162.011
  385.250    6.848    0.332    0.423   57.293  161.836
  385.500    6.990    0.336    0.435   59.696  161.551
  385.750    7.094    0.341    0.424   60.442  161.277
  386.000    7.173    0.335    0.404   59.968  160.993
  386.250    7.198    0.335    0.386   57.968  160.919
  386.500    7.170    0.331    0.381   57.557  160.739
  386.750    7.168    0.326    0.389   58.550  160.462
  387.000    7.167    0.324    0.398   59.786  160.486
  387.250    7.179    0.329    0.405   60.963  160.409
  387.500    7.218    0.335    0.405   62.262  160.439
  387.750    7.244    0.339    0.402   63.011  160.666
  388.000    7.256    0.341    0.406   62.843  160.594
  388.250    7.255    0.345    0.411   61.454  160.615
  388.500    7.240    0.345    0.416   60.187  160.746
  388.750    7.252    0.335    0.415   59.223  160.775
  389.000    7.210    0.326    0.404   58.016  160.800
  389.250    7.169    0.334    0.387   58.338  160.822
  389.500    7.154    0.343    0.388   60.797  160.745
  389.750    7.112    0.350    0.393   61.487  160.568
  390.000    7.111    0.355    0.392   60.402  160.596
  390.250    7.123    0.358    0.396   59.561  160.316
  390.500    7.108    0.369    0.413   59.885  159.936
  390.750    7.041    0.354    0.428   60.632  159.859
  391.000    6.987    0.343    0.423   61.198  159.679
  391.250    6.946    0.339    0.416   61.579  159.605
  391.500    6.919    0.343    0.416   61.595  159.224
  391.750    6.892    0.346    0.454   60.999  159.149
  392.000    6.814    0.346    0.467   59.426  158.969
  392.250    6.723    0.345    0.454   61.889  160.422
  392.500    6.697    0.344    0.445   63.737  161.671
  392.750    6.634    0.344    0.432   64.729  162.920
