~VERSION INFORMATION
 VERS.                 2.0:   CWLS LOG ASCII STANDARD -VERSION 2.0
 WRAP.                  NO:   ONE LINE PER DEPTH STEP
~WELL INFORMATION BLOCK
#MNEM.UNIT           DATA                    DESCRIPTION OF MNEMONIC
#---------    -------------------            -------------------------------
# Generated from Intellog Unique Number	CS_71_72/WELL/901
WELL.         AQUITAINE COMPANY              : Well_name    - WELL
LOC .         00/11-19-071-18W4/0            : Location     - LOCATION
UWI .         00/11-19-071-18W4/0            : Uwi          - UNIQUE WELL ID
ENTR.         SP                             : Entered      - ENTERED BY
SRVC.         SCHLUMBERGER                   : Scn          - SERVICE COMPANY
STRT.M        250                            : top_depth    - START DEPTH
STOP.M        490                            : bot_depth    - STOP DEPTH
STEP.M        0.25                           : increment    - STEP LENGTH
 NULL. -999.2500:NULL Value
~CURVE INFORMATION BLOCK
#MNEM UNIT       ERCB CURVE CODE    CURVE DESCRIPTION
#-----------   ------------------   ----------------------------------
DEPT.M        00 001 00 00         : DEPTH        - DEPTH
ILD .OHMM     00 120 00 00         : RESD         - DEEP RESISTIVITY (DIL)
DPHI.V/V      00 890 00 00         : PHID         - DENSITY POROSITY (LIMESTONE)
NPHI.V/V      00 330 00 00         : PHIN         - NEUTRON POROSITY (LIMESTONE)
GR  .API      00 310 00 00         : GR           - GAMMA RAY
~PARAMETER INFORMATION
#MNEM.UNIT           DATA             DESCRIPTION OF MNEMONIC
#---------         -----------     ------------------------------
GL  .M        573                  : gl           - GROUND LEVEL ELEVATION
EREF.M        575                  : kb           - ELEVATION OF DEPTH REFERENCE
DATM.M        573                  : datum        - DATUM ELEVATION
TDD .M        492                  : tdd          - TOTAL DEPTH DRILLER
RUN .         ONE                  : Run          - RUN NUMBER
ENG .         BILL                 : Engineer     - RECORDING ENGINEER
WIT .         JIM                  : Witness      - WITNESSED BY
MUD .         GEL                  : Mud_type     - MUD TYPE
MATR.         LIMESTONE            : Logunit      - NEUTRON MATRIX
TMAX.C        18                   : BHT          - MAXIMUM RECORDED TEMPERATURE
BHTD.M        492                  : BHTDEP       - MAXIMUM RECORDED TEMPERATURE
MATR.         0                    : LOGUNIT      - NEUTRON MATRIX
RMT .C        25                   : MDTP         - TEMPERATURE OF MUD
NEUT.         1                    : NEUTRON      - NEUTRON TYPE
RESI.         0                    : RESIST       - RESISTIVITY TYPE
RMC .OHMM     0.25                 : RMC          - RESISTIVITY OF MUD CAKE
RMF .OHMM     0.25                 : RMF          - RESISTIVITY OF MUD FILTRATE
SUFT.C        15                   : SUFT         - SURFACE TEMPERATURE
~A  DEPTH     RESD     PHID     PHIN       GR
# ...
  424.000    5.609    0.229    0.403   53.913
  424.250    5.878    0.210    0.398   61.107
  424.500    6.034    0.154    0.404   66.973
  424.750    6.137    0.161    0.396   65.353
  425.000    6.228    0.184    0.401   64.637
  425.250    6.204    0.191    0.439   64.523
  425.500    5.656    0.200    0.442   63.142
  425.750    5.098    0.224    0.450   64.297
  426.000    4.799    0.233    0.472   63.520
  426.250    4.735    0.238    0.452   57.550
  426.500    4.761    0.236    0.441   53.151
  426.750    4.897    0.230    0.440   59.440
  427.000    4.989    0.222    0.437   65.184
  427.250    5.007    0.223    0.421   69.178
  427.500    4.740    0.215    0.408   67.556
  427.750    4.313    0.188    0.405   65.874
  428.000    4.106    0.168    0.429   71.921
  428.250    3.873    0.173    0.451   82.315
  428.500    3.764    0.186    0.472   88.785
  428.750    3.756    0.197    0.473   88.432
  429.000    3.755    0.203    0.471   83.911
  429.250    3.748    0.205    0.461   81.684
  429.500    3.761    0.204    0.475   81.755
  429.750    3.767    0.202    0.473   80.495
  430.000    3.711    0.203    0.470   78.510
  430.250    3.717    0.209    0.469   79.544
  430.500    3.738    0.208    0.442   82.995
  430.750    3.779    0.195    0.427   85.478
  431.000    3.865    0.185    0.425   88.445
  431.250    4.059    0.176    0.426   83.442
  431.500    4.238    0.172    0.437   79.766
  431.750    4.449    0.163    0.434   79.292
  432.000    4.620    0.152    0.414   79.785
  432.250    4.778    0.140    0.389   79.248
  432.500    4.877    0.101    0.382   78.108
  432.750    4.941    0.085    0.378   72.441
  433.000    5.044    0.086    0.380   73.234
  433.250    5.178    0.135    0.403   80.971
  433.500    5.386    0.154    0.409   85.510
  433.750    5.592    0.148    0.414   82.981
  434.000    5.697    0.146    0.426   77.675
  434.250    5.739    0.148    0.433   80.825
  434.500    5.760    0.147    0.436   85.302
  434.750    5.835    0.142    0.423   84.645
  435.000    6.081    0.134    0.391   76.441
  435.250    6.581    0.125    0.378   72.706
  435.500    7.203    0.159    0.372   73.558
  435.750    8.170    0.177    0.378   71.513
  436.000    9.606    0.194    0.378   61.317
  436.250   11.272    0.178    0.253   53.777
  436.500   13.153    0.141    0.216   48.049
  436.750   15.552    0.017    0.168   43.407
  437.000   17.876   -0.003    0.139   39.188
  437.250   19.418   -0.012    0.186   45.840
  437.500   16.824   -0.015    0.232   53.033
  437.750   13.392    0.083    0.271   59.987
  438.000   11.625    0.088    0.316   64.222
  438.250    9.940    0.089    0.354   67.672
  438.500    8.776    0.101    0.380   69.674
  438.750    7.881    0.121    0.396   73.667
  439.000    7.198    0.130    0.406   78.627
  439.250    6.840    0.149    0.398   81.171
  439.500    6.611    0.163    0.406   79.005
  439.750    6.486    0.150    0.405   74.424
  440.000    6.388    0.144    0.409   73.044
  440.250    6.351    0.138    0.400   70.939
  440.500    6.326    0.135    0.385   71.853
  440.750    6.313    0.136    0.370   73.733
  441.000    6.324    0.137    0.361   76.882
  441.250    6.382    0.133    0.362   78.942
  441.500    6.490    0.135    0.389   77.985
  441.750    6.675    0.139    0.403   77.390
  442.000    6.814    0.139    0.409   81.443
  442.250    7.008    0.127    0.414   86.222
  442.500    7.100    0.114    0.399   73.006
  442.750    6.901    0.103    0.385   73.921
  443.000    6.570    0.121    0.379   76.888
  443.250    6.337    0.152    0.375   78.466
  443.500    6.241    0.153    0.380   80.286
  443.750    6.217    0.149    0.390   85.125
  444.000    6.346    0.148    0.392   87.126
  444.250    6.454    0.152    0.382   82.606
  444.500    6.625    0.139    0.368   80.078
  444.750    6.699    0.118    0.359   67.888
  445.000    6.761    0.093    0.363   57.630
  445.250    6.734    0.058    0.371   61.081
  445.500    6.670    0.124    0.379   65.376
  445.750    6.582    0.135    0.379   68.646
  446.000    6.409    0.125    0.371   66.723
  446.250    6.068    0.116    0.360   64.798
  446.500    5.521    0.106    0.345   64.081
  446.750    4.659    0.154    0.340   71.275
  447.000    3.851    0.172    0.338   79.074
  447.250    3.153    0.184    0.346   88.140
  447.500    2.701    0.193    0.370   94.066
  447.750    2.552    0.199    0.422   95.704
  448.000    2.690    0.190    0.524   96.740
  448.250    2.944    0.182    0.537   93.608
  448.500    3.302    0.164    0.485   86.854
  448.750    3.994    0.130    0.448   80.219
  449.000    4.249    0.100    0.430   68.029
  449.250    4.722    0.085    0.415   75.344
  449.500    5.326    0.087    0.403   81.693
  449.750    5.592    0.100    0.391   73.066
  450.000    5.828    0.052    0.376   64.862
  450.250    5.783    0.026    0.361   57.805
  450.500    5.547    0.110    0.351   64.154
  450.750    5.463    0.127    0.358   76.119
  451.000    5.462    0.119    0.370   84.943
  451.250    5.650    0.126    0.387   88.093
  451.500    6.313    0.119    0.378   84.779
  451.750    6.730    0.098    0.362   75.910
  452.000    7.296    0.079    0.349   64.385
  452.250    7.561    0.074    0.333   59.804
  452.500    7.390    0.097    0.330   61.986
  452.750    5.612    0.104    0.329   62.719
  453.000    4.630    0.087    0.326   62.063
  453.250    3.951    0.065    0.337   67.144
  453.500    3.636    0.114    0.353   75.486
  453.750    3.442    0.136    0.373   81.774
  454.000    3.277    0.139    0.406   81.541
  454.250    3.228    0.145    0.422   82.093
  454.500    3.258    0.150    0.419   85.422
  454.750    3.294    0.151    0.431   88.329
  455.000    3.545    0.144    0.436   84.835
  455.250    3.872    0.137    0.441   88.769
  455.500    4.238    0.132    0.441   91.192
  455.750    4.543    0.136    0.451   89.208
  456.000    4.744    0.137    0.456   82.875
  456.250    4.916    0.128    0.428   78.113
  456.500    5.094    0.112    0.405   74.015
  456.750    5.229    0.091    0.411   67.441
  457.000    5.268    0.107    0.429   68.597
  457.250    5.237    0.123    0.430   69.089
  457.500    5.226    0.100    0.382   67.768
  457.750    5.275    0.087    0.352   71.642
  458.000    5.405    0.114    0.347   79.681
  458.250    5.612    0.129    0.352   85.426
  458.500    5.717    0.121    0.369   79.939
  458.750    5.620    0.116    0.364   70.829
  459.000    5.473    0.079    0.352   76.394
  459.250    5.503    0.087    0.345   87.573
  459.500    5.660    0.128    0.357   94.344
  459.750    6.384    0.130    0.379   99.547
  460.000    7.255    0.132    0.406   96.293
  460.250    8.387    0.132    0.418   83.802
  460.500   10.592    0.115    0.393   71.069
  460.750   13.479    0.101    0.328   65.038
  461.000   16.580    0.063    0.267   46.085
  461.250   19.457    0.023    0.224   33.472
  461.500   21.988    0.065    0.219   27.563
  461.750   23.929    0.093    0.223   30.108
  462.000   24.938    0.117    0.218   33.560
  462.250   26.185    0.073    0.230   35.016
  462.500   28.283    0.005    0.218   32.428
  462.750   31.072    0.027    0.232   28.450
  463.000   35.313    0.060    0.244   29.124
  463.250   38.287    0.084    0.254   30.762
  463.500   41.901    0.084    0.275   29.743
  463.750   42.453    0.075    0.286   26.793
  464.000   41.575    0.091    0.290   26.802
  464.250   33.850    0.113    0.295   28.802
  464.500   28.297    0.098    0.281   26.576
  464.750   26.737    0.074    0.276   23.264
  465.000   25.358    0.057    0.280   24.540
  465.250   23.736    0.044    0.277   34.089
  465.500   20.799    0.081    0.272   47.865
  465.750   16.650    0.107    0.267   49.202
  466.000   13.788    0.109    0.286   45.285
  466.250   11.723    0.116    0.328   53.446
  466.500   11.416    0.115    0.403   64.807
  466.750   14.203    0.102    0.433   76.228
  467.000   21.616    0.091    0.342   65.669
  467.250   30.055    0.105    0.309   50.460
