~VERSION INFORMATION
 VERS.                 2.0:   CWLS LOG ASCII STANDARD -VERSION 2.0
 WRAP.                  NO:   ONE LINE PER DEPTH STEP
~WELL INFORMATION BLOCK
#MNEM.UNIT           DATA                    DESCRIPTION OF MNEMONIC
#---------    -------------------            -------------------------------
# Generated from Intellog Unique Number	CS_73_76/WELL/3267
WELL.         11-27-076-13W4                 : Well_name    - WELL
LOC .         00/11-27-076-13W4/0            : Location     - LOCATION
UWI .         00/11-27-076-13W4/0            : Uwi          - UNIQUE WELL ID
ENTR.         SP                             : Entered      - ENTERED BY
SRVC.         SCHLUMBERGER                   : Scn          - SERVICE COMPANY
STRT.M        310.896                        : top_depth    - START DEPTH
STOP.M        548.396                        : bot_depth    - STOP DEPTH
STEP.M        0.25                           : increment    - STEP LENGTH
 NULL. -999.2500:NULL Value
~CURVE INFORMATION BLOCK
#MNEM UNIT       ERCB CURVE CODE    CURVE DESCRIPTION
#-----------   ------------------   ----------------------------------
DEPT.M        00 001 00 00         : DEPTH        - DEPTH
GR  .API      00 310 00 00         : GR           - GAMMA RAY
DPHI.V/V      00 890 00 00         : PHID         - DENSITY POROSITY (SANDSTONE)
NPHI.V/V      00 330 00 00         : PHIN         - NEUTRON POROSITY (SANDSTONE)
ILD .OHMM     00 120 00 00         : RESD         - DEEP RESISTIVITY (DIL)
~PARAMETER INFORMATION
#MNEM.UNIT           DATA             DESCRIPTION OF MNEMONIC
#---------         -----------     ------------------------------
GL  .M        699.516              : gl           - GROUND LEVEL ELEVATION
EREF.M        702.564              : kb           - ELEVATION OF DEPTH REFERENCE
DATM.M        699.516              : datum        - DATUM ELEVATION
TDD .M        559.308              : tdd          - TOTAL DEPTH DRILLER
RUN .         ONE                  : Run          - RUN NUMBER
ENG .         BILL                 : Engineer     - RECORDING ENGINEER
WIT .         JIM                  : Witness      - WITNESSED BY
MUD .         GEL                  : Mud_type     - MUD TYPE
MATR.         SANDSTONE            : Logunit      - NEUTRON MATRIX
TMAX.C        32.2222              : BHT          - MAXIMUM RECORDED TEMPERATURE
BHTD.M        559.308              : BHTDEP       - MAXIMUM RECORDED TEMPERATURE
MATR.         1                    : LOGUNIT      - NEUTRON MATRIX
RMT .C        25                   : MDTP         - TEMPERATURE OF MUD
NEUT.         1                    : NEUTRON      - NEUTRON TYPE
RESI.         0                    : RESIST       - RESISTIVITY TYPE
RMC .OHMM     0.25                 : RMC          - RESISTIVITY OF MUD CAKE
RMF .OHMM     0.25                 : RMF          - RESISTIVITY OF MUD FILTRATE
SUFT.C        15                   : SUFT         - SURFACE TEMPERATURE
~A  DEPTH       GR     PHID     PHIN     RESD
# ...
  354.396   81.461    0.277    0.503    7.099
  354.646   76.490    0.293    0.481    7.170
  354.896   68.903    0.297    0.498    7.724
  355.146   62.990    0.300    0.513    8.569
  355.396   57.095    0.308    0.527    9.060
  355.646   53.462    0.331    0.521    9.931
  355.896   52.372    0.338    0.546   10.603
  356.146   53.397    0.344    0.578   11.069
  356.396   55.666    0.356    0.602   11.405
  356.646   57.988    0.345    0.559   11.761
  356.896   61.527    0.334    0.542   11.750
  357.146   65.142    0.320    0.522   11.346
  357.396   71.290    0.261    0.513   10.212
  357.646   81.181    0.230    0.541    9.203
  357.896   80.530    0.238    0.590    8.325
  358.146   71.070    0.255    0.612    7.507
  358.396   62.838    0.281    0.608    7.203
  358.646   53.915    0.314    0.577    7.845
  358.896   47.601    0.322    0.551    9.319
  359.146   44.598    0.330    0.529   10.587
  359.396   42.532    0.334    0.484   12.534
  359.646   43.691    0.337    0.465   13.654
  359.896   44.696    0.332    0.458   14.847
  360.146   45.621    0.318    0.461   15.366
  360.396   46.101    0.326    0.451   15.347
  360.646   46.394    0.336    0.440   15.364
  360.896   47.444    0.337    0.423   15.038
  361.146   49.078    0.316    0.395   14.562
  361.396   49.280    0.301    0.399   14.440
  361.646   50.328    0.290    0.406   13.982
  361.896   49.226    0.294    0.406   13.732
  362.146   49.897    0.305    0.402   13.435
  362.396   50.876    0.316    0.418   13.477
  362.646   51.156    0.318    0.442   13.216
  362.896   52.108    0.323    0.459   12.946
  363.146   52.102    0.333    0.462   12.967
  363.396   51.172    0.342    0.476   12.956
  363.646   50.203    0.348    0.483   12.936
  363.896   49.154    0.351    0.488   12.699
  364.146   48.839    0.357    0.495   12.624
  364.396   48.450    0.356    0.490   12.479
  364.646   47.817    0.350    0.472   12.473
  364.896   47.860    0.348    0.460   12.470
  365.146   47.833    0.347    0.476   12.466
  365.396   48.451    0.348    0.474   12.462
  365.646   49.309    0.348    0.447   12.458
  365.896   50.732    0.347    0.431   12.459
  366.146   51.367    0.344    0.424   12.573
  366.396   51.980    0.344    0.419   12.676
  366.646   50.448    0.344    0.412   12.654
  366.896   48.902    0.339    0.424   12.906
  367.146   49.007    0.336    0.443   13.149
  367.396   49.721    0.336    0.472   13.324
  367.646   48.211    0.339    0.478   13.453
  367.896   48.961    0.340    0.487   13.620
  368.146   49.884    0.335    0.477   13.589
  368.396   51.704    0.349    0.465   13.890
  368.646   53.056    0.345    0.460   13.855
  368.896   53.453    0.339    0.462   13.711
  369.146   52.438    0.341    0.463   13.615
  369.396   52.983    0.346    0.473   13.375
  369.646   54.003    0.347    0.487   13.342
  369.896   54.250    0.343    0.494   13.313
  370.146   54.250    0.340    0.499   13.101
  370.396   54.204    0.352    0.491   12.822
  370.646   54.864    0.359    0.481   12.844
  370.896   55.771    0.355    0.479   12.865
  371.146   57.484    0.352    0.475   12.579
  371.396   57.794    0.353    0.482   12.600
  371.646   58.463    0.345    0.494   12.596
  371.896   59.587    0.346    0.506   12.593
  372.146   59.540    0.349    0.502   12.585
  372.396   59.254    0.349    0.494   12.461
  372.646   58.149    0.339    0.502   12.356
  372.896   57.100    0.341    0.507   12.346
  373.146   57.075    0.348    0.514   12.338
  373.396   57.756    0.355    0.510   12.325
  373.646   57.769    0.360    0.499   12.101
  373.896   57.017    0.371    0.489   12.125
  374.146   57.716    0.373    0.499   11.882
  374.396   58.666    0.371    0.490   11.732
  374.646   59.499    0.371    0.522   11.607
  374.896   60.016    0.369    0.539   11.449
  375.146   60.678    0.361    0.536   11.207
  375.396   60.551    0.356    0.516   11.201
  375.646   59.979    0.346    0.513   10.833
  375.896   60.578    0.334    0.469   10.719
  376.146   61.933    0.321    0.459   10.600
  376.396   63.335    0.312    0.478   10.410
  376.646   64.358    0.323    0.470   10.402
  376.896   66.009    0.331    0.484   10.620
  377.146   64.878    0.339    0.498   10.916
  377.396   61.473    0.332    0.507   11.482
  377.646   60.004    0.335    0.501   12.046
  377.896   60.274    0.323    0.499   12.132
  378.146   61.971    0.300    0.453   12.755
  378.396   62.868    0.281    0.436   12.927
  378.646   63.294    0.266    0.428   13.212
  378.896   62.216    0.312    0.509   13.196
  379.146   61.715    0.338    0.538   13.017
  379.396   61.752    0.350    0.556   12.388
  379.646   61.023    0.360    0.560   11.540
  379.896   59.028    0.347    0.545   11.370
  380.146   58.489    0.329    0.526   11.357
  380.396   59.919    0.337    0.530   11.582
  380.646   60.515    0.337    0.548   11.934
  380.896   60.313    0.327    0.564   12.306
  381.146   59.917    0.331    0.543   12.451
  381.396   58.255    0.341    0.523   12.472
  381.646   57.237    0.347    0.511   12.204
  381.896   55.785    0.332    0.502   12.016
  382.146   53.546    0.308    0.470   12.065
  382.396   51.224    0.283    0.413   12.715
  382.646   48.135    0.272    0.422   12.873
  382.896   49.347    0.310    0.486   13.146
  383.146   52.742    0.335    0.514   13.110
  383.396   54.444    0.373    0.536   12.889
  383.646   53.791    0.364    0.561   12.625
  383.896   53.856    0.362    0.586   12.411
  384.146   53.847    0.360    0.605   12.188
  384.396   53.832    0.353    0.596   11.928
  384.646   53.858    0.356    0.585   11.947
  384.896   52.910    0.353    0.551   11.921
  385.146   52.004    0.347    0.534   12.181
  385.396   51.955    0.339    0.515   12.150
  385.646   53.730    0.335    0.500   12.052
  385.896   56.308    0.340    0.511   11.938
  386.146   56.928    0.344    0.511   11.754
  386.396   54.434    0.344    0.506   11.719
  386.646   52.564    0.347    0.524   11.473
  386.896   52.981    0.349    0.533   11.041
  387.146   54.118    0.353    0.530   11.021
  387.396   55.518    0.361    0.505   10.667
  387.646   56.467    0.366    0.503   10.561
  387.896   57.327    0.370    0.514   10.221
  388.146   57.840    0.356    0.519   10.089
  388.396   57.754    0.361    0.539    9.804
  388.646   55.385    0.363    0.545    9.532
  388.896   55.484    0.370    0.541    9.387
  389.146   56.504    0.367    0.539    9.286
  389.396   59.144    0.366    0.539    9.177
  389.646   60.122    0.374    0.541    9.004
  389.896   60.461    0.370    0.547    9.022
  390.146   60.225    0.361    0.555    8.844
  390.396   59.900    0.356    0.564    8.845
  390.646   58.957    0.346    0.548    8.839
  390.896   59.531    0.354    0.531    8.835
  391.146   61.503    0.363    0.529    8.741
  391.396   62.602    0.372    0.540    8.672
  391.646   62.543    0.377    0.554    8.679
  391.896   62.148    0.380    0.561    8.492
  392.146   59.437    0.374    0.574    8.507
  392.396   58.579    0.364    0.591    8.374
  392.646   56.728    0.358    0.622    8.287
  392.896   57.785    0.361    0.593    8.186
  393.146   58.573    0.364    0.587    8.043
  393.396   58.861    0.365    0.589    7.880
  393.646   59.517    0.361    0.587    7.750
  393.896   59.877    0.357    0.586    7.592
  394.146   60.094    0.354    0.576    7.597
  394.396   60.104    0.346    0.558    7.595
  394.646   60.128    0.341    0.551    7.597
  394.896   59.310    0.357    0.553    7.611
  395.146   57.764    0.370    0.569    7.721
  395.396   57.911    0.369    0.598    7.877
  395.646   58.154    0.354    0.596    8.031
  395.896   56.803    0.359    0.587    8.149
  396.146   58.060    0.361    0.590    8.312
  396.396   59.451    0.361    0.587    8.460
  396.646   60.219    0.365    0.593    8.559
  396.896   61.680    0.370    0.607    8.608
  397.146   63.560    0.370    0.612    8.605
  397.396   64.010    0.361    0.615    8.436
  397.646   62.253    0.336    0.589    8.097
