~VERSION INFORMATION
 VERS.                 2.0:   CWLS LOG ASCII STANDARD -VERSION 2.0
 WRAP.                  NO:   ONE LINE PER DEPTH STEP
~WELL INFORMATION BLOCK
#MNEM.UNIT           DATA                    DESCRIPTION OF MNEMONIC
#---------    -------------------            -------------------------------
# Generated from Intellog Unique Number	CC_80_83/WELL/2334
NULL.         -999.25                        : NULL_VALUE
WELL.         PEX HOUSE                      : Well_name    - WELL              
LOC .         10-05-080-15W4                 : Location     - LOCATION          
UWI .         00/10-05-080-15W4/0            : Uwi          - UNIQUE WELL ID    
ENTR.         RJA                            : Entered      - ENTERED BY        
SRVC.         SCHLUMBERGER                   : Scn          - SERVICE COMPANY   
DATE.         05 FEB 82                      : Date         - LOG DATE
STRT.M        170                            : top_depth    - START DEPTH       
STOP.M        402.795                        : bot_depth    - STOP DEPTH        
STEP.M        0.3                            : increment    - STEP LENGTH       
~CURVE INFORMATION BLOCK
#MNEM UNIT       ERCB CURVE CODE    CURVE DESCRIPTION
#-----------   ------------------   ----------------------------------
DEPT.M        00 001 00 00         : DEPTH        - DEPTH                       
DPHI.V/V      00 890 00 00         : PHID         - DENSITY POROSITY (LIMESTONE)
NPHI.V/V      00 330 00 00         : PHIN         - NEUTRON POROSITY (LIMESTONE)
GR  .API      00 310 00 00         : GR           - GAMMA RAY                   
DELT.US/F     00 520 00 00         : DELT         - SONIC TRAVEL TIME           
ILD .OHMM     00 120 00 00         : RESD         - DEEP RESISTIVITY (DIL)      
~PARAMETER INFORMATION       
#MNEM.UNIT           DATA             DESCRIPTION OF MNEMONIC
#---------         -----------     ------------------------------
GL  .M        561.82               : gl           - GROUND LEVEL ELEVATION      
EREF.M        565.57               : kb           - ELEVATION OF DEPTH REFERENCE
DATM.M        565.57               : datum        - DATUM ELEVATION             
TDD .M        411                  : tdd          - TOTAL DEPTH DRILLER         
RUN .         ONE                  : Run          - RUN NUMBER                  
ENG .         BILL                 : Engineer     - RECORDING ENGINEER          
WIT .         JIM                  : Witness      - WITNESSED BY                
MUD .         GEL                  : Mud_type     - MUD TYPE                    
MATR.         LIMESTONE            : Logunit      - NEUTRON MATRIX              
TMAX.C        23.8                 : BHT          - MAXIMUM RECORDED TEMPERATURE
BHTD.M        411                  : BHTDEP       - MAXIMUM RECORDED TEMPERATURE
MATR.         1                    : LOGUNIT      - NEUTRON MATRIX              
RMT .C        25                   : MDTP         - TEMPERATURE OF MUD          
NEUT.         1                    : NEUTRON      - NEUTRON TYPE                
RESI.         0                    : RESIST       - RESISTIVITY TYPE            
RMC .OHMM     0.25                 : RMC          - RESISTIVITY OF MUD CAKE     
RMF .OHMM     0.25                 : RMF          - RESISTIVITY OF MUD FILTRATE 
SUFT.C        15                   : SUFT         - SURFACE TEMPERATURE         
~A  DEPTH     PHID     PHIN       GR     DELT     RESD
  170.000    0.262    0.573   88.308  501.073    3.535
  170.300    0.274    0.547   86.086  492.958    3.521
  170.600    0.275    0.519   91.167  489.462    3.390
  170.900    0.284    0.514   90.059  498.255    3.117
  171.200    0.299    0.573   86.910  517.518    2.713
  171.500    0.295    0.590   86.978  525.240    2.567
  171.800    0.279    0.565   91.255  518.774    2.466
  172.100    0.268    0.542   95.901  514.617    2.447
  172.400    0.286    0.568   92.442  513.850    2.518
  172.700    0.304    0.558   89.355  517.853    2.591
  173.000    0.305    0.537   92.147  520.369    2.551
  173.300    0.289    0.523   94.937  521.416    2.503
  173.600    0.273    0.535   94.078  520.880    2.432
  173.900    0.277    0.526   94.826  507.822    2.364
  174.200    0.290    0.520   98.051  500.449    2.400
  174.500    0.278    0.495   96.138  495.881    2.757
  174.800    0.280    0.510   90.389  496.668    2.815
  175.100    0.273    0.546   90.644  509.752    2.694
  175.400    0.290    0.557   90.526  517.390    2.559
  175.700    0.279    0.555   84.158  516.041    2.444
  176.000    0.263    0.542   85.466  508.413    2.444
  176.300    0.260    0.546   88.008  505.989    2.548
  176.600    0.262    0.571   90.489  508.345    2.682
  176.900    0.263    0.584   98.417  508.976    2.840
  177.200    0.255    0.555   98.423  503.010    3.029
  177.500    0.242    0.535   90.818  490.682    3.188
  177.800    0.251    0.517   97.199  476.547    3.337
  178.100    0.234    0.458  101.041  470.661    3.486
  178.400    0.230    0.444   97.644  471.451    3.641
  178.700    0.231    0.497   94.805  475.295    3.676
  179.000    0.231    0.524   91.593  470.980    3.683
  179.300    0.234    0.524   87.392  471.351    3.599
  179.600    0.262    0.566   85.850  495.653    3.348
  179.900    0.273    0.565   87.404  498.167    3.120
  180.200    0.264    0.554   91.679  495.010    3.067
  180.500    0.244    0.559   92.676  487.725    3.191
  180.800    0.244    0.542   89.960  482.898    3.398
  181.100    0.258    0.516   86.748  476.025    3.631
  181.400    0.255    0.502   92.695  469.564    3.786
  181.700    0.258    0.504   94.682  467.709    3.851
  182.000    0.258    0.524   92.584  472.624    3.814
  182.300    0.249    0.522   89.248  481.578    3.651
  182.600    0.256    0.542   88.822  490.618    3.521
  182.900    0.287    0.541   91.242  492.975    3.408
  183.200    0.271    0.530   92.423  488.904    3.338
  183.500    0.255    0.525   91.193  486.475    3.274
  183.800    0.238    0.516   91.260  484.545    3.249
  184.100    0.255    0.487  101.662  483.440    3.267
  184.400    0.259    0.500  104.145  488.031    3.317
  184.700    0.260    0.506   97.840  498.216    3.426
  185.000    0.248    0.511   88.562  502.554    4.128
  185.300    0.160    0.516   74.335  370.994    5.136
  185.600    0.079    0.408   70.197  332.125    5.692
  185.900    0.190    0.357   80.352  403.833    6.526
  186.200    0.230    0.414   84.627  431.835    7.015
  186.500    0.230    0.445   82.097  473.858    7.511
  186.800    0.284    0.458   75.359  468.215    8.548
  187.100    0.314    0.457   73.075  447.747   10.616
  187.400    0.315    0.459   73.082  440.360   12.621
  187.700    0.303    0.450   74.635  437.950   13.311
  188.000    0.303    0.449   74.271  439.911   13.360
  188.300    0.308    0.438   74.461  438.791   13.182
  188.600    0.299    0.420   76.758  433.721   12.810
  188.900    0.265    0.427   81.714  427.094   12.237
  189.200    0.244    0.395   91.993  424.826   11.254
  189.500    0.233    0.391   94.165  428.176    9.831
  189.800    0.240    0.430   91.511  438.618    8.572
  190.100    0.245    0.462   86.939  444.514    7.403
  190.400    0.239    0.446   84.223  441.434    6.346
  190.700    0.233    0.433   82.063  452.282    5.460
  191.000    0.230    0.479   92.588  473.196    4.724
  191.300    0.235    0.506   97.544  486.614    4.230
  191.600    0.255    0.503  100.088  495.977    3.612
  191.900    0.257    0.505  100.652  494.126    3.038
  192.200    0.241    0.566   98.742  476.873    3.431
  192.500    0.236    0.552   97.448  468.334    4.221
  192.800    0.234    0.513   94.977  465.503    5.027
  193.100    0.252    0.469   86.691  465.624    6.162
  193.400    0.295    0.439   68.071  461.809    8.026
  193.700    0.329    0.454   57.248  463.427    9.415
  194.000    0.312    0.415   61.339  462.236   10.962
  194.300    0.296    0.429   64.439  448.607   11.086
  194.600    0.275    0.437   69.953  442.210   10.550
  194.900    0.253    0.430   78.871  438.055   10.060
  195.200    0.229    0.411   85.808  441.825    9.702
  195.500    0.169    0.403   87.980  436.260    9.536
  195.800    0.208    0.448   82.356  417.173    9.197
  196.100    0.232    0.463   86.012  408.728    8.157
  196.400    0.203    0.466   98.023  420.816    7.388
  196.700    0.212    0.454  105.642  440.748    6.730
  197.000    0.213    0.455  106.886  452.917    5.981
  197.300    0.211    0.472  107.946  461.708    5.584
  197.600    0.218    0.491  103.680  460.185    6.963
  197.900    0.250    0.471   78.439  438.058    8.830
  198.200    0.271    0.428   70.153  425.325    9.860
  198.500    0.240    0.403   83.959  434.627   10.678
  198.800    0.231    0.445   89.039  443.398   11.112
  199.100    0.265    0.449   80.693  450.786   11.455
  199.400    0.290    0.424   75.252  450.418   12.034
  199.700    0.273    0.427   81.510  451.460   12.886
  200.000    0.279    0.457   81.950  456.127   13.641
  200.300    0.310    0.454   75.829  465.664   14.859
  200.600    0.328    0.449   70.204  468.270   15.820
  200.900    0.319    0.446   72.066  467.164   16.122
  201.200    0.305    0.419   80.427  458.630   15.877
  201.500    0.283    0.417   84.085  443.424   15.225
  201.800    0.261    0.424   93.373  436.555   14.599
  202.100    0.251    0.411   92.329  435.693   14.487
  202.400    0.266    0.399   88.559  433.443   14.486
  202.700    0.285    0.402   85.037  437.358   14.568
  203.000    0.300    0.420   88.819  430.562   14.650
  203.300    0.296    0.436   89.074  429.959   14.564
  203.600    0.268    0.453   89.760  429.919   14.153
  203.900    0.250    0.445   95.460  418.344   13.367
  204.200    0.240    0.456   91.876  409.482   11.114
  204.500    0.211    0.409   85.199  435.344    9.654
  204.800    0.204    0.390   75.552  450.572    9.525
  205.100    0.211    0.413   81.623  439.814    9.652
  205.400    0.187    0.408   82.558  406.300   10.315
  205.700    0.246    0.401   74.147  410.966   11.172
  206.000    0.278    0.404   70.874  419.924   12.147
  206.300    0.278    0.398   73.108  420.555   13.231
  206.600    0.272    0.384   75.713  420.105   13.483
  206.900    0.272    0.398   77.515  417.355   12.471
  207.200    0.263    0.431   82.781  418.649    8.905
  207.500    0.234    0.414  104.942  443.176    6.335
  207.800    0.206    0.408  111.755  466.894    5.267
  208.100    0.176    0.474  106.811  472.218    4.899
  208.400    0.134    0.510  107.745  473.753    4.592
  208.700    0.119    0.526  107.628  478.422    4.279
  209.000    0.162    0.497  117.598  494.053    4.127
  209.300    0.193    0.491  116.180  499.380    4.134
  209.600    0.179    0.502  115.322  490.608    4.360
  209.900    0.177    0.489  116.688  474.247    4.452
  210.200    0.130    0.482  112.425  435.128    4.580
  210.500    0.171    0.492  112.431  432.460    4.511
  210.800    0.201    0.525  111.262  479.259    3.859
  211.100    0.209    0.553  111.515  497.783    3.489
  211.400    0.221    0.571  122.413  502.036    3.873
  211.700    0.206    0.540  117.159  473.807    5.310
  212.000    0.218    0.506  109.245  452.411    6.709
  212.300    0.253    0.475  100.834  437.368    8.890
  212.600    0.252    0.456  100.470  437.170   10.370
  212.900    0.242    0.429  106.974  427.821   10.649
  213.200    0.217    0.433  108.899  428.782   10.527
  213.500    0.192    0.443  109.091  431.883   10.114
