~VERSION INFORMATION
 VERS.                 2.0:   CWLS LOG ASCII STANDARD -VERSION 2.0
 WRAP.                  NO:   ONE LINE PER DEPTH STEP
~WELL INFORMATION BLOCK
#MNEM.UNIT           DATA                    DESCRIPTION OF MNEMONIC
#---------    -------------------            -------------------------------
# Generated from Intellog Unique Number	CS_69_70/WELL/899
WELL.         BOW VALLEY INDUSTRIES          : Well_name    - WELL
LOC .         00/11-26-069-12W4/0            : Location     - LOCATION
UWI .         00/11-26-069-12W4/0            : Uwi          - UNIQUE WELL ID
ENTR.         SP                             : Entered      - ENTERED BY
SRVC.         SCHLUMBERGER                   : Scn          - SERVICE COMPANY
STRT.M        265                            : top_depth    - START DEPTH
STOP.M        470                            : bot_depth    - STOP DEPTH
STEP.M        0.25                           : increment    - STEP LENGTH
 NULL. -999.2500:NULL Value
~CURVE INFORMATION BLOCK
#MNEM UNIT       ERCB CURVE CODE    CURVE DESCRIPTION
#-----------   ------------------   ----------------------------------
DEPT.M        00 001 00 00         : DEPTH        - DEPTH
ILD .OHMM     00 120 00 00         : RESD         - DEEP RESISTIVITY (DIL)
DPHI.V/V      00 890 00 00         : PHID         - DENSITY POROSITY (LIMESTONE)
NPHI.V/V      00 330 00 00         : PHIN         - NEUTRON POROSITY (LIMESTONE)
GR  .API      00 310 00 00         : GR           - GAMMA RAY
~PARAMETER INFORMATION
#MNEM.UNIT           DATA             DESCRIPTION OF MNEMONIC
#---------         -----------     ------------------------------
GL  .M        587.6                : gl           - GROUND LEVEL ELEVATION
EREF.M        590.3                : kb           - ELEVATION OF DEPTH REFERENCE
DATM.M        587.6                : datum        - DATUM ELEVATION
TDD .M        475                  : tdd          - TOTAL DEPTH DRILLER
RUN .         ONE                  : Run          - RUN NUMBER
ENG .         BILL                 : Engineer     - RECORDING ENGINEER
WIT .         JIM                  : Witness      - WITNESSED BY
MUD .         GEL                  : Mud_type     - MUD TYPE
MATR.         LIMESTONE            : Logunit      - NEUTRON MATRIX
TMAX.C        14.4                 : BHT          - MAXIMUM RECORDED TEMPERATURE
BHTD.M        475                  : BHTDEP       - MAXIMUM RECORDED TEMPERATURE
MATR.         1                    : LOGUNIT      - NEUTRON MATRIX
RMT .C        25                   : MDTP         - TEMPERATURE OF MUD
NEUT.         1                    : NEUTRON      - NEUTRON TYPE
RESI.         0                    : RESIST       - RESISTIVITY TYPE
RMC .OHMM     0.25                 : RMC          - RESISTIVITY OF MUD CAKE
RMF .OHMM     0.25                 : RMF          - RESISTIVITY OF MUD FILTRATE
SUFT.C        15                   : SUFT         - SURFACE TEMPERATURE
~A  DEPTH     RESD     PHID     PHIN       GR
  265.000    2.586    0.375    0.520   96.487
  265.250    2.607    0.498    0.577   97.297
  265.500    2.618    0.286    0.571   99.321
  265.750    2.629    0.256    0.537  101.950
  266.000    2.664    0.241    0.523  104.945
  266.250    2.685    0.238    0.537  107.213
  266.500    2.722    0.252    0.551  109.543
  266.750    2.754    0.266    0.495  108.530
  267.000    2.755    0.242    0.488  100.905
  267.250    2.777    0.212    0.496  100.502
  267.500    2.773    0.157    0.519  100.166
  267.750    2.759    0.131    0.530   96.419
  268.000    2.744    0.186    0.550   96.261
  268.250    2.720    0.241    0.575  101.319
  268.500    2.721    0.271    0.596  101.402
  268.750    2.732    0.165    0.612   91.715
  269.000    2.790    0.039    0.413   85.546
  269.250    2.871    0.065    0.451   92.062
  269.500    2.959    0.105    0.482   99.180
  269.750    3.010    0.209    0.507  105.213
  270.000    2.984    0.233    0.523  103.291
  270.250    2.946    0.210    0.534  101.067
  270.500    2.920    0.225    0.544  102.118
  270.750    2.938    0.226    0.496  104.934
  271.000    2.961    0.231    0.499  105.501
  271.250    2.996    0.224    0.525  105.217
  271.500    3.025    0.205    0.543  102.268
  271.750    3.060    0.235    0.519  101.499
  272.000    3.114    0.262    0.520  102.734
  272.250    3.150    0.276    0.523  104.213
  272.500    3.181    0.259    0.506   99.258
  272.750    3.182    0.243    0.494   96.308
  273.000    3.154    0.236    0.499   94.691
  273.250    3.103    0.235    0.519   97.260
  273.500    3.064    0.266    0.531   98.071
  273.750    3.065    0.291    0.509   95.302
  274.000    3.044    0.283    0.481   92.530
  274.250    2.961    0.258    0.464   91.036
  274.500    2.892    0.243    0.480   91.421
  274.750    2.877    0.365    0.486   91.140
  275.000    2.883    0.429    0.498   85.217
  275.250    2.906    0.391    0.520   78.258
  275.500    2.951    0.370    0.541   70.878
  275.750    3.025    0.353    0.567   65.193
  276.000    3.077    0.340    0.354   60.179
  276.250    3.050    0.335    0.344   52.919
  276.500    2.967    0.338    0.367   47.904
  276.750    2.876    0.312    0.380   43.741
  277.000    2.809    0.281    0.387   40.361
  277.250    2.789    0.249    0.369   36.803
  277.500    2.837    0.232    0.368   42.043
  277.750    2.946    0.229    0.386   37.215
  278.000    3.026    0.234    0.391   33.047
  278.250    3.072    0.237    0.366   30.822
  278.500    3.091    0.258    0.348   32.907
  278.750    3.035    0.285    0.353   39.117
  279.000    2.898    0.303    0.360   51.397
  279.250    2.825    0.280    0.358   63.130
  279.500    2.906    0.226    0.380   76.076
  279.750    3.180    0.210    0.398   91.087
  280.000    3.492    0.243    0.416  101.670
  280.250    3.842    0.277    0.430  108.183
  280.500    4.026    0.294    0.444  110.272
  280.750    4.267    0.278    0.433  111.143
  281.000    4.432    0.241    0.418  110.431
  281.250    4.483    0.216    0.415  113.851
  281.500    4.527    0.226    0.455  109.443
  281.750    4.537    0.285    0.487  106.494
  282.000    4.531    0.320    0.464  106.756
  282.250    4.458    0.340    0.457   96.219
  282.500    4.280    0.350    0.454   84.104
  282.750    3.880    0.327    0.451   72.050
  283.000    3.426    0.330    0.445   65.701
  283.250    3.157    0.343    0.438   63.172
  283.500    2.910    0.349    0.425   64.594
  283.750    2.795    0.345    0.415   66.979
  284.000    2.719    0.341    0.407   69.127
  284.250    2.715    0.335    0.416   74.244
  284.500    2.752    0.335    0.431   79.365
  284.750    2.795    0.324    0.442   84.790
  285.000    2.869    0.302    0.431   89.539
  285.250    3.041    0.274    0.406   96.905
  285.500    3.272    0.244    0.403  100.141
  285.750    3.507    0.228    0.421   98.464
  286.000    3.851    0.218    0.427   93.269
  286.250    4.120    0.239    0.427   90.256
  286.500    4.424    0.252    0.435   93.857
  286.750    4.663    0.245    0.464  100.372
  287.000    4.503    0.238    0.498  107.435
  287.250    3.718    0.215    0.578  112.494
  287.500    3.187    0.191    0.589  116.637
  287.750    2.959    0.272    0.581  118.118
  288.000    2.733    0.297    0.562  118.319
  288.250    2.538    0.321    0.554  116.216
  288.500    2.464    0.343    0.564  106.652
  288.750    2.588    0.316    0.504   96.964
  289.000    2.789    0.283    0.431   88.308
  289.250    3.023    0.260    0.424   80.137
  289.500    3.363    0.250    0.436   74.822
  289.750    3.545    0.265    0.433   77.575
  290.000    3.640    0.275    0.435   81.600
  290.250    3.676    0.283    0.451   83.865
  290.500    3.705    0.288    0.442   83.038
  290.750    3.700    0.284    0.451   83.302
  291.000    3.722    0.273    0.466   84.719
  291.250    3.808    0.276    0.470   85.591
  291.500    3.961    0.251    0.454   85.492
  291.750    4.286    0.183    0.444   83.145
  292.000    4.568    0.213    0.445   84.382
  292.250    4.860    0.245    0.442   89.927
  292.500    5.000    0.257    0.442   95.105
  292.750    4.748    0.239    0.451  100.040
  293.000    4.450    0.225    0.470  105.161
  293.250    4.297    0.214    0.481  110.157
  293.500    4.235    0.214    0.484  110.059
  293.750    4.121    0.201    0.492  109.715
  294.000    4.031    0.192    0.507  111.437
  294.250    3.900    0.195    0.513  112.921
  294.500    3.830    0.203    0.496  114.030
  294.750    3.747    0.205    0.501  118.055
  295.000    3.755    0.232    0.464  122.022
  295.250    3.870    0.246    0.435  119.493
  295.500    4.049    0.267    0.431  107.866
  295.750    4.189    0.308    0.436   96.721
  296.000    4.246    0.332    0.432   88.734
  296.250    3.936    0.343    0.426   89.363
  296.500    3.567    0.341    0.423   94.422
  296.750    3.209    0.323    0.421   97.237
  297.000    3.030    0.307    0.433   97.923
  297.250    2.894    0.299    0.441   96.427
  297.500    2.879    0.292    0.446   95.720
  297.750    2.990    0.275    0.456   96.045
  298.000    3.157    0.251    0.440   96.794
  298.250    3.415    0.258    0.434   99.123
  298.500    3.667    0.263    0.428   99.993
  298.750    3.924    0.265    0.445   97.102
  299.000    4.113    0.275    0.437   90.998
  299.250    4.231    0.288    0.421   90.167
  299.500    4.248    0.292    0.406   90.734
  299.750    4.110    0.283    0.423   91.728
  300.000    3.969    0.274    0.433   93.816
  300.250    3.890    0.269    0.433   95.532
  300.500    3.892    0.266    0.425   99.139
  300.750    3.930    0.263    0.413  102.801
  301.000    3.968    0.263    0.407  106.400
  301.250    3.963    0.271    0.437  109.030
  301.500    3.928    0.281    0.457  108.201
  301.750    3.886    0.291    0.469  102.884
  302.000    3.830    0.299    0.451  102.419
  302.250    3.832    0.293    0.453  103.775
  302.500    3.855    0.291    0.462   97.547
  302.750    3.900    0.298    0.470   92.169
  303.000    3.930    0.294    0.451   87.580
  303.250    3.955    0.185    0.227   83.049
  303.500    3.986    0.054    0.200   76.154
  303.750    4.070    0.097    0.212   70.106
  304.000    4.596    0.157    0.364   84.572
  304.250    5.468    0.203    0.437   94.605
  304.500    6.326    0.255    0.466   95.293
  304.750    6.643    0.295    0.479   89.735
  305.000    6.238    0.317    0.488   93.639
  305.250    5.357    0.310    0.480   93.842
  305.500    4.712    0.307    0.489   90.040
  305.750    4.359    0.309    0.481   84.904
  306.000    4.071    0.308    0.472   87.176
  306.250    3.859    0.304    0.466   89.740
  306.500    3.754    0.299    0.468   89.581
  306.750    3.672    0.295    0.466   85.357
  307.000    3.633    0.294    0.466   92.053
  307.250    3.581    0.297    0.471   96.989
  307.500    3.543    0.294    0.477  100.772
  307.750    3.571    0.292    0.480  101.467
  308.000    3.619    0.296    0.485  101.363
  308.250    3.661    0.271    0.450  102.538
