~VERSION INFORMATION
 VERS.                 2.0:   CWLS LOG ASCII STANDARD -VERSION 2.0
 WRAP.                  NO:   ONE LINE PER DEPTH STEP
~WELL INFORMATION BLOCK
#MNEM.UNIT           DATA                    DESCRIPTION OF MNEMONIC
#---------    -------------------            -------------------------------
# Generated from Intellog Unique Number	CS_73_76/WELL/1964
WELL.         AMOCO                          : Well_name    - WELL
LOC .         00/11-05-073-05W4/0            : Location     - LOCATION
UWI .         00/11-05-073-05W4/0            : Uwi          - UNIQUE WELL ID
ENTR.         T                              : Entered      - ENTERED BY
SRVC.         SCHLUMBERGER                   : Scn          - SERVICE COMPANY
STRT.M        325                            : top_depth    - START DEPTH
STOP.M        550                            : bot_depth    - STOP DEPTH
STEP.M        0.25                           : increment    - STEP LENGTH
 NULL. -999.2500:NULL Value
~CURVE INFORMATION BLOCK
#MNEM UNIT       ERCB CURVE CODE    CURVE DESCRIPTION
#-----------   ------------------   ----------------------------------
DEPT.M        00 001 00 00         : DEPTH        - DEPTH
GR  .API      00 310 00 00         : GR           - GAMMA RAY
NPHI.V/V      00 330 00 00         : PHIN         - NEUTRON POROSITY (SANDSTONE)
DPHI.V/V      00 890 00 00         : PHID         - DENSITY POROSITY (SANDSTONE)
ILD .OHMM     00 120 00 00         : RESD         - DEEP RESISTIVITY (DIL)
~PARAMETER INFORMATION
#MNEM.UNIT           DATA             DESCRIPTION OF MNEMONIC
#---------         -----------     ------------------------------
GL  .M        703.6                : gl           - GROUND LEVEL ELEVATION
EREF.M        708.1                : kb           - ELEVATION OF DEPTH REFERENCE
DATM.M        708.1                : datum        - DATUM ELEVATION
TDD .M        566                  : tdd          - TOTAL DEPTH DRILLER
RUN .         ONE                  : Run          - RUN NUMBER
ENG .         BILL                 : Engineer     - RECORDING ENGINEER
WIT .         JIM                  : Witness      - WITNESSED BY
MUD .         GEL                  : Mud_type     - MUD TYPE
MATR.         SANDSTONE            : Logunit      - NEUTRON MATRIX
TMAX.C        18                   : BHT          - MAXIMUM RECORDED TEMPERATURE
BHTD.M        566                  : BHTDEP       - MAXIMUM RECORDED TEMPERATURE
MATR.         1                    : LOGUNIT      - NEUTRON MATRIX
RMT .C        25                   : MDTP         - TEMPERATURE OF MUD
NEUT.         1                    : NEUTRON      - NEUTRON TYPE
RESI.         0                    : RESIST       - RESISTIVITY TYPE
RMC .OHMM     1.2                  : RMC          - RESISTIVITY OF MUD CAKE
RMF .OHMM     1.5                  : RMF          - RESISTIVITY OF MUD FILTRATE
SUFT.C        15                   : SUFT         - SURFACE TEMPERATURE
~A  DEPTH       GR     PHIN     PHID     RESD
# ...
  412.000   84.680    0.450    0.320    1.523
  412.250   88.931    0.479    0.289    1.583
  412.500   92.571    0.487    0.259    1.777
  412.750   95.601    0.490    0.260    1.918
  413.000   95.044    0.522    0.271    2.110
  413.250   93.899    0.552    0.280    2.321
  413.500   92.743    0.562    0.271    2.554
  413.750   93.385    0.573    0.255    2.813
  414.000   95.227    0.553    0.249    2.923
  414.250   96.469    0.519    0.249    3.039
  414.500   99.520    0.505    0.257    3.165
  414.750  101.351    0.532    0.258    3.168
  415.000  103.182    0.543    0.260    3.057
  415.250  108.032    0.556    0.263    2.949
  415.500  106.887    0.557    0.266    2.691
  415.750  103.322    0.553    0.269    2.643
  416.000  100.367    0.549    0.277    2.550
  416.250   98.012    0.553    0.269    2.653
  416.500   98.065    0.564    0.237    2.760
  416.750   98.108    0.564    0.227    2.925
  417.000   95.753    0.551    0.237    3.097
  417.250   93.376    0.535    0.245    3.410
  417.500   88.634    0.486    0.245    3.544
  417.750   85.079    0.484    0.227    3.757
  418.000   83.324    0.486    0.224    3.763
  418.250   83.956    0.476    0.229    3.768
  418.500   86.397    0.443    0.234    3.774
  418.750   90.048    0.456    0.235    3.783
  419.000   90.101    0.468    0.232    3.788
  419.250   86.547    0.475    0.232    3.793
  419.500   85.980    0.464    0.227    3.802
  419.750   88.421    0.460    0.233    3.807
  420.000   90.873    0.471    0.240    3.812
  420.250   91.515    0.480    0.248    3.821
  420.500   91.558    0.490    0.246    3.826
  420.750   91.002    0.496    0.228    3.905
  421.000   90.456    0.496    0.219    3.987
  421.250   89.888    0.501    0.227    3.994
  421.500   89.942    0.507    0.251    4.075
  421.750   89.964    0.509    0.280    4.082
  422.000   90.007    0.514    0.291    4.012
  422.250   90.649    0.516    0.321    3.946
  422.500   90.692    0.521    0.367    3.879
  422.750   91.356    0.526    0.398    3.742
  423.000   91.988    0.528    0.343    3.677
  423.250   92.020    0.536    0.295    3.549
  423.500   92.673    0.552    0.279    3.489
  423.750   93.915    0.545    0.248    3.364
  424.000   95.757    0.539    0.241    3.311
  424.250  100.007    0.540    0.283    3.254
  424.500  103.037    0.541    0.311    3.196
  424.750  101.903    0.543    0.287    3.201
  425.000  100.126    0.543    0.274    3.148
  425.250   96.571    0.540    0.269    3.213
  425.500   93.028    0.534    0.275    3.470
  425.750   90.073    0.539    0.278    3.745
  426.000   87.707    0.537    0.259    4.199
  426.250   86.551    0.524    0.240    4.534
  426.500   85.406    0.515    0.267    4.804
  426.750   84.838    0.514    0.282    4.814
  427.000   83.714    0.506    0.276    4.733
  427.250   83.147    0.485    0.267    4.485
  427.500   83.179    0.480    0.266    4.405
  427.750   83.222    0.469    0.267    4.332
  428.000   85.053    0.465    0.267    4.343
  428.250   91.091    0.517    0.263    4.346
  428.500   91.745    0.519    0.258    4.354
  428.750   89.389    0.511    0.255    4.363
  429.000   87.634    0.498    0.254    4.366
  429.250   87.067    0.501    0.251    4.373
  429.500   85.311    0.507    0.248    4.383
  429.750   84.165    0.518    0.275    4.388
  430.000   85.407    0.514    0.287    4.397
  430.250   84.851    0.485    0.291    4.488
  430.500   81.896    0.473    0.293    4.494
  430.750   79.541    0.475    0.297    4.503
  431.000   77.775    0.475    0.301    4.512
  431.250   76.019    0.478    0.307    4.516
  431.500   77.861    0.480    0.311    4.524
  431.750   80.312    0.485    0.315    4.531
  432.000   82.154    0.496    0.310    4.540
  432.250   81.597    0.492    0.301    4.465
  432.500   81.041    0.464    0.269    4.469
  432.750   80.495    0.456    0.259    4.393
  433.000   79.917    0.452    0.259    4.320
  433.250   79.371    0.454    0.265    4.247
  433.500   78.836    0.455    0.287    4.252
  433.750   78.269    0.458    0.289    4.182
  434.000   78.312    0.460    0.293    4.189
  434.250   77.755    0.466    0.299    4.277
  434.500   77.198    0.472    0.303    4.364
  434.750   76.631    0.485    0.306    4.369
  435.000   76.096    0.490    0.308    4.459
  435.250   76.118    0.481    0.309    4.471
  435.500   75.561    0.474    0.304    4.474
  435.750   78.013    0.471    0.300    4.484
  436.000   81.053    0.468    0.296    4.491
  436.250   82.884    0.463    0.294    4.586
  436.500   84.726    0.456    0.290    4.678
  436.750   85.968    0.450    0.287    4.868
  437.000   87.831    0.445    0.280    4.966
  437.250   88.463    0.449    0.260    5.069
  437.500   90.304    0.456    0.250    5.178
  437.750   91.546    0.434    0.249    5.184
  438.000   91.589    0.420    0.242    5.001
  438.250   89.844    0.421    0.234    4.647
  438.500   89.877    0.472    0.226    4.316
  438.750   91.718    0.559    0.247    3.936
  439.000   94.770    0.581    0.278    3.657
  439.250   93.603    0.578    0.295    3.398
  439.500   88.849    0.563    0.302    3.159
  439.750   90.102    0.548    0.316    3.048
  440.000   93.132    0.532    0.310    2.940
  440.250   95.573    0.491    0.271    2.945
  440.500   94.428    0.520    0.281    3.006
  440.750   93.861    0.546    0.290    3.067
  441.000   93.315    0.547    0.285    3.189
  441.250   93.347    0.541    0.274    3.258
  441.500   94.589    0.539    0.256    3.262
  441.750   97.041    0.545    0.245    3.148
  442.000  100.082    0.559    0.241    3.036
  442.250  103.722    0.516    0.253    2.876
  442.500  101.367    0.516    0.261    2.827
  442.750   98.412    0.520    0.255    2.883
  443.000   94.847    0.492    0.247    2.943
  443.250   90.704    0.478    0.258    3.060
  443.500   87.738    0.468    0.264    3.244
  443.750   84.195    0.461    0.273    3.441
  444.000   81.229    0.492    0.283    3.575
  444.250   77.686    0.499    0.289    3.789
  444.500   75.320    0.512    0.284    3.940
  444.750   71.166    0.467    0.277    4.098
  445.000   73.007    0.460    0.274    4.264
  445.250   76.048    0.466    0.269    4.354
  445.500   79.100    0.474    0.265    4.359
  445.750   80.941    0.478    0.257    4.364
  446.000   84.003    0.469    0.252    4.458
  446.250   84.635    0.458    0.244    4.548
  446.500   85.278    0.451    0.234    4.642
  446.750   85.310    0.446    0.227    4.740
  447.000   85.385    0.441    0.229    4.836
  447.250   85.995    0.443    0.230    4.934
  447.500   86.638    0.449    0.232    5.040
  447.750   87.901    0.451    0.232    5.046
  448.000   88.533    0.455    0.229    5.053
  448.250   88.565    0.464    0.226    4.969
  448.500   88.630    0.472    0.226    4.796
  448.750   88.651    0.472    0.233    4.800
  449.000   88.105    0.468    0.234    4.718
  449.250   88.138    0.476    0.233    4.728
  449.500   88.202    0.482    0.231    4.917
  449.750   88.224    0.480    0.230    5.112
  450.000   88.866    0.467    0.233    5.318
  450.250   91.318    0.472    0.235    5.426
  450.500   95.558    0.489    0.240    5.437
  450.750   98.598    0.504    0.241    5.347
  451.000  100.451    0.455    0.241    5.157
  451.250   96.896    0.454    0.248    4.793
  451.500   93.931    0.459    0.262    4.708
  451.750   88.578    0.455    0.273    4.630
  452.000   85.024    0.449    0.265    4.467
  452.250   81.480    0.444    0.258    4.391
  452.500   80.902    0.435    0.251    4.236
  452.750   85.163    0.427    0.249    4.165
  453.000   86.994    0.418    0.245    4.094
  453.250   87.037    0.421    0.239    3.948
  453.500   84.693    0.434    0.234    3.469
  453.750   83.526    0.448    0.229    3.165
  454.000   81.781    0.454    0.223    3.052
  454.250   80.625    0.459    0.253    2.943
  454.500   81.867    0.478    0.263    2.839
  454.750   83.698    0.496    0.264    2.740
  455.000   83.751    0.515    0.267    2.694
  455.250   83.794    0.512    0.269    2.697
