~VERSION INFORMATION
 VERS.                 2.0:   CWLS LOG ASCII STANDARD -VERSION 2.0
 WRAP.                  NO:   ONE LINE PER DEPTH STEP
~WELL INFORMATION BLOCK
#MNEM.UNIT           DATA                    DESCRIPTION OF MNEMONIC
#---------    -------------------            -------------------------------
# Generated from Intellog Unique Number	CS_77_79/WELL/1024
WELL.         DOME COWPAR                    : Well_name    - WELL
LOC .         00/16-11-079-03W4/0            : Location     - LOCATION
UWI .         00/16-11-079-03W4/0            : Uwi          - UNIQUE WELL ID
ENTR.         JHS                            : Entered      - ENTERED BY
SRVC.         SCHLUMBERGER                   : Scn          - SERVICE COMPANY
STRT.M        120                            : top_depth    - START DEPTH
STOP.M        360                            : bot_depth    - STOP DEPTH
STEP.M        0.25                           : increment    - STEP LENGTH
 NULL. -999.2500:NULL Value
~CURVE INFORMATION BLOCK
#MNEM UNIT       ERCB CURVE CODE    CURVE DESCRIPTION
#-----------   ------------------   ----------------------------------
DEPT.M        00 001 00 00         : DEPTH        - DEPTH
DPHI.V/V      00 890 00 00         : PHID         - DENSITY POROSITY (LIMESTONE)
NPHI.V/V      00 330 00 00         : PHIN         - NEUTRON POROSITY (LIMESTONE)
GR  .API      00 310 00 00         : GR           - GAMMA RAY
ILD .OHMM     00 120 00 00         : RESD         - DEEP RESISTIVITY (DIL)
RHOB.KG/M3    00 350 00 00         : DENS         - BULK DENSITY
~PARAMETER INFORMATION
#MNEM.UNIT           DATA             DESCRIPTION OF MNEMONIC
#---------         -----------     ------------------------------
GL  .M        525.3                : gl           - GROUND LEVEL ELEVATION
EREF.M        528.7                : kb           - ELEVATION OF DEPTH REFERENCE
DATM.M        528.7                : datum        - DATUM ELEVATION
TDD .M        365                  : tdd          - TOTAL DEPTH DRILLER
RUN .         ONE                  : Run          - RUN NUMBER
ENG .         BILL                 : Engineer     - RECORDING ENGINEER
WIT .         JIM                  : Witness      - WITNESSED BY
MUD .         GEL                  : Mud_type     - MUD TYPE
MATR.         LIMESTONE            : Logunit      - NEUTRON MATRIX
TMAX.C        24                   : BHT          - MAXIMUM RECORDED TEMPERATURE
BHTD.M        365                  : BHTDEP       - MAXIMUM RECORDED TEMPERATURE
MATR.         1                    : LOGUNIT      - NEUTRON MATRIX
RMT .C        25                   : MDTP         - TEMPERATURE OF MUD
NEUT.         1                    : NEUTRON      - NEUTRON TYPE
RESI.         0                    : RESIST       - RESISTIVITY TYPE
RMC .OHMM     0.25                 : RMC          - RESISTIVITY OF MUD CAKE
RMF .OHMM     0.25                 : RMF          - RESISTIVITY OF MUD FILTRATE
SUFT.C        15                   : SUFT         - SURFACE TEMPERATURE
~A  DEPTH     PHID     PHIN       GR     RESD     DENS
# ...
  266.000    0.278    0.451   90.806    2.065 2235.170
  266.250    0.286    0.442   94.495    2.183 2220.770
  266.500    0.303    0.464   96.347    2.266 2191.820
  266.750    0.322    0.448   89.667    2.309 2158.740
  267.000    0.274    0.418   87.864    2.442 2241.750
  267.250    0.247    0.393   90.338    2.680 2287.450
  267.500    0.247    0.382   87.919    3.109 2287.550
  267.750    0.279    0.378   91.606    3.541 2233.730
  268.000    0.226    0.392   88.586    4.033 2322.960
  268.250    0.211    0.401   88.619    4.265 2350.020
  268.500    0.209    0.380   87.419    4.680 2352.180
  268.750    0.203    0.366   88.664    5.042 2362.630
  269.000    0.203    0.344   93.570    5.137 2362.710
  269.250    0.237    0.340  103.963    5.234 2304.760
  269.500    0.251    0.369  104.607    5.139 2279.990
  269.750    0.242    0.365   98.531    4.952 2296.660
  270.000    0.232    0.381   99.165    4.772 2313.340
  270.250    0.227    0.411  102.241    4.514 2321.730
  270.500    0.219    0.416  104.706    4.039 2336.330
  270.750    0.214    0.415  102.909    3.681 2344.710
  271.000    0.220    0.410   96.836    3.418 2334.440
  271.250    0.240    0.444   99.300    3.355 2299.290
  271.500    0.247    0.426   96.281    3.294 2286.960
  271.750    0.244    0.409   99.355    3.294 2293.270
  272.000    0.238    0.396  100.600    3.234 2303.700
  272.250    0.225    0.424   96.361    3.175 2324.540
  272.500    0.223    0.421   99.436    3.235 2328.760
  272.750    0.230    0.430   93.976    3.236 2316.420
  273.000    0.245    0.418   99.489    3.236 2291.650
  273.250    0.235    0.414   95.859    3.236 2308.310
  273.500    0.229    0.403  106.255    3.237 2318.780
  273.750    0.228    0.397  108.722    3.178 2320.930
  274.000    0.230    0.378  102.649    3.553 2316.880
  274.250    0.224    0.361   91.088    4.046 2327.330
  274.500    0.238    0.352   95.387    4.279 2302.570
  274.750    0.238    0.345   91.752    4.441 2302.650
  275.000    0.231    0.379   91.781    4.442 2315.200
  275.250    0.230    0.363   94.857    4.442 2317.340
  275.500    0.217    0.358   92.450    4.526 2338.160
  275.750    0.217    0.357   87.594    4.698 2338.280
  276.000    0.232    0.349   81.521    4.968 2313.470
  276.250    0.238    0.370   84.604    5.061 2303.200
  276.500    0.248    0.353   78.534    4.969 2286.700
  276.750    0.240    0.351   79.168    4.788 2299.240
  277.000    0.213    0.338   82.239    4.879 2344.930
  277.250    0.166    0.316   79.836    5.159 2425.850
  277.500    0.082    0.301   79.858    5.256 2568.980
  277.750    0.062    0.276   84.760    5.257 2604.310
  278.000    0.050    0.294   92.719    5.356 2625.130
  278.250    0.262    0.337   86.642    5.162 2262.490
  278.500    0.256    0.354   68.377    4.450 2272.940
  278.750    0.253    0.340   63.526    4.056 2277.170
  279.000    0.276    0.355   72.090    3.629 2237.880
  279.250    0.286    0.378   77.609    3.187 2221.380
  279.500    0.268    0.400   80.078    3.014 2252.560
  279.750    0.249    0.402   84.985    2.905    0.000
  280.000    0.250    0.393   89.275    2.905 2281.760
  280.250    0.262    0.406   98.447    2.906 2261.140
  280.500    0.249    0.367   98.476    3.016 2284.060
  280.750    0.250    0.338   85.088    3.131 2282.050
  281.000    0.248    0.325   86.333    3.310 2286.280
  281.250    0.245    0.330   81.493    3.566 2290.530
  281.500    0.274    0.313   77.855    3.841 2240.890
  281.750    0.284    0.307   74.219    3.914 2224.380
  282.000    0.271    0.301   80.344    3.842 2247.270
  282.250    0.254    0.302   80.370    3.843 2276.380
  282.500    0.237    0.319   86.505    3.843 2305.490
  282.750    0.222    0.342   91.402    3.989 2330.470
  283.000    0.233    0.359   96.920    4.218 2311.900
  283.250    0.249    0.338   98.164    4.219 2285.050
  283.500    0.244    0.321   79.898    4.066 2293.440
  283.750    0.230    0.318   76.267    3.918 2316.320
  284.000    0.251    0.309   71.415    3.706 2281.170
  284.250    0.266    0.314   64.125    3.506 2254.330
  284.500    0.272    0.306   67.200    3.316 2244.060
  284.750    0.280    0.328   70.884    3.196 2231.700
  285.000    0.252    0.323   68.472    3.137 2279.460
  285.250    0.237    0.327   81.303    3.138 2304.430
  285.500    0.236    0.330   86.818    3.138 2306.590
  285.750    0.261    0.334   79.530    3.081 2263.170
  286.000    0.270    0.327   66.754    2.861 2248.740
  286.250    0.289    0.317   57.023    2.757 2215.660
  286.500    0.283    0.318   65.587    2.560 2226.140
  286.750    0.274    0.310   59.521    2.513 2240.720
  287.000    0.261    0.310   65.036    2.467 2263.620
  287.250    0.255    0.323   67.498    2.467 2274.080
  287.500    0.286    0.334   63.255    2.561 2220.260
  287.750    0.281    0.334   65.112    2.708 2228.660
  288.000    0.268    0.325   66.358    2.708 2251.580
  288.250    0.264    0.329   63.951    2.709 2257.870
  288.500    0.274    0.335   60.322    2.610 2241.370
  288.750    0.299    0.331   57.905    2.424 2197.930
  289.000    0.298    0.321   57.330    2.336 2200.140
  289.250    0.297    0.315   55.517    2.209 2202.280
  289.500    0.292    0.316   53.106    2.169 2210.650
  289.750    0.286    0.315   58.621    2.169 2221.100
  290.000    0.274    0.305   67.793    2.210 2241.920
  290.250    0.265    0.297   70.260    2.426 2256.520
  290.500    0.257    0.291   66.017    2.518 2271.140
  290.750    0.255    0.292   69.098    2.518 2273.280
  291.000    0.275    0.312   60.586    2.427 2240.210
  291.250    0.281    0.307   52.685    2.338 2229.940
  291.500    0.272    0.299   63.077    2.253 2244.540
  291.750    0.296    0.302   68.598    2.172 2203.180
  292.000    0.319    0.319   67.400    2.054 2163.890
  292.250    0.293    0.321   74.139    1.979 2209.570
  292.500    0.270    0.322   69.896    1.943 2249.050
  292.750    0.285    0.318   58.945    1.944 2222.190
  293.000    0.266    0.309   55.929    1.980 2255.460
  293.250    0.271    0.303   59.004    2.018 2247.260
  293.500    0.303    0.301   60.855    2.056 2191.380
  293.750    0.298    0.310   57.839    2.056 2199.770
  294.000    0.281    0.314   52.376    2.056 2228.900
  294.250    0.274    0.321   56.057    1.945 2241.400
  294.500    0.275    0.305   56.087    1.910 2239.440
  294.750    0.287    0.303   57.332    1.875 2218.810
  295.000    0.290    0.309   57.360    1.875 2214.770
  295.250    0.290    0.305   54.340    1.875 2214.820
  295.500    0.297    0.302   52.537    1.875 2202.490
  295.750    0.308    0.300   54.390    1.876 2183.930
  296.000    0.314    0.304   50.149    1.841 2173.640
  296.250    0.314    0.300   58.106    1.842 2173.740
  296.500    0.303    0.303   56.307    1.842 2192.490
  296.750    0.303    0.303   50.232    1.877 2192.590
  297.000    0.305    0.310   55.752    1.877 2188.540
  297.250    0.295    0.312   58.822    1.877 2205.200
  297.500    0.278    0.298   55.191    1.877 2234.320
  297.750    0.283    0.289   59.488    1.913 2226.130
  298.000    0.296    0.300   58.904    1.913 2203.410
  298.250    0.303    0.310   60.761    1.949 2191.070
  298.500    0.300    0.318   67.501    1.913 2197.380
  298.750    0.295    0.299   66.920    1.879 2205.740
  299.000    0.298    0.298   62.065    1.844 2199.620
  299.250    0.312    0.308   57.819    1.845 2176.930
  299.500    0.319    0.318   46.873    1.845 2164.560
  299.750    0.323    0.329   43.850    1.778 2158.440
  300.000    0.310    0.304   45.119    1.680 2180.350
  300.250    0.305    0.295   51.205    1.712 2188.620
  300.500    0.306    0.304   62.170    1.712 2186.510
  300.750    0.311    0.312   65.818    1.744 2178.170
  301.000    0.310    0.307   59.101    1.777 2180.210
  301.250    0.290    0.300   54.215    1.811 2213.410
  301.500    0.273    0.298   51.155    1.845 2242.440
  301.750    0.264    0.297   57.852    1.951 2259.020
  302.000    0.255    0.305   58.452    1.988 2273.530
  302.250    0.264    0.310   57.221    2.102 2258.960
