~VERSION INFORMATION
 VERS.                 2.0:   CWLS LOG ASCII STANDARD -VERSION 2.0
 WRAP.                  NO:   ONE LINE PER DEPTH STEP
~WELL INFORMATION BLOCK
#MNEM.UNIT           DATA                    DESCRIPTION OF MNEMONIC
#---------    -------------------            -------------------------------
# Generated from Intellog Unique Number	CS_71_72/WELL/892
WELL.         MURPHY OIL COMPANY             : Well_name    - WELL
LOC .         00/11-09-071-11W4/0            : Location     - LOCATION
UWI .         00/11-09-071-11W4/0            : Uwi          - UNIQUE WELL ID
ENTR.         SP                             : Entered      - ENTERED BY
SRVC.         SCHLUMBERGER                   : Scn          - SERVICE COMPANY
STRT.M        270                            : top_depth    - START DEPTH
STOP.M        465                            : bot_depth    - STOP DEPTH
STEP.M        0.25                           : increment    - STEP LENGTH
 NULL. -999.2500:NULL Value
~CURVE INFORMATION BLOCK
#MNEM UNIT       ERCB CURVE CODE    CURVE DESCRIPTION
#-----------   ------------------   ----------------------------------
DEPT.M        00 001 00 00         : DEPTH        - DEPTH
ILD .OHMM     00 120 00 00         : RESD         - DEEP RESISTIVITY (DIL)
DPHI.V/V      00 890 00 00         : PHID         - DENSITY POROSITY (LIMESTONE)
NPHI.V/V      00 330 00 00         : PHIN         - NEUTRON POROSITY (LIMESTONE)
GR  .API      00 310 00 00         : GR           - GAMMA RAY
~PARAMETER INFORMATION
#MNEM.UNIT           DATA             DESCRIPTION OF MNEMONIC
#---------         -----------     ------------------------------
GL  .M        612.9                : gl           - GROUND LEVEL ELEVATION
EREF.M        616.6                : kb           - ELEVATION OF DEPTH REFERENCE
DATM.M        612.9                : datum        - DATUM ELEVATION
TDD .M        480                  : tdd          - TOTAL DEPTH DRILLER
RUN .         ONE                  : Run          - RUN NUMBER
ENG .         BILL                 : Engineer     - RECORDING ENGINEER
WIT .         JIM                  : Witness      - WITNESSED BY
MUD .         GEL                  : Mud_type     - MUD TYPE
MATR.         LIMESTONE            : Logunit      - NEUTRON MATRIX
TMAX.C        26                   : BHT          - MAXIMUM RECORDED TEMPERATURE
BHTD.M        480                  : BHTDEP       - MAXIMUM RECORDED TEMPERATURE
MATR.         1                    : LOGUNIT      - NEUTRON MATRIX
RMT .C        25                   : MDTP         - TEMPERATURE OF MUD
NEUT.         1                    : NEUTRON      - NEUTRON TYPE
RESI.         0                    : RESIST       - RESISTIVITY TYPE
RMC .OHMM     0.25                 : RMC          - RESISTIVITY OF MUD CAKE
RMF .OHMM     0.25                 : RMF          - RESISTIVITY OF MUD FILTRATE
SUFT.C        15                   : SUFT         - SURFACE TEMPERATURE
~A  DEPTH     RESD     PHID     PHIN       GR
# ...
  357.000   11.189    0.346    0.349   53.080
  357.250   10.906    0.342    0.351   55.474
  357.500   10.766    0.338    0.355   56.949
  357.750   10.432    0.338    0.359   57.509
  358.000   10.052    0.347    0.364   55.505
  358.250   10.133    0.352    0.367   52.765
  358.500   10.389    0.348    0.371   53.326
  358.750   10.571    0.340    0.366   54.740
  359.000   10.736    0.329    0.355   55.973
  359.250   10.865    0.321    0.348   55.311
  359.500   10.908    0.313    0.352   58.377
  359.750    9.696    0.308    0.364   61.686
  360.000    8.864    0.308    0.378   64.263
  360.250    8.273    0.312    0.389   65.191
  360.500    7.986    0.319    0.398   65.567
  360.750    7.798    0.324    0.403   68.511
  361.000    7.743    0.320    0.390   71.454
  361.250    7.718    0.314    0.378   75.192
  361.500    7.736    0.306    0.369   77.768
  361.750    7.681    0.300    0.369   77.475
  362.000    7.656    0.296    0.370   74.982
  362.250    7.631    0.296    0.371   75.295
  362.500    7.635    0.298    0.371   77.139
  362.750    7.667    0.286    0.367   78.675
  363.000    7.657    0.278    0.369   79.053
  363.250    7.433    0.274    0.374   79.308
  363.500    6.899    0.270    0.381   80.175
  363.750    6.761    0.267    0.385   81.163
  364.000    6.626    0.270    0.388   82.458
  364.250    6.592    0.277    0.374   83.017
  364.500    6.595    0.279    0.362   83.523
  364.750    6.610    0.271    0.355   83.528
  365.000    6.601    0.260    0.356   82.744
  365.250    6.604    0.252    0.352   82.814
  365.500    6.484    0.247    0.347   85.024
  365.750    6.295    0.244    0.351   85.400
  366.000    6.239    0.250    0.357   84.250
  366.250    6.350    0.258    0.365   83.588
  366.500    6.388    0.266    0.372   84.210
  366.750    6.451    0.267    0.376   84.712
  367.000    6.601    0.266    0.374   84.537
  367.250    6.730    0.265    0.366   84.487
  367.500    6.784    0.266    0.357   85.597
  367.750    6.774    0.262    0.353   87.318
  368.000    6.739    0.253    0.349   88.672
  368.250    6.705    0.243    0.357   89.782
  368.500    6.683    0.235    0.368   90.709
  368.750    6.599    0.229    0.382   90.292
  369.000    6.601    0.227    0.393   89.142
  369.250    6.604    0.229    0.380   87.564
  369.500    6.608    0.234    0.371   85.374
  369.750    6.623    0.236    0.363   84.897
  370.000    6.577    0.236    0.356   85.641
  370.250    6.399    0.229    0.350   86.568
  370.500    6.364    0.224    0.354   87.556
  370.750    6.356    0.221    0.364   88.788
  371.000    6.322    0.218    0.371   90.325
  371.250    6.290    0.222    0.378   90.031
  371.500    6.329    0.232    0.378   88.942
  371.750    6.392    0.245    0.371   88.157
  372.000    6.602    0.250    0.366   87.802
  372.250    6.871    0.246    0.368   87.140
  372.500    6.991    0.242    0.369   85.317
  372.750    7.020    0.281    0.367   81.112
  373.000    6.854    0.282    0.357   79.166
  373.250    6.568    0.272    0.348   81.561
  373.500    6.437    0.235    0.343   84.199
  373.750    6.537    0.202    0.348   84.331
  374.000    6.893    0.185    0.358   72.549
  374.250    7.324    0.094    0.325   69.687
  374.500    7.943    0.072    0.225   65.971
  374.750    8.681    0.067    0.209   67.753
  375.000    8.163    0.155    0.235   80.656
  375.250    7.633    0.189    0.281   88.915
  375.500    7.273    0.210    0.334   90.942
  375.750    7.061    0.221    0.348   91.380
  376.000    6.920    0.224    0.356   93.284
  376.250    6.769    0.225    0.353   94.763
  376.500    6.659    0.225    0.351   95.322
  376.750    6.574    0.222    0.352   92.216
  377.000    6.480    0.218    0.347   89.967
  377.250    6.411    0.222    0.345   88.389
  377.500    6.401    0.231    0.350   87.481
  377.750    6.297    0.241    0.357   86.090
  378.000    6.206    0.230    0.364   86.158
  378.250    6.059    0.222    0.369   87.942
  378.500    5.827    0.218    0.369   89.968
  378.750    5.026    0.217    0.370   91.567
  379.000    4.335    0.225    0.374   92.310
  379.250    3.366    0.235    0.385   92.137
  379.500    2.708    0.244    0.402   94.837
  379.750    2.195    0.253    0.428   98.147
  380.000    1.937    0.261    0.452  100.234
  380.250    1.771    0.269    0.475  100.795
  380.500    1.646    0.274    0.480   99.889
  380.750    1.663    0.268    0.470   97.884
  381.000    1.977    0.257    0.465   95.818
  381.250    3.035    0.249    0.456   93.140
  381.500    3.762    0.257    0.431   91.499
  381.750    4.285    0.265    0.411   90.287
  382.000    4.862    0.261    0.387   89.504
  382.250    5.078    0.253    0.399   89.575
  382.500    5.355    0.250    0.408   89.097
  382.750    5.542    0.247    0.399   86.785
  383.000    5.660    0.256    0.388   84.413
  383.250    5.621    0.264    0.379   82.166
  383.500    5.488    0.270    0.384   80.952
  383.750    5.501    0.276    0.390   79.068
  384.000    5.629    0.282    0.389   76.817
  384.250    5.781    0.268    0.365   75.484
  384.500    6.017    0.249    0.336   76.960
  384.750    6.239    0.226    0.298   79.293
  385.000    6.432    0.223    0.290   81.809
  385.250    6.594    0.237    0.300   83.774
  385.500    6.609    0.258    0.325   84.826
  385.750    6.204    0.293    0.367   85.628
  386.000    5.888    0.323    0.363   87.411
  386.250    5.738    0.313    0.360   88.826
  386.500    5.688    0.304    0.358   88.959
  386.750    5.669    0.298    0.363   76.139
  387.000    5.661    0.298    0.367   73.768
  387.250    5.654    0.305    0.356   72.066
  387.500    5.655    0.313    0.344   70.306
  387.750    5.669    0.318    0.326   66.343
  388.000    5.683    0.317    0.312   63.543
  388.250    5.685    0.312    0.310   66.791
  388.500    5.754    0.300    0.309   70.896
  388.750    5.788    0.279    0.306   74.696
  389.000    5.845    0.254    0.306   77.088
  389.250    5.881    0.249    0.318   79.789
  389.500    5.817    0.249    0.325   81.508
  389.750    5.669    0.249    0.336   83.169
  390.000    5.587    0.245    0.345   81.713
  390.250    6.015    0.236    0.357   77.690
  390.500    6.914    0.211    0.295   64.870
  390.750    7.979    0.137    0.252   63.231
  391.000    8.835    0.067    0.200   61.897
  391.250    8.724    0.022    0.180   64.596
  391.500    5.571    0.108    0.211   65.828
  391.750    4.707    0.165    0.308   69.871
  392.000    4.231    0.208    0.340   75.136
  392.250    4.039    0.239    0.363   78.874
  392.500    3.929    0.252    0.377   81.574
  392.750    3.887    0.256    0.366   83.539
  393.000    3.859    0.257    0.353   84.404
  393.250    3.833    0.253    0.347   84.540
  393.500    3.828    0.252    0.348   83.510
  393.750    3.821    0.251    0.355   83.521
  394.000    3.839    0.252    0.365   84.264
  394.250    3.825    0.254    0.375   85.927
  394.500    3.651    0.257    0.382   87.340
  394.750    3.667    0.257    0.374   88.267
  395.000    3.669    0.250    0.367   89.134
  395.250    3.529    0.243    0.365   88.840
  395.500    3.820    0.239    0.372   88.053
  395.750    3.836    0.239    0.376   86.781
  396.000    3.859    0.238    0.374   86.303
  396.250    3.883    0.233    0.368   85.886
  396.500    3.899    0.228    0.364   85.895
  396.750    3.894    0.225    0.357   86.089
  397.000    3.896    0.225    0.354   86.650
  397.250    3.883    0.227    0.360   87.455
  397.500    3.900    0.227    0.368   88.381
  397.750    3.901    0.225    0.375   89.249
  398.000    3.918    0.223    0.374   89.747
  398.250    3.890    0.223    0.365   90.063
  398.500    3.842    0.228    0.362   90.378
  398.750    3.807    0.232    0.369   90.880
  399.000    3.803    0.235    0.379   91.622
  399.250    3.804    0.236    0.387   90.349
  399.500    3.827    0.231    0.393   89.504
  399.750    3.894    0.227    0.378   88.415
  400.000    4.045    0.222    0.369   86.409
  400.250    4.194    0.219    0.364   85.686
