~VERSION INFORMATION
 VERS.                 2.0:   CWLS LOG ASCII STANDARD -VERSION 2.0
 WRAP.                  NO:   ONE LINE PER DEPTH STEP
~WELL INFORMATION BLOCK
#MNEM.UNIT           DATA                    DESCRIPTION OF MNEMONIC
#---------    -------------------            -------------------------------
# Generated from Intellog Unique Number	CS_67_68/WELL/2190
WELL.         10-03-067-08W4                 : Well_name    - WELL
LOC .         00/10-03-067-08W4/0            : Location     - LOCATION
UWI .         00/10-03-067-08W4/0            : Uwi          - UNIQUE WELL ID
ENTR.         SP                             : Entered      - ENTERED BY
SRVC.         SCHLUMBERGER                   : Scn          - SERVICE COMPANY
STRT.M        305                            : top_depth    - START DEPTH
STOP.M        545                            : bot_depth    - STOP DEPTH
STEP.M        0.25                           : increment    - STEP LENGTH
 NULL. -999.2500:NULL Value
~CURVE INFORMATION BLOCK
#MNEM UNIT       ERCB CURVE CODE    CURVE DESCRIPTION
#-----------   ------------------   ----------------------------------
DEPT.M        00 001 00 00         : DEPTH        - DEPTH
ILD .OHMM     00 120 00 00         : RESD         - DEEP RESISTIVITY (DIL)
DPHI.V/V      00 890 00 00         : PHID         - DENSITY POROSITY (LIMESTONE)
NPHI.V/V      00 330 00 00         : PHIN         - NEUTRON POROSITY (LIMESTONE)
GR  .API      00 310 00 00         : GR           - GAMMA RAY
CALI.MM       00 280 01 00         : CAL          - CALIPER
~PARAMETER INFORMATION
#MNEM.UNIT           DATA             DESCRIPTION OF MNEMONIC
#---------         -----------     ------------------------------
GL  .M        609.7                : gl           - GROUND LEVEL ELEVATION
EREF.M        613.4                : kb           - ELEVATION OF DEPTH REFERENCE
DATM.M        613.4                : datum        - DATUM ELEVATION
TDD .M        550                  : tdd          - TOTAL DEPTH DRILLER
RUN .         ONE                  : Run          - RUN NUMBER
ENG .         BILL                 : Engineer     - RECORDING ENGINEER
WIT .         JIM                  : Witness      - WITNESSED BY
MUD .         GEL                  : Mud_type     - MUD TYPE
MATR.         LIMESTONE            : Logunit      - NEUTRON MATRIX
TMAX.C        25                   : BHT          - MAXIMUM RECORDED TEMPERATURE
BHTD.M        554.5                : BHTDEP       - MAXIMUM RECORDED TEMPERATURE
MATR.         1                    : LOGUNIT      - NEUTRON MATRIX
RMT .C        25                   : MDTP         - TEMPERATURE OF MUD
NEUT.         1                    : NEUTRON      - NEUTRON TYPE
RESI.         0                    : RESIST       - RESISTIVITY TYPE
RMC .OHMM     0.25                 : RMC          - RESISTIVITY OF MUD CAKE
RMF .OHMM     0.25                 : RMF          - RESISTIVITY OF MUD FILTRATE
SUFT.C        15                   : SUFT         - SURFACE TEMPERATURE
~A  DEPTH     RESD     PHID     PHIN       GR      CAL
  305.000    2.597    0.316    0.587   86.894  158.664
  305.250    2.622    0.345    0.593   87.037  221.401
  305.500    2.636    0.374    0.600   87.305  222.164
  305.750    2.602    0.424    0.604   89.147  218.102
  306.000    2.587    0.379    0.566   90.989  210.161
  306.250    2.582    0.323    0.551   87.924  210.720
  306.500    2.567    0.327    0.532   86.116  211.372
  306.750    2.586    0.316    0.515   86.257  207.732
  307.000    2.641    0.280    0.531   90.301  214.157
  307.250    2.722    0.266    0.550   90.697  216.595
  307.500    2.805    0.270    0.569   89.707  213.898
  307.750    2.924    0.266    0.574   87.459  207.947
  308.000    3.043    0.269    0.583   85.336  213.219
  308.250    3.172    0.331    0.572   83.969  219.644
  308.500    3.239    0.347    0.536   86.879  216.212
  308.750    3.275    0.349    0.508   89.790  209.109
  309.000    3.172    0.338    0.512   90.501  213.856
  309.250    3.094    0.329    0.513   88.503  225.631
  309.500    2.996    0.315    0.533   85.878  220.314
  309.750    2.863    0.311    0.562   88.663  215.201
  310.000    2.788    0.328    0.589   86.353  219.214
  310.250    2.730    0.337    0.581   84.296  215.886
  310.500    2.694    0.341    0.583   83.429  205.951
  310.750    2.658    0.333    0.591   83.447  199.061
  311.000    2.653    0.308    0.574   84.156  199.192
  311.250    2.643    0.306    0.563   84.550  208.136
  311.500    2.658    0.318    0.565   84.567  209.106
  311.750    2.658    0.314    0.548   85.466  205.673
  312.000    2.683    0.298    0.521   86.552  204.653
  312.250    2.818    0.318    0.540   88.708  210.135
  312.500    3.000    0.301    0.563   92.500  204.711
  312.750    3.104    0.290    0.529   97.990  204.530
  313.000    3.193    0.316    0.532  102.223  207.388
  313.250    3.193    0.318    0.527   96.577  211.087
  313.500    3.074    0.326    0.517   85.963  215.520
  313.750    2.965    0.387    0.522   81.825  213.975
  314.000    2.849    0.401    0.547   81.528  232.565
  314.250    2.749    0.408    0.573   78.463  235.739
  314.500    2.702    0.407    0.601   76.024  213.852
  314.750    2.909    0.228    0.468   73.713  194.478
  315.000    3.334    0.154    0.419   80.589  169.339
  315.250    3.820    0.195    0.398   85.766  142.207
  315.500    4.280    0.211    0.393   89.810  148.006
  315.750    4.504    0.218    0.389   84.037  153.169
  316.000    4.686    0.224    0.392   75.120  159.599
  316.250    4.812    0.250    0.395   66.202  160.881
  316.500    4.758    0.303    0.390   69.240  160.599
  316.750    4.598    0.307    0.373   81.213  161.678
  317.000    4.327    0.276    0.350   89.094  162.437
  317.250    4.158    0.262    0.363   87.349  161.520
  317.500    3.928    0.262    0.375   75.410  158.825
  317.750    3.768    0.286    0.389   62.152  155.075
  318.000    3.648    0.299    0.401   51.851  151.014
  318.250    3.539    0.306    0.394   47.022  148.526
  318.500    3.447    0.314    0.375   44.398  148.762
  318.750    3.395    0.319    0.379   41.520  152.880
  319.000    3.318    0.329    0.375   38.705  158.154
  319.250    3.262    0.339    0.391   36.772  160.071
  319.500    3.243    0.341    0.403   35.845  160.622
  319.750    3.219    0.333    0.416   34.478  160.965
  320.000    3.225    0.332    0.402   32.292  160.364
  320.250    3.255    0.322    0.377   30.798  159.974
  320.500    3.317    0.308    0.360   29.622  160.422
  320.750    3.361    0.294    0.351   29.386  161.287
  321.000    3.445    0.315    0.352   29.025  162.158
  321.250    3.524    0.323    0.357   28.539  162.601
  321.500    3.571    0.316    0.362   27.611  162.630
  321.750    3.598    0.309    0.359   24.230  162.345
  322.000    3.597    0.312    0.352   24.437  162.266
  322.250    3.583    0.317    0.345   26.908  163.974
  322.500    3.563    0.310    0.343   28.371  164.106
  322.750    3.570    0.303    0.346   28.137  162.982
  323.000    3.590    0.297    0.343   24.946  163.117
  323.250    3.617    0.298    0.342   23.830  163.567
  323.500    3.623    0.296    0.350   26.427  163.801
  323.750    3.616    0.293    0.363   29.089  164.039
  324.000    3.616    0.289    0.355   30.173  163.648
  324.250    3.644    0.275    0.343   29.749  163.362
  324.500    3.685    0.267    0.337   26.935  163.393
  324.750    3.699    0.279    0.334   26.387  164.257
  325.000    3.727    0.290    0.340   27.285  165.021
  325.250    3.741    0.294    0.351   26.734  165.152
  325.500    3.748    0.289    0.358   34.427  165.180
  325.750    3.797    0.285    0.346   45.707  165.105
  326.000    3.944    0.284    0.332   54.218  165.658
  326.250    4.198    0.243    0.324   61.093  165.789
  326.500    4.418    0.211    0.352   68.160  165.925
  326.750    4.597    0.232    0.369   73.271  166.266
  327.000    4.765    0.243    0.380   76.874  166.294
  327.250    4.902    0.242    0.400   78.027  167.058
  327.500    5.024    0.233    0.402   78.859  167.819
  327.750    5.158    0.222    0.394   87.433  169.108
  328.000    5.237    0.262    0.389   87.576  169.554
  328.250    5.347    0.491    0.413   83.756  170.840
  328.500    5.449    0.551    0.500   81.760  176.531
  328.750    5.511    0.593    0.607   75.169  185.580
  329.000    5.658    0.456    0.591   74.053  194.520
  329.250    5.876    0.370    0.512   81.054  206.819
  329.500    5.955    0.314    0.453   79.751  204.017
  329.750    6.011    0.307    0.432   78.760  198.799
  330.000    6.011    0.319    0.454   82.930  204.071
  330.250    5.754    0.307    0.482   82.129  180.504
  330.500    5.529    0.267    0.503   81.392  165.749
  330.750    5.254    0.240    0.469   81.283  158.436
  331.000    5.068    0.234    0.436   86.145  155.736
  331.250    4.944    0.245    0.444   91.257  161.114
  331.500    4.907    0.251    0.433   83.662  167.224
  331.750    5.096    0.266    0.420   75.625  172.077
  332.000    5.383    0.435    0.432   70.922  176.928
  332.250    5.730    0.407    0.509   82.457  180.836
  332.500    5.996    0.338    0.532   87.756  179.191
  332.750    6.007    0.311    0.484   84.439  177.223
  333.000    5.783    0.307    0.499   79.548  169.805
  333.250    5.568    0.302    0.472   77.174  162.702
  333.500    5.310    0.300    0.440   76.061  162.001
  333.750    4.960    0.321    0.428   76.013  162.131
  334.000    4.885    0.337    0.445   74.330  161.636
  334.250    4.941    0.350    0.456   71.516  160.615
  334.500    4.694    0.343    0.463   70.337  159.911
  334.750    4.546    0.339    0.468   69.977  160.359
  335.000    4.410    0.337    0.458   70.246  160.912
  335.250    4.302    0.325    0.436   72.403  161.670
  335.500    4.278    0.314    0.444   75.880  162.014
  335.750    4.237    0.318    0.435   78.350  161.623
  336.000    4.213    0.318    0.444   77.927  161.235
  336.250    4.253    0.309    0.439   71.968  161.051
  336.500    4.326    0.300    0.420   68.523  160.554
  336.750    4.433    0.289    0.410   74.708  160.584
  337.000    4.467    0.277    0.404   80.008  160.407
  337.250    4.449    0.285    0.401   77.323  160.327
  337.500    4.424    0.299    0.396   74.569  160.251
  337.750    4.382    0.311    0.392   72.698  160.067
  338.000    4.382    0.300    0.412   74.038  159.885
  338.250    4.332    0.301    0.412   74.116  159.600
  338.500    4.267    0.305    0.390   72.372  159.213
  338.750    4.242    0.296    0.377   76.352  159.027
  339.000    4.258    0.294    0.372   80.522  158.953
  339.250    4.298    0.281    0.381   83.938  158.978
  339.500    4.389    0.262    0.394   86.031  158.797
  339.750    4.566    0.248    0.401   86.172  158.514
  340.000    4.689    0.249    0.392   84.742  158.329
  340.250    4.796    0.252    0.411   81.866  157.940
  340.500    4.953    0.243    0.430   78.421  157.653
  340.750    5.057    0.231    0.449   74.979  157.367
  341.000    5.163    0.237    0.449   73.107  156.559
  341.250    5.192    0.256    0.439   73.753  156.270
