~VERSION INFORMATION
 VERS.                 2.0:   CWLS LOG ASCII STANDARD -VERSION 2.0
 WRAP.                  NO:   ONE LINE PER DEPTH STEP
~WELL INFORMATION BLOCK
#MNEM.UNIT           DATA                    DESCRIPTION OF MNEMONIC
#---------    -------------------            -------------------------------
# Generated from Intellog Unique Number	CS_67_68/WELL/834
WELL.         COBRA OIL & GAS  LTD           : Well_name    - WELL
LOC .         00/11-12-068-17W4/0            : Location     - LOCATION
UWI .         00/11-12-068-17W4/0            : Uwi          - UNIQUE WELL ID
ENTR.         SP                             : Entered      - ENTERED BY
SRVC.         SCHLUMBERGER                   : Scn          - SERVICE COMPANY
STRT.M        340                            : top_depth    - START DEPTH
STOP.M        530                            : bot_depth    - STOP DEPTH
STEP.M        0.25                           : increment    - STEP LENGTH
 NULL. -999.2500:NULL Value
~CURVE INFORMATION BLOCK
#MNEM UNIT       ERCB CURVE CODE    CURVE DESCRIPTION
#-----------   ------------------   ----------------------------------
DEPT.M        00 001 00 00         : DEPTH        - DEPTH
ILD .OHMM     00 120 00 00         : RESD         - DEEP RESISTIVITY (DIL)
DPHI.V/V      00 890 00 00         : PHID         - DENSITY POROSITY (LIMESTONE)
NPHI.V/V      00 330 00 00         : PHIN         - NEUTRON POROSITY (LIMESTONE)
GR  .API      00 310 00 00         : GR           - GAMMA RAY
~PARAMETER INFORMATION
#MNEM.UNIT           DATA             DESCRIPTION OF MNEMONIC
#---------         -----------     ------------------------------
GL  .M        595.4                : gl           - GROUND LEVEL ELEVATION
EREF.M        599.2                : kb           - ELEVATION OF DEPTH REFERENCE
DATM.M        595.4                : datum        - DATUM ELEVATION
TDD .M        530                  : tdd          - TOTAL DEPTH DRILLER
RUN .         ONE                  : Run          - RUN NUMBER
ENG .         BILL                 : Engineer     - RECORDING ENGINEER
WIT .         JIM                  : Witness      - WITNESSED BY
MUD .         GEL                  : Mud_type     - MUD TYPE
MATR.         LIMESTONE            : Logunit      - NEUTRON MATRIX
TMAX.C        13                   : BHT          - MAXIMUM RECORDED TEMPERATURE
BHTD.M        530                  : BHTDEP       - MAXIMUM RECORDED TEMPERATURE
MATR.         1                    : LOGUNIT      - NEUTRON MATRIX
RMT .C        25                   : MDTP         - TEMPERATURE OF MUD
NEUT.         1                    : NEUTRON      - NEUTRON TYPE
RESI.         0                    : RESIST       - RESISTIVITY TYPE
RMC .OHMM     0.25                 : RMC          - RESISTIVITY OF MUD CAKE
RMF .OHMM     0.25                 : RMF          - RESISTIVITY OF MUD FILTRATE
SUFT.C        15                   : SUFT         - SURFACE TEMPERATURE
~A  DEPTH     RESD     PHID     PHIN       GR
# ...
  427.000    3.009    0.221    0.453   79.538
  427.250    2.864    0.230    0.439   80.061
  427.500    2.777    0.242    0.435   79.732
  427.750    2.814    0.227    0.443   78.440
  428.000    2.911    0.242    0.442   77.452
  428.250    3.039    0.240    0.429   79.963
  428.500    3.108    0.216    0.433   83.135
  428.750    3.221    0.208    0.442   85.042
  429.000    3.260    0.208    0.448   87.005
  429.250    3.261    0.208    0.453   87.467
  429.500    3.262    0.211    0.453   86.659
  429.750    3.235    0.203    0.450   84.702
  430.000    3.200    0.206    0.441   82.928
  430.250    3.115    0.221    0.429   80.969
  430.500    3.054    0.232    0.419   79.799
  430.750    3.211    0.249    0.409   81.345
  431.000    3.505    0.228    0.403   84.155
  431.250    3.748    0.205    0.402   85.700
  431.500    3.978    0.191    0.407   86.520
  431.750    4.199    0.182    0.414   84.566
  432.000    4.359    0.182    0.410   81.219
  432.250    4.410    0.184    0.407   80.109
  432.500    4.373    0.184    0.403   81.473
  432.750    4.350    0.186    0.401   83.558
  433.000    4.289    0.188    0.405   84.983
  433.250    4.197    0.191    0.416   86.290
  433.500    4.115    0.205    0.435   88.009
  433.750    4.071    0.208    0.450   89.076
  434.000    4.112    0.203    0.445   90.259
  434.250    4.285    0.207    0.450   90.475
  434.500    4.423    0.203    0.454   90.384
  434.750    4.567    0.185    0.456   89.942
  435.000    4.461    0.166    0.435   88.471
  435.250    4.169    0.148    0.416   85.971
  435.500    3.961    0.151    0.428   85.040
  435.750    3.855    0.186    0.450   88.455
  436.000    3.856    0.201    0.454   90.545
  436.250    3.917    0.194    0.432   88.886
  436.500    3.969    0.190    0.430   87.296
  436.750    3.993    0.186    0.450   87.869
  437.000    3.966    0.182    0.464   88.936
  437.250    3.910    0.193    0.470   90.599
  437.500    3.819    0.190    0.444   92.083
  437.750    3.724    0.186    0.431   92.243
  438.000    3.624    0.189    0.430   92.640
  438.250    3.501    0.192    0.447  100.945
  438.500    3.351    0.195    0.462  103.214
  438.750    3.249    0.202    0.471   97.395
  439.000    3.088    0.221    0.477   93.267
  439.250    2.982    0.235    0.485   90.224
  439.500    2.706    0.249    0.471   89.049
  439.750    2.580    0.251    0.474   88.122
  440.000    2.525    0.255    0.478   87.192
  440.250    2.536    0.202    0.482   89.702
  440.500    2.584    0.202    0.493   92.818
  440.750    2.758    0.236    0.498   94.420
  441.000    2.977    0.210    0.474   92.465
  441.250    3.231    0.191    0.462   91.114
  441.500    3.442    0.177    0.459   88.493
  441.750    3.694    0.176    0.457   88.288
  442.000    3.871    0.176    0.454   89.711
  442.250    3.887    0.169    0.451   91.921
  442.500    3.797    0.170    0.457   92.378
  442.750    3.548    0.185    0.445   94.162
  443.000    3.365    0.169    0.451   95.884
  443.250    3.311    0.162    0.461   96.588
  443.500    3.344    0.188    0.472   96.022
  443.750    3.370    0.201    0.469   94.065
  444.000    3.467    0.211    0.460   91.687
  444.250    3.507    0.206    0.454   89.732
  444.500    3.471    0.200    0.458   87.412
  444.750    3.390    0.196    0.452   86.720
  445.000    3.287    0.202    0.444   85.975
  445.250    3.044    0.214    0.455   84.985
  445.500    2.808    0.212    0.466   82.243
  445.750    2.576    0.216    0.469   79.019
  446.000    2.402    0.232    0.477   75.314
  446.250    2.295    0.236    0.468   72.091
  446.500    2.201    0.240    0.457   69.229
  446.750    2.170    0.255    0.447   67.393
  447.000    2.131    0.273    0.441   67.191
  447.250    2.082    0.275    0.442   69.576
  447.500    2.041    0.274    0.448   72.691
  447.750    2.005    0.284    0.445   74.659
  448.000    1.969    0.298    0.438   67.695
  448.250    1.906    0.316    0.433   60.609
  448.500    1.875    0.325    0.434   58.649
  448.750    1.883    0.327    0.427   58.626
  449.000    1.959    0.305    0.423   60.409
  449.250    1.985    0.299    0.433   63.046
  449.500    1.914    0.293    0.444   62.898
  449.750    1.826    0.291    0.444   62.207
  450.000    1.777    0.311    0.458   61.282
  450.250    1.801    0.319    0.458   57.451
  450.500    1.877    0.325    0.445   55.076
  450.750    1.959    0.332    0.434   55.897
  451.000    2.060    0.337    0.434   58.647
  451.250    2.112    0.336    0.453   60.007
  451.500    2.124    0.335    0.462   60.531
  451.750    2.133    0.323    0.471   61.290
  452.000    2.138    0.326    0.474   58.969
  452.250    2.152    0.333    0.468   60.273
  452.500    2.157    0.337    0.462   64.052
  452.750    2.158    0.319    0.464   67.828
  453.000    2.159    0.307    0.471   69.798
  453.250    2.156    0.313    0.466   63.616
  453.500    2.142    0.318    0.461   60.937
  453.750    2.135    0.319    0.470   63.019
  454.000    2.140    0.312    0.456   64.207
  454.250    2.153    0.309    0.446   65.873
  454.500    2.178    0.308    0.439   62.165
  454.750    2.175    0.302    0.445   59.117
  455.000    2.093    0.292    0.451   58.009
  455.250    1.935    0.295    0.442   56.957
  455.500    1.831    0.302    0.432   57.119
  455.750    1.874    0.307    0.425   59.145
  456.000    1.920    0.309    0.427   62.380
  456.250    2.016    0.307    0.437   64.165
  456.500    2.043    0.298    0.440   66.129
  456.750    2.121    0.291    0.438   66.710
  457.000    2.202    0.292    0.432   66.928
  457.250    2.324    0.296    0.423   68.111
  457.500    2.413    0.301    0.417   70.139
  457.750    2.566    0.292    0.432   72.890
  458.000    2.801    0.273    0.441   76.366
  458.250    2.923    0.251    0.431   80.385
  458.500    3.155    0.223    0.425   83.740
  458.750    3.311    0.207    0.432   85.526
  459.000    3.135    0.193    0.439   86.284
  459.250    3.378    0.180    0.425   85.837
  459.500    3.423    0.191    0.433   85.091
  459.750    3.587    0.196    0.442   82.290
  460.000    3.676    0.193    0.436   81.660
  460.250    3.803    0.183    0.428   83.205
  460.500    3.755    0.180    0.421   86.803
  460.750    3.785    0.186    0.432   85.083
  461.000    3.809    0.187    0.438   84.154
  461.250    3.817    0.169    0.430   84.796
  461.500    3.854    0.157    0.425   87.187
  461.750    3.900    0.150    0.418   89.271
  462.000    4.093    0.144    0.419   90.696
  462.250    4.111    0.140    0.426   91.579
  462.500    4.121    0.143    0.427   91.373
  462.750    4.116    0.153    0.426   92.006
  463.000    4.073    0.163    0.432   92.773
  463.250    4.022    0.170    0.442   94.556
  463.500    3.871    0.178    0.448   96.883
  463.750    3.493    0.185    0.445   97.829
  464.000    3.252    0.190    0.456   97.259
  464.250    2.989    0.199    0.477   94.096
  464.500    2.777    0.204    0.509   95.099
  464.750    2.668    0.210    0.540  100.202
  465.000    2.626    0.223    0.559  103.801
  465.250    2.617    0.228    0.533  103.593
  465.500    2.623    0.224    0.520  100.554
  465.750    2.639    0.236    0.536   96.663
  466.000    2.626    0.243    0.555   94.529
  466.250    2.599    0.238    0.573   95.590
  466.500    2.572    0.239    0.538   97.135
  466.750    2.545    0.245    0.524   99.041
  467.000    2.546    0.239    0.512   97.447
  467.250    2.581    0.229    0.504   95.851
  467.500    2.654    0.218    0.495   94.558
  467.750    2.756    0.204    0.482   94.290
  468.000    2.952    0.198    0.464   93.306
  468.250    3.169    0.192    0.444   93.282
  468.500    3.308    0.188    0.436   96.997
  468.750    3.390    0.188    0.443   99.930
  469.000    3.373    0.173    0.446  100.809
  469.250    3.444    0.165    0.444   98.674
  469.500    3.636    0.160    0.444   92.794
  469.750    3.852    0.167    0.441   86.796
  470.000    4.219    0.158    0.417   79.527
  470.250    4.621    0.152    0.376   72.623
