~VERSION INFORMATION
 VERS.                 2.0:   CWLS LOG ASCII STANDARD -VERSION 2.0
 WRAP.                  NO:   ONE LINE PER DEPTH STEP
~WELL INFORMATION BLOCK
#MNEM.UNIT           DATA                    DESCRIPTION OF MNEMONIC
#---------    -------------------            -------------------------------
# Generated from Intellog Unique Number	CW_76_78/WELL/2582
WELL.         BAYSEL WILLOW R                : Well_name    - WELL
LOC .         00/11-25-078-03W5/0            : Location     - LOCATION
UWI .         00/11-25-078-03W5/0            : Uwi          - UNIQUE WELL ID
ENTR.         MAX                            : Entered      - ENTERED BY
SRVC.         SCHLUMBERGER                   : Scn          - SERVICE COMPANY
STRT.M        347.472                        : top_depth    - START DEPTH
STOP.M        609.722                        : bot_depth    - STOP DEPTH
STEP.M        0.25                           : increment    - STEP LENGTH
 NULL. -999.2500:NULL Value
~CURVE INFORMATION BLOCK
#MNEM UNIT       ERCB CURVE CODE    CURVE DESCRIPTION
#-----------   ------------------   ----------------------------------
DEPT.M        00 001 00 00         : DEPTH        - DEPTH
ILD .OHMM     00 120 00 00         : RESD         - DEEP RESISTIVITY (DIL)
NPHI.V/V      00 330 00 00         : PHIN         - NEUTRON POROSITY (SANDSTONE)
DPHI.V/V      00 890 00 00         : PHID         - DENSITY POROSITY (SANDSTONE)
CALI.MM       00 280 01 00         : CAL          - CALIPER
GR  .API      00 310 00 00         : GR           - GAMMA RAY
~PARAMETER INFORMATION
#MNEM.UNIT           DATA             DESCRIPTION OF MNEMONIC
#---------         -----------     ------------------------------
GL  .M        649.102              : gl           - GROUND LEVEL ELEVATION
EREF.M        653.308              : kb           - ELEVATION OF DEPTH REFERENCE
DATM.M        649.102              : datum        - DATUM ELEVATION
TDD .M        619.963              : tdd          - TOTAL DEPTH DRILLER
RUN .         ONE                  : Run          - RUN NUMBER
ENG .         BILL                 : Engineer     - RECORDING ENGINEER
WIT .         JIM                  : Witness      - WITNESSED BY
MUD .         GEL                  : Mud_type     - MUD TYPE
MATR.         SANDSTONE            : Logunit      - NEUTRON MATRIX
TMAX.C        27.2222              : BHT          - MAXIMUM RECORDED TEMPERATURE
BHTD.M        619.963              : BHTDEP       - MAXIMUM RECORDED TEMPERATURE
RMT .C        12.2222              : MDTP         - TEMPERATURE OF MUD
MUDD.KG/M     9100                 : MWT          - MUD DENSITY
NEUT.         1                    : NEUTRON      - NEUTRON TYPE
RESI.         0                    : RESIST       - RESISTIVITY TYPE
RM  .OHMM     0.25                 : RM           - RESISTIVITY OF MUD
RMC .OHMM     0.25                 : RMC          - RESISTIVITY OF MUD CAKE
RMF .OHMM     1.3                  : RMF          - RESISTIVITY OF MUD FILTRATE
SUFT.C        -15                  : SUFT         - SURFACE TEMPERATURE
~A  DEPTH     RESD     PHIN     PHID      CAL       GR
# ...
  566.472    8.530    0.335    0.099  162.865   84.369
  566.722    7.729    0.366    0.118  162.865   85.833
  566.972    7.324    0.398    0.151  163.323   89.957
  567.222    6.756    0.403    0.173  165.302   95.555
  567.472    6.344    0.434    0.181  165.782  100.858
  567.722    6.120    0.475    0.186  168.265  107.640
  567.972    5.957    0.462    0.188  170.247  110.874
  568.222    5.902    0.459    0.181  169.226  104.367
  568.472    6.170    0.474    0.178  168.707   98.448
  568.722    6.745    0.447    0.179  168.687   96.963
  568.972    7.643    0.396    0.166  169.668   93.406
  569.222    8.816    0.381    0.151  170.147   87.196
  569.472   10.168    0.368    0.164  168.629   82.163
  569.722   11.216    0.348    0.153  166.110   84.514
  569.972   12.152    0.295    0.135  165.087   90.410
  570.222   12.149    0.282    0.122  165.571  100.732
  570.472   11.308    0.293    0.127  166.552  106.922
  570.722    8.881    0.327    0.136  168.031  108.977
  570.972    7.037    0.334    0.150  167.513  111.920
  571.222    5.145    0.356    0.147  167.494  118.698
  571.472    4.041    0.391    0.153  166.974  124.002
  571.722    3.439    0.424    0.170  165.455  124.876
  571.972    3.408    0.486    0.187  165.434  123.388
  572.222    3.595    0.545    0.176  165.913  121.607
  572.472    3.826    0.543    0.166  166.897  114.212
  572.722    3.964    0.529    0.160  169.876  108.588
  572.972    4.181    0.544    0.157  168.355  110.351
  573.222    4.411    0.546    0.146  167.837  111.815
  573.472    4.779    0.531    0.136  169.318  109.737
  573.722    5.414    0.518    0.133  169.798  102.341
  573.972    6.080    0.496    0.154  167.777   99.377
  574.222    6.647    0.481    0.179  166.260   97.891
  574.472    6.187    0.490    0.198  166.240   99.651
  574.722    5.758    0.561    0.213  166.221   99.638
  574.972    5.913    0.593    0.263  166.200   98.151
  575.222    6.072    0.649    0.319  166.179   98.436
  575.472    5.910    0.638    0.350  167.661  101.377
  575.722    5.650    0.595    0.356  169.640  109.044
  575.972    5.499    0.519    0.344  169.622  101.648
  576.222    5.597    0.445    0.309  168.605   98.684
  576.472    5.595    0.405    0.199  167.580  101.331
  576.722    5.255    0.406    0.192  167.566  108.111
  576.972    4.804    0.442    0.201  168.543  113.415
  577.222    4.472    0.514    0.229  168.524  122.260
  577.472    4.551    0.611    0.233  168.501  121.954
  577.722    4.887    0.639    0.200  169.485  119.287
  577.972    5.295    0.533    0.150  169.466  116.912
  578.222    5.737    0.562    0.144  168.448  117.488
  578.472    5.945    0.550    0.135  166.929  117.477
  578.722    6.270    0.561    0.156  165.408  118.354
  578.972    6.382    0.530    0.156  163.888  122.477
  579.222    6.853    0.502    0.158  163.367  122.760
  579.472    7.229    0.486    0.150  163.348  116.253
  579.722    8.118    0.503    0.145  163.327   99.115
  579.972    9.448    0.546    0.162  163.327  100.284
  580.222   10.514    0.486    0.190  163.281  108.245
  580.472    8.870    0.393    0.186  163.274  114.435
  580.722    7.755    0.378    0.187  163.274  118.260
  580.972    7.027    0.393    0.192  163.221  120.611
  581.222    6.839    0.405    0.204  163.212  120.010
  581.472    6.716    0.435    0.201  163.212  113.206
  581.722    6.714    0.450    0.200  163.670  106.404
  581.972    7.019    0.471    0.209  163.656  104.031
  582.222    7.538    0.485    0.209  163.624  103.723
  582.472    8.315    0.500    0.206  163.617  106.074
  582.722    9.851    0.481    0.212  163.617  107.834
  582.972   11.776    0.457    0.210  163.070   99.555
  583.222   13.706    0.441    0.213  162.559   90.981
  583.472   16.238    0.450    0.202  162.538   86.541
  583.722   19.940    0.426    0.171  162.538   83.870
  583.972   24.705    0.302    0.120  161.998   84.745
  584.222   21.407    0.250    0.084  161.978   87.391
  584.472   17.898    0.236    0.042  161.945   93.286
  584.722   16.218    0.231    0.031  161.938   93.569
  584.972   14.695    0.281    0.062  161.422   93.852
  585.222   13.078    0.335    0.085  161.404   97.385
  585.472   12.065    0.348    0.107  161.878  103.871
  585.722   10.548    0.355    0.183  161.846  107.991
  585.972    9.140    0.377    0.204  162.341  106.799
  586.222    8.507    0.481    0.236  162.325  105.902
  586.472    9.054    0.522    0.308  162.304  105.005
  586.722    9.810    0.463    0.315  162.783   95.839
  586.972   11.727    0.415    0.231  163.267   91.695
  587.222   12.260    0.383    0.210  163.746   88.431
  587.472   11.514    0.375    0.196  164.223   89.604
  587.722   10.339    0.388    0.173  165.207   91.659
  587.972    8.959    0.370    0.148  166.188  100.802
  588.222    7.626    0.365    0.120  163.667  102.267
  588.472    7.422    0.433    0.154  159.649   98.713
  588.722    7.759    0.512    0.186  158.126  101.947
  588.972    7.827    0.567    0.274  158.107  112.271
  589.222    7.416    0.484    0.285  157.586  118.757
  589.472    7.283    0.419    0.269  157.072  143.548
  589.722    7.281    0.381    0.251  157.040  147.966
  589.972    7.345    0.372    0.236  157.033  147.660
  590.222    7.342    0.354    0.216  157.033  116.349
  590.472    7.473    0.342    0.199  156.987  108.659
  590.722    7.743    0.355    0.173  156.475  103.922
  590.972    8.023    0.351    0.163  157.450  101.255
  591.222    8.239    0.340    0.160  157.936   97.995
  591.472    8.311    0.338    0.173  158.913  100.345
  591.722    8.383    0.336    0.171  160.394  107.125
  591.972    7.264    0.349    0.153  161.378  111.543
  592.222    6.944    0.353    0.134  161.355  121.867
  592.472    6.820    0.357    0.108  160.834  126.875
  592.722    6.879    0.401    0.103  160.813  135.131
  592.972    7.064    0.556    0.179  160.797  136.597
  593.222    7.255    0.575    0.227  160.764  136.288
  593.472    7.383    0.495    0.223  161.257  135.688
  593.722    7.515    0.410    0.179  161.239  134.200
  593.972    7.648    0.385    0.174  161.218  126.508
  594.222    7.854    0.389    0.156  161.699  114.688
  594.472    7.852    0.397    0.129  162.181   99.321
  594.722    7.780    0.391    0.099  162.160  100.196
  594.972    7.709    0.333    0.140  161.639  106.681
  595.222    7.776    0.341    0.182  161.621  110.213
  595.472    7.985    0.337    0.208  162.605  103.407
  595.722    8.200    0.331    0.211  162.581   97.198
  595.972    8.346    0.323    0.207  162.563   91.575
  596.222    8.344    0.321    0.204  162.563   91.266
  596.472    8.194    0.319    0.200  163.026   91.551
  596.722    7.764    0.317    0.201  164.005   93.313
  596.972    7.161    0.318    0.192  164.486  100.093
  597.222    6.548    0.331    0.174  164.468  104.215
  597.472    6.094    0.408    0.132  164.445  105.384
  597.722    5.774    0.406    0.098  164.426  100.352
  597.972    5.423    0.406    0.098  164.410  107.429
  598.222    5.093    0.451    0.120  164.384  115.684
  598.472    4.740    0.437    0.204  163.866  118.031
  598.722    4.572    0.420    0.225  163.852  116.547
  598.972    4.332    0.424    0.219  163.852  114.765
  599.222    4.142    0.412    0.215  163.306  113.572
  599.472    3.960    0.405    0.210  162.787  114.741
  599.722    3.854    0.397    0.206  162.787  117.386
  599.972    3.684    0.413    0.193  162.748  118.853
  600.222    3.586    0.442    0.193  162.232  119.728
  600.472    3.490    0.449    0.209  161.713  121.487
  600.722    3.367    0.438    0.203  161.692  124.132
  600.972    3.306    0.432    0.194  161.671  122.940
  601.222    3.218    0.447    0.185  161.653  114.366
  601.472    3.217    0.458    0.168  161.134  109.628
  601.722    3.216    0.462    0.162  161.114  108.141
  601.972    3.216    0.453    0.171  161.114  106.357
  602.222    3.302    0.435    0.156  161.074  101.623
  602.472    3.361    0.425    0.137  161.058   80.941
  602.722    3.577    0.416    0.080  161.039   64.395
