~VERSION INFORMATION
 VERS.                 2.0:   CWLS LOG ASCII STANDARD -VERSION 2.0
 WRAP.                  NO:   ONE LINE PER DEPTH STEP
~WELL INFORMATION BLOCK
#MNEM.UNIT           DATA                    DESCRIPTION OF MNEMONIC
#---------    -------------------            -------------------------------
# Generated from Intellog Unique Number	CS_77_79/WELL/3306
WELL.         N0RTHSTAR ENERGY CORP.         : Well_name    - WELL
LOC .         00/12-36-079-11W4/0            : Location     - LOCATION
UWI .         00/12-36-079-11W4/0            : Uwi          - UNIQUE WELL ID
ENTR.         JOETTE                         : Entered      - ENTERED BY
SRVC.         SCHLUMBERGER                   : Scn          - SERVICE COMPANY
DATE.         08/24/92                       : Date         - LOG DATE
STRT.M        255                            : top_depth    - START DEPTH
STOP.M        480                            : bot_depth    - STOP DEPTH
STEP.M        0.25                           : increment    - STEP LENGTH
 NULL. -999.2500:NULL Value
~CURVE INFORMATION BLOCK
#MNEM UNIT       ERCB CURVE CODE    CURVE DESCRIPTION
#-----------   ------------------   ----------------------------------
DEPT.M        00 001 00 00         : DEPTH        - DEPTH
GR  .API      00 310 00 00         : GR           - GAMMA RAY
NPHI.V/V      00 330 00 00         : PHIN         - NEUTRON POROSITY (SANDSTONE)
DPHI.V/V      00 890 00 00         : PHID         - DENSITY POROSITY (SANDSTONE)
ILD .OHMM     00 120 00 00         : RESD         - DEEP RESISTIVITY (DIL)
~PARAMETER INFORMATION
#MNEM.UNIT           DATA             DESCRIPTION OF MNEMONIC
#---------         -----------     ------------------------------
GL  .M        682.9                : gl           - GROUND LEVEL ELEVATION
EREF.M        686.3                : kb           - ELEVATION OF DEPTH REFERENCE
DATM.M        686.3                : datum        - DATUM ELEVATION
TDD .M        502                  : tdd          - TOTAL DEPTH DRILLER
RUN .         ONE                  : Run          - RUN NUMBER
ENG .         BILL                 : Engineer     - RECORDING ENGINEER
WIT .         JIM                  : Witness      - WITNESSED BY
MUD .         GEL                  : Mud_type     - MUD TYPE
MATR.         SANDSTONE            : Logunit      - NEUTRON MATRIX
TMAX.C        22                   : BHT          - MAXIMUM RECORDED TEMPERATURE
BHTD.M        502                  : BHTDEP       - MAXIMUM RECORDED TEMPERATURE
MATR.         5.5                  : LOGUNIT      - NEUTRON MATRIX
RMT .C        5.5                  : MDTP         - TEMPERATURE OF MUD
NEUT.         1                    : NEUTRON      - NEUTRON TYPE
RESI.         0                    : RESIST       - RESISTIVITY TYPE
RMC .OHMM     0.33                 : RMC          - RESISTIVITY OF MUD CAKE
RMF .OHMM     0.16                 : RMF          - RESISTIVITY OF MUD FILTRATE
SUFT.C        15                   : SUFT         - SURFACE TEMPERATURE
~A  DEPTH       GR     PHIN     PHID     RESD
# ...
  298.500   94.067    0.412    0.285    6.853
  298.750   97.023    0.407    0.280    7.514
  299.000   97.028    0.436    0.256    8.872
  299.250   94.082    0.450    0.237    9.909
  299.500   90.546    0.443    0.233   10.277
  299.750   90.549    0.425    0.301   10.463
  300.000   90.553    0.417    0.313   10.851
  300.250   90.558    0.408    0.314   11.048
  300.500   91.154    0.400    0.313   11.250
  300.750   91.157    0.407    0.313   11.666
  301.000   89.981    0.415    0.319   12.556
  301.250   82.314    0.408    0.309   13.514
  301.500   55.760    0.388    0.298   14.547
  301.750   45.733    0.380    0.297   16.244
  302.000   45.148    0.377    0.304   17.164
  302.250   45.741    0.377    0.312   18.133
  302.500   46.926    0.380    0.319   18.809
  302.750   46.932    0.392    0.324   19.150
  303.000   45.758    0.390    0.326   18.105
  303.250   43.992    0.380    0.328   17.116
  303.500   42.816    0.375    0.328   16.792
  303.750   42.819    0.383    0.328   17.097
  304.000   43.414    0.397    0.326   18.061
  304.250   44.009    0.403    0.316   18.394
  304.500   44.014    0.389    0.302   18.725
  304.750   43.428    0.383    0.297   19.065
  305.000   44.023    0.389    0.303   19.410
  305.250   44.027    0.392    0.316   20.132
  305.500   44.032    0.399    0.331   21.267
  305.750   46.398    0.411    0.340   22.473
  306.000   45.812    0.419    0.340   23.311
  306.250   44.637    0.417    0.337   24.178
  306.500   45.232    0.408    0.335   25.073
  306.750   47.597    0.396    0.335   24.600
  307.000   47.602    0.388    0.339   24.590
  307.250   46.426    0.390    0.344   23.683
  307.500   45.842    0.388    0.346   22.806
  307.750   45.256    0.378    0.347   22.373
  308.000   43.490    0.392    0.341   22.785
  308.250   45.855    0.403    0.337   23.632
  308.500   55.302    0.402    0.343   24.503
  308.750   57.667    0.404    0.355   24.497
  309.000   59.443    0.414    0.367   23.593
  309.250   56.499    0.426    0.379   22.303
  309.500   55.321    0.426    0.379   21.084
  309.750   57.686    0.388    0.376   20.688
  310.000   56.510    0.389    0.370   20.295
  310.250   54.154    0.389    0.364   20.284
  310.500   51.210    0.382    0.371   19.904
  310.750   53.573    0.399    0.382   19.888
  311.000   59.481    0.398    0.382   19.880
  311.250   60.078    0.398    0.374   19.866
  311.500   60.080    0.401    0.366   20.229
  311.750   60.086    0.407    0.365   20.221
  312.000   59.499    0.406    0.365   20.207
  312.250   58.915    0.393    0.359   20.196
  312.500   60.100    0.369    0.352   20.188
  312.750   60.105    0.360    0.350   20.174
  313.000   60.108    0.358    0.345   20.166
  313.250   58.343    0.365    0.343   20.152
  313.500   56.576    0.384    0.346   20.142
  313.750   53.632    0.401    0.351   19.764
  314.000   53.044    0.393    0.359   19.753
  314.250   55.410    0.386    0.359   19.380
  314.500   54.234    0.377    0.359   19.367
  314.750   54.238    0.377    0.360   19.354
  315.000   54.243    0.386    0.361   19.708
  315.250   51.298    0.395    0.363   19.700
  315.500   46.581    0.393    0.367   19.323
  315.750   43.046    0.393    0.361   18.608
  316.000   43.641    0.396    0.352   18.261
  316.250   44.237    0.394    0.338   17.912
  316.500   44.829    0.384    0.338   17.904
  316.750   46.015    0.384    0.348   17.895
  317.000   53.101    0.388    0.359   17.885
  317.250   55.466    0.389    0.371   18.209
  317.500   53.700    0.389    0.379   18.202
  317.750   51.935    0.391    0.384   18.532
  318.000   50.761    0.402    0.384   18.517
  318.250   50.173    0.413    0.382   18.512
  318.500   47.817    0.417    0.383   18.157
  318.750   47.233    0.418    0.389   18.150
  319.000   46.646    0.424    0.393   17.808
  319.250   47.242    0.431    0.395   17.800
  319.500   48.427    0.442    0.395   17.788
  319.750   49.022    0.441    0.391   17.779
  320.000   48.437    0.442    0.385   18.103
  320.250   46.081    0.440    0.386   18.432
  320.500   43.725    0.433    0.397   18.764
  320.750   44.320    0.424    0.403   19.461
  321.000   44.915    0.411    0.402   19.450
  321.250   44.918    0.412    0.392   19.800
  321.500   44.924    0.437    0.395   19.792
  321.750   45.519    0.431    0.403   19.419
  322.000   44.934    0.419    0.413   19.052
  322.250   44.346    0.425    0.407   19.039
  322.500   41.992    0.431    0.395   19.384
  322.750   39.635    0.435    0.380   19.733
  323.000   41.409    0.424    0.369   20.091
  323.250   44.365    0.410    0.363   20.083
  323.500   43.781    0.414    0.361   20.075
  323.750   43.786    0.421    0.371   20.064
  324.000   43.202    0.430    0.374   19.322
  324.250   43.205    0.439    0.379   18.959
  324.500   43.209    0.447    0.390   18.258
  324.750   43.213    0.454    0.393   18.248
  325.000   42.630    0.448    0.398   17.903
  325.250   43.223    0.445    0.399   17.894
  325.500   43.227    0.437    0.389   17.886
  325.750   41.461    0.428    0.366   18.206
  326.000   40.876    0.421    0.355   18.201
  326.250   40.880    0.425    0.361   18.877
  326.500   42.656    0.427    0.376   19.576
  326.750   42.661    0.430    0.381   19.931
  327.000   42.666    0.432    0.384   19.923
  327.250   41.490    0.434    0.384   19.544
  327.500   39.134    0.434    0.384   18.824
  327.750   36.779    0.426    0.385   18.125
  328.000   37.374    0.417    0.384   17.787
  328.250   41.509    0.407    0.382   17.449
  328.500   43.875    0.397    0.378   17.120
  328.750   43.290    0.396    0.372   17.110
  329.000   42.703    0.404    0.374   17.101
  329.250   40.937    0.404    0.381   17.092
  329.500   40.352    0.400    0.385   17.085
  329.750   44.489    0.405    0.379   17.069
  330.000   47.443    0.399    0.375   17.062
  330.250   48.038    0.410    0.376   17.055
  330.500   42.142    0.432    0.380   17.048
  330.750   40.376    0.429    0.380   17.038
  331.000   39.790    0.422    0.380   17.345
  331.250   41.565    0.418    0.385   17.660
  331.500   42.752    0.422    0.403   17.980
  331.750   42.755    0.432    0.398   18.306
  332.000   41.581    0.438    0.391   18.299
  332.250   39.813    0.438    0.382   17.948
  332.500   37.457    0.414    0.377   17.944
  332.750   37.462    0.411    0.377   17.605
  333.000   39.237    0.401    0.377   17.273
  333.250   41.012    0.411    0.376   16.946
  333.500   38.656    0.417    0.377   16.933
  333.750   38.072    0.421    0.378   16.926
  334.000   38.667    0.429    0.377   17.230
  334.250   41.031    0.435    0.372   17.545
  334.500   42.807    0.445    0.359   18.195
  334.750   42.810    0.424    0.352   18.525
  335.000   42.815    0.423    0.384   18.863
  335.250   44.592    0.428    0.389   18.851
  335.500   48.727    0.416    0.386   17.822
  335.750   49.912    0.454    0.383   15.942
  336.000   46.378    0.452    0.382   13.996
  336.250   45.790    0.433    0.378   13.730
  336.500   45.206    0.430    0.384   13.723
  336.750   48.753    0.429    0.386   14.231
  337.000   51.117    0.429    0.387   14.493
  337.250   55.253    0.429    0.383   14.485
  337.500   55.257    0.426    0.378   14.748
  337.750   53.492    0.423    0.376   14.465
  338.000   52.315    0.418    0.377   14.461
  338.250   50.550    0.423    0.382   13.926
  338.500   49.964    0.426    0.382   13.921
  338.750   52.330    0.429    0.379   13.656
  339.000   52.334    0.431    0.377   13.900
  339.250   52.928    0.432    0.367   14.420
  339.500   55.296    0.423    0.350   14.956
  339.750   56.481    0.300    0.293   13.626
  340.000   52.943    0.260    0.163   11.744
  340.250   48.226    0.267    0.090    9.936
  340.500   43.511    0.299    0.112    7.805
  340.750   55.908    0.373    0.213    7.245
  341.000   70.077    0.438    0.294    6.848
  341.250   75.394    0.466    0.319    6.846
  341.500   72.448    0.494    0.330    7.504
  341.750   70.092    0.464    0.338    8.077
