~VERSION INFORMATION
 VERS.                 2.0:   CWLS LOG ASCII STANDARD -VERSION 2.0
 WRAP.                  NO:   ONE LINE PER DEPTH STEP
~WELL INFORMATION BLOCK
#MNEM.UNIT           DATA                    DESCRIPTION OF MNEMONIC
#---------    -------------------            -------------------------------
# Generated from Intellog Unique Number	CW_76_78/WELL/2822
WELL.         PELICAN EAST 11-36             : Well_name    - WELL
LOC .         00/11-36-078-21W4/0            : Location     - LOCATION
UWI .         00/11-36-078-21W4/0            : Uwi          - UNIQUE WELL ID
ENTR.         JJ                             : Entered      - ENTERED BY
SRVC.         WESTERN ATLAS                  : Scn          - SERVICE COMPANY
DATE.         15 MAR 77                      : Date         - LOG DATE
STRT.M        198.12                         : top_depth    - START DEPTH
STOP.M        399.37                         : bot_depth    - STOP DEPTH
STEP.M        0.25                           : increment    - STEP LENGTH
 NULL. -999.2500:NULL Value
~CURVE INFORMATION BLOCK
#MNEM UNIT       ERCB CURVE CODE    CURVE DESCRIPTION
#-----------   ------------------   ----------------------------------
DEPT.M        00 001 00 00         : DEPTH        - DEPTH
ILD .OHMM     00 120 00 00         : RESD         - DEEP RESISTIVITY (DIL)
CALI.MM       00 280 01 00         : CAL          - CALIPER
GR  .API      00 310 00 00         : GR           - GAMMA RAY
NPHI.V/V      00 330 00 00         : PHIN         - NEUTRON POROSITY (SANDSTONE)
DPHI.V/V      00 890 00 00         : PHID         - DENSITY POROSITY (SANDSTONE)
~PARAMETER INFORMATION
#MNEM.UNIT           DATA             DESCRIPTION OF MNEMONIC
#---------         -----------     ------------------------------
GL  .M        561.35               : gl           - GROUND LEVEL ELEVATION
EREF.M        565.343              : kb           - ELEVATION OF DEPTH REFERENCE
DATM.M        565.343              : datum        - DATUM ELEVATION
TDD .M        508.406              : tdd          - TOTAL DEPTH DRILLER
RUN .         ONE                  : Run          - RUN NUMBER
ENG .         OFFORD               : Engineer     - RECORDING ENGINEER
BASE.         BROOKS               : Branch       - HOME BASE OF LOGGING UNIT
MATR.         SANDSTONE            : Logunit      - NEUTRON MATRIX
TMAX.C        20                   : BHT          - MAXIMUM RECORDED TEMPERATURE
BHTD.M        505.054              : BHTDEP       - MAXIMUM RECORDED TEMPERATURE
RMT .C        20                   : MDTP         - TEMPERATURE OF MUD
MUDD.KG/M     1044                 : MWT          - MUD DENSITY
NEUT.         1                    : NEUTRON      - NEUTRON TYPE
RESI.         0                    : RESIST       - RESISTIVITY TYPE
RM  .OHMM     9                    : RM           - RESISTIVITY OF MUD
RMC .OHMM     0                    : RMC          - RESISTIVITY OF MUD CAKE
RMF .OHMM     0                    : RMF          - RESISTIVITY OF MUD FILTRATE
SUFT.C        5                    : SUFT         - SURFACE TEMPERATURE
~A  DEPTH     RESD      CAL       GR     PHIN     PHID
# ...
  307.620    8.119  217.573  106.091    0.394    0.273
  307.870    8.094  207.724  105.571    0.395    0.257
  308.120    8.144  204.335  102.772    0.396    0.256
  308.370    8.209  207.727   99.235    0.402    0.312
  308.620    8.184  203.718   96.926    0.412    0.347
  308.870    8.339  205.655   94.374    0.418    0.483
  309.120    8.544  215.823   92.745    0.418    0.501
  309.370    8.544  211.612   91.850    0.413    0.517
  309.620    9.681  225.221   91.271    0.404    0.396
  309.870   10.190  193.786   92.411    0.397    0.408
  310.120   11.640  189.145   93.736    0.386    0.445
  310.370   12.123  174.806   95.990    0.379    0.303
  310.620   11.551  167.667   97.626    0.363    0.213
  310.870   10.500  176.385   98.894    0.355    0.266
  311.120   10.469  181.441   97.998    0.361    0.302
  311.370   11.022  184.750   95.199    0.377    0.222
  311.620   11.603  183.851   93.258    0.390    0.214
  311.870   12.064  181.610   87.195    0.379    0.197
  312.120   12.136  173.632   81.806    0.311    0.063
  312.370   12.144  174.845   87.200    0.288    0.074
  312.620   11.999  186.371   93.332    0.252    0.225
  312.870   11.748  197.797  101.618    0.375    0.257
  313.120   11.381  206.206   99.928    0.431    0.276
  313.370   11.101  210.636   99.161    0.435    0.291
  313.620   10.674  214.145  100.364    0.436    0.320
  313.870   10.190  216.693  103.851    0.445    0.360
  314.120    9.905  221.024  106.096    0.451    0.354
  314.370    9.610  224.113  106.567    0.453    0.349
  314.620    9.427  226.039  105.119    0.452    0.331
  314.870    9.349  228.185  103.424    0.450    0.301
  315.120    9.270  230.221  102.968    0.446    0.289
  315.370    9.270  232.153  103.310    0.443    0.279
  315.620    9.268  234.093  102.785    0.440    0.262
  315.870    9.340  235.085  101.777    0.435    0.241
  316.120    9.414  236.089  101.379    0.436    0.229
  316.370    9.423  236.767  101.164    0.441    0.227
  316.620    9.394  237.659  100.948    0.435    0.235
  316.870    9.364  239.181  101.352    0.428    0.370
  317.120    9.255  240.584  101.569    0.436    0.382
  317.370    9.193  246.794  100.987    0.454    0.385
  317.620    9.150  258.014   99.790    0.456    0.376
  317.870    9.154  267.349   97.788    0.452    0.360
  318.120    9.230  238.833   94.070    0.448    0.334
  318.370    9.318  247.961   94.899    0.450    0.381
  318.620    9.392  272.941   95.488    0.455    0.415
  318.870    9.392  255.264   95.274    0.460    0.377
  319.120    9.106  255.010   98.084    0.464    0.342
  319.370    8.833  265.186  100.452    0.464    0.564
  319.620    8.477  269.314  102.703    0.464    0.496
  319.870    8.092  284.594  105.201    0.464    0.417
  320.120    7.450  268.486   98.705    0.466    0.422
  320.370    6.846  241.628   95.412    0.469    0.426
  320.620    6.463  257.342   97.729    0.474    0.440
  320.870    5.875  259.059  100.469    0.475    0.445
  321.120    5.360  287.484  102.043    0.476    0.454
  321.370    5.248  255.100   99.989    0.476    0.461
  321.620    5.887  242.222  100.322    0.475    0.455
  321.870    7.011  207.862  105.098    0.474    0.443
  322.120    8.336  201.658  107.410    0.471    0.450
  322.370    9.540  209.022  102.886    0.434    0.190
  322.620   10.683  204.693   97.193    0.425    0.175
  322.870   11.087  209.447  100.489    0.418    0.193
  323.120   10.914  210.026  104.279    0.435    0.260
  323.370   10.551  209.041  102.282    0.445    0.281
  323.620   10.329  208.689  102.687    0.444    0.266
  323.870   10.023  208.534  105.246    0.440    0.236
  324.120    9.797  208.168  104.724    0.429    0.263
  324.370    9.697  207.909  102.175    0.422    0.309
  324.620    9.650  207.334  103.316    0.425    0.355
  324.870    9.693  206.146  105.253    0.420    0.317
  325.120    9.787  204.537  107.198    0.413    0.252
  325.370   10.046  200.635  110.065    0.406    0.234
  325.620   10.217  197.339  108.556    0.394    0.232
  325.870   10.488  193.023  106.682    0.391    0.238
  326.120   10.843  191.612  107.519    0.383    0.263
  326.370   11.129  189.799  108.781    0.387    0.280
  326.620   11.653  187.768  108.073    0.397    0.279
  326.870   12.538  185.945   99.732    0.409    0.271
  327.120   14.376  181.932   92.926    0.391    0.185
  327.370   13.235  179.897   95.114    0.350    0.113
  327.620   12.139  189.145   98.722    0.324    0.194
  327.870   11.015  193.360  107.131    0.414    0.217
  328.120   10.942  198.758  106.866    0.426    0.218
  328.370   11.008  201.419  106.712    0.429    0.212
  328.620   11.116  203.452  106.377    0.432    0.206
  328.870   11.327  205.174  105.299    0.436    0.199
  329.120   11.990  207.211  103.175    0.439    0.195
  329.370   12.855  209.665   99.141    0.445    0.185
  329.620   13.099  212.019   97.942    0.438    0.182
  329.870   12.347  215.930  100.561    0.429    0.202
  330.120   12.243  220.574  104.290    0.419    0.219
  330.370   12.682  225.012  103.589    0.426    0.228
  330.620   12.898  225.279  102.817    0.427    0.230
  330.870   12.723  226.070  101.806    0.430    0.232
  331.120   12.456  227.072   99.684    0.439    0.239
  331.370   12.065  227.534   97.437    0.438    0.244
  331.620   11.835  227.596   98.707    0.434    0.250
  331.870   11.586  227.965  100.952    0.429    0.257
  332.120   11.243  228.125  102.222    0.426    0.255
  332.370   10.810  227.447  103.360    0.429    0.218
  332.620   10.432  227.500  104.872    0.436    0.162
  332.870   10.364  228.816  107.799    0.442    0.176
  333.120   10.541  230.016  108.638    0.442    0.194
  333.370   10.625  230.277  107.866    0.440    0.222
  333.620   10.199  230.449  106.121    0.439    0.232
  333.870   10.077  230.725  105.597    0.443    0.236
  334.120   10.177  230.980  106.304    0.447    0.233
  334.370   10.218  231.232  106.834    0.452    0.234
  334.620   10.643  231.726  106.437    0.459    0.255
  334.870   10.806  231.973  107.204    0.463    0.271
  335.120   10.792  232.141  107.733    0.462    0.280
  335.370   10.321  232.505  106.841    0.454    0.288
  335.620   10.349  232.046  107.489    0.451    0.298
  335.870   10.449  231.682  108.632    0.447    0.299
  336.120   10.533  231.642  106.208    0.445    0.239
  336.370   10.538  230.441  104.328    0.452    0.233
  336.620   10.414  227.883  102.879    0.454    0.223
  336.870   10.288  224.289  101.681    0.452    0.192
  337.120    9.983  220.487  100.608    0.448    0.184
  337.370    9.495  230.142  100.517    0.440    0.230
  337.620    9.347  252.206  107.509    0.437    0.263
  337.870    9.269  259.875  100.277    0.475    0.285
  338.120    9.309  258.992   99.816    0.429    0.293
  338.370    9.556  225.984   98.620    0.421    0.291
  338.620    9.862  220.314  103.455    0.420    0.317
  338.870    9.637  218.798  108.357    0.425    0.318
  339.120    9.102  215.838  107.278    0.423    0.313
  339.370    9.024  212.969  107.374    0.417    0.322
  339.620    9.281  211.038  107.223    0.407    0.316
  339.870    9.541  208.597  105.038    0.408    0.317
  340.120   10.380  202.284   99.964    0.413    0.356
  340.370   11.270  205.787   95.003    0.414    0.390
  340.620   12.326  200.418   87.833    0.406    0.367
  340.870   13.166  192.131   82.443    0.399    0.113
  341.120   13.055  190.105   82.106    0.391    0.112
  341.370   11.402  180.770   85.777    0.383    0.171
  341.620   10.422  187.395   90.487    0.391    0.260
  341.870   10.524  194.546   95.573    0.400    0.293
  342.120   11.061  193.776   95.547    0.400    0.337
  342.370   12.162  191.748   97.795    0.395    0.282
  342.620   13.374  189.933   92.841    0.391    0.270
  342.870   15.113  189.682   84.620    0.390    0.265
  343.120   16.469  189.619   76.401    0.386    0.245
  343.370   16.872  189.367   68.485    0.294    0.035
  343.620   16.462  194.116   68.026    0.260    0.187
  343.870   15.488  202.196   72.679    0.239    0.235
