~VERSION INFORMATION
 VERS.                 2.0:   CWLS LOG ASCII STANDARD -VERSION 2.0
 WRAP.                  NO:   ONE LINE PER DEPTH STEP
~WELL INFORMATION BLOCK
#MNEM.UNIT           DATA                    DESCRIPTION OF MNEMONIC
#---------    -------------------            -------------------------------
# Generated from Intellog Unique Number	CW_82_90/WELL/2590
WELL.         SUN BA WABASCA 10-01           : Well_name    - WELL
LOC .         00/10-01-082-22W4/0            : Location     - LOCATION
UWI .         00/10-01-082-22W4/0            : Uwi          - UNIQUE WELL ID
ENTR.         JJ                             : Entered      - ENTERED BY
SRVC.         SCHLUMBERGER                   : Scn          - SERVICE COMPANY
DATE.         20 MAR 66                      : Date         - LOG DATE
STRT.M        295.656                        : top_depth    - START DEPTH
STOP.M        423.656                        : bot_depth    - STOP DEPTH
STEP.M        0.25                           : increment    - STEP LENGTH
 NULL. -999.2500:NULL Value
~CURVE INFORMATION BLOCK
#MNEM UNIT       ERCB CURVE CODE    CURVE DESCRIPTION
#-----------   ------------------   ----------------------------------
DEPT.M        00 001 00 00         : DEPTH        - DEPTH
DELT.US/F     00 520 00 00         : DELT         - SONIC TRAVEL TIME
GR  .API      00 310 00 00         : GR           - GAMMA RAY
ILD .OHMM     00 120 00 00         : RESD         - DEEP RESISTIVITY (DIL)
~PARAMETER INFORMATION
#MNEM.UNIT           DATA             DESCRIPTION OF MNEMONIC
#---------         -----------     ------------------------------
GL  .M        613.867              : gl           - GROUND LEVEL ELEVATION
EREF.M        617.891              : kb           - ELEVATION OF DEPTH REFERENCE
DATM.M        617.891              : datum        - DATUM ELEVATION
TDD .M        427.025              : tdd          - TOTAL DEPTH DRILLER
RUN .         ONE                  : Run          - RUN NUMBER
ENG .         BLACKBURN            : Engineer     - RECORDING ENGINEER
WIT .         BRADY & MOORE        : Witness      - WITNESSED BY
BASE.         EDMONTON             : Branch       - HOME BASE OF LOGGING UNIT
MUD .         GEL CHEM             : Mud_type     - MUD TYPE
MATR.         SANDSTONE            : Logunit      - NEUTRON MATRIX
TMAX.C        17.7778              : BHT          - MAXIMUM RECORDED TEMPERATURE
BHTD.M        426.72               : BHTDEP       - MAXIMUM RECORDED TEMPERATURE
RMT .C        13.8889              : MDTP         - TEMPERATURE OF MUD
MUDD.KG/M     1128                 : MWT          - MUD DENSITY
NEUT.         1                    : NEUTRON      - NEUTRON TYPE
RESI.         0                    : RESIST       - RESISTIVITY TYPE
RM  .OHMM     2.27                 : RM           - RESISTIVITY OF MUD
RMC .OHMM     0                    : RMC          - RESISTIVITY OF MUD CAKE
RMF .OHMM     0                    : RMF          - RESISTIVITY OF MUD FILTRATE
SUFT.C        5                    : SUFT         - SURFACE TEMPERATURE
~A  DEPTH     DELT       GR     RESD
  295.656  401.232   50.346   11.180
  295.906  400.545   51.055   10.921
  296.156  400.391   51.816   10.905
  296.406  402.646   53.628   11.116
  296.656  403.377   53.096   11.719
  296.906  367.572   51.033   13.166
  297.156  337.542   48.364   15.024
  297.406  218.131   44.998   17.357
  297.656  213.425   42.479   20.122
  297.906  209.376   42.585   24.451
  298.156  205.598   41.423   27.752
  298.406  200.804   39.639   29.343
  298.656  196.942   37.281   30.748
  298.906  194.790   35.957   29.705
  299.156  192.624   35.776   27.755
  299.406  191.407   36.419   25.373
  299.656  205.017   38.138   23.361
  299.906  229.297   39.995   21.041
  300.156  260.902   41.793   18.124
  300.406  301.571   43.837   13.827
  300.656  332.430   46.942   11.611
  300.906  377.391   49.594   10.546
  301.156  390.799   52.986    9.976
  301.406  392.592   52.749    9.818
  301.656  392.836   52.519    9.988
  301.906  392.692   57.015   10.284
  302.156  393.267   59.061   10.453
  302.406  397.017   55.302   10.646
  302.656  402.423   51.036   10.754
  302.906  404.157   53.090   10.780
  303.156  402.668   52.911   10.828
  303.406  399.872   50.886   10.854
  303.656  399.735   47.285   10.839
  303.906  401.196   47.799   10.723
  304.156  403.168   50.486   10.584
  304.406  403.697   51.304   10.507
  304.656  403.556   50.172    9.777
  304.906  403.324   49.639    9.799
  305.156  403.719   48.674    9.723
  305.406  398.592   47.136    9.565
  305.656  397.906   50.589    9.715
  305.906  405.265   50.405    9.803
  306.156  408.003   55.483    9.809
  306.406  408.781   55.256    9.794
  306.656  406.346   53.132    9.780
  306.906  403.773   52.956    9.828
  307.156  403.560   55.507    9.854
  307.406  404.143   56.664    9.840
  307.656  404.056   55.388    9.804
  307.906  402.086   54.261    9.770
  308.156  399.569   54.472    9.714
  308.406  399.897   53.044    9.637
  308.656  402.363   52.762    9.644
  308.906  407.184   56.009    9.649
  309.156  412.737   53.597    9.656
  309.406  409.082   53.710    9.641
  309.656  406.383   55.310    9.647
  309.906  403.817   54.139    9.612
  310.156  404.116   53.361    9.577
  310.406  404.241   56.656    9.521
  310.656  403.137   60.198    9.404
  310.906  400.444   56.185    9.286
  311.156  400.353   51.481    9.189
  311.406  404.678   59.299    9.051
  311.656  406.956   58.667    9.037
  311.906  409.153   58.592    9.003
  312.156  410.957   57.213    9.235
  312.406  411.927   56.280    9.570
  312.656  411.837   55.897    9.597
  312.906  410.476   56.607    8.800
  313.156  409.599   60.300    7.900
  313.406  414.014   62.506    6.733
  313.656  426.349   67.349    5.936
  313.906  429.743   73.969    4.933
  314.156  439.259   80.049    4.301
  314.406  439.379   81.859    3.813
  314.656  435.737   77.549    3.778
  314.906  441.692   71.259    4.196
  315.156  432.542   66.002    4.635
  315.406  416.473   59.113    5.011
  315.656  391.951   50.623    5.264
  315.906  331.171   47.017    5.538
  316.156  358.677   64.070    5.235
  316.406  411.829   70.455    4.912
  316.656  417.989   72.947    5.063
  316.906  383.794   69.838    5.479
  317.156  396.465   68.318    6.145
  317.406  400.938   65.143    6.769
  317.656  404.148   65.060    7.145
  317.906  400.030   71.486    7.398
  318.156  406.383   73.796    7.466
  318.406  412.207   70.534    7.472
  318.656  412.987   69.546    7.437
  318.906  408.003   73.838    7.361
  319.156  414.294   75.152    7.532
  319.406  413.940   71.736    7.744
  319.656  406.532   65.044    7.791
  319.906  402.494   66.150    7.714
  320.156  412.873   74.711    7.761
  320.406  410.890   76.966    7.871
  320.656  406.323   71.770    7.857
  320.906  397.514   74.164    7.924
  321.156  402.258   81.736    7.971
  321.406  405.597   79.861    7.977
  321.656  408.935   76.260    7.902
  321.906  410.783   74.977    7.866
  322.156  405.270   73.054    7.811
  322.406  401.492   69.793    7.735
  322.656  403.819   76.659    7.679
  322.906  408.826   82.796    7.622
  323.156  410.203   76.445    7.650
  323.406  410.343   75.176    7.800
  323.656  401.983   71.754    8.320
  323.906  392.709   67.594    8.862
  324.156  392.291   72.083    8.477
  324.406  401.061   68.530    7.784
  324.656  413.050   77.835    7.274
  324.906  421.032   83.721    6.807
  325.156  425.356   85.718    6.463
  325.406  416.158   78.523    6.470
  325.656  402.780   70.900    6.785
  325.906  395.497   66.089    7.368
  326.156  389.244   62.320    8.011
  326.406  382.443   57.018    8.738
  326.656  378.649   53.912    9.423
  326.906  378.428   56.800    9.677
  327.156  380.305   61.895    9.579
  327.406  385.380   65.927    9.462
  327.656  388.927   63.260    9.323
  327.906  392.459   64.721    9.145
  328.156  386.184   59.564    8.863
  328.406  382.868   62.615    8.560
  328.656  381.916   65.367    8.339
  328.906  383.375   60.312    8.201
  329.156  384.372   62.016    8.002
  329.406  384.085   63.524    8.028
  329.656  380.311   63.600    8.796
  329.906  340.007   65.440    9.419
  330.156  325.419   65.511    8.726
  330.406  357.828   63.643    8.176
  330.656  375.260   69.171    8.202
  330.906  387.866   68.884    8.127
  331.156  383.752   64.178    7.351
  331.406  381.179   65.447    6.575
  331.656  384.579   69.084    5.880
  331.906  397.120   73.022    5.002
  332.156  427.447   75.532    4.267
  332.406  442.465   77.984    3.778
  332.656  446.398   82.118    3.475
  332.906  441.215   79.553    3.914
  333.156  374.529   68.731    4.867
  333.406  297.767   57.016    6.602
  333.656  303.720   47.594    8.214
  333.906  366.673   52.576    9.805
  334.156  395.057   67.056   10.079
  334.406  407.596   72.786    9.592
  334.656  405.682   68.876    9.124
  334.906  404.803   63.430    8.595
  335.156  405.983   60.413    8.087
  335.406  411.205   65.501    7.661
  335.656  413.872   72.474    7.379
  335.906  410.351   76.064    7.096
  336.156  406.116   69.273    6.896
  336.406  405.765   62.682    6.757
  336.656  411.906   67.214    6.744
  336.906  412.766   72.597    6.688
  337.156  408.715   64.918    6.550
  337.406  408.160   67.470    6.185
  337.656  416.206   74.737    5.636
  337.906  417.715   76.693    5.518
  338.156  413.796   76.557    5.606
  338.406  408.897   74.578    5.902
  338.656  400.815   72.919    6.175
  338.906  398.298   72.482    6.427
  339.156  396.686   71.562    6.886
  339.406  399.350   71.318    7.160
  339.656  406.171   73.618    7.310
  339.906  406.832   76.773    7.378
  340.156  400.769   77.678    7.179
  340.406  408.801   80.081    6.938
  340.656  414.555   75.717    6.594
  340.906  416.945   76.526    6.292
  341.156  412.372   80.578    6.050
  341.406  407.584   81.541    5.932
  341.656  405.932   79.457    5.939
  341.906  406.606   76.747    5.985
  342.156  404.221   79.641    6.095
  342.406  398.035   79.457    6.348
  342.656  391.630   74.209    6.869
  342.906  383.358   69.013    7.698
  343.156  380.259   64.805    8.014
  343.406  393.730   62.919    8.184
  343.656  395.188   75.957    9.693
  343.906  306.412   65.592   11.572
  344.156  222.132   56.961   14.234
  344.406  224.638   48.080   18.482
  344.656  226.983   41.582   42.677
  344.906  226.696   44.950   46.307
  345.156  224.802   46.342   48.474
  345.406  239.418   46.108   39.525
  345.656  272.571   48.559   30.555
  345.906  308.270   57.166   19.835
  346.156  365.119   67.769   15.498
  346.406  385.912   72.260   13.013
  346.656  393.812   73.415   11.042
  346.906  391.303   71.194    9.257
  347.156  385.835   72.603    8.729
  347.406  382.338   73.212    8.755
  347.656  374.999   67.367    9.050
  347.906  372.759   63.755    9.426
  348.156  381.061   64.815   10.091
  348.406  383.202   70.443   10.735
  348.656  379.536   70.608   11.194
  348.906  382.947   68.946   11.303
  349.156  388.502   71.140   10.981
  349.406  389.219   72.504   10.739
  349.656  392.832   70.734   10.374
