~VERSION INFORMATION
 VERS.                 2.0:   CWLS LOG ASCII STANDARD -VERSION 2.0
 WRAP.                  NO:   ONE LINE PER DEPTH STEP
~WELL INFORMATION BLOCK
#MNEM.UNIT           DATA                    DESCRIPTION OF MNEMONIC
#---------    -------------------            -------------------------------
# Generated from Intellog Unique Number	CN_94_101/WELL/3622
WELL.         TEXACO CANADA RESOURCES LTD.   : Well_name    - WELL
LOC .         00/11-12-096-18W4/0            : Location     - LOCATION
UWI .         00/11-12-096-18W400            : Uwi          - UNIQUE WELL ID
ENTR.         T                              : Entered      - ENTERED BY
SRVC.         SCHLUMBERGER                   : Scn          - SERVICE COMPANY
DATE.         04/22/92                       : Date         - LOG DATE
STRT.M        275                            : top_depth    - START DEPTH
STOP.M        450                            : bot_depth    - STOP DEPTH
STEP.M        0.25                           : increment    - STEP LENGTH
 NULL. -999.2500:NULL Value
~CURVE INFORMATION BLOCK
#MNEM UNIT       ERCB CURVE CODE    CURVE DESCRIPTION
#-----------   ------------------   ----------------------------------
DEPT.M        00 001 00 00         : DEPTH        - DEPTH
GR  .API      00 310 00 00         : GR           - GAMMA RAY
NPHI.V/V      00 330 00 00         : PHIN         - NEUTRON POROSITY (SANDSTONE)
DPHI.V/V      00 890 00 00         : PHID         - DENSITY POROSITY (SANDSTONE)
ILD .OHMM     00 120 00 00         : RESD         - DEEP RESISTIVITY (DIL)
~PARAMETER INFORMATION
#MNEM.UNIT           DATA             DESCRIPTION OF MNEMONIC
#---------         -----------     ------------------------------
GL  .M        0                    : gl           - GROUND LEVEL ELEVATION
EREF.M        725.6                : kb           - ELEVATION OF DEPTH REFERENCE
DATM.M        725.6                : datum        - DATUM ELEVATION
TDD .M        450                  : tdd          - TOTAL DEPTH DRILLER
RUN .         ONE                  : Run          - RUN NUMBER
ENG .         BILL                 : Engineer     - RECORDING ENGINEER
WIT .         JIM                  : Witness      - WITNESSED BY
MUD .         GEL                  : Mud_type     - MUD TYPE
MATR.         SANDSTONE            : Logunit      - NEUTRON MATRIX
TMAX.C        6                    : BHT          - MAXIMUM RECORDED TEMPERATURE
BHTD.M        450                  : BHTDEP       - MAXIMUM RECORDED TEMPERATURE
RMT .C        6                    : MDTP         - TEMPERATURE OF MUD
MUDD.KG/M     1050                 : MWT          - MUD DENSITY
NEUT.         1                    : NEUTRON      - NEUTRON TYPE
RESI.         0                    : RESIST       - RESISTIVITY TYPE
RM  .OHMM     17                   : RM           - RESISTIVITY OF MUD
RMC .OHMM     17                   : RMC          - RESISTIVITY OF MUD CAKE
RMF .OHMM     17                   : RMF          - RESISTIVITY OF MUD FILTRATE
SUFT.C        4                    : SUFT         - SURFACE TEMPERATURE
~A  DEPTH       GR     PHIN     PHID     RESD
# ...
  318.500   84.163    0.545    0.286    5.838
  318.750   82.921    0.556    0.280    5.730
  319.000   81.060    0.572    0.279    5.731
  319.250   79.199    0.585    0.277    5.625
  319.500   79.818    0.595    0.268    5.625
  319.750   82.918    0.595    0.263    5.419
  320.000   84.777    0.592    0.257    5.220
  320.250   83.536    0.593    0.241    5.028
  320.500   83.535    0.593    0.222    4.844
  320.750   84.774    0.583    0.198    4.844
  321.000   86.633    0.574    0.179    4.755
  321.250   88.493    0.580    0.158    4.845
  321.500   87.872    0.587    0.171    5.126
  321.750   86.010    0.572    0.256    5.224
  322.000   84.769    0.559    0.265    5.424
  322.250   84.768    0.565    0.265    5.528
  322.500   86.007    0.570    0.264    5.740
  322.750   87.246    0.577    0.267    5.960
  323.000   87.246    0.581    0.272    5.960
  323.250   86.625    0.586    0.274    5.961
  323.500   86.004    0.591    0.277    5.742
  323.750   84.763    0.590    0.280    5.636
  324.000   84.762    0.586    0.284    5.429
  324.250   84.140    0.581    0.286    5.329
  324.500   86.620    0.577    0.286    5.330
  324.750   90.959    0.580    0.285    5.330
  325.000   95.919    0.584    0.285    5.331
  325.250   95.918    0.587    0.284    5.331
  325.500   94.677    0.591    0.284    5.332
  325.750   93.436    0.591    0.283    5.233
  326.000   90.954    0.592    0.282    5.234
  326.250   90.334    0.595    0.280    5.137
  326.500   87.852    0.596    0.278    5.042
  326.750   85.991    0.596    0.275    5.043
  327.000   84.130    0.593    0.269    5.044
  327.250   82.269    0.592    0.225    5.044
  327.500   80.407    0.590    0.185    5.045
  327.750   88.468    0.586    0.145    5.045
  328.000  102.728    0.580    0.141    4.681
  328.250   99.007    0.570    0.171    4.509
  328.500   94.665    0.571    0.195    4.426
  328.750   94.664    0.576    0.235    4.426
  329.000   96.524    0.579    0.278    4.427
  329.250   99.003    0.587    0.277    4.427
  329.500   99.002    0.597    0.271    4.428
  329.750   96.521    0.601    0.263    4.346
  330.000   93.419    0.602    0.267    4.186
  330.250   93.418    0.601    0.262    4.033
  330.500   94.037    0.605    0.247    4.033
  330.750   92.796    0.610    0.222    4.034
  331.000   90.315    0.612    0.198    4.110
  331.250   92.174    0.608    0.178    4.188
  331.500   95.894    0.605    0.245    4.349
  331.750   95.892    0.603    0.294    4.350
  332.000   94.032    0.596    0.308    4.350
  332.250   90.310    0.591    0.298    4.351
  332.500   90.309    0.591    0.290    4.351
  332.750   91.548    0.594    0.278    4.271
  333.000   92.168    0.595    0.266    4.271
  333.250   92.787    0.600    0.255    4.192
  333.500   94.025    0.602    0.259    4.115
  333.750   92.784    0.605    0.264    4.115
  334.000   90.923    0.602    0.269    4.116
  334.250   91.542    0.594    0.271    4.194
  334.500   91.541    0.597    0.272    4.195
  334.750   89.680    0.601    0.274    4.275
  335.000   89.059    0.605    0.274    4.356
  335.250   87.818    0.605    0.276    4.357
  335.500   88.437    0.601    0.277    4.439
  335.750   89.676    0.597    0.277    4.440
  336.000   90.296    0.594    0.277    4.440
  336.250   89.674    0.589    0.277    4.525
  336.500   88.433    0.579    0.278    4.525
  336.750   86.572    0.585    0.277    4.612
  337.000   85.951    0.591    0.267    4.612
  337.250   84.710    0.591    0.241    4.613
  337.500   84.709    0.568    0.188    4.701
  337.750   88.428    0.576    0.135    4.701
  338.000   90.908    0.586    0.112    4.702
  338.250   94.627    0.596    0.154    4.792
  338.500   98.967    0.600    0.166    4.792
  338.750  102.066    0.601    0.125    4.793
  339.000  101.445    0.600    0.198    4.793
  339.250   97.104    0.597    0.266    4.794
  339.500   95.243    0.595    0.282    4.532
  339.750   94.621    0.600    0.284    4.532
  340.000   91.520    0.603    0.284    4.366
  340.250   89.039    0.610    0.284    4.366
  340.500   90.898    0.612    0.284    4.450
  340.750   93.377    0.607    0.283    4.534
  341.000   91.516    0.596    0.277    4.621
  341.250   88.414    0.592    0.273    4.709
  341.500   87.794    0.591    0.272    4.709
  341.750   86.553    0.589    0.269    4.710
  342.000   85.311    0.583    0.272    4.370
  342.250   82.830    0.578    0.281    4.289
  342.500   77.248    0.568    0.289    4.371
  342.750   77.247    0.555    0.295    4.624
  343.000   76.006    0.548    0.292    4.712
  343.250   71.044    0.552    0.258    5.176
  343.500   66.083    0.565    0.136    5.375
  343.750   62.361    0.572    0.094    5.794
  344.000   69.181    0.584    0.039    6.131
  344.250   82.202    0.591    0.103    6.366
  344.500   92.123    0.596    0.136    6.367
  344.750  100.803    0.595    0.191    6.367
  345.000  113.204    0.591    0.212    6.368
  345.250  113.202    0.586    0.231    6.612
  345.500  113.202    0.579    0.235    7.401
  345.750  110.721    0.570    0.231    7.129
  346.000  105.139    0.569    0.225    6.491
  346.250  106.998    0.575    0.217    5.381
  346.500  108.237    0.584    0.205    4.993
  346.750  110.097    0.593    0.210    4.633
  347.000  108.855    0.594    0.230    4.633
  347.250  106.374    0.589    0.235    4.634
  347.500  102.032    0.584    0.252    4.548
  347.750   98.930    0.575    0.268    4.381
  348.000   97.689    0.573    0.272    3.989
  348.250   98.309    0.573    0.282    3.843
  348.500   99.548    0.572    0.295    3.499
  348.750   99.547    0.572    0.305    3.370
  349.000   97.686    0.569    0.305    3.127
  349.250   95.205    0.564    0.305    2.956
  349.500   92.723    0.556    0.307    2.848
  349.750   87.762    0.546    0.305    2.795
  350.000   77.219    0.537    0.309    2.795
  350.250   72.877    0.531    0.313    2.849
  350.500   71.636    0.517    0.314    3.129
  350.750   71.015    0.509    0.304    3.502
  351.000   71.014    0.511    0.297    3.847
  351.250   70.393    0.517    0.298    4.306
  351.500   69.152    0.524    0.299    4.642
  351.750   66.671    0.535    0.302    5.196
  352.000   64.189    0.546    0.303    5.708
  352.250   65.428    0.551    0.304    6.039
  352.500   68.528    0.493    0.305    6.154
  352.750   71.007    0.489    0.291    6.155
  353.000   75.967    0.473    0.281    6.512
  353.250   79.687    0.472    0.272    6.762
  353.500   82.786    0.510    0.268    6.890
  353.750   84.025    0.547    0.270    7.290
  354.000   84.024    0.561    0.272    7.291
  354.250   85.884    0.572    0.273    6.893
  354.500   88.363    0.557    0.284    6.765
  354.750   91.462    0.537    0.289    6.396
  355.000   90.841    0.552    0.291    6.161
  355.250   87.740    0.566    0.291    6.047
  355.500   82.778    0.580    0.291    5.935
  355.750   80.917    0.589    0.291    5.826
  356.000   78.435    0.586    0.292    5.612
  356.250   75.954    0.580    0.294    5.508
  356.500   72.853    0.574    0.296    5.306
  356.750   70.371    0.569    0.299    5.208
  357.000   66.650    0.532    0.305    5.112
  357.250   65.409    0.530    0.309    5.112
  357.500   65.408    0.545    0.318    5.209
  357.750   65.407    0.552    0.323    5.512
  358.000   66.026    0.562    0.320    5.617
  358.250   66.645    0.559    0.312    5.942
  358.500   70.985    0.553    0.301    6.287
  358.750   77.185    0.550    0.289    6.778
  359.000   84.005    0.551    0.293    7.039
  359.250   87.725    0.552    0.296    6.908
  359.500   87.723    0.552    0.294    6.290
  359.750   87.722    0.551    0.289    5.414
  360.000   88.341    0.550    0.283    4.838
  360.250   88.341    0.551    0.276    4.243
  360.500   87.719    0.556    0.273    4.011
  360.750   87.098    0.550    0.269    3.937
  361.000   85.237    0.537    0.266    3.938
  361.250   77.795    0.545    0.265    4.013
  361.500   73.454    0.559    0.264    4.167
  361.750   69.112    0.557    0.261    4.408
