~VERSION INFORMATION
 VERS.                 2.0:   CWLS LOG ASCII STANDARD -VERSION 2.0
 WRAP.                  NO:   ONE LINE PER DEPTH STEP
~WELL INFORMATION BLOCK
#MNEM.UNIT           DATA                    DESCRIPTION OF MNEMONIC
#---------    -------------------            -------------------------------
# Generated from Intellog Unique Number	CW_79_81/WELL/2471
WELL.         GULF AMOCO HOOLE               : Well_name    - WELL
LOC .         00/10-21-081-24W4/0            : Location     - LOCATION
UWI .         00/10-21-081-24W4/0            : Uwi          - UNIQUE WELL ID
ENTR.         MAX                            : Entered      - ENTERED BY
SRVC.         COMPUTALOG                     : Scn          - SERVICE COMPANY
STRT.M        245                            : top_depth    - START DEPTH
STOP.M        482                            : bot_depth    - STOP DEPTH
STEP.M        0.25                           : increment    - STEP LENGTH
 NULL. -999.2500:NULL Value
~CURVE INFORMATION BLOCK
#MNEM UNIT       ERCB CURVE CODE    CURVE DESCRIPTION
#-----------   ------------------   ----------------------------------
DEPT.M        00 001 00 00         : DEPTH        - DEPTH
ILD .OHMM     00 120 00 00         : RESD         - DEEP RESISTIVITY (DIL)
NPHI.V/V      00 330 00 00         : PHIN         - NEUTRON POROSITY (SANDSTONE)
DPHI.V/V      00 890 00 00         : PHID         - DENSITY POROSITY (SANDSTONE)
GR  .API      00 310 00 00         : GR           - GAMMA RAY
CALI.MM       00 280 01 00         : CAL          - CALIPER
~PARAMETER INFORMATION
#MNEM.UNIT           DATA             DESCRIPTION OF MNEMONIC
#---------         -----------     ------------------------------
GL  .M        596.1                : gl           - GROUND LEVEL ELEVATION
EREF.M        600.35               : kb           - ELEVATION OF DEPTH REFERENCE
DATM.M        596.1                : datum        - DATUM ELEVATION
TDD .M        502                  : tdd          - TOTAL DEPTH DRILLER
RUN .         ONE                  : Run          - RUN NUMBER
ENG .         BILL                 : Engineer     - RECORDING ENGINEER
WIT .         JIM                  : Witness      - WITNESSED BY
MUD .         GEL                  : Mud_type     - MUD TYPE
MATR.         SANDSTONE            : Logunit      - NEUTRON MATRIX
TMAX.C        16                   : BHT          - MAXIMUM RECORDED TEMPERATURE
BHTD.M        502                  : BHTDEP       - MAXIMUM RECORDED TEMPERATURE
MATR.         1                    : LOGUNIT      - NEUTRON MATRIX
RMT .C        14                   : MDTP         - TEMPERATURE OF MUD
NEUT.         1                    : NEUTRON      - NEUTRON TYPE
RESI.         0                    : RESIST       - RESISTIVITY TYPE
RMC .OHMM     4.2                  : RMC          - RESISTIVITY OF MUD CAKE
RMF .OHMM     5.2                  : RMF          - RESISTIVITY OF MUD FILTRATE
SUFT.C        -15                  : SUFT         - SURFACE TEMPERATURE
~A  DEPTH     RESD     PHIN     PHID       GR      CAL
# ...
  354.500    8.446    0.423    0.237   84.323  224.092
  354.750    8.446    0.411    0.234   82.409  224.099
  355.000    8.491    0.404    0.234   80.316  224.707
  355.250    8.584    0.403    0.234   79.242  225.313
  355.500    8.741    0.410    0.232   79.127  225.720
  355.750    9.055    0.420    0.235   78.453  226.128
  356.000    9.335    0.422    0.247   77.459  226.135
  356.250    9.403    0.428    0.254   76.984  226.142
  356.500    9.368    0.428    0.251   77.227  226.448
  356.750    9.231    0.428    0.244   79.029  227.054
  357.000    9.064    0.430    0.237   81.429  227.661
  357.250    9.038    0.434    0.230   81.275  227.585
  357.500    9.246    0.420    0.226   79.282  227.178
  357.750    9.728    0.415    0.245   75.692  227.584
  358.000   10.236    0.418    0.267   72.460  227.691
  358.250   10.773    0.422    0.273   66.472  227.498
  358.500   11.379    0.424    0.263   59.646  227.005
  358.750   12.338    0.425    0.254   59.131  226.131
  359.000   13.322    0.428    0.245   60.135  225.723
  359.250   14.424    0.431    0.265   61.337  225.331
  359.500   15.053    0.429    0.268   61.641  224.939
  359.750   15.276    0.416    0.243   60.806  224.746
  360.000   15.190    0.397    0.201   59.612  224.853
  360.250   14.675    0.388    0.176   61.055  225.429
  360.500   13.811    0.390    0.206   67.052  226.268
  360.750   13.411    0.403    0.240   68.014  226.274
  361.000   13.168    0.410    0.265   67.899  226.281
  361.250   13.024    0.412    0.277   68.623  226.687
  361.500   12.952    0.414    0.276   70.304  227.294
  361.750   12.951    0.419    0.263   71.268  227.302
  362.000   12.950    0.416    0.251   71.272  227.309
  362.250   12.760    0.400    0.205   69.600  226.916
  362.500   12.435    0.389    0.186   66.308  227.423
  362.750   11.941    0.386    0.197   64.874  227.629
  363.000   11.302    0.395    0.226   66.676  227.237
  363.250   10.334    0.424    0.256   72.193  226.847
  363.500    9.230    0.433    0.271   78.189  226.854
  363.750    8.766    0.418    0.273   80.351  226.462
  364.000    8.515    0.405    0.269   80.715  226.369
  364.250    8.483    0.401    0.263   80.839  226.176
  364.500    8.669    0.406    0.259   81.203  225.884
  364.750    9.180    0.413    0.274   81.258  225.892
  365.000    9.835    0.419    0.291   81.511  225.899
  365.250   10.649    0.418    0.306   81.276  225.508
  365.500   11.113    0.420    0.314   75.109  225.414
  365.750   11.029    0.425    0.315   69.601  225.421
  366.000   10.307    0.436    0.311   67.448  225.428
  366.250    8.899    0.460    0.313   68.002  225.603
  366.500    8.189    0.465    0.331   70.752  226.443
  366.750    7.951    0.450    0.308   71.236  230.444
  367.000    8.024    0.390    0.235   68.484  229.953
  367.250    8.319    0.358    0.178   65.133  228.162
  367.500    8.771    0.371    0.166   62.801  226.970
  367.750    9.386    0.403    0.193   62.236  226.979
  368.000    9.827    0.429    0.206   62.990  226.988
  368.250    9.898    0.428    0.238   65.390  226.993
  368.500    9.484    0.430    0.257   68.330  226.701
  368.750    9.012    0.431    0.260   72.050  226.309
  369.000    8.675    0.430    0.252   75.529  226.017
  369.250    8.434    0.429    0.248   76.194  225.942
  369.500    8.181    0.436    0.259   74.700  225.533
  369.750    8.003    0.438    0.255   74.704  225.540
  370.000    7.872    0.422    0.245   76.506  225.548
  370.250    7.757    0.408    0.236   78.788  225.555
  370.500    7.630    0.407    0.230   80.350  225.560
  370.750    7.418    0.432    0.226   79.666  225.487
  371.000    7.196    0.444    0.226   77.424  225.079
  371.250    7.143    0.440    0.230   76.469  224.686
  371.500    7.129    0.435    0.229   76.054  224.294
  371.750    7.129    0.435    0.228   76.298  224.100
  372.000    7.141    0.437    0.232   77.201  224.107
  372.250    7.193    0.433    0.238   79.043  224.115
  372.500    7.192    0.435    0.237   81.046  224.122
  372.750    7.192    0.430    0.233   81.529  224.130
  373.000    7.231    0.424    0.237   81.832  224.137
  373.250    7.257    0.422    0.240   80.998  224.145
  373.500    7.269    0.424    0.237   79.684  224.153
  373.750    7.333    0.431    0.240   80.618  224.160
  374.000    7.389    0.437    0.257   82.869  224.168
  374.250    7.334    0.444    0.314   85.989  223.775
  374.500    7.321    0.444    0.322   88.210  222.184
  374.750    7.347    0.438    0.313   87.495  222.591
  375.000    7.181    0.429    0.304   84.856  224.067
  375.250    6.486    0.420    0.286   84.299  221.552
  375.500    6.632    0.416    0.247   84.029  221.522
  375.750    6.971    0.412    0.226   82.331  221.488
  376.000    7.525    0.412    0.218   79.371  221.456
  376.250    8.178    0.415    0.226   76.711  221.424
  376.500    8.872    0.408    0.239   75.070  221.392
  376.750    9.922    0.353    0.218   73.624  221.360
  377.000   11.296    0.259    0.187   70.106  221.324
  377.250   13.766    0.186    0.074   60.723  221.296
  377.500   17.735    0.153    0.025   51.158  221.268
  377.750   23.491    0.141    0.015   44.895  221.235
  378.000   30.717    0.138    0.023   42.594  221.201
  378.250   38.445    0.144    0.032   42.342  221.252
  378.500   40.211    0.160    0.044   43.572  221.630
  378.750   38.457    0.189    0.064   46.435  221.599
  379.000   36.172    0.220    0.085   48.397  221.575
  379.250   32.946    0.254    0.103   49.458  221.547
  379.500   28.777    0.290    0.120   50.280  221.613
  379.750   23.133    0.327    0.149   53.435  222.143
  380.000   19.337    0.353    0.200   59.669  222.948
  380.250   16.789    0.367    0.255   65.174  222.914
  380.500   14.086    0.370    0.275   67.615  222.880
  380.750   12.023    0.387    0.266   68.078  223.049
  381.000   10.540    0.417    0.242   68.182  223.219
  381.250    9.258    0.430    0.218   70.581  222.780
  381.500    8.646    0.427    0.203   73.063  222.758
  381.750    8.269    0.423    0.213   73.521  222.724
  382.000    8.042    0.420    0.224   74.884  222.694
  382.250    7.949    0.419    0.234   77.026  222.663
  382.500    7.958    0.419    0.240   79.228  222.429
  382.750    8.034    0.422    0.239   80.220  221.508
  383.000    8.152    0.423    0.234   80.451  221.059
  383.250    8.145    0.428    0.238   79.952  221.031
  383.500    8.185    0.433    0.237   79.633  220.698
  383.750    8.299    0.435    0.233   79.374  220.467
  384.000    8.432    0.434    0.226   79.296  220.439
  384.250    8.386    0.426    0.219   80.055  220.487
  384.500    8.192    0.425    0.220   81.535  220.872
  384.750    8.009    0.428    0.226   81.758  220.841
  385.000    7.831    0.431    0.233   80.538  220.807
  385.250    7.713    0.429    0.239   79.199  220.775
  385.500    7.652    0.423    0.240   78.462  220.844
  385.750    7.567    0.424    0.228   78.491  221.210
  386.000    7.448    0.444    0.214   78.722  221.174
  386.250    7.389    0.443    0.223   80.142  221.943
  386.500    7.330    0.433    0.257   80.482  222.415
  386.750    7.245    0.422    0.287   80.102  222.987
  387.000    7.122    0.413    0.291   79.243  223.759
  387.250    6.932    0.409    0.262   78.022  224.688
  387.500    6.772    0.419    0.263   78.002  225.486
  387.750    6.767    0.438    0.272   80.869  226.255
  388.000    6.800    0.446    0.298   82.651  228.226
  388.250    6.894    0.445    0.328   82.272  231.198
  388.500    7.067    0.437    0.346   79.793  232.570
  388.750    7.422    0.420    0.321   75.856  226.746
  389.000    7.944    0.404    0.286   73.085  223.799
  389.250    9.030    0.414    0.266   67.786  223.765
  389.500   10.381    0.418    0.268   65.546  223.733
  389.750   11.805    0.420    0.269   66.968  223.703
  390.000   12.970    0.419    0.256   70.071  223.774
  390.250   13.682    0.418    0.231   69.338  224.136
  390.500   14.420    0.413    0.208   64.566  224.101
  390.750   14.835    0.402    0.194   61.424  224.073
