~VERSION INFORMATION
 VERS.                 2.0:   CWLS LOG ASCII STANDARD -VERSION 2.0
 WRAP.                  NO:   ONE LINE PER DEPTH STEP
~WELL INFORMATION BLOCK
#MNEM.UNIT           DATA                    DESCRIPTION OF MNEMONIC
#---------    -------------------            -------------------------------
# Generated from Intellog Unique Number	CN_94_101/WELL/3622
WELL.         TEXACO CANADA RESOURCES LTD.   : Well_name    - WELL
LOC .         00/11-12-096-18W4/0            : Location     - LOCATION
UWI .         00/11-12-096-18W400            : Uwi          - UNIQUE WELL ID
ENTR.         T                              : Entered      - ENTERED BY
SRVC.         SCHLUMBERGER                   : Scn          - SERVICE COMPANY
DATE.         04/22/92                       : Date         - LOG DATE
STRT.M        275                            : top_depth    - START DEPTH
STOP.M        450                            : bot_depth    - STOP DEPTH
STEP.M        0.25                           : increment    - STEP LENGTH
 NULL. -999.2500:NULL Value
~CURVE INFORMATION BLOCK
#MNEM UNIT       ERCB CURVE CODE    CURVE DESCRIPTION
#-----------   ------------------   ----------------------------------
DEPT.M        00 001 00 00         : DEPTH        - DEPTH
GR  .API      00 310 00 00         : GR           - GAMMA RAY
NPHI.V/V      00 330 00 00         : PHIN         - NEUTRON POROSITY (SANDSTONE)
DPHI.V/V      00 890 00 00         : PHID         - DENSITY POROSITY (SANDSTONE)
ILD .OHMM     00 120 00 00         : RESD         - DEEP RESISTIVITY (DIL)
~PARAMETER INFORMATION
#MNEM.UNIT           DATA             DESCRIPTION OF MNEMONIC
#---------         -----------     ------------------------------
GL  .M        0                    : gl           - GROUND LEVEL ELEVATION
EREF.M        725.6                : kb           - ELEVATION OF DEPTH REFERENCE
DATM.M        725.6                : datum        - DATUM ELEVATION
TDD .M        450                  : tdd          - TOTAL DEPTH DRILLER
RUN .         ONE                  : Run          - RUN NUMBER
ENG .         BILL                 : Engineer     - RECORDING ENGINEER
WIT .         JIM                  : Witness      - WITNESSED BY
MUD .         GEL                  : Mud_type     - MUD TYPE
MATR.         SANDSTONE            : Logunit      - NEUTRON MATRIX
TMAX.C        6                    : BHT          - MAXIMUM RECORDED TEMPERATURE
BHTD.M        450                  : BHTDEP       - MAXIMUM RECORDED TEMPERATURE
RMT .C        6                    : MDTP         - TEMPERATURE OF MUD
MUDD.KG/M     1050                 : MWT          - MUD DENSITY
NEUT.         1                    : NEUTRON      - NEUTRON TYPE
RESI.         0                    : RESIST       - RESISTIVITY TYPE
RM  .OHMM     17                   : RM           - RESISTIVITY OF MUD
RMC .OHMM     17                   : RMC          - RESISTIVITY OF MUD CAKE
RMF .OHMM     17                   : RMF          - RESISTIVITY OF MUD FILTRATE
SUFT.C        4                    : SUFT         - SURFACE TEMPERATURE
~A  DEPTH       GR     PHIN     PHID     RESD
# ...
  405.500   97.465    0.475    0.220    9.521
  405.750   97.464    0.474    0.216    9.346
  406.000   97.463    0.469    0.214    9.173
  406.250   97.462    0.465    0.205    8.836
  406.500   97.461    0.466    0.201    8.354
  406.750   97.460    0.465    0.201    8.199
  407.000   97.459    0.465    0.200    7.898
  407.250   97.459    0.464    0.198    7.752
  407.500   97.457    0.464    0.194    7.753
  407.750   97.457    0.464    0.190    7.901
  408.000   96.835    0.465    0.188    7.902
  408.250   96.835    0.458    0.188    8.205
  408.500   96.213    0.447    0.184    8.361
  408.750   96.212    0.436    0.179    8.521
  409.000   96.212    0.437    0.174    8.521
  409.250   95.591    0.443    0.176    8.684
  409.500   94.349    0.455    0.203    9.188
  409.750   93.728    0.467    0.211    9.540
  410.000   93.727    0.471    0.210    9.541
  410.250   91.246    0.475    0.206    9.191
  410.500   83.184    0.471    0.200    9.020
  410.750   72.641    0.463    0.178    8.854
  411.000   67.059    0.441    0.120    9.023
  411.250   70.159    0.402    0.044    9.369
  411.500   73.878    0.331    0.031   10.100
  411.750   76.358    0.292    0.080   11.305
  412.000   78.217    0.306    0.187   12.653
  412.250   78.836    0.389    0.215   15.267
  412.500   78.835    0.463    0.230   18.077
  412.750   78.835    0.489    0.223   19.488
  413.000   76.973    0.488    0.215   19.127
  413.250   75.732    0.479    0.199   16.463
  413.500   75.111    0.452    0.170   10.496
  413.750   76.970    0.342    0.068    9.738
  414.000   78.829    0.311    0.068    9.380
  414.250   81.309    0.327    0.173    9.381
  414.500   85.648    0.351    0.209    9.560
  414.750   88.128    0.430    0.210   10.306
  415.000   91.227    0.459    0.213   11.535
  415.250   91.846    0.464    0.211   12.436
  415.500   91.845    0.474    0.207   12.673
  415.750   92.465    0.484    0.202   10.705
  416.000   96.804    0.493    0.195    8.389
  416.250   99.904    0.500    0.192    7.639
  416.500  103.624    0.506    0.192    7.087
  416.750  103.623    0.512    0.195    6.700
  417.000  103.002    0.517    0.198    6.216
  417.250  100.520    0.523    0.197    5.661
  417.500   98.659    0.536    0.195    5.453
  417.750   96.797    0.538    0.204    5.059
  418.000   94.936    0.536    0.212    4.965
  418.250   94.315    0.525    0.210    4.783
  418.500   92.454    0.511    0.205    4.784
  418.750   91.833    0.504    0.199    4.784
  419.000   90.591    0.497    0.198    4.967
  419.250   89.971    0.490    0.193    5.062
  419.500   89.970    0.479    0.173    5.159
  419.750   89.349    0.405    0.098    5.357
  420.000   91.828    0.408    0.051    5.357
  420.250  102.989    0.438    0.082    5.358
  420.500  109.189    0.454    0.160    5.259
  420.750  111.668    0.474    0.205    4.972
  421.000  111.047    0.498    0.202    4.880
  421.250  109.806    0.515    0.198    4.880
  421.500  110.425    0.533    0.203    4.881
  421.750  112.284    0.539    0.193    4.881
  422.000  109.183    0.542    0.166    4.882
  422.250  106.081    0.531    0.133    4.882
  422.500  106.081    0.532    0.128    4.792
  422.750  106.080    0.536    0.181    4.704
  423.000  106.699    0.547    0.194    4.617
  423.250  108.558    0.555    0.203    4.617
  423.500  109.797    0.560    0.203    4.532
  423.750  111.656    0.562    0.202    4.532
  424.000  112.895    0.556    0.201    4.533
  424.250  114.135    0.536    0.192    4.707
  424.500  113.513    0.519    0.184    4.887
  424.750  112.273    0.507    0.177    5.171
  425.000  107.931    0.495    0.175    5.369
  425.250  103.589    0.483    0.171    5.681
  425.500  101.108    0.474    0.123    5.898
  425.750  100.487    0.466    0.072    5.682
  426.000   99.865    0.467    0.104    5.473
  426.250   99.865    0.472    0.187    5.372
  426.500   99.864    0.474    0.188    5.273
  426.750  100.483    0.482    0.180    5.273
  427.000  101.722    0.506    0.177    5.176
  427.250  103.582    0.533    0.177    5.176
  427.500  105.441    0.553    0.178    5.375
  427.750  104.200    0.549    0.180    5.477
  428.000   99.858    0.531    0.181    5.687
  428.250   97.377    0.515    0.181    4.895
  428.500   93.655    0.501    0.181    4.542
  428.750   93.654    0.494    0.177    4.375
  429.000   93.033    0.533    0.167    4.376
  429.250   90.552    0.541    0.162    4.459
  429.500   85.590    0.535    0.160    4.544
  429.750   78.148    0.525    0.156    4.545
  430.000   70.086    0.509    0.166    4.631
  430.250   65.124    0.494    0.181    4.809
  430.500   65.123    0.480    0.198    5.184
  430.750   63.882    0.480    0.230    5.383
  431.000   60.781    0.482    0.239    5.913
  431.250   59.539    0.480    0.245    6.375
  431.500   57.678    0.476    0.257    6.872
  431.750   55.197    0.461    0.272    7.692
  432.000   52.095    0.370    0.292    8.938
  432.250   48.994    0.370    0.309   10.194
  432.500   45.272    0.373    0.317   12.299
  432.750   44.031    0.378    0.321   14.027
  433.000   45.270    0.388    0.329   15.997
  433.250   48.370    0.403    0.335   19.302
  433.500   50.849    0.419    0.318   21.202
  433.750   54.569    0.435    0.296   26.559
  434.000   58.908    0.451    0.271   30.864
  434.250   58.288    0.464    0.256   36.545
  434.500   55.186    0.464    0.266   40.905
  434.750   50.844    0.459    0.294   35.207
  435.000   45.883    0.459    0.299   27.590
  435.250   40.921    0.459    0.302   26.083
  435.500   37.200    0.401    0.308   27.597
  435.750   32.858    0.391    0.317   29.751
  436.000   27.896    0.382    0.330   33.299
  436.250   26.035    0.365    0.355   35.898
  436.500   27.274    0.333    0.381   40.179
  436.750   28.513    0.320    0.397   44.972
  437.000   29.132    0.279    0.392   53.252
  437.250   28.511    0.269    0.376   59.602
  437.500   28.510    0.259    0.373   69.263
  437.750   27.889    0.259    0.387   91.787
  438.000   26.648    0.298    0.393  106.667
  438.250   26.027    0.304    0.381  119.390
  438.500   25.406    0.308    0.370  133.631
  438.750   24.165    0.317    0.359  138.752
  439.000   23.544    0.320    0.351  149.583
  439.250   23.543    0.346    0.340  155.324
  439.500   24.162    0.343    0.330  124.020
  439.750   24.781    0.340    0.324   50.398
  440.000   26.570    0.330    0.324   37.333
  440.250   26.570    0.330    0.323   30.374
  440.500   30.596    0.327    0.318   27.657
  440.750   36.232    0.466    0.309   28.185
  441.000   37.038    0.452    0.304   29.821
  441.250   38.648    0.430    0.308   31.550
  441.500   39.453    0.427    0.313   34.657
  441.750   39.453    0.421    0.320   40.273
  442.000   39.453    0.417    0.323   45.077
  442.250   39.453    0.413    0.318   57.537
  442.500   42.674    0.417    0.318   76.247
  442.750   45.089    0.419    0.319  110.978
  443.000   45.089    0.428    0.323  141.649
  443.250   45.894    0.435    0.328  170.901
  443.500   47.505    0.444    0.343  235.135
  443.750   66.023    0.445    0.348  268.166
  444.000   66.829    0.440    0.338  273.275
  444.250   70.855    0.435    0.329  263.239
  444.500   70.855    0.445    0.328  253.572
  444.750   70.855    0.452    0.327  248.886
  445.000   68.439    0.465    0.322  248.914
  445.250   67.634    0.474    0.314  248.941
  445.500   67.634    0.476    0.122  248.975
  445.750   67.634    0.473    0.102  249.003
  446.000   66.829    0.451    0.092  253.747
  446.250   66.829    0.371    0.085  268.469
  446.500   66.829    0.335    0.086  300.491
  446.750   66.829    0.317    0.100  336.343
  447.000   66.829    0.323    0.121  342.741
  447.250   66.829    0.323    0.118  342.779
  447.500   66.829    0.325    0.111  342.817
  447.750   67.634    0.330    0.099  330.227
  448.000   67.634    0.336    0.073  318.101
  448.250   69.244    0.345    0.055  278.988
  448.500   70.855    0.354    0.044  254.027
  448.750   72.465    0.361    0.036  227.006
