~VERSION INFORMATION
 VERS.                 2.0:   CWLS LOG ASCII STANDARD -VERSION 2.0
 WRAP.                  NO:   ONE LINE PER DEPTH STEP
~WELL INFORMATION BLOCK
#MNEM.UNIT           DATA                    DESCRIPTION OF MNEMONIC
#---------    -------------------            -------------------------------
# Generated from Intellog Unique Number	CW_70_72/WELL/1043
NULL.         -999.25                        : NULL_VALUE
WELL.         NORCEN WESTBURNE SPUR 10-26    : Well_name    - WELL              
LOC .         10-26-072-02W5                 : Location     - LOCATION          
UWI .         00/10-26-072-02W5/0            : Uwi          - UNIQUE WELL ID    
ENTR.         JAYE                           : Entered      - ENTERED BY        
SRVC.         COMPUTALOG                     : Scn          - SERVICE COMPANY   
DATE.         25 JAN 85                      : Date         - LOG DATE          
STRT.M        385                            : top_depth    - START DEPTH       
STOP.M        618                            : bot_depth    - STOP DEPTH        
STEP.M        0.25                           : increment    - STEP LENGTH       
~CURVE INFORMATION BLOCK
#MNEM UNIT       ERCB CURVE CODE    CURVE DESCRIPTION
#-----------   ------------------   ----------------------------------
DEPT.M        00 001 00 00         : DEPTH        - DEPTH                       
DPHI.V/V      00 890 00 00         : PHID         - DENSITY POROSITY (SANDSTONE)
NPHI.V/V      00 330 00 00         : PHIN         - NEUTRON POROSITY (SANDSTONE)
GR  .API      00 310 00 00         : GR           - GAMMA RAY                   
CALI.MM       00 280 01 00         : CAL          - CALIPER                     
ILD .OHMM     00 120 00 00         : RESD         - DEEP RESISTIVITY (DIL)      
~PARAMETER INFORMATION       
#MNEM.UNIT           DATA             DESCRIPTION OF MNEMONIC
#---------         -----------     ------------------------------
GL  .M        594.25               : gl           - GROUND LEVEL ELEVATION      
EREF.M        598.3                : kb           - ELEVATION OF DEPTH REFERENCE
DATM.M        594.25               : datum        - DATUM ELEVATION             
TDD .M        627                  : tdd          - TOTAL DEPTH DRILLER         
RUN .         ONE                  : Run          - RUN NUMBER                  
ENG .         HUDSON               : Engineer     - RECORDING ENGINEER          
WIT .         MCLEOD               : Witness      - WITNESSED BY                
BASE.         GRANDE PRAIRIE       : Branch       - HOME BASE OF LOGGING UNIT   
MUD .         GEL CHEM             : Mud_type     - MUD TYPE                    
MATR.         SANDSTONE            : Logunit      - NEUTRON MATRIX              
TMAX.C        36                   : BHT          - MAXIMUM RECORDED TEMPERATURE
BHTD.M        623.2                : BHTDEP       - MAXIMUM RECORDED TEMPERATURE
RMT .C        14                   : MDTP         - TEMPERATURE OF MUD          
MUDD.KG/M     1130                 : MWT          - MUD DENSITY                 
NEUT.         1                    : NEUTRON      - NEUTRON TYPE                
RESI.         0                    : RESIST       - RESISTIVITY TYPE            
RM  .OHMM     4                    : RM           - RESISTIVITY OF MUD          
RMC .OHMM     3.4                  : RMC          - RESISTIVITY OF MUD CAKE     
RMF .OHMM     3.5                  : RMF          - RESISTIVITY OF MUD FILTRATE 
SUFT.C        32                   : SUFT         - SURFACE TEMPERATURE         
~A  DEPTH     PHID     PHIN       GR      CAL     RESD
# ...
  531.000    0.171    0.412  107.472  202.535    6.167
  531.250    0.123    0.394  107.893  202.925    6.564
  531.500    0.102    0.407   96.442  203.523    7.245
  531.750    0.079    0.364   82.525  204.006    7.963
  532.000    0.049    0.290   60.843  203.976    8.975
  532.250    0.027    0.208   46.483  203.633    9.408
  532.500    0.004    0.208   53.601  203.277    8.796
  532.750    0.002    0.245   65.391  202.719    7.781
  533.000    0.066    0.270   79.708  202.471    6.989
  533.250    0.097    0.328   88.466  202.227    6.313
  533.500    0.125    0.381   85.097  202.083    5.878
  533.750    0.140    0.369   81.222  202.057    5.497
  534.000    0.146    0.361   81.835  202.025    5.399
  534.250    0.147    0.366   86.615  202.200    5.315
  534.500    0.146    0.379   90.321  202.165    5.260
  534.750    0.148    0.392   92.321  202.344    5.158
  535.000    0.145    0.407   95.079  202.729    5.029
  535.250    0.133    0.423   99.165  203.002    4.848
  535.500    0.130    0.428  101.166  203.393    4.725
  535.750    0.134    0.424   96.344  203.154    4.590
  536.000    0.135    0.421   91.461  202.910    4.501
  536.250    0.132    0.408   89.799  202.876    4.439
  536.500    0.130    0.411   89.021  202.839    4.361
  536.750    0.130    0.415   89.253  202.702    4.375
  537.000    0.128    0.400   89.292  201.611    4.381
  537.250    0.124    0.391   89.275  197.580    4.402
  537.500    0.127    0.405   89.697  194.493    4.425
  537.750    0.135    0.419   90.496  192.776    4.474
  538.000    0.143    0.431   92.183  191.584    4.498
  538.250    0.160    0.430   97.783  190.389    4.520
  538.500    0.163    0.425  101.805  190.252    4.613
  538.750    0.158    0.420   97.931  191.269    4.762
  539.000    0.153    0.425   94.182  193.444    4.926
  539.250    0.154    0.432   91.953  196.464    5.173
  539.500    0.160    0.430   89.089  199.483    5.433
  539.750    0.166    0.420   87.239  201.661    5.728
  540.000    0.168    0.411   85.068  201.729    6.051
  540.250    0.168    0.402   82.586  201.380    6.294
  540.500    0.167    0.393   79.725  201.453    6.486
  540.750    0.169    0.400   77.175  201.626    6.582
  541.000    0.173    0.397   76.336  201.799    6.502
  541.250    0.175    0.378   79.915  201.666    6.161
  541.500    0.162    0.388   85.770  201.414    5.770
  541.750    0.151    0.394   88.148  201.283    5.272
  542.000    0.149    0.378   89.770  200.931    4.817
  542.250    0.165    0.360   92.715  200.679    4.377
  542.500    0.162    0.369   97.812  200.754    4.202
  542.750    0.153    0.389  102.024  200.829    4.081
  543.000    0.145    0.402  102.822  200.899    4.040
  543.250    0.140    0.411  101.411  201.287    4.023
  543.500    0.145    0.423   99.500  201.673    4.098
  543.750    0.151    0.436   97.836  202.269    4.288
  544.000    0.152    0.423   97.184  202.444    4.434
  544.250    0.150    0.412   96.469  202.412    4.631
  544.500    0.139    0.404   95.628  202.483    4.808
  544.750    0.131    0.400   94.976  202.661    4.963
  545.000    0.129    0.399   95.462  202.833    5.116
  545.250    0.138    0.403   94.936  202.794    5.201
  545.500    0.144    0.409   90.872  202.765    5.258
  545.750    0.147    0.399   87.505  202.733    5.293
  546.000    0.151    0.380   83.378  202.492    5.331
  546.250    0.146    0.368   80.201  202.240    5.359
  546.500    0.140    0.364   78.350  202.102    5.356
  546.750    0.144    0.372   77.445  201.859    5.323
  547.000    0.144    0.372   80.895  201.829    5.308
  547.250    0.141    0.373   84.539  201.688    5.296
  547.500    0.138    0.386   87.993  201.441    5.212
  547.750    0.136    0.405   91.826  201.093    5.082
  548.000    0.135    0.423   90.667  200.325    4.964
  548.250    0.132    0.416   89.069  195.657    4.877
  548.500    0.130    0.399   88.479  193.723    4.845
  548.750    0.128    0.380   90.228  192.957    4.879
  549.000    0.132    0.372   93.870  193.553    4.924
  549.250    0.133    0.372   96.439  194.153    4.998
  549.500    0.134    0.380   95.282  194.642    5.043
  549.750    0.133    0.392   95.261  194.082    5.087
  550.000    0.128    0.401   95.671  194.753    5.122
  550.250    0.124    0.403   98.400  195.201    5.169
  550.500    0.119    0.401  102.575  196.590    5.255
  550.750    0.114    0.396   93.643  199.777    5.353
  551.000    0.105    0.389   89.188  201.906    5.423
  551.250    0.128    0.380   92.167  203.300    5.419
  551.500    0.134    0.381   95.714  204.277    5.274
  551.750    0.127    0.378   97.180  204.931    5.121
  552.000    0.120    0.370   96.127  205.178    4.899
  552.250    0.124    0.386   97.908  205.094    4.794
  552.500    0.127    0.396  102.338  204.813    4.746
  552.750    0.124    0.399  105.885  204.843    4.844
  553.000    0.119    0.395  106.469  204.660    5.205
  553.250    0.116    0.392   99.744  203.011    5.646
  553.500    0.126    0.386   91.757  201.357    6.281
  553.750    0.143    0.376   82.385  199.599    7.092
  554.000    0.159    0.365   76.478  198.157    7.976
  554.250    0.153    0.355   73.913  196.512    9.147
  554.500    0.138    0.343   70.967  195.491   10.016
  554.750    0.127    0.333   66.763  194.578   10.520
  555.000    0.107    0.326   62.054  193.970   10.318
  555.250    0.090    0.326   62.954  193.474    9.830
  555.500    0.095    0.327   69.776  193.084    9.347
  555.750    0.115    0.327   72.630  192.799    8.824
  556.000    0.107    0.325   72.146  193.142    8.455
  556.250    0.096    0.318   71.090  193.486    8.151
  556.500    0.091    0.305   71.108  193.939    8.114
  556.750    0.101    0.312   73.836  194.069    8.555
  557.000    0.104    0.317   77.383  193.893    9.107
  557.250    0.097    0.321   80.803  193.505    9.345
  557.500    0.089    0.312   80.002  192.901    9.130
  557.750    0.078    0.303   76.805  191.563    8.518
  558.000    0.070    0.291   76.194  189.911    7.828
  558.250    0.062    0.277   83.837  188.678    7.044
  558.500    0.081    0.309   95.198  187.976    6.547
  558.750    0.103    0.345  103.913  187.897    6.180
  559.000    0.114    0.397  110.359  189.403    6.199
  559.250    0.108    0.393  102.246  191.318    6.803
  559.500    0.090    0.378   88.462  193.974    7.580
  559.750    0.069    0.357   78.206  196.418    8.271
  560.000    0.048    0.333   78.540  197.497    8.604
  560.250    0.028    0.310   78.875  197.531    8.518
  560.500    0.019    0.293   81.348  197.035    7.978
  560.750    0.029    0.307   91.828  196.538    7.261
  561.000    0.044    0.320   92.476  196.567    6.523
  561.250    0.061    0.335   89.782  196.389    6.097
  561.500    0.076    0.348   87.720  195.258    5.744
  561.750    0.091    0.364   86.982  193.926    5.675
  562.000    0.111    0.384   87.189  194.583    5.782
  562.250    0.114    0.381   88.907  197.762    6.048
  562.500    0.120    0.374   91.889  200.734    6.303
  562.750    0.118    0.384   92.914  201.079    6.545
  563.000    0.110    0.399   92.364  200.478    6.642
  563.250    0.107    0.388   90.428  200.089    6.589
  563.500    0.099    0.340   87.170  199.382    6.558
  563.750    0.087    0.321   84.098  197.309    6.580
  564.000    0.083    0.351   84.998  194.082    6.627
  564.250    0.104    0.367   90.751  191.699    6.790
  564.500    0.103    0.385   95.116  192.355    6.877
  564.750    0.093    0.400   94.882  194.700    6.927
  565.000    0.080    0.377   86.833  195.987    6.948
  565.250    0.066    0.361   83.447  197.174    6.930
  565.500    0.083    0.373   90.334  198.248    6.926
  565.750    0.099    0.370   92.874  199.645    6.935
  566.000    0.103    0.353   93.396  200.514    6.958
  566.250    0.100    0.351   95.304  200.965    6.967
  566.500    0.103    0.351   97.527  201.730    6.936
  566.750    0.105    0.345   92.692  202.389    6.866
  567.000    0.094    0.331   92.268  202.733    6.797
  567.250    0.092    0.340   97.329  202.768    6.703
