~VERSION INFORMATION
 VERS.                 2.0:   CWLS LOG ASCII STANDARD -VERSION 2.0
 WRAP.                  NO:   ONE LINE PER DEPTH STEP
~WELL INFORMATION BLOCK
#MNEM.UNIT           DATA                    DESCRIPTION OF MNEMONIC
#---------    -------------------            -------------------------------
# Generated from Intellog Unique Number	CW_79_81/WELL/2488
WELL.         13-10-081-21W4                 : Well_name    - WELL
LOC .         00/13-10-081-21W4/0            : Location     - LOCATION
UWI .         00/13-10-081-21W4/0            : Uwi          - UNIQUE WELL ID
ENTR.         MAX                            : Entered      - ENTERED BY
SRVC.         SCHLUMBERGER                   : Scn          - SERVICE COMPANY
STRT.M        215                            : top_depth    - START DEPTH
STOP.M        440                            : bot_depth    - STOP DEPTH
STEP.M        0.25                           : increment    - STEP LENGTH
 NULL. -999.2500:NULL Value
~CURVE INFORMATION BLOCK
#MNEM UNIT       ERCB CURVE CODE    CURVE DESCRIPTION
#-----------   ------------------   ----------------------------------
DEPT.M        00 001 00 00         : DEPTH        - DEPTH
ILD .OHMM     00 120 00 00         : RESD         - DEEP RESISTIVITY (DIL)
NPHI.V/V      00 330 00 00         : PHIN         - NEUTRON POROSITY (SANDSTONE)
DPHI.V/V      00 890 00 00         : PHID         - DENSITY POROSITY (SANDSTONE)
GR  .API      00 310 00 00         : GR           - GAMMA RAY
CALI.MM       00 280 01 00         : CAL          - CALIPER
~PARAMETER INFORMATION
#MNEM.UNIT           DATA             DESCRIPTION OF MNEMONIC
#---------         -----------     ------------------------------
GL  .M        599.6                : gl           - GROUND LEVEL ELEVATION
EREF.M        603.9                : kb           - ELEVATION OF DEPTH REFERENCE
DATM.M        599.6                : datum        - DATUM ELEVATION
TDD .M        448.25               : tdd          - TOTAL DEPTH DRILLER
RUN .         ONE                  : Run          - RUN NUMBER
ENG .         BILL                 : Engineer     - RECORDING ENGINEER
WIT .         JIM                  : Witness      - WITNESSED BY
MUD .         GEL                  : Mud_type     - MUD TYPE
MATR.         SANDSTONE            : Logunit      - NEUTRON MATRIX
TMAX.C        28.6                 : BHT          - MAXIMUM RECORDED TEMPERATURE
BHTD.M        448.25               : BHTDEP       - MAXIMUM RECORDED TEMPERATURE
MATR.         1                    : LOGUNIT      - NEUTRON MATRIX
RMT .C        15                   : MDTP         - TEMPERATURE OF MUD
NEUT.         1                    : NEUTRON      - NEUTRON TYPE
RESI.         0                    : RESIST       - RESISTIVITY TYPE
RMC .OHMM     9.82                 : RMC          - RESISTIVITY OF MUD CAKE
RMF .OHMM     4.93                 : RMF          - RESISTIVITY OF MUD FILTRATE
SUFT.C        -15                  : SUFT         - SURFACE TEMPERATURE
~A  DEPTH     RESD     PHIN     PHID       GR      CAL
# ...
  324.500   10.405    0.472    0.276   74.272  221.297
  324.750    9.822    0.477    0.265   75.248  221.720
  325.000    8.961    0.466    0.256   76.044  222.448
  325.250    8.130    0.451    0.248   77.499  223.676
  325.500    7.550    0.439    0.241   79.794  224.902
  325.750    7.453    0.434    0.236   82.702  224.933
  326.000    7.756    0.432    0.234   83.967  224.955
  326.250    8.051    0.430    0.229   83.022  223.383
  326.500    8.316    0.427    0.231   81.360  222.110
  326.750    8.512    0.424    0.233   79.817  221.137
  327.000    8.632    0.422    0.232   79.113  220.563
  327.250    8.696    0.432    0.230   80.203  220.760
  327.500    8.641    0.444    0.220   81.966  221.623
  327.750    8.589    0.443    0.209   83.902  222.447
  328.000    8.488    0.436    0.222   85.656  222.673
  328.250    8.468    0.429    0.234   87.110  222.701
  328.500    8.510    0.424    0.235   88.025  223.228
  328.750    8.435    0.427    0.231   87.793  225.505
  329.000    8.319    0.436    0.231   86.560  226.785
  329.250    8.267    0.432    0.227   86.099  226.806
  329.500    8.263    0.429    0.220   85.813  225.944
  329.750    8.273    0.428    0.212   85.707  225.969
  330.000    8.282    0.430    0.205   85.725  226.981
  330.250    8.269    0.429    0.204   85.845  227.664
  330.500    8.153    0.435    0.213   86.360  228.944
  330.750    8.105    0.431    0.213   86.854  229.773
  331.000    8.234    0.438    0.212   87.169  230.298
  331.250    8.245    0.446    0.217   87.184  230.522
  331.500    8.076    0.450    0.228   86.120  229.946
  331.750    7.948    0.451    0.232   81.841  226.994
  332.000    8.144    0.457    0.245   78.359  224.106
  332.250    8.580    0.464    0.243   74.055  222.136
  332.500    9.039    0.455    0.244   70.472  221.059
  332.750    9.659    0.443    0.248   68.567  220.484
  333.000   10.468    0.434    0.255   68.222  220.110
  333.250   11.470    0.426    0.266   67.892  219.657
  333.500   12.496    0.418    0.263   66.161  219.271
  333.750   13.645    0.395    0.213   63.055  219.295
  334.000   15.694    0.343    0.167   61.391  219.619
  334.250   19.276    0.309    0.133   61.407  219.846
  334.500   24.031    0.320    0.126   64.121  219.976
  334.750   24.246    0.385    0.168   72.336  220.405
  335.000   21.204    0.413    0.225   77.351  220.430
  335.250   16.312    0.409    0.246   75.929  220.854
  335.500   14.349    0.413    0.238   76.305  221.284
  335.750   13.318    0.419    0.225   77.040  221.710
  336.000   12.675    0.424    0.219   77.475  222.132
  336.250   12.271    0.430    0.220   77.733  222.646
  336.500   12.010    0.439    0.225   77.751  223.093
  336.750   11.852    0.437    0.221   77.524  223.119
  337.000   11.759    0.426    0.218   77.841  223.144
  337.250   11.688    0.422    0.211   78.818  223.169
  337.500   11.595    0.426    0.199   80.152  223.696
  337.750   11.461    0.423    0.189   81.479  225.813
  338.000   11.564    0.415    0.204   83.243  226.255
  338.250   11.921    0.417    0.208   85.178  226.282
  338.500   12.289    0.415    0.207   83.875  226.604
  338.750   12.579    0.414    0.200   81.372  226.429
  339.000   12.871    0.416    0.194   79.468  225.458
  339.250   13.495    0.414    0.206   79.877  223.638
  339.500   13.611    0.412    0.230   80.642  222.413
  339.750   13.532    0.409    0.233   82.819  222.442
  340.000   12.860    0.402    0.236   83.734  222.468
  340.250   12.008    0.396    0.236   82.429  222.693
  340.500   11.434    0.396    0.231   79.986  223.020
  340.750   11.655    0.415    0.221   79.973  223.138
  341.000   11.851    0.423    0.216   82.237  223.579
  341.250   11.606    0.432    0.214   85.614  224.008
  341.500   11.053    0.441    0.198   86.829  224.434
  341.750   10.558    0.445    0.189   86.365  224.656
  342.000   10.252    0.439    0.195   84.822  224.779
  342.250   10.102    0.420    0.205   83.020  225.211
  342.500   10.038    0.415    0.203   83.535  225.242
  342.750   10.197    0.420    0.216   84.751  225.263
  343.000   10.416    0.428    0.225   84.708  225.291
  343.250   10.621    0.432    0.226   83.524  225.517
  343.500   10.652    0.429    0.222   82.699  226.041
  343.750   10.176    0.424    0.222   85.118  227.120
  344.000    9.661    0.435    0.207   85.135  228.397
  344.250    8.786    0.461    0.202   85.629  229.626
  344.500    8.086    0.457    0.211   87.203  230.555
  344.750    7.671    0.439    0.220   87.939  230.381
  345.000    7.542    0.422    0.224   86.818  228.704
  345.250    7.746    0.422    0.232   83.416  224.952
  345.500    8.184    0.422    0.234   81.930  222.066
  345.750    8.746    0.423    0.237   80.026  221.691
  346.000    9.597    0.427    0.235   77.583  222.816
  346.250   10.610    0.428    0.229   74.839  224.442
  346.500   11.408    0.421    0.219   71.735  225.768
  346.750   11.255    0.396    0.199   67.316  226.199
  347.000   10.848    0.362    0.186   64.332  226.222
  347.250   11.428    0.334    0.164   62.192  226.651
  347.500   12.558    0.299    0.129   61.308  227.380
  347.750   14.499    0.272    0.087   61.082  227.806
  348.000   17.339    0.257    0.054   61.217  227.530
  348.250   20.561    0.243    0.053   61.916  225.858
  348.500   22.929    0.238    0.055   62.932  223.393
  348.750   29.595    0.233    0.052   64.386  222.617
  349.000   36.949    0.236    0.061   66.922  222.439
  349.250   41.320    0.246    0.076   69.576  222.464
  349.500   39.862    0.261    0.098   72.109  222.492
  349.750   32.212    0.297    0.145   75.993  221.968
  350.000   23.456    0.366    0.206   80.937  219.226
  350.250   17.957    0.404    0.231   82.831  217.622
  350.500   15.116    0.415    0.231   82.940  216.912
  350.750   13.724    0.408    0.222   80.786  216.498
  351.000   13.180    0.396    0.211   77.442  216.181
  351.250   13.139    0.389    0.198   74.881  216.160
  351.500   13.444    0.396    0.206   71.649  216.146
  351.750   14.048    0.394    0.217   72.353  216.128
  352.000   14.442    0.389    0.217   74.485  216.111
  352.250   14.493    0.399    0.221   76.735  216.094
  352.500   14.141    0.419    0.231   78.213  216.177
  352.750   13.214    0.434    0.238   78.836  216.636
  353.000   12.238    0.437    0.247   80.810  217.028
  353.250   11.614    0.431    0.247   83.892  217.410
  353.500   11.401    0.427    0.231   86.262  217.492
  353.750   11.188    0.426    0.217   86.967  217.475
  354.000   10.818    0.425    0.210   85.707  217.358
  354.250   10.300    0.425    0.216   82.591  216.856
  354.500   10.062    0.426    0.224   81.338  216.429
  354.750   10.209    0.427    0.220   82.518  216.411
  355.000   10.819    0.425    0.220   83.164  216.394
  355.250   11.525    0.421    0.225   83.036  216.376
  355.500   11.985    0.418    0.233   82.549  216.557
  355.750   11.868    0.422    0.228   82.774  217.497
  356.000   11.331    0.420    0.213   82.765  218.305
  356.250   10.997    0.430    0.206   82.277  217.890
  356.500   10.915    0.430    0.207   81.791  217.477
  356.750   11.153    0.428    0.207   82.138  217.063
  357.000   11.617    0.429    0.209   83.080  216.746
  357.250   12.001    0.428    0.223   83.602  216.725
  357.500   12.184    0.426    0.227   85.079  216.709
  357.750   12.272    0.424    0.221   88.402  217.089
  358.000   12.224    0.422    0.215   89.047  217.171
  358.250   12.040    0.423    0.212   88.441  217.153
  358.500   11.774    0.426    0.211   88.251  217.136
  358.750   11.459    0.424    0.212   90.929  217.528
  359.000   11.194    0.432    0.205   93.645  219.577
  359.250   11.109    0.442    0.207   91.494  220.751
  359.500   11.086    0.440    0.206   89.876  220.437
  359.750   11.125    0.429    0.203   89.271  219.626
  360.000   11.205    0.419    0.201   89.499  218.717
  360.250   11.302    0.427    0.206   89.972  217.505
  360.500   11.387    0.442    0.200   91.200  217.490
  360.750   11.469    0.432    0.202   91.429  217.473
