~VERSION INFORMATION
 VERS.                 2.0:   CWLS LOG ASCII STANDARD -VERSION 2.0
 WRAP.                  NO:   ONE LINE PER DEPTH STEP
~WELL INFORMATION BLOCK
#MNEM.UNIT           DATA                    DESCRIPTION OF MNEMONIC
#---------    -------------------            -------------------------------
# Generated from Intellog Unique Number	CS_71_72/WELL/880
WELL.         AMOCO AEC IPIATIK              : Well_name    - WELL
LOC .         00/10-34-072-06W4/0            : Location     - LOCATION
UWI .         00/10-34-072-06W4/0            : Uwi          - UNIQUE WELL ID
ENTR.         SP                             : Entered      - ENTERED BY
SRVC.         SCHLUMBERGER                   : Scn          - SERVICE COMPANY
STRT.M        325                            : top_depth    - START DEPTH
STOP.M        575                            : bot_depth    - STOP DEPTH
STEP.M        0.25                           : increment    - STEP LENGTH
 NULL. -999.2500:NULL Value
~CURVE INFORMATION BLOCK
#MNEM UNIT       ERCB CURVE CODE    CURVE DESCRIPTION
#-----------   ------------------   ----------------------------------
DEPT.M        00 001 00 00         : DEPTH        - DEPTH
ILD .OHMM     00 120 00 00         : RESD         - DEEP RESISTIVITY (DIL)
DPHI.V/V      00 890 00 00         : PHID         - DENSITY POROSITY (LIMESTONE)
NPHI.V/V      00 330 00 00         : PHIN         - NEUTRON POROSITY (LIMESTONE)
GR  .API      00 310 00 00         : GR           - GAMMA RAY
~PARAMETER INFORMATION
#MNEM.UNIT           DATA             DESCRIPTION OF MNEMONIC
#---------         -----------     ------------------------------
GL  .M        709.8                : gl           - GROUND LEVEL ELEVATION
EREF.M        714                  : kb           - ELEVATION OF DEPTH REFERENCE
DATM.M        709.8                : datum        - DATUM ELEVATION
TDD .M        588.2                : tdd          - TOTAL DEPTH DRILLER
RUN .         ONE                  : Run          - RUN NUMBER
ENG .         BILL                 : Engineer     - RECORDING ENGINEER
WIT .         JIM                  : Witness      - WITNESSED BY
MUD .         GEL                  : Mud_type     - MUD TYPE
MATR.         LIMESTONE            : Logunit      - NEUTRON MATRIX
TMAX.C        11                   : BHT          - MAXIMUM RECORDED TEMPERATURE
BHTD.M        588.2                : BHTDEP       - MAXIMUM RECORDED TEMPERATURE
MATR.         1                    : LOGUNIT      - NEUTRON MATRIX
RMT .C        25                   : MDTP         - TEMPERATURE OF MUD
NEUT.         1                    : NEUTRON      - NEUTRON TYPE
RESI.         0                    : RESIST       - RESISTIVITY TYPE
RMC .OHMM     0.25                 : RMC          - RESISTIVITY OF MUD CAKE
RMF .OHMM     0.25                 : RMF          - RESISTIVITY OF MUD FILTRATE
SUFT.C        15                   : SUFT         - SURFACE TEMPERATURE
~A  DEPTH     RESD     PHID     PHIN       GR
# ...
  499.000   11.537    0.288    0.450   69.481
  499.250    7.651    0.278    0.440   74.976
  499.500    6.970    0.261    0.437   79.253
  499.750    7.235    0.250    0.431   79.865
  500.000    7.988    0.276    0.383   64.369
  500.250    7.413    0.279    0.364   67.998
  500.500    6.149    0.274    0.350   71.022
  500.750    5.395    0.268    0.356   75.867
  501.000    5.101    0.267    0.367   77.678
  501.250    5.102    0.282    0.381   73.413
  501.500    5.500    0.285    0.387   74.007
  501.750    6.155    0.279    0.392   77.638
  502.000    6.888    0.267    0.366   79.452
  502.250    7.425    0.256    0.350   83.689
  502.500    6.891    0.253    0.346   85.500
  502.750    6.764    0.246    0.344   86.096
  503.000    6.765    0.242    0.344   84.869
  503.250    7.157    0.239    0.351   83.036
  503.500    8.161    0.236    0.364   81.807
  503.750    9.661    0.237    0.379   76.939
  504.000   10.220    0.239    0.370   71.456
  504.250   11.017    0.252    0.368   69.021
  504.500    9.666    0.258    0.363   65.972
  504.750    8.322    0.264    0.363   73.243
  505.000    7.033    0.248    0.363   76.879
  505.250    6.776    0.233    0.362   83.545
  505.500    7.036    0.221    0.362   73.210
  505.750    7.306    0.221    0.375   67.124
  506.000    8.176    0.239    0.390   67.114
  506.250    8.332    0.257    0.395   68.313
  506.500    8.028    0.249    0.409   68.300
  506.750    7.733    0.238    0.402   66.466
  507.000    7.044    0.222    0.385   64.030
  507.250    7.045    0.224    0.369   65.835
  507.500    7.885    0.238    0.366   68.859
  507.750    8.499    0.242    0.382   70.066
  508.000    9.511    0.264    0.398   63.375
  508.250    8.993    0.278    0.404   75.500
  508.500    7.600    0.265    0.411   80.349
  508.750    6.922    0.259    0.420   84.588
  509.000    6.424    0.248    0.415   87.615
  509.250    6.547    0.219    0.351   90.638
  509.500    8.045    0.209    0.360   90.019
  509.750    9.703    0.201    0.376   81.505
  510.000   11.703    0.258    0.392   72.991
  510.250   14.931    0.273    0.400   69.338
  510.500   17.673    0.291    0.398   66.897
  510.750   22.973    0.309    0.397   65.671
  511.000   27.194    0.318    0.399   69.299
  511.250   32.192    0.301    0.412   69.897
  511.500   34.702    0.294    0.416   60.770
  511.750   35.363    0.287    0.426   57.728
  512.000   36.039    0.300    0.414   49.209
  512.250   35.375    0.293    0.405   44.945
  512.500   33.452    0.293    0.383   43.118
  512.750   31.044    0.300    0.379   41.284
  513.000   27.749    0.306    0.379   49.161
  513.250   23.017    0.311    0.386   52.796
  513.500   19.819    0.313    0.385   57.640
  513.750   17.387    0.299    0.385   59.452
  514.000   15.255    0.293    0.393   64.906
  514.250   12.893    0.281    0.398   71.572
  514.500   11.525    0.283    0.406   77.018
  514.750   10.111    0.285    0.397   78.829
  515.000    8.706    0.282    0.396   79.430
  515.250    6.956    0.281    0.394   81.242
  515.500    5.989    0.286    0.380   85.479
  515.750    4.785    0.270    0.377   92.748
  516.000    3.752    0.254    0.383   96.382
  516.250    3.112    0.238    0.396  100.621
  516.500    2.782    0.226    0.402  103.649
  516.750    2.681    0.222    0.405  109.707
  517.000    2.732    0.203    0.396  114.553
  517.250    2.837    0.188    0.391  118.794
  517.500    2.945    0.199    0.388  123.637
  517.750    3.058    0.191    0.387  123.021
  518.000    3.297    0.178    0.391  118.151
  518.250    3.423    0.176    0.363  112.065
  518.500    3.488    0.159    0.357  107.804
  518.750    3.555    0.136    0.350  108.397
  519.000    3.425    0.109    0.371  112.637
  519.250    3.425    0.100    0.390  115.660
  519.500    3.557    0.143    0.379  102.288
  519.750    4.211    0.155    0.368   88.918
  520.000    4.625    0.192    0.366   77.369
  520.250    5.079    0.226    0.382   69.460
  520.500    5.578    0.245    0.398   65.805
  520.750    6.127    0.260    0.419   62.758
  521.000    6.729    0.277    0.395   57.885
  521.250    6.730    0.287    0.384   62.730
  521.500    5.583    0.273    0.370   67.576
  521.750    5.085    0.239    0.364   69.997
  522.000    4.461    0.218    0.351   73.626
  522.250    4.462    0.206    0.348   70.578
  522.500    5.587    0.227    0.361   62.671
  522.750    7.128    0.246    0.380   52.944
  523.000    7.976    0.261    0.361   46.861
  523.250    9.094    0.274    0.342   46.241
  523.500    8.599    0.255    0.330   57.158
  523.750    6.871    0.235    0.333   69.291
  524.000    5.489    0.219    0.346   75.957
  524.250    4.639    0.220    0.351   76.557
  524.500    4.147    0.229    0.344   74.115
  524.750    3.848    0.210    0.331   76.527
  525.000    3.639    0.178    0.319   80.770
  525.250    3.506    0.158    0.319   88.037
  525.500    3.506    0.173    0.309   91.063
  525.750    3.573    0.166    0.321   92.272
  526.000    3.852    0.147    0.342   84.364
  526.250    4.475    0.209    0.365   69.777
  526.500    4.915    0.237    0.375   54.586
  526.750    5.398    0.255    0.377   39.995
  527.000    6.511    0.279    0.406   36.953
  527.250    7.424    0.296    0.399   30.868
  527.500    8.465    0.306    0.362   37.535
  527.750    8.789    0.312    0.331   59.989
  528.000    6.276    0.295    0.313   76.375
  528.250    4.237    0.221    0.301   96.402
  528.500    3.648    0.184    0.297  104.892
  528.750    3.261    0.165    0.317  104.267
  529.000    3.027    0.167    0.334  104.866
  529.250    2.971    0.181    0.349  111.534
  529.500    3.028    0.144    0.345  118.196
  529.750    3.264    0.144    0.371  120.007
  530.000    3.326    0.153    0.383  120.607
  530.250    3.454    0.147    0.372  119.380
  530.500    3.586    0.124    0.349  112.685
  530.750    3.655    0.125    0.341  109.640
  531.000    3.655    0.131    0.338  102.946
  531.250    3.588    0.166    0.344   96.862
  531.500    3.268    0.190    0.349   90.778
  531.750    2.977    0.215    0.350   85.301
  532.000    2.868    0.233    0.377   80.433
  532.250    2.763    0.242    0.362   85.273
  532.500    2.763    0.222    0.355   89.513
  532.750    2.869    0.209    0.347   94.358
  533.000    3.093    0.217    0.341   97.990
  533.250    3.152    0.206    0.338   99.801
  533.500    3.153    0.189    0.339  101.004
  533.750    3.153    0.180    0.369   97.349
  534.000    2.982    0.245    0.386   90.052
  534.250    2.716    0.282    0.407   78.500
  534.500    2.428    0.310    0.435   71.809
  534.750    2.295    0.321    0.419   67.542
  535.000    2.014    0.315    0.404   67.530
  535.250    1.834    0.304    0.396   68.131
  535.500    1.671    0.321    0.386   74.190
  535.750    1.550    0.330    0.389   82.680
  536.000    1.494    0.321    0.395   90.560
  536.250    1.610    0.309    0.390   97.832
  536.500    1.802    0.292    0.383  105.107
  536.750    2.016    0.222    0.373  111.171
  537.000    2.387    0.163    0.378  119.056
  537.250    2.622    0.140    0.381  119.043
  537.500    2.934    0.167    0.374  111.740
  537.750    2.990    0.181    0.363  106.871
  538.000    2.991    0.183    0.358  103.216
  538.250    2.775    0.188    0.364   98.952
  538.500    2.674    0.193    0.372   95.906
  538.750    2.528    0.209    0.372   91.639
  539.000    2.391    0.218    0.369   89.204
  539.250    2.303    0.233    0.364   91.011
  539.500    2.219    0.227    0.363   92.819
  539.750    2.178    0.218    0.363   94.023
  540.000    2.099    0.204    0.360   89.151
  540.250    2.022    0.242    0.351   86.103
  540.500    2.022    0.236    0.344   88.521
  540.750    2.022    0.225    0.347   89.725
  541.000    1.986    0.223    0.361   85.463
  541.250    1.913    0.230    0.367   79.376
  541.500    1.775    0.236    0.382   76.937
  541.750    1.679    0.242    0.394   75.102
  542.000    1.617    0.256    0.410   79.338
  542.250    1.587    0.241    0.409   81.151
