~VERSION INFORMATION
 VERS.                 2.0:   CWLS LOG ASCII STANDARD -VERSION 2.0
 WRAP.                  NO:   ONE LINE PER DEPTH STEP
~WELL INFORMATION BLOCK
#MNEM.UNIT           DATA                    DESCRIPTION OF MNEMONIC
#---------    -------------------            -------------------------------
# Generated from Intellog Unique Number	CW_82_90/WELL/3077
WELL.         TEXEX WABASCA 11-19            : Well_name    - WELL
LOC .         00/11-19-085-22W4/0            : Location     - LOCATION
UWI .         00/11-19-085-22W4/0            : Uwi          - UNIQUE WELL ID
ENTR.         JAYE                           : Entered      - ENTERED BY
SRVC.         WESTERN ATLAS                  : Scn          - SERVICE COMPANY
DATE.         23 FEB 75                      : Date         - LOG DATE
STRT.M        152.4                          : top_depth    - START DEPTH
STOP.M        353.65                         : bot_depth    - STOP DEPTH
STEP.M        0.25                           : increment    - STEP LENGTH
 NULL. -999.2500:NULL Value
~CURVE INFORMATION BLOCK
#MNEM UNIT       ERCB CURVE CODE    CURVE DESCRIPTION
#-----------   ------------------   ----------------------------------
DEPT.M        00 001 00 00         : DEPTH        - DEPTH
CALI.MM       00 280 01 00         : CAL          - CALIPER
GR  .API      00 310 00 00         : GR           - GAMMA RAY
NPHI.V/V      00 330 00 00         : PHIN         - NEUTRON POROSITY (SANDSTONE)
DPHI.V/V      00 890 00 00         : PHID         - DENSITY POROSITY (SANDSTONE)
ILD .OHMM     00 120 00 00         : RESD         - DEEP RESISTIVITY (DIL)
~PARAMETER INFORMATION
#MNEM.UNIT           DATA             DESCRIPTION OF MNEMONIC
#---------         -----------     ------------------------------
GL  .M        559.399              : gl           - GROUND LEVEL ELEVATION
EREF.M        562.356              : kb           - ELEVATION OF DEPTH REFERENCE
DATM.M        559.399              : datum        - DATUM ELEVATION
TDD .M        354.482              : tdd          - TOTAL DEPTH DRILLER
RUN .         ONE                  : Run          - RUN NUMBER
ENG .         FAYE                 : Engineer     - RECORDING ENGINEER
WIT .         McDOUGAL             : Witness      - WITNESSED BY
BASE.         EDMONTON             : Branch       - HOME BASE OF LOGGING UNIT
MUD .         MUD GEL              : Mud_type     - MUD TYPE
MATR.         SANDSTONE            : Logunit      - NEUTRON MATRIX
TMAX.C        25.5556              : BHT          - MAXIMUM RECORDED TEMPERATURE
BHTD.M        354.482              : BHTDEP       - MAXIMUM RECORDED TEMPERATURE
RMT .C        15.5556              : MDTP         - TEMPERATURE OF MUD
MUDD.KG/M     9000                 : MWT          - MUD DENSITY
NEUT.         1                    : NEUTRON      - NEUTRON TYPE
RESI.         0                    : RESIST       - RESISTIVITY TYPE
RM  .OHMM     8.8                  : RM           - RESISTIVITY OF MUD
RMC .OHMM     0                    : RMC          - RESISTIVITY OF MUD CAKE
RMF .OHMM     0                    : RMF          - RESISTIVITY OF MUD FILTRATE
SUFT.C        4                    : SUFT         - SURFACE TEMPERATURE
~A  DEPTH      CAL       GR     PHIN     PHID     RESD
  152.400  265.232   60.483    0.599    0.327    3.105
  152.650  264.922   61.044    0.600    0.339    3.174
  152.900  264.404   59.874    0.600    0.341    3.280
  153.150  263.991   59.940    0.593    0.330    3.341
  153.400  263.578   60.562    0.587    0.331    3.408
  153.650  262.538   59.764    0.575    0.334    3.491
  153.900  260.765   59.582    0.560    0.329    3.676
  154.150  259.932   60.142    0.557    0.324    3.723
  154.400  258.787   60.702    0.560    0.346    3.777
  154.650  258.268   60.707    0.571    0.343    3.783
  154.900  257.542   59.846    0.578    0.349    3.727
  155.150  257.024   59.479    0.581    0.355    3.596
  155.400  256.192   60.348    0.575    0.328    3.503
  155.650  255.465   61.527    0.574    0.328    3.483
  155.900  254.841   61.963    0.573    0.333    3.501
  156.150  253.592   61.288    0.571    0.354    3.526
  156.400  252.446   58.018    0.567    0.384    3.539
  156.650  251.092   53.450    0.560    0.386    3.531
  156.900  249.632   51.724    0.544    0.391    3.543
  157.150  247.651   53.397    0.521    0.378    3.588
  157.400  244.623   56.428    0.513    0.356    3.736
  157.650  241.490   54.950    0.517    0.356    3.862
  157.900  238.881   52.235    0.516    0.326    3.992
  158.150  237.212   52.487    0.503    0.318    4.181
  158.400  234.394   53.480    0.486    0.309    4.568
  158.650  230.425   51.816    0.480    0.311    5.268
  158.900  226.352   46.754    0.481    0.303    6.422
  159.150  221.338   45.152    0.481    0.323    6.738
  159.400  217.682   44.538    0.479    0.321    7.628
  159.650  214.341   43.060    0.479    0.295    9.061
  159.900  212.465   41.087    0.479    0.309   10.410
  160.150  212.154   40.473    0.475    0.390   12.551
  160.400  212.264   36.524    0.469    0.388   14.773
  160.650  212.373   34.798    0.465    0.368   18.483
  160.900  212.482   36.594    0.463    0.367   20.577
  161.150  212.593   37.401    0.463    0.369   22.032
  161.400  212.806   37.282    0.471    0.373   22.564
  161.650  212.706   36.483    0.525    0.376   23.106
  161.900  212.711   35.870    0.551    0.378   23.576
  162.150  212.717   35.318    0.553    0.375   23.790
  162.400  212.931   35.631    0.531    0.374   23.301
  162.650  213.249   35.636    0.460    0.372   22.952
  162.900  213.671   35.516    0.449    0.372   22.608
  163.150  214.304   35.520    0.437    0.363   22.268
  163.400  214.831   36.204    0.432    0.356   21.892
  163.650  215.149   37.258    0.434    0.355   21.565
  163.900  215.572   38.189    0.439    0.357   20.967
  164.150  215.682   38.687    0.446    0.354   20.085
  164.400  215.164   38.012    0.442    0.353   19.529
  164.650  214.228   37.151    0.437    0.352   19.094
  164.900  213.501   36.785    0.427    0.352   18.912
  165.150  212.773   35.554    0.422    0.352   18.977
  165.400  210.898   34.385    0.422    0.353   19.506
  165.650  210.483   33.585    0.427    0.353   20.962
  165.900  209.756   33.404    0.430    0.353   23.165
  166.150  209.341   33.161    0.432    0.354   25.221
  166.400  209.033   33.165    0.433    0.357   26.854
  166.650  208.933   33.169    0.433    0.360   27.707
  166.900  208.834   32.926    0.435    0.358   28.478
  167.150  208.315   32.869    0.439    0.355   29.271
  167.400  207.903   32.441    0.443    0.356   29.538
  167.650  208.011   31.642    0.444    0.356   29.585
  167.900  208.852   31.522    0.441    0.356   29.794
  168.150  209.590   31.650    0.422    0.357   30.175
  168.400  211.478   31.778    0.417    0.356   30.338
  168.650  212.422   31.720    0.409    0.354   30.104
  168.900  213.578   31.664    0.402    0.352   29.984
  169.150  214.000   31.729    0.391    0.349   29.919
  169.400  214.529   31.918    0.376    0.344   30.078
  169.650  214.637   31.614    0.358    0.336   30.350
  169.900  215.479   31.124    0.331    0.291   32.797
  170.150  216.635   33.538    0.300    0.084   34.988
  170.400  217.999   34.715    0.258    0.025   38.878
  170.650  218.736   31.322    0.237    0.041   42.644
  170.900  218.739   29.720    0.231    0.074   44.324
  171.150  216.968   29.910    0.257    0.129   45.057
  171.400  215.508   30.840    0.347    0.309   42.529
  171.650  213.735   32.821    0.409    0.358   35.979
  171.900  213.218   32.332    0.420    0.354   32.002
  172.150  213.535   32.336    0.424    0.343   29.926
  172.400  214.272   32.340    0.427    0.339   29.151
  172.650  214.591   32.345    0.436    0.341   28.873
  172.900  214.701   32.411    0.447    0.343   29.186
  173.150  214.495   32.415    0.450    0.339   29.396
  173.400  213.874   32.480    0.441    0.341   29.773
  173.650  214.088   31.623    0.437    0.344   30.153
  173.900  214.301   31.315    0.442    0.342   30.199
  174.150  213.992   31.628    0.465    0.337   29.857
  174.400  213.997   32.435    0.474    0.339   29.299
  174.650  215.674   35.899    0.455    0.339   28.172
  174.900  223.940   39.301    0.443    0.327   26.199
  175.150  223.004   43.939    0.444    0.288   22.041
  175.400  212.552   38.198    0.450    0.327   18.237
  175.650  209.211   32.889    0.444    0.346   14.895
  175.900  212.039   34.067    0.445    0.343   13.622
  176.150  211.939   34.874    0.464    0.343   14.775
  176.400  209.852   33.087    0.467    0.349   16.758
  176.650  209.857   32.411    0.468    0.352   19.795
  176.900  211.849   33.589    0.472    0.352   21.874
  177.150  212.690   34.397    0.484    0.352   23.816
  177.400  211.649   33.475    0.496    0.352   25.595
  177.650  211.236   33.849    0.512    0.353   25.971
  177.900  213.436   34.471    0.524    0.354   26.204
  178.150  214.487   36.082    0.526    0.356   26.539
  178.400  215.224   38.681    0.517    0.362   26.928
  178.650  215.961   41.527    0.462    0.361   26.722
  178.900  217.848   44.682    0.466    0.366   25.740
  179.150  218.585   47.281    0.483    0.323   25.214
  179.400  219.007   47.594    0.469    0.285   21.331
  179.650  217.234   41.358    0.461    0.315   16.633
  179.900  217.136   40.251    0.463    0.328   12.730
  180.150  218.081   44.209    0.471    0.316   11.578
  180.400  219.446   47.734    0.483    0.315   11.967
  180.650  220.914   46.318    0.499    0.313   13.248
  180.900  222.382   46.137    0.521    0.311   13.171
  181.150  223.956   46.944    0.545    0.305   12.618
  181.400  225.320   47.628    0.570    0.292   11.778
  181.650  227.312   48.497    0.583    0.084    9.854
  181.900  228.780   45.474    0.591    0.041    8.962
  182.150  230.145   47.146    0.596    0.010    8.827
  182.400  230.986   52.216    0.593    0.261    8.824
  182.650  230.886   49.811    0.585    0.306    8.871
  182.900  230.578   49.445    0.562    0.307    8.754
  183.150  231.002   47.535    0.551    0.302    8.464
  183.400  231.946   46.797    0.555    0.301    8.048
  183.650  235.402   47.789    0.551    0.296    7.555
  183.900  244.086   55.825    0.533    0.319    7.078
  184.150  249.006   57.559    0.512    0.344    6.570
  184.400  246.710   57.563    0.491    0.348    5.953
  184.650  232.284   55.343    0.479    0.325    5.619
  184.900  224.028   43.363    0.483    0.354    5.711
  185.150  219.746   39.598    0.492    0.355    6.184
  185.400  217.868   39.911    0.499    0.357    7.401
  185.650  216.514   39.730    0.506    0.358    9.521
  185.900  216.414   41.402    0.512    0.359   13.742
  186.150  216.419   42.519    0.496    0.360   20.243
  186.400  216.738   43.944    0.475    0.361   24.451
  186.650  216.638   43.021    0.453    0.359   25.510
  186.900  216.643   43.025    0.434    0.358   25.692
  187.150  216.753   43.833    0.423    0.360   25.353
  187.400  216.652   42.848    0.424    0.360   25.019
  187.650  216.553   44.150    0.430    0.361   24.965
  187.900  216.453   42.610    0.461    0.362   24.912
  188.150  216.770   40.019    0.479    0.363   24.952
  188.400  216.985   39.653    0.495    0.365   24.990
  188.650  216.989   41.387    0.501    0.365   24.753
