~VERSION INFORMATION
 VERS.                 2.0:   CWLS LOG ASCII STANDARD -VERSION 2.0
 WRAP.                  NO:   ONE LINE PER DEPTH STEP
~WELL INFORMATION BLOCK
#MNEM.UNIT           DATA                    DESCRIPTION OF MNEMONIC
#---------    -------------------            -------------------------------
# Generated from Intellog Unique Number	CS_77_79/WELL/1013
WELL.         CWWE LEISMER                   : Well_name    - WELL
LOC .         00/12-14-079-08W4/0            : Location     - LOCATION
UWI .         00/12-14-079-08W4/0            : Uwi          - UNIQUE WELL ID
ENTR.         JHS                            : Entered      - ENTERED BY
SRVC.         SCHLUMBERGER                   : Scn          - SERVICE COMPANY
STRT.M        155                            : top_depth    - START DEPTH
STOP.M        380                            : bot_depth    - STOP DEPTH
STEP.M        0.25                           : increment    - STEP LENGTH
 NULL. -999.2500:NULL Value
~CURVE INFORMATION BLOCK
#MNEM UNIT       ERCB CURVE CODE    CURVE DESCRIPTION
#-----------   ------------------   ----------------------------------
DEPT.M        00 001 00 00         : DEPTH        - DEPTH
DPHI.V/V      00 890 00 00         : PHID         - DENSITY POROSITY (LIMESTONE)
NPHI.V/V      00 330 00 00         : PHIN         - NEUTRON POROSITY (LIMESTONE)
GR  .API      00 310 00 00         : GR           - GAMMA RAY
ILD .OHMM     00 120 00 00         : RESD         - DEEP RESISTIVITY (DIL)
RHOB.KG/M3    00 350 00 00         : DENS         - BULK DENSITY
~PARAMETER INFORMATION
#MNEM.UNIT           DATA             DESCRIPTION OF MNEMONIC
#---------         -----------     ------------------------------
GL  .M        591.18               : gl           - GROUND LEVEL ELEVATION
EREF.M        595.43               : kb           - ELEVATION OF DEPTH REFERENCE
DATM.M        595.43               : datum        - DATUM ELEVATION
TDD .M        381.3                : tdd          - TOTAL DEPTH DRILLER
RUN .         ONE                  : Run          - RUN NUMBER
ENG .         BILL                 : Engineer     - RECORDING ENGINEER
WIT .         JIM                  : Witness      - WITNESSED BY
MUD .         GEL                  : Mud_type     - MUD TYPE
MATR.         LIMESTONE            : Logunit      - NEUTRON MATRIX
TMAX.C        20                   : BHT          - MAXIMUM RECORDED TEMPERATURE
BHTD.M        381.3                : BHTDEP       - MAXIMUM RECORDED TEMPERATURE
MATR.         1                    : LOGUNIT      - NEUTRON MATRIX
RMT .C        25                   : MDTP         - TEMPERATURE OF MUD
NEUT.         1                    : NEUTRON      - NEUTRON TYPE
RESI.         0                    : RESIST       - RESISTIVITY TYPE
RMC .OHMM     0.25                 : RMC          - RESISTIVITY OF MUD CAKE
RMF .OHMM     0.25                 : RMF          - RESISTIVITY OF MUD FILTRATE
SUFT.C        15                   : SUFT         - SURFACE TEMPERATURE
~A  DEPTH     PHID     PHIN       GR     RESD     DENS
  155.000    0.293    0.494  105.850    3.233    0.000
  155.250    0.285    0.472  110.704    3.297    0.000
  155.500    0.274    0.477  113.139    3.301    0.000
  155.750    0.276    0.481  112.547    3.367    0.000
  156.000    0.280    0.470  109.541    3.433    0.000
  156.250    0.276    0.464  107.740    3.567    0.000
  156.500    0.266    0.467  107.754    3.777    0.000
  156.750    0.263    0.485  111.399    3.925    0.000
  157.000    0.265    0.505  112.622    4.003    0.000
  157.250    0.263    0.468  109.614    4.083    0.000
  157.500    0.252    0.449  109.629    4.164    0.000
  157.750    0.248    0.461  107.222    4.091    0.000
  158.000    0.264    0.469  106.028    3.946    0.000
  158.250    0.275    0.472  112.699    3.736    0.000
  158.500    0.270    0.483  113.316    3.407    0.000
  158.750    0.260    0.489  112.125    3.286    0.000
  159.000    0.261    0.453  111.532    3.416    0.000
  159.250    0.267    0.433  110.943    3.685    0.000
  159.500    0.267    0.434  108.537    3.756    0.000
  159.750    0.259    0.453  115.207    4.051    0.000
  160.000    0.264    0.439  118.853    4.132    0.000
  160.250    0.266    0.457  119.471    4.060    0.000
  160.500    0.248    0.485  118.878    3.844    0.000
  160.750    0.201    0.429  111.027    3.994    0.000
  161.000    0.164    0.358   84.429    4.308    0.000
  161.250    0.204    0.417   73.556    4.822    0.000
  161.500    0.243    0.408   92.926    5.105    0.000
  161.750    0.262    0.397  103.829    5.017    0.000
  162.000    0.266    0.414  102.637    4.751    0.000
  162.250    0.256    0.439  110.514    4.497    0.000
  162.500    0.254    0.435  117.181    4.337    0.000
  162.750    0.263    0.435  117.197    4.262    0.000
  163.000    0.274    0.421  108.136    4.347    0.000
  163.250    0.283    0.414  102.106    4.689    0.000
  163.500    0.294    0.406  104.541    5.347    0.000
  163.750    0.297    0.401  108.181    6.329    0.000
  164.000    0.306    0.418  111.224    7.353    0.000
  164.250    0.280    0.444  113.051    8.231    0.000
  164.500    0.261    0.460  116.696    8.395    0.000
  164.750    0.250    0.446  120.338    8.250    0.000
  165.000    0.263    0.413  125.795    7.960    0.000
  165.250    0.286    0.396  126.415    8.114    0.000
  165.500    0.305    0.405  116.751    9.256    0.000
  165.750    0.307    0.421  108.904   10.554    0.000
  166.000    0.285    0.416  116.782   12.494    0.000
  166.250    0.280    0.409  127.080   13.731    0.000
  166.500    0.279    0.425  130.119   13.745    0.000
  166.750    0.274    0.427  130.132   13.256    0.000
  167.000    0.252    0.417  131.963   12.552    0.000
  167.250    0.237    0.410  127.137   11.881    0.000
  167.500    0.233    0.425  124.128   11.041    0.000
  167.750    0.257    0.387  128.380   10.652    0.000
  168.000    0.297    0.368  112.062   11.066    0.000
  168.250    0.314    0.376   83.648   12.621    0.000
  168.500    0.312    0.392   79.433   14.665    0.000
  168.750    0.304    0.377   83.073   16.112    0.000
  169.000    0.301    0.359   87.930   17.056    0.000
  169.250    0.309    0.357   89.155   17.397    0.000
  169.500    0.317    0.383   88.563   17.093    0.000
  169.750    0.323    0.383   84.948   16.800    0.000
  170.000    0.331    0.376   79.521   17.460    0.000
  170.250    0.344    0.374   79.536   18.834    0.000
  170.500    0.349    0.382   78.942   19.200    0.000
  170.750    0.349    0.396   78.353   19.591    0.000
  171.000    0.349    0.413   82.601   19.603    0.000
  171.250    0.343    0.422   82.617   19.625    0.000
  171.500    0.249    0.403   78.395   20.394    0.000
  171.750    0.207    0.363   68.733   21.593    0.000
  172.000    0.206    0.335   60.885   22.436    0.000
  172.250    0.241    0.346   69.974   22.886    0.000
  172.500    0.322    0.362   76.035   22.905    0.000
  172.750    0.339    0.373   78.470   22.509    0.000
  173.000    0.340    0.381   73.042   22.117    0.000
  173.250    0.341    0.389   68.825   20.557    0.000
  173.500    0.342    0.382   70.047   20.201    0.000
  173.750    0.336    0.392   77.924   19.847    0.000
  174.000    0.340    0.409   74.915   19.145    0.000
  174.250    0.350    0.392   67.671   18.463    0.000
  174.500    0.359    0.376   70.106   18.146    0.000
  174.750    0.363    0.370   78.591   19.573    0.000
  175.000    0.369    0.370   82.232   19.960    0.000
  175.250    0.371    0.393   88.297   20.364    0.000
  175.500    0.369    0.399   90.732   20.773    0.000
  175.750    0.360    0.381   90.139   20.407    0.000
  176.000    0.355    0.370   88.342   20.057    0.000
  176.250    0.352    0.400   88.354   20.075    0.000
  176.500    0.347    0.415   90.789   19.730    0.000
  176.750    0.349    0.421   96.248   19.745    0.000
  177.000    0.349    0.416  102.313   19.403    0.000
  177.250    0.341    0.410  105.352   19.075    0.000
  177.500    0.342    0.411  105.972   18.735    0.000
  177.750    0.348    0.422  107.798   18.078    0.000
  178.000    0.342    0.415  112.652   17.758    0.000
  178.250    0.306    0.401  116.901   17.452    0.000
  178.500    0.287    0.395  115.706   17.148    0.000
  178.750    0.278    0.405   99.993   17.491    0.000
  179.000    0.278    0.395   83.073   17.838    0.000
  179.250    0.275    0.373   74.017   18.189    0.000
  179.500    0.275    0.366   77.055   19.623    0.000
  179.750    0.286    0.354   80.701   20.397    0.000
  180.000    0.294    0.335   82.528   20.416    0.000
  180.250    0.304    0.371   92.221   19.693    0.000
  180.500    0.305    0.445  104.937   18.985    0.000
  180.750    0.295    0.472  120.072   16.383    0.000
  181.000    0.251    0.481  130.369   14.130    0.000
  181.250    0.200    0.528  132.803   11.962    0.000
  181.500    0.186    0.559  115.883    9.758    0.000
  181.750    0.194    0.524  115.898    7.668    0.000
  182.000    0.214    0.508  128.616    4.154    0.000
  182.250    0.242    0.518  134.074    3.859    0.000
  182.500    0.257    0.523  138.932    3.587    0.000
  182.750    0.282    0.503  140.759    3.658    0.000
  183.000    0.299    0.409  134.117    5.620    0.000
  183.250    0.323    0.375  109.938    8.164    0.000
  183.500    0.344    0.362   59.144   11.862    0.000
  183.750    0.353    0.342   44.644   15.699    0.000
  184.000    0.347    0.269   44.053   19.649    0.000
  184.250    0.333    0.284   47.094   22.409    0.000
  184.500    0.328    0.316   51.340   23.727    0.000
  184.750    0.314    0.357   58.011   23.310    0.000
  185.000    0.275    0.341   62.863   21.659    0.000
  185.250    0.263    0.356   73.161   20.509    0.000
  185.500    0.276    0.365   79.222   20.916    0.000
  185.750    0.331    0.353   71.376   22.151    0.000
  186.000    0.332    0.358   69.575   22.587    0.000
  186.250    0.313    0.377   79.874   22.192    0.000
  186.500    0.268    0.408   80.494   20.245    0.000
  186.750    0.250    0.417   78.694   18.471    0.000
  187.000    0.253    0.434   84.153   18.484    0.000
  187.250    0.282    0.417   87.193   18.516    0.000
  187.500    0.310    0.393   87.206   18.532    0.000
  187.750    0.324    0.385   80.569   18.894    0.000
  188.000    0.338    0.381   75.138   19.645    0.000
  188.250    0.344    0.394   73.341   20.026    0.000
  188.500    0.347    0.405   75.169   20.049    0.000
  188.750    0.336    0.387   81.230   19.340    0.000
  189.000    0.296    0.381   95.763   17.970    0.000
  189.250    0.265    0.415  112.106   15.215    0.000
  189.500    0.253    0.446  129.661   11.520    0.000
  189.750    0.241    0.456  138.751    8.404    0.000
  190.000    0.211    0.463  136.952    6.856    0.000
  190.250    0.202    0.486  133.341    6.253    0.000
  190.500    0.203    0.474  135.768    6.145    0.000
  190.750    0.188    0.466  146.671    6.267    0.000
  191.000    0.188    0.478  145.481    7.149    0.000
  191.250    0.203    0.435  140.652    8.000    0.000
