~VERSION INFORMATION
 VERS.                 2.0:   CWLS LOG ASCII STANDARD -VERSION 2.0
 WRAP.                  NO:   ONE LINE PER DEPTH STEP
~WELL INFORMATION BLOCK
#MNEM.UNIT           DATA                    DESCRIPTION OF MNEMONIC
#---------    -------------------            -------------------------------
# Generated from Intellog Unique Number	CC_84_87/WELL/2318
NULL.         -999.25                        : NULL_VALUE
WELL.         PEX PCEJ HANGST OV             : Well_name    - WELL
LOC .         10-32-084-11W4                 : Location     - LOCATION          
UWI .         00/10-32-084-11W400            : Uwi          - UNIQUE WELL ID    
ENTR.         DW                             : Entered      - ENTERED BY        
SRVC.         DRESSER ATLAS                  : Scn          - SERVICE COMPANY   
DATE.         17 FEB 81                      : Date         - LOG DATE
STRT.M        110                            : top_depth    - START DEPTH       
STOP.M        299.9                          : bot_depth    - STOP DEPTH        
STEP.M        0.3                            : increment    - STEP LENGTH       
~CURVE INFORMATION BLOCK
#MNEM UNIT       ERCB CURVE CODE    CURVE DESCRIPTION
#-----------   ------------------   ----------------------------------
DEPT.M        00 001 00 00         : DEPTH        - DEPTH                       
DPHI.V/V      00 890 00 00         : PHID         - DENSITY POROSITY (LIMESTONE)
NPHI.V/V      00 330 00 00         : PHIN         - NEUTRON POROSITY (LIMESTONE)
GR  .API      00 310 00 00         : GR           - GAMMA RAY                   
ILD .OHMM     00 120 00 00         : RESD         - DEEP RESISTIVITY (DIL)      
~PARAMETER INFORMATION       
#MNEM.UNIT           DATA             DESCRIPTION OF MNEMONIC
#---------         -----------     ------------------------------
GL  .M        542.43               : gl           - GROUND LEVEL ELEVATION      
EREF.M        545.8                : kb           - ELEVATION OF DEPTH REFERENCE
DATM.M        545.8                : datum        - DATUM ELEVATION             
TDD .M        303                  : tdd          - TOTAL DEPTH DRILLER         
RUN .         ONE                  : Run          - RUN NUMBER                  
ENG .         BILL                 : Engineer     - RECORDING ENGINEER          
WIT .         JIM                  : Witness      - WITNESSED BY                
MUD .         GEL                  : Mud_type     - MUD TYPE                    
MATR.         LIMESTONE            : Logunit      - NEUTRON MATRIX              
TMAX.C        15                   : BHT          - MAXIMUM RECORDED TEMPERATURE
BHTD.M        3032                 : BHTDEP       - MAXIMUM RECORDED TEMPERATURE
MATR.         1                    : LOGUNIT      - NEUTRON MATRIX              
RMT .C        25                   : MDTP         - TEMPERATURE OF MUD          
NEUT.         1                    : NEUTRON      - NEUTRON TYPE                
RESI.         0                    : RESIST       - RESISTIVITY TYPE            
RMC .OHMM     0.25                 : RMC          - RESISTIVITY OF MUD CAKE     
RMF .OHMM     0.25                 : RMF          - RESISTIVITY OF MUD FILTRATE 
SUFT.C        15                   : SUFT         - SURFACE TEMPERATURE         
~A  DEPTH     PHID     PHIN       GR     RESD
# ...
  162.201    0.296    0.440   71.690   16.169
  162.501    0.293    0.456   67.972   14.438
  162.801    0.286    0.446   72.894   11.089
  163.101    0.274    0.420   75.970    8.679
  163.401    0.298    0.414   82.125    7.604
  163.701    0.279    0.441   88.283    6.789
  164.001    0.265    0.458   82.100    6.536
  164.301    0.259    0.467   81.470    7.177
  164.601    0.283    0.436   86.392    8.340
  164.901    0.284    0.429   68.483   10.253
  165.201    0.292    0.462   74.023   11.914
  165.501    0.304    0.411   64.753   13.332
  165.801    0.308    0.399   64.122   14.098
  166.101    0.302    0.405   67.810   13.317
  166.401    0.258    0.424   73.969   12.823
  166.701    0.266    0.427   65.933   13.307
  167.001    0.286    0.422   71.474   13.811
  167.301    0.308    0.430   75.779   14.334
  167.601    0.308    0.445   67.743   14.329
  167.901    0.309    0.458   67.115   14.055
  168.201    0.303    0.458   65.863   13.528
  168.501    0.302    0.442   67.701   13.524
  168.801    0.297    0.435   63.987   13.776
  169.101    0.195    0.419   62.123   13.260
  169.401    0.197    0.443   62.727   12.065
  169.701    0.236    0.435   59.628   10.374
  170.001    0.280    0.448   83.678    9.263
  170.301    0.392    0.472   83.047    8.587
  170.601    0.420    0.466   78.716    8.745
  170.901    0.293    0.445   69.442    9.077
  171.201    0.308    0.437   65.729    9.247
  171.501    0.291    0.426   68.186    9.242
  171.801    0.280    0.421   75.575    8.896
  172.101    0.228    0.416   82.350    8.727
  172.401    0.215    0.421   84.190    8.243
  172.701    0.276    0.436   85.409    7.936
  173.001    0.295    0.443   83.541    7.786
  173.301    0.301    0.468   78.594    7.636
  173.601    0.332    0.484   83.517    7.352
  173.901    0.375    0.495   92.142    6.943
  174.201    0.300    0.489   93.364    6.684
  174.501    0.317    0.468   89.647    6.682
  174.801    0.287    0.463   77.910    7.067
  175.101    0.250    0.452   92.086    8.688
  175.401    0.286    0.448   82.201    9.364
  175.701    0.290    0.436   85.272    8.519
  176.001    0.289    0.461   95.130    6.301
  176.301    0.313    0.480   96.355    4.932
  176.601    0.332    0.527   97.569    3.860
  176.901    0.335    0.558   98.795    2.964
  177.201    0.309    0.575  104.334    2.854
  177.501    0.339    0.575   93.215    3.018
  177.801    0.404    0.531   87.031    3.193
  178.101    0.421    0.517   84.547    3.925
  178.401    0.303    0.531   82.679    4.230
  178.701    0.317    0.525   86.989    4.149
  179.001    0.364    0.511   93.763    4.069
  179.301    0.418    0.501   90.044    4.145
  179.601    0.373    0.487   88.800    5.001
  179.901    0.297    0.468   85.700    6.629
  180.201    0.236    0.426   77.049    8.624
  180.501    0.222    0.446   79.503    9.650
  180.801    0.233    0.446   76.403    9.116
  181.101    0.296    0.474   86.882    8.295
  181.401    0.269    0.448   94.274    7.406
  181.701    0.305    0.444   89.323    6.611
  182.001    0.271    0.469   93.012    6.486
  182.301    0.244    0.476   80.040    6.127
  182.601    0.298    0.466   72.622    6.010
  182.901    0.346    0.463   86.184    5.895
  183.201    0.369    0.450   79.996    6.005
  183.501    0.307    0.417   76.901    7.110
  183.801    0.241    0.372   69.482    8.907
  184.101    0.156    0.327   56.507   13.725
  184.401    0.180    0.343   51.560   16.249
  184.701    0.251    0.382   72.527   15.940
  185.001    0.273    0.405   74.980   13.200
  185.301    0.228    0.386   66.325   12.007
  185.601    0.183    0.386   61.379   11.342
  185.901    0.248    0.430   70.620   10.715
  186.201    0.291    0.423   81.713   10.316
  186.501    0.310    0.418   76.146    9.932
  186.801    0.327    0.419   63.792    9.741
  187.101    0.324    0.424   62.541    9.738
  187.401    0.318    0.425   62.529    9.917
  187.701    0.307    0.439   60.666   10.101
  188.001    0.291    0.445   65.589   10.290
  188.301    0.275    0.437   60.638   10.092
  188.601    0.302    0.436   63.092   10.089
  188.901    0.316    0.449   66.782   10.671
  189.201    0.308    0.442   59.363   11.286
  189.501    0.296    0.435   59.349   11.495
  189.801    0.274    0.441   63.657   11.275
  190.101    0.290    0.452   75.367   10.853
  190.401    0.312    0.458   70.417   10.448
  190.701    0.321    0.461   60.524   10.059
  191.001    0.313    0.467   58.048    9.499
  191.301    0.304    0.452   64.819    9.675
  191.601    0.288    0.431   68.511    9.673
  191.901    0.315    0.425   62.944    9.853
  192.201    0.301    0.424   56.144   10.034
  192.501    0.300    0.436   71.554    9.844
  192.801    0.320    0.428   76.480    9.657
  193.101    0.304    0.414   70.296    9.473
  193.401    0.315    0.419   64.112    9.290
  193.701    0.326    0.413   72.736    9.287
  194.001    0.307    0.420   76.424    9.460
  194.301    0.264    0.399   70.859   10.004
  194.601    0.241    0.385   57.267   11.846
  194.901    0.124    0.301   52.937   14.027
  195.201    0.173    0.268   67.112   14.019
  195.501    0.286    0.451   67.715   12.996
  195.801    0.324    0.445   72.025   11.387
  196.101    0.288    0.445   87.438    9.609
  196.401    0.229    0.438   81.866    8.743
  196.701    0.259    0.445   82.475    8.259
  197.001    0.259    0.458   75.668    7.951
  197.301    0.267    0.462   77.511    7.948
  197.601    0.249    0.461   81.194    8.404
  197.901    0.213    0.447   84.267    8.723
  198.201    0.242    0.446   89.194    9.053
  198.501    0.289    0.447   84.243    9.222
  198.801    0.295    0.423   87.314    8.712
  199.101    0.306    0.462   84.834    6.566
  199.401    0.350    0.497   82.353    5.646
  199.701    0.361    0.476   90.360    5.436
  200.001    0.293    0.447  100.839    5.433
  200.301    0.341    0.492   99.587    5.855
  200.601    0.349    0.509   95.258    6.193
  200.901    0.299    0.467   89.689    7.061
  201.201    0.291    0.443   85.353    7.901
  201.501    0.291    0.460   78.552    8.357
  201.801    0.288    0.456   74.222    8.674
  202.101    0.291    0.428   69.890    8.670
  202.401    0.293    0.430   69.876    8.666
  202.701    0.269    0.451   77.885    8.662
  203.001    0.250    0.443   66.147    8.659
  203.301    0.259    0.424   75.385    8.491
  203.601    0.273    0.454   76.608    8.489
  203.901    0.279    0.441   74.124    8.485
  204.201    0.273    0.440   76.581    8.324
  204.501    0.253    0.451   85.822    8.164
  204.801    0.223    0.430   79.022    8.316
  205.101    0.263    0.413   79.011    8.632
  205.401    0.282    0.432   74.056    9.659
  205.701    0.243    0.418   71.575   10.025
  206.001    0.236    0.406   70.325   10.021
  206.301    0.197    0.434   70.317    9.646
  206.601    0.272    0.476   78.324    8.776
  206.901    0.328    0.483   89.419    7.405
  207.201    0.382    0.487   89.403    6.737
  207.501    0.291    0.482   88.156    6.365
  207.801    0.322    0.487   84.442    6.128
  208.101    0.296    0.507   85.658    6.009
  208.401    0.289    0.508   83.179    6.008
  208.701    0.307    0.509   88.102    6.005
  209.001    0.310    0.523   96.729    4.359
  209.301    0.320    0.525   88.076    3.966
  209.601    0.309    0.516   89.914    3.818
  209.901    0.305    0.487   87.431    3.816
  210.201    0.320    0.488   84.329    4.271
  210.501    0.386    0.464   86.170    5.768
  210.801    0.328    0.461   84.306    6.701
  211.101    0.312    0.440   97.868    6.827
  211.401    0.298    0.467  103.409    6.449
  211.701    0.335    0.488   89.819    5.977
  212.001    0.328    0.507  100.291    5.864
  212.301    0.330    0.513  100.901    5.974
  212.601    0.312    0.489   96.564    6.560
  212.901    0.199    0.427   89.148    7.914
  213.201    0.285    0.441   89.746    8.857
  213.501    0.358    0.413   90.355    9.726
  213.801    0.237    0.373   98.364   10.286
  214.101    0.237    0.348   97.114   10.877
