~VERSION INFORMATION
 VERS.                 2.0:   CWLS LOG ASCII STANDARD -VERSION 2.0
 WRAP.                  NO:   ONE LINE PER DEPTH STEP
~WELL INFORMATION BLOCK
#MNEM.UNIT           DATA                    DESCRIPTION OF MNEMONIC
#---------    -------------------            -------------------------------
# Generated from Intellog Unique Number	CW_70_72/WELL/1030
WELL.         SUNDANCE ET AL CALL 10-01      : Well_name    - WELL              
NULL.         -999.25                        : NULL_VALUE
LOC .         10-01-072-23W4                 : Location     - LOCATION          
UWI .         00/10-01-072-23W4/0            : Uwi          - UNIQUE WELL ID    
ENTR.         JAYE                           : Entered      - ENTERED BY        
SRVC.         SCHLUMBERGER                   : Scn          - SERVICE COMPANY   
DATE.         15 FEB 77                      : Date         - LOG DATE          
STRT.M        399.288                        : top_depth    - START DEPTH       
STOP.M        624.788                        : bot_depth    - STOP DEPTH        
STEP.M        0.25                           : increment    - STEP LENGTH       
~CURVE INFORMATION BLOCK
#MNEM UNIT       ERCB CURVE CODE    CURVE DESCRIPTION
#-----------   ------------------   ----------------------------------
DEPT.M        00 001 00 00         : DEPTH        - DEPTH                       
DPHI.V/V      00 890 00 00         : PHID         - DENSITY POROSITY (SANDSTONE)
NPHI.V/V      00 330 00 00         : PHIN         - NEUTRON POROSITY (SANDSTONE)
GR  .API      00 310 00 00         : GR           - GAMMA RAY                   
CALI.MM       00 280 01 00         : CAL          - CALIPER                     
ILD .OHMM     00 120 00 00         : RESD         - DEEP RESISTIVITY (DIL)      
~PARAMETER INFORMATION       
#MNEM.UNIT           DATA             DESCRIPTION OF MNEMONIC
#---------         -----------     ------------------------------
GL  .M        641.452              : gl           - GROUND LEVEL ELEVATION      
EREF.M        645.262              : kb           - ELEVATION OF DEPTH REFERENCE
DATM.M        641.452              : datum        - DATUM ELEVATION             
TDD .M        640.08               : tdd          - TOTAL DEPTH DRILLER         
RUN .         ONE                  : Run          - RUN NUMBER                  
ENG .         PIMM                 : Engineer     - RECORDING ENGINEER          
WIT .         CHRISTERSEN          : Witness      - WITNESSED BY                
BASE.         EDM                  : Branch       - HOME BASE OF LOGGING UNIT   
MUD .         GEL                  : Mud_type     - MUD TYPE                    
MATR.         SANDSTONE            : Logunit      - NEUTRON MATRIX              
TMAX.C        31.6667              : BHT          - MAXIMUM RECORDED TEMPERATURE
BHTD.M        639.775              : BHTDEP       - MAXIMUM RECORDED TEMPERATURE
RMT .C        13.3333              : MDTP         - TEMPERATURE OF MUD          
MUDD.KG/M     1104                 : MWT          - MUD DENSITY                 
NEUT.         1                    : NEUTRON      - NEUTRON TYPE                
RESI.         0                    : RESIST       - RESISTIVITY TYPE            
RM  .OHMM     5.52                 : RM           - RESISTIVITY OF MUD          
RMC .OHMM     0                    : RMC          - RESISTIVITY OF MUD CAKE     
RMF .OHMM     5.54                 : RMF          - RESISTIVITY OF MUD FILTRATE 
SUFT.C        0                    : SUFT         - SURFACE TEMPERATURE         
~A  DEPTH     PHID     PHIN       GR      CAL     RESD
# ...
  545.288    0.190    0.417  114.676  173.235    5.565
  545.538    0.175    0.439  114.183  173.022    5.433
  545.788    0.163    0.427  113.997  172.912    5.403
  546.038    0.154    0.416  110.144  172.802    5.433
  546.288    0.141    0.413  111.362  172.692    5.504
  546.538    0.152    0.409  114.108  172.893    5.617
  546.788    0.173    0.401  110.010  172.989    5.680
  547.038    0.188    0.390  105.485  173.294    5.732
  547.288    0.195    0.377  103.526  173.288    5.818
  547.538    0.183    0.373  104.072  173.385    5.915
  547.788    0.190    0.380  106.757  173.068    5.970
  548.038    0.179    0.389  112.496  172.751    6.003
  548.288    0.182    0.392  113.959  172.642    5.959
  548.538    0.197    0.399  110.717  172.842    5.905
  548.788    0.192    0.417  107.962  172.918    5.744
  549.038    0.180    0.423  110.565  173.175    5.367
  549.288    0.167    0.430  114.030  173.533    5.253
  549.538    0.186    0.437  116.512  174.085    5.225
  549.788    0.185    0.440  118.379  174.152    5.217
  550.038    0.177    0.435  119.935  174.089    5.289
  550.288    0.186    0.430  120.946  174.119    5.411
  550.538    0.195    0.421  122.753  173.959    5.480
  550.788    0.181    0.413  124.371  173.783    5.627
  551.038    0.165    0.407  123.905  174.039    5.693
  551.288    0.183    0.399  120.496  174.090    5.706
  551.538    0.189    0.389  116.225  174.042    5.686
  551.788    0.180    0.381  108.888  172.934    5.657
  552.038    0.188    0.381   97.309  171.322    5.622
  552.288    0.195    0.373   91.569  169.393    5.613
  552.538    0.196    0.367   88.649  168.190    5.625
  552.788    0.173    0.365   89.840  168.539    5.647
  553.038    0.144    0.346   87.901  168.894    5.754
  553.288    0.104    0.323   86.947  169.455    5.940
  553.538    0.064    0.326   85.806  169.923    6.270
  553.788    0.068    0.353   82.639  170.569    6.865
  554.038    0.074    0.348   75.421  170.837    7.758
  554.288    0.052    0.295   68.020  171.196    9.046
  554.538    0.036    0.257   61.909  171.743   11.269
  554.788    0.047    0.221   67.645  172.401   13.284
  555.038    0.066    0.311   83.136  172.676   15.229
  555.288    0.105    0.344   92.182  173.131   12.863
  555.538    0.131    0.380   99.882  173.176    9.960
  555.788    0.169    0.399  104.330  173.318    7.897
  556.038    0.186    0.402  104.969  173.682    6.572
  556.288    0.181    0.403  106.283  173.307    5.810
  556.538    0.166    0.404  107.229  173.451    5.471
  556.788    0.153    0.405  108.974  172.984    5.335
  557.038    0.162    0.404  108.447  172.405    5.330
  557.288    0.152    0.403  106.077  171.599    5.427
  557.538    0.152    0.402  106.229  171.125    5.603
  557.788    0.155    0.400  106.930  171.077    5.752
  558.038    0.164    0.396  106.707  171.019    5.851
  558.288    0.169    0.392  107.285  170.958    5.942
  558.538    0.172    0.403  108.725  170.900    6.032
  558.788    0.168    0.410  111.146  171.247    6.147
  559.038    0.168    0.407  108.284  171.173    6.394
  559.288    0.148    0.398  108.373  171.117    6.674
  559.538    0.124    0.389  110.238  171.164    6.737
  559.788    0.134    0.382  112.537  171.212    6.497
  560.038    0.152    0.379  114.158  171.056    6.267
  560.288    0.165    0.376  115.350  170.783    6.164
  560.538    0.174    0.370  115.925  170.107    6.225
  560.788    0.173    0.363  112.149  169.631    6.520
  561.038    0.149    0.358  103.767  169.554    7.012
  561.288    0.122    0.348   98.268  169.614    7.292
  561.538    0.105    0.342  101.545  169.860    7.347
  561.788    0.127    0.369  103.597  170.209    7.151
  562.038    0.147    0.365  103.930  170.463    6.935
  562.288    0.143    0.362  106.594  170.723    6.746
  562.538    0.126    0.363  110.486  170.976    6.343
  562.788    0.126    0.368  114.561  171.329    6.058
  563.038    0.151    0.374  116.617  171.374    5.684
  563.288    0.172    0.385  116.214  170.170    5.439
  563.538    0.183    0.392  110.900  167.404    5.254
  563.788    0.170    0.390  109.144  166.824    5.216
  564.038    0.165    0.384  107.387  167.595    5.395
  564.288    0.149    0.374  103.916  168.783    5.697
  564.538    0.142    0.366  101.363  169.867    5.824
  564.788    0.125    0.354  104.583  171.248    5.949
  565.038    0.140    0.371  104.361  171.821    6.016
  565.288    0.151    0.372  100.768  171.976    6.097
  565.538    0.135    0.363   95.147  171.803    5.739
  565.788    0.104    0.354   98.237  171.847    5.141
  566.038    0.084    0.427  109.561  173.351    4.464
  566.288    0.101    0.489  118.668  176.307    3.916
  566.538    0.183    0.508  122.317  177.289    3.290
  566.788    0.193    0.518  124.918  177.947    2.946
  567.038    0.187    0.528  125.316  178.934    2.586
  567.288    0.194    0.514  122.087  179.385    2.439
  567.538    0.191    0.487  117.754  178.291    2.656
  567.788    0.172    0.432  111.890  174.282    3.166
  568.038    0.118    0.391  105.164  170.793    3.577
  568.288    0.087    0.348  101.138  170.722    4.164
  568.538    0.058    0.356  109.573  172.018    4.696
  568.788    0.111    0.375  114.387  174.348    5.256
  569.038    0.142    0.389  112.566  176.989    5.883
  569.288    0.146    0.399  109.037  178.695    5.174
  569.538    0.137    0.389  106.117  178.120    4.686
  569.788    0.091    0.373  102.029  176.188    4.552
  570.038    0.023    0.334   95.917  173.639    4.796
  570.288    0.002    0.299   87.842  170.044    5.440
  570.538   -0.015    0.283   85.657  168.002    6.248
  570.788    0.068    0.307   92.557  167.531    7.086
  571.038    0.118    0.333   99.214  168.094    8.049
  571.288    0.153    0.369  100.031  168.758    8.849
  571.538    0.132    0.369  100.304  169.943    8.162
  571.788    0.135    0.359  101.006  171.135    7.272
  572.038    0.121    0.349  102.814  172.426    6.598
  572.288    0.125    0.357  106.951  171.013    6.165
  572.538    0.147    0.377  111.152  172.194    5.774
  572.788    0.152    0.386  113.879  172.965    5.731
  573.038    0.147    0.395  110.407  173.224    5.662
  573.288    0.151    0.410  110.615  173.479    5.482
  573.538    0.151    0.424  113.770  173.729    5.353
  573.788    0.139    0.414  114.657  173.878    5.198
  574.038    0.144    0.407  116.461  173.920    4.969
  574.288    0.133    0.417  115.443  173.863    4.799
  574.538    0.128    0.419  113.262  173.387    4.748
  574.788    0.094    0.414  112.305  173.424    4.811
  575.038    0.077    0.409  113.865  173.363    4.904
  575.288    0.091    0.413  118.246  173.933    4.959
  575.538    0.130    0.432  123.738  176.471    4.999
  575.788    0.150    0.423  125.417  174.535    4.743
  576.038    0.159    0.410  124.278  174.272    4.555
  576.288    0.141    0.403  122.893  174.100    4.440
  576.538    0.130    0.396  120.894  174.152    4.450
  576.788    0.118    0.387  117.791  174.194    4.569
  577.038    0.103    0.378  113.950  174.655    4.895
  577.288    0.095    0.362  110.292  177.089    5.359
  577.538    0.077    0.335  105.716  174.120    5.967
  577.788    0.051    0.334  108.197  173.748    6.558
  578.038    0.111    0.353  114.665  174.411    7.129
  578.288    0.132    0.381  118.867  175.183    7.054
  578.538    0.136    0.388  123.678  175.745    6.423
  578.788    0.152    0.392  129.657  176.100    5.744
  579.038    0.155    0.396  130.912  176.771    5.249
  579.288    0.154    0.404  125.661  177.128    4.842
  579.538    0.166    0.411  128.816  176.544    4.542
  579.788    0.162    0.416  130.007  178.774    4.356
  580.038    0.148    0.407  126.104  176.531    4.333
  580.288    0.142    0.392  123.861  174.593    4.490
  580.538    0.147    0.401  124.869  173.290    4.620
  580.788    0.155    0.407  124.832  173.022    4.724
  581.038    0.151    0.398  122.463  173.567    4.939
  581.288    0.142    0.387  122.731  173.813    5.409
  581.538    0.127    0.387  126.320  174.297    5.913
