~VERSION INFORMATION
 VERS.                 2.0:   CWLS LOG ASCII STANDARD -VERSION 2.0
 WRAP.                  NO:   ONE LINE PER DEPTH STEP
~WELL INFORMATION BLOCK
#MNEM.UNIT           DATA                    DESCRIPTION OF MNEMONIC
#---------    -------------------            -------------------------------
# Generated from Intellog Unique Number	CS_77_79/WELL/960
WELL.         CDN. SUP. THORNBURY            : Well_name    - WELL
LOC .         00/10-22-078-14W4/0            : Location     - LOCATION
UWI .         00/10-22-078-14W4/0            : Uwi          - UNIQUE WELL ID
ENTR.         JHS                            : Entered      - ENTERED BY
SRVC.         SCHLUMBERGER                   : Scn          - SERVICE COMPANY
STRT.M        275                            : top_depth    - START DEPTH
STOP.M        518.25                         : bot_depth    - STOP DEPTH
STEP.M        0.25                           : increment    - STEP LENGTH
 NULL. -999.2500:NULL Value
~CURVE INFORMATION BLOCK
#MNEM UNIT       ERCB CURVE CODE    CURVE DESCRIPTION
#-----------   ------------------   ----------------------------------
DEPT.M        00 001 00 00         : DEPTH        - DEPTH
NPHI.V/V      00 330 00 00         : PHIN         - NEUTRON POROSITY (LIMESTONE)
GR  .API      00 310 00 00         : GR           - GAMMA RAY
ILD .OHMM     00 120 00 00         : RESD         - DEEP RESISTIVITY (DIL)
DPHI.V/V      00 890 00 00         : PHID         - DENSITY POROSITY (LIMESTONE)
~PARAMETER INFORMATION
#MNEM.UNIT           DATA             DESCRIPTION OF MNEMONIC
#---------         -----------     ------------------------------
GL  .M        685.4                : gl           - GROUND LEVEL ELEVATION
EREF.M        689.9                : kb           - ELEVATION OF DEPTH REFERENCE
DATM.M        689.9                : datum        - DATUM ELEVATION
TDD .M        665                  : tdd          - TOTAL DEPTH DRILLER
RUN .         ONE                  : Run          - RUN NUMBER
ENG .         BILL                 : Engineer     - RECORDING ENGINEER
WIT .         JIM                  : Witness      - WITNESSED BY
MUD .         GEL                  : Mud_type     - MUD TYPE
MATR.         LIMESTONE            : Logunit      - NEUTRON MATRIX
TMAX.C        19                   : BHT          - MAXIMUM RECORDED TEMPERATURE
BHTD.M        665                  : BHTDEP       - MAXIMUM RECORDED TEMPERATURE
MATR.         1                    : LOGUNIT      - NEUTRON MATRIX
RMT .C        25                   : MDTP         - TEMPERATURE OF MUD
NEUT.         1                    : NEUTRON      - NEUTRON TYPE
RESI.         0                    : RESIST       - RESISTIVITY TYPE
RMC .OHMM     0.25                 : RMC          - RESISTIVITY OF MUD CAKE
RMF .OHMM     0.25                 : RMF          - RESISTIVITY OF MUD FILTRATE
SUFT.C        15                   : SUFT         - SURFACE TEMPERATURE
~A  DEPTH     PHIN       GR     RESD     PHID
# ...
  405.500    0.431   84.057    5.699    0.235
  405.750    0.417   87.157    5.087    0.229
  406.000    0.403   90.257    4.807    0.227
  406.250    0.391   92.120    4.542    0.240
  406.500    0.420   85.964    4.458    0.252
  406.750    0.453   84.740    4.544    0.228
  407.000    0.445   89.073    4.632    0.218
  407.250    0.427   93.410    4.813    0.215
  407.500    0.428   95.890    4.906    0.224
  407.750    0.415   94.671    4.908    0.235
  408.000    0.417   90.981    5.002    0.232
  408.250    0.419   92.231    5.398    0.238
  408.500    0.423   91.004    5.716    0.253
  408.750    0.420   85.465    6.168    0.269
  409.000    0.420   83.008    6.656    0.261
  409.250    0.387   84.874    6.916    0.249
  409.500    0.373   87.973    6.787    0.236
  409.750    0.387   90.453    6.661    0.219
  410.000    0.424   94.790    6.294    0.211
  410.250    0.435   95.419    6.177    0.203
  410.500    0.442   93.584    5.837    0.199
  410.750    0.429   92.359    5.728    0.199
  411.000    0.394   92.988    5.622    0.204
  411.250    0.389   96.093    5.624    0.200
  411.500    0.381   97.335    5.519    0.208
  411.750    0.391   97.349    5.521    0.219
  412.000    0.444   94.278    5.522    0.222
  412.250    0.466   92.440    5.629    0.226
  412.500    0.457   89.982    5.739    0.243
  412.750    0.426   88.761    6.076    0.250
  413.000    0.419   90.008    6.433    0.257
  413.250    0.416   90.640    6.812    0.247
  413.500    0.414   90.036    6.814    0.236
  413.750    0.446   91.899    6.946    0.226
  414.000    0.435   92.532    7.081    0.222
  414.250    0.427   91.925    7.218    0.227
  414.500    0.418   91.325    7.358    0.241
  414.750    0.402   92.571    7.360    0.242
  415.000    0.416   93.201    7.362    0.236
  415.250    0.401   91.982    7.225    0.232
  415.500    0.410   88.289    7.091    0.262
  415.750    0.411   84.601    7.093    0.282
  416.000    0.425   81.526    6.961    0.282
  416.250    0.441   73.516    6.964    0.288
  416.500    0.451   67.971    7.098    0.279
  416.750    0.451   66.133    7.374    0.290
  417.000    0.450   64.911    7.809    0.291
  417.250    0.454   61.840    8.268    0.295
  417.500    0.460   61.233    8.428    0.311
  417.750    0.462   60.013    8.431    0.321
  418.000    0.481   59.414    8.432    0.321
  418.250    0.484   59.426    8.120    0.314
  418.500    0.454   59.438    7.970    0.307
  418.750    0.432   60.066    7.972    0.304
  419.000    0.393   60.695    7.974    0.316
  419.250    0.399   61.331    7.825    0.325
  419.500    0.417   60.722    7.828    0.320
  419.750    0.432   60.120    7.683    0.311
  420.000    0.407   61.366    7.684    0.306
  420.250    0.384   62.616    7.541    0.310
  420.500    0.388   63.244    7.544    0.315
  420.750    0.404   66.345    7.545    0.311
  421.000    0.419   65.741    7.547    0.311
  421.250    0.440   62.669    7.694    0.318
  421.500    0.426   62.681    7.695    0.317
  421.750    0.430   63.930    7.697    0.318
  422.000    0.435   64.557    7.555    0.322
  422.250    0.450   63.339    7.415    0.336
  422.500    0.455   62.118    7.416    0.338
  422.750    0.465   61.511    7.560    0.338
  423.000    0.483   60.907    8.005    0.341
  423.250    0.467   64.011    8.476    0.349
  423.500    0.467   65.254    8.640    0.344
  423.750    0.431   67.124    8.480    0.337
  424.000    0.405   67.132    8.166    0.328
  424.250    0.421   65.912    7.864    0.324
  424.500    0.426   67.776    7.573    0.329
  424.750    0.455   67.177    7.432    0.335
  425.000    0.471   67.185    7.294    0.340
  425.250    0.481   65.966    7.296    0.347
  425.500    0.457   65.978    7.581    0.358
  425.750    0.445   66.607    7.582    0.355
  426.000    0.440   66.621    7.442    0.340
  426.250    0.443   65.403    7.304    0.332
  426.500    0.438   64.796    7.168    0.337
  426.750    0.425   65.427    6.902    0.333
  427.000    0.427   64.207    6.774    0.325
  427.250    0.415   62.369    6.649    0.322
  427.500    0.401   61.763    6.650    0.325
  427.750    0.426   61.158    6.652    0.330
  428.000    0.475   61.789    6.653    0.331
  428.250    0.418   63.655    6.913    0.331
  428.500    0.381   63.666    7.459    0.306
  428.750    0.300   59.360    8.204    0.181
  429.000    0.282   58.139    8.206    0.116
  429.250    0.351   59.385    7.902    0.198
  429.500    0.432   64.338    7.610    0.279
  429.750    0.417   68.053    7.191    0.331
  430.000    0.421   68.686    6.795    0.329
  430.250    0.421   68.081    6.420    0.321
  430.500    0.418   65.628    6.301    0.315
  430.750    0.433   65.637    6.423    0.326
  431.000    0.432   67.504    6.548    0.327
  431.250    0.437   68.134    6.549    0.324
  431.500    0.422   66.297    6.428    0.332
  431.750    0.414   65.690    6.190    0.326
  432.000    0.406   66.322    6.075    0.309
  432.250    0.401   68.188    6.077    0.283
  432.500    0.408   67.583    6.195    0.289
  432.750    0.405   65.745    6.196    0.311
  433.000    0.417   64.522    6.316    0.322
  433.250    0.443   63.303    6.318    0.322
  433.500    0.455   63.314    6.441    0.321
  433.750    0.462   65.178    6.441    0.320
  434.000    0.464   68.896    6.204    0.321
  434.250    0.449   70.143    6.088    0.322
  434.500    0.467   70.159    5.975    0.325
  434.750    0.472   70.171    5.864    0.323
  435.000    0.474   71.421    5.866    0.320
  435.250    0.481   73.903    5.867    0.321
  435.500    0.470   75.770    5.869    0.321
  435.750    0.473   75.781    5.983    0.326
  436.000    0.470   74.558    5.872    0.329
  436.250    0.477   75.189    5.873    0.324
  436.500    0.475   75.820    5.764    0.321
  436.750    0.458   78.304    5.876    0.323
  437.000    0.439   80.166    5.877    0.327
  437.250    0.425   78.328    5.879    0.323
  437.500    0.407   75.252    5.880    0.316
  437.750    0.399   71.566    5.882    0.312
  438.000    0.442   72.195    5.883    0.311
  438.250    0.465   72.824    5.997    0.310
  438.500    0.479   73.454    5.999    0.313
  438.750    0.492   73.467    6.000    0.315
  439.000    0.458   72.865    5.889    0.307
  439.250    0.454   71.646    5.779    0.298
  439.500    0.442   72.273    5.781    0.310
  439.750    0.442   74.756    5.782    0.319
  440.000    0.456   76.620    5.783    0.297
  440.250    0.469   77.868    6.009    0.290
  440.500    0.462   79.120    6.010    0.284
  440.750    0.438   78.513    6.012    0.273
  441.000    0.432   76.672    5.901    0.264
  441.250    0.444   78.538    5.682    0.248
  441.500    0.470   84.109    5.471    0.242
  441.750    0.462   88.441    5.170    0.233
  442.000    0.447   95.244    5.271    0.218
  442.250    0.413   98.350    5.373    0.202
  442.500    0.403   96.510    5.582    0.204
  442.750    0.417   93.434    5.910    0.244
  443.000    0.396   89.124    6.141    0.258
  443.250    0.411   87.902    6.142    0.244
  443.500    0.445   86.064    6.028    0.243
  443.750    0.449   81.139    6.029    0.259
  444.000    0.459   73.748    6.146    0.273
  444.250    0.450   74.995    6.266    0.275
  444.500    0.451   79.944    6.510    0.250
  444.750    0.479   85.514    6.636    0.225
  445.000    0.361   87.996    6.894    0.203
  445.250    0.274   89.245    7.163    0.191
  445.500    0.232   76.293    7.442    0.126
  445.750    0.212   63.960    7.879    0.013
  446.000    0.198   57.801    8.343    0.000
  446.250    0.222   70.778    8.505    0.053
  446.500    0.342   78.814    8.190    0.113
  446.750    0.346   87.472    7.450    0.204
  447.000    0.361   88.719    6.778    0.204
  447.250    0.372   86.879    6.404    0.202
  447.500    0.385   88.127    6.529    0.204
  447.750    0.384   91.847    6.656    0.211
  448.000    0.378   92.476    6.657    0.205
  448.250    0.396   91.872    6.786    0.206
  448.500    0.427   88.800    7.051    0.211
  448.750    0.413   87.577    7.187    0.206
