~VERSION INFORMATION
 VERS.                 2.0:   CWLS LOG ASCII STANDARD -VERSION 2.0
 WRAP.                  NO:   ONE LINE PER DEPTH STEP
~WELL INFORMATION BLOCK
#MNEM.UNIT           DATA                    DESCRIPTION OF MNEMONIC
#---------    -------------------            -------------------------------
# Generated from Intellog Unique Number	CS_73_76/WELL/3238
WELL.         10-20-075-18W4                 : Well_name    - WELL
LOC .         00/10-20-075-18W4/0            : Location     - LOCATION
UWI .         00/10-20-075-18W4/0            : Uwi          - UNIQUE WELL ID
ENTR.         SP                             : Entered      - ENTERED BY
SRVC.         SCHLUMBERGER                   : Scn          - SERVICE COMPANY
STRT.M        237.744                        : top_depth    - START DEPTH
STOP.M        441.744                        : bot_depth    - STOP DEPTH
STEP.M        0.25                           : increment    - STEP LENGTH
 NULL. -999.2500:NULL Value
~CURVE INFORMATION BLOCK
#MNEM UNIT       ERCB CURVE CODE    CURVE DESCRIPTION
#-----------   ------------------   ----------------------------------
DEPT.M        00 001 00 00         : DEPTH        - DEPTH
GR  .API      00 310 00 00         : GR           - GAMMA RAY
DPHI.V/V      00 890 00 00         : PHID         - DENSITY POROSITY (SANDSTONE)
NPHI.V/V      00 330 00 00         : PHIN         - NEUTRON POROSITY (SANDSTONE)
ILD .OHMM     00 120 00 00         : RESD         - DEEP RESISTIVITY (DIL)
~PARAMETER INFORMATION
#MNEM.UNIT           DATA             DESCRIPTION OF MNEMONIC
#---------         -----------     ------------------------------
GL  .M        580.644              : gl           - GROUND LEVEL ELEVATION
EREF.M        583.692              : kb           - ELEVATION OF DEPTH REFERENCE
DATM.M        580.644              : datum        - DATUM ELEVATION
TDD .M        448.056              : tdd          - TOTAL DEPTH DRILLER
RUN .         ONE                  : Run          - RUN NUMBER
ENG .         BILL                 : Engineer     - RECORDING ENGINEER
WIT .         JIM                  : Witness      - WITNESSED BY
MUD .         GEL                  : Mud_type     - MUD TYPE
MATR.         SANDSTONE            : Logunit      - NEUTRON MATRIX
TMAX.C        10.5556              : BHT          - MAXIMUM RECORDED TEMPERATURE
BHTD.M        448.056              : BHTDEP       - MAXIMUM RECORDED TEMPERATURE
MATR.         1                    : LOGUNIT      - NEUTRON MATRIX
RMT .C        25                   : MDTP         - TEMPERATURE OF MUD
NEUT.         1                    : NEUTRON      - NEUTRON TYPE
RESI.         0                    : RESIST       - RESISTIVITY TYPE
RMC .OHMM     0.25                 : RMC          - RESISTIVITY OF MUD CAKE
RMF .OHMM     0.25                 : RMF          - RESISTIVITY OF MUD FILTRATE
SUFT.C        15                   : SUFT         - SURFACE TEMPERATURE
~A  DEPTH       GR     PHID     PHIN     RESD
# ...
  281.244   70.336    0.301    0.501    7.975
  281.494   71.293    0.297    0.485    8.035
  281.744   73.808    0.284    0.487    7.805
  281.994   75.540    0.268    0.490    7.375
  282.244   77.686    0.271    0.484    7.078
  282.494   81.168    0.270    0.476    7.296
  282.744   84.640    0.269    0.470    7.515
  282.994   86.689    0.260    0.467    7.748
  283.244   82.110    0.269    0.454    7.652
  283.494   79.730    0.263    0.443    6.890
  283.744   78.716    0.251    0.438    6.403
  283.994   81.235    0.237    0.441    5.961
  284.244   83.102    0.230    0.455    5.673
  284.494   84.106    0.235    0.464    5.398
  284.744   85.011    0.223    0.474    5.407
  284.994   83.645    0.212    0.485    5.927
  285.244   79.484    0.329    0.513    6.956
  285.494   73.329    0.377    0.537    8.492
  285.744   64.269    0.514    0.594    9.810
  285.994   53.766    0.551    0.619   11.696
  286.244   49.208    0.575    0.637   13.714
  286.494   42.402    0.601    0.647   15.419
  286.744   47.637    0.633    0.615   16.767
  286.994   50.793    0.313    0.527   17.787
  287.244   55.337    0.282    0.474   18.878
  287.494   59.331    0.284    0.456   20.907
  287.744   67.229    0.288    0.465   23.839
  287.994   69.635    0.299    0.475   26.056
  288.244   68.001    0.312    0.491   29.458
  288.494   62.816    0.312    0.502   32.334
  288.744   56.772    0.310    0.496   34.989
  288.994   53.369    0.322    0.485   37.047
  289.244   51.473    0.337    0.477   33.352
  289.494   52.353    0.325    0.472   26.177
  289.744   53.972    0.318    0.468   21.585
  289.994   53.391    0.320    0.464   18.284
  290.244   51.157    0.325    0.464   15.473
  290.494   49.603    0.332    0.461   13.339
  290.744   47.479    0.338    0.457   11.778
  290.994   47.072    0.335    0.451   10.930
  291.244   47.343    0.339    0.474   10.224
  291.494   50.084    0.340    0.484   10.076
  291.744   53.033    0.347    0.491    9.870
  291.994   55.571    0.342    0.469    9.704
  292.244   57.253    0.330    0.468    9.705
  292.494   57.359    0.328    0.463    9.704
  292.744   55.267    0.323    0.468    9.692
  292.994   52.419    0.324    0.474    9.900
  293.244   53.574    0.326    0.469    9.885
  293.494   55.530    0.325    0.461    9.885
  293.744   56.166    0.311    0.449    9.886
  293.994   57.462    0.322    0.440    9.886
  294.244   57.723    0.331    0.435    9.906
  294.494   59.336    0.328    0.446    9.691
  294.744   58.592    0.334    0.458    9.711
  294.994   57.705    0.328    0.465    9.713
  295.244   56.208    0.321    0.466    9.716
  295.494   57.883    0.334    0.456    9.707
  295.744   60.288    0.338    0.445    9.891
  295.994   60.522    0.332    0.449   10.089
  296.244   62.641    0.318    0.455   10.228
  296.494   62.491    0.314    0.466   10.475
  296.744   61.502    0.313    0.478   10.477
  296.994   60.026    0.319    0.487   10.642
  297.244   58.950    0.324    0.489   10.871
  297.494   57.957    0.321    0.475   10.851
  297.744   56.989    0.327    0.463   10.830
  297.994   56.145    0.327    0.467   11.073
  298.244   56.737    0.324    0.467   11.053
  298.494   60.056    0.321    0.456   11.061
  298.744   61.097    0.317    0.448   11.104
  298.994   62.084    0.311    0.456   11.250
  299.244   61.360    0.325    0.463   11.376
  299.494   58.456    0.318    0.470   11.247
  299.744   55.724    0.309    0.481   10.895
  299.994   48.976    0.313    0.489   10.563
  300.244   45.199    0.324    0.495   10.476
  300.494   40.747    0.335    0.508   10.454
  300.744   41.547    0.327    0.557   10.685
  300.994   42.497    0.345    0.508   10.668
  301.244   43.108    0.352    0.489   10.483
  301.494   42.994    0.342    0.480   10.268
  301.744   41.363    0.336    0.472   10.291
  301.994   40.650    0.327    0.471   10.299
  302.244   40.581    0.325    0.483   10.338
  302.494   40.113    0.315    0.469   10.308
  302.744   39.161    0.317    0.459   10.511
  302.994   38.114    0.326    0.453   10.487
  303.244   35.579    0.321    0.463   10.489
  303.494   33.857    0.315    0.471   10.505
  303.744   32.949    0.316    0.468   10.294
  303.994   34.042    0.317    0.462   10.299
  304.244   34.333    0.318    0.459   10.245
  304.494   34.719    0.328    0.457   10.116
  304.744   36.289    0.324    0.454   10.020
  304.994   37.953    0.320    0.448    9.750
  305.244   38.295    0.317    0.451    9.603
  305.494   38.004    0.316    0.456    9.409
  305.744   36.914    0.314    0.457    9.200
  305.994   35.411    0.331    0.459    9.069
  306.244   34.694    0.333    0.475    9.088
  306.494   34.794    0.337    0.487    8.901
  306.744   36.393    0.333    0.484    8.913
  306.994   37.361    0.331    0.472    8.909
  307.244   37.685    0.329    0.464    8.911
  307.494   36.212    0.330    0.474    8.741
  307.744   35.767    0.337    0.480    8.752
  307.994   35.302    0.323    0.483    8.754
  308.244   35.609    0.322    0.484    8.751
  308.494   36.636    0.315    0.470    8.728
  308.744   37.141    0.313    0.461    8.584
  308.994   36.450    0.328    0.472    8.772
  309.244   36.552    0.322    0.467    8.759
  309.494   37.110    0.317    0.462    8.775
  309.744   37.097    0.323    0.452    8.587
  309.994   37.101    0.311    0.450    8.605
  310.244   38.099    0.312    0.444    8.490
  310.494   39.059    0.324    0.437    8.454
  310.744   40.048    0.327    0.433    8.451
  310.994   40.374    0.323    0.442    8.451
  311.244   41.378    0.322    0.455    8.452
  311.494   39.588    0.325    0.463    8.454
  311.744   38.460    0.325    0.465    8.459
  311.994   38.987    0.330    0.459    8.479
  312.244   39.959    0.334    0.454    8.622
  312.494   39.687    0.342    0.453    8.733
  312.744   40.066    0.339    0.456    9.290
  312.994   40.539    0.340    0.460   10.439
  313.244   39.769    0.339    0.465   11.872
  313.494   38.824    0.319    0.430   17.130
  313.744   37.905    0.320    0.391   37.008
  313.994   36.129    0.060    0.205   62.818
  314.244   33.536    0.033    0.150   84.271
  314.494   31.856   -0.002    0.119  121.064
  314.744   30.553   -0.000    0.108  175.266
  314.994   32.180   -0.000    0.103  186.274
  315.244   33.755    0.028    0.129  143.288
  315.494   36.102    0.097    0.155  104.117
  315.744   38.622    0.185    0.193   65.844
  315.994   40.617    0.264    0.230   43.261
  316.244   41.174    0.278    0.256   25.830
  316.494   40.134    0.326    0.285   19.460
  316.744   40.027    0.330    0.325   15.546
  316.994   40.014    0.323    0.407   13.139
  317.244   40.310    0.315    0.463   11.242
  317.494   42.163    0.313    0.466   10.665
  317.744   43.538    0.322    0.455   10.190
  317.994   44.514    0.318    0.448    9.973
  318.244   45.495    0.316    0.445    9.964
  318.494   46.020    0.299    0.459    9.809
  318.744   45.300    0.298    0.475    9.814
  318.994   45.344    0.324    0.478    9.816
  319.244   45.827    0.317    0.469    9.835
  319.494   45.882    0.303    0.460    9.622
  319.744   46.556    0.291    0.451    9.642
  319.994   46.887    0.289    0.448    9.662
  320.244   49.052    0.307    0.451    9.451
  320.494   51.885    0.318    0.444    9.471
  320.744   52.049    0.314    0.457    9.472
  320.994   49.734    0.301    0.472    9.473
  321.244   47.889    0.293    0.481    9.474
  321.494   46.445    0.290    0.469    9.471
  321.744   46.530    0.307    0.470    9.454
  321.994   46.527    0.306    0.469    9.298
  322.244   46.373    0.308    0.463    9.289
  322.494   44.666    0.313    0.458    9.487
  322.744   43.976    0.299    0.458    9.478
  322.994   46.494    0.310    0.459    9.481
  323.244   47.720    0.317    0.456    9.483
  323.494   48.731    0.306    0.460    9.484
  323.744   48.746    0.303    0.460    9.482
  323.994   48.283    0.297    0.452    9.493
  324.244   49.310    0.298    0.467    9.300
  324.494   49.575    0.303    0.475    9.315
