~VERSION INFORMATION
 VERS.                 2.0:   CWLS LOG ASCII STANDARD -VERSION 2.0
 WRAP.                  NO:   ONE LINE PER DEPTH STEP
~WELL INFORMATION BLOCK
#MNEM.UNIT           DATA                    DESCRIPTION OF MNEMONIC
#---------    -------------------            -------------------------------
# Generated from Intellog Unique Number	CX_WELLS/WELL/2813
WELL.         THORNBURY                      : Well_name    - WELL
LOC .         00/14-01-081-12W4/0            : Location     - LOCATION
UWI .         00/14-01-081-12W400            : Uwi          - UNIQUE WELL ID
ENTR.         T                              : Entered      - ENTERED BY
SRVC.         SCHLUMBERGER                   : Scn          - SERVICE COMPANY
STRT.M        275                            : top_depth    - START DEPTH
STOP.M        500                            : bot_depth    - STOP DEPTH
STEP.M        0.25                           : increment    - STEP LENGTH
 NULL. -999.2500:NULL Value
~CURVE INFORMATION BLOCK
#MNEM UNIT       ERCB CURVE CODE    CURVE DESCRIPTION
#-----------   ------------------   ----------------------------------
DEPT.M        00 001 00 00         : DEPTH        - DEPTH
GR  .API      00 310 00 00         : GR           - GAMMA RAY
NPHI.V/V      00 330 00 00         : PHIN         - NEUTRON POROSITY (SANDSTONE)
DPHI.V/V      00 890 00 00         : PHID         - DENSITY POROSITY (SANDSTONE)
ILD .OHMM     00 120 00 00         : RESD         - DEEP RESISTIVITY (OTHER)
~PARAMETER INFORMATION
#MNEM.UNIT           DATA             DESCRIPTION OF MNEMONIC
#---------         -----------     ------------------------------
GL  .M        704.3                : gl           - GROUND LEVEL ELEVATION
EREF.M        704.8                : kb           - ELEVATION OF DEPTH REFERENCE
DATM.M        704.8                : datum        - DATUM ELEVATION
TDD .M        515                  : tdd          - TOTAL DEPTH DRILLER
RUN .         ONE                  : Run          - RUN NUMBER
ENG .         BILL                 : Engineer     - RECORDING ENGINEER
WIT .         JIM                  : Witness      - WITNESSED BY
MUD .         GEL                  : Mud_type     - MUD TYPE
MATR.         SANDSTONE            : Logunit      - NEUTRON MATRIX
TMAX.C        26                   : BHT          - MAXIMUM RECORDED TEMPERATURE
BHTD.M        515                  : BHTDEP       - MAXIMUM RECORDED TEMPERATURE
MATR.         1                    : LOGUNIT      - NEUTRON MATRIX
RMT .C        15.6                 : MDTP         - TEMPERATURE OF MUD
NEUT.         1                    : NEUTRON      - NEUTRON TYPE
RESI.         5                    : RESIST       - RESISTIVITY TYPE
RMC .OHMM     4.5                  : RMC          - RESISTIVITY OF MUD CAKE
RMF .OHMM     3.9                  : RMF          - RESISTIVITY OF MUD FILTRATE
SUFT.C        4                    : SUFT         - SURFACE TEMPERATURE
~A  DEPTH       GR     PHIN     PHID     RESD
  275.000   96.174    0.491    0.232    6.509
  275.250   91.808    0.491    0.235    6.885
  275.500   85.568    0.491    0.229    7.282
  275.750   81.827    0.488    0.224    8.296
  276.000   78.085    0.480    0.211    9.277
  276.250   73.719    0.477    0.198   10.969
  276.500   68.730    0.465    0.219   11.601
  276.750   63.740    0.430    0.290   13.218
  277.000   61.247    0.306    0.372   13.983
  277.250   60.630    0.285    0.373   14.252
  277.500   61.261    0.278    0.370   14.526
  277.750   62.513    0.294    0.361   14.805
  278.000   64.393    0.314    0.357   15.092
  278.250   65.023    0.336    0.351   15.096
  278.500   65.029    0.364    0.346   15.390
  278.750   66.283    0.389    0.347   15.394
  279.000   67.538    0.405    0.346   16.594
  279.250   68.169    0.405    0.342   16.911
  279.500   68.799    0.406    0.339   16.918
  279.750   69.429    0.409    0.338   16.014
  280.000   72.556    0.412    0.338   15.153
  280.250   75.059    0.420    0.338   14.339
  280.500   78.813    0.428    0.338   13.076
  280.750   80.692    0.434    0.332   11.926
  281.000   83.820    0.437    0.305   11.077
  281.250   86.949    0.432    0.294    9.920
  281.500   90.077    0.423    0.280    9.562
  281.750   93.831    0.421    0.273    9.218
  282.000   95.707    0.415    0.262    9.223
  282.250  100.710    0.410    0.264    9.939
  282.500  106.961    0.428    0.384   11.322
  282.750  111.964    0.506    0.420   12.899
  283.000  111.343    0.532    0.463   13.144
  283.250  103.230    0.532    0.449   12.443
  283.500   92.619    0.526    0.418   11.774
  283.750   87.004    0.522    0.433   10.938
  284.000   80.765    0.515    0.442   12.231
  284.250   72.029    0.497    0.360   13.180
  284.500   62.667    0.471    0.332   14.471
  284.750   54.554    0.442    0.327   14.748
  285.000   47.690    0.402    0.327   15.314
  285.250   46.448    0.385    0.327   15.320
  285.500   47.701    0.395    0.323   14.774
  285.750   50.208    0.403    0.310   14.241
  286.000   51.459    0.401    0.311   13.478
  286.250   52.715    0.399    0.313   13.737
  286.500   54.596    0.401    0.322   13.999
  286.750   55.850    0.405    0.328   14.008
  287.000   57.103    0.406    0.333   13.507
  287.250   58.358    0.405    0.334   13.265
  287.500   60.237    0.402    0.329   12.789
  287.750   61.491    0.407    0.324   12.329
  288.000   62.747    0.412    0.308   12.108
  288.250   65.252    0.416    0.295   11.673
  288.500   67.757    0.418    0.286   11.254
  288.750   69.634    0.414    0.286   10.849
  289.000   71.512    0.411    0.286   10.460
  289.250   74.017    0.410    0.285   10.086
  289.500   75.897    0.412    0.278    9.905
  289.750   76.524    0.414    0.274    9.729
  290.000   79.029    0.418    0.269    9.733
  290.250   83.406    0.424    0.263    9.921
  290.500   89.032    0.434    0.256   10.111
  290.750   95.284    0.450    0.254   10.695
  291.000   95.290    0.463    0.263   11.526
  291.250   87.800    0.469    0.280   12.419
  291.500   78.438    0.472    0.311   13.384
  291.750   69.700    0.466    0.329   14.422
  292.000   67.208    0.459    0.344   14.697
  292.250   69.090    0.445    0.343   15.546
  292.500   70.970    0.439    0.344   15.845
  292.750   72.223    0.439    0.348   16.456
  293.000   74.102    0.439    0.350   16.463
  293.250   74.731    0.437    0.347   16.471
  293.500   78.483    0.425    0.350   16.480
  293.750   83.485    0.434    0.350   16.488
  294.000   89.738    0.442    0.351   16.496
  294.250   87.869    0.437    0.350   16.505
  294.500   84.127    0.429    0.349   16.212
  294.750   81.635    0.422    0.346   15.924
  295.000   77.896    0.418    0.346   15.354
  295.250   77.899    0.428    0.346   15.358
  295.500   78.530    0.449    0.346   14.806
  295.750   79.785    0.460    0.344   14.544
  296.000   82.288    0.464    0.341   14.019
  296.250   85.416    0.457    0.332   13.516
  296.500   88.544    0.448    0.322   12.793
  296.750   91.673    0.449    0.312   12.332
  297.000   92.927    0.460    0.301   11.673
  297.250   94.805    0.469    0.283   11.046
  297.500   96.061    0.461    0.279   10.263
  297.750   97.319    0.448    0.275    9.711
  298.000   97.321    0.444    0.269    8.696
  298.250   97.951    0.444    0.265    8.539
  298.500   98.581    0.439    0.259    7.931
  298.750   97.338    0.436    0.248    7.506
  299.000   99.217    0.443    0.239    6.974
  299.250  101.723    0.455    0.227    6.722
  299.500  104.227    0.467    0.213    6.246
  299.750  106.729    0.473    0.201    6.021
  300.000  109.857    0.472    0.203    6.026
  300.250  112.985    0.478    0.206    6.028
  300.500  114.239    0.483    0.207    5.920
  300.750  115.495    0.493    0.197    5.709
  301.000  116.750    0.507    0.175    5.605
  301.250  117.380    0.520    0.159    5.305
  301.500  113.014    0.524    0.159    5.021
  301.750  108.649    0.524    0.183    4.665
  302.000  110.527    0.523    0.190    4.497
  302.250  113.655    0.524    0.197    4.178
  302.500  116.158    0.534    0.208    4.027
  302.750  119.286    0.544    0.210    4.106
  303.000  121.790    0.555    0.212    4.262
  303.250  122.420    0.568    0.217    4.855
  303.500  121.179    0.579    0.227    6.298
  303.750  121.183    0.545    0.234    9.477
  304.000  119.940    0.499    0.262   10.023
  304.250  114.950    0.483    0.270   11.003
  304.500  112.457    0.475    0.283   11.857
  304.750  109.964    0.468    0.302   12.542
  305.000  107.472    0.456    0.302   12.549
  305.250  104.982    0.442    0.293   12.099
  305.500  102.489    0.447    0.296   11.242
  305.750   99.371    0.455    0.303   10.835
  306.000   95.007    0.453    0.309    9.700
  306.250   91.888    0.425    0.317    9.010
  306.500   87.524    0.418    0.287    8.067
  306.750   85.030    0.409    0.277    7.494
  307.000   99.400    0.416    0.251    7.092
  307.250  105.025    0.441    0.223    7.097
  307.500  115.023    0.466    0.225    7.099
  307.750  119.400    0.472    0.226    7.236
  308.000  123.777    0.486    0.231    7.655
  308.250  125.033    0.489    0.235    7.947
  308.500  124.413    0.482    0.242    8.407
  308.750  120.048    0.460    0.250    8.892
  309.000  115.682    0.461    0.257    9.232
  309.250  112.564    0.463    0.270   10.518
  309.500  106.950    0.466    0.282   11.125
  309.750  101.336    0.446    0.294   11.341
  310.000   90.725    0.424    0.310   11.345
  310.250   85.734    0.411    0.302   11.144
  310.500   86.989    0.420    0.272   10.946
  310.750   89.493    0.425    0.266   10.748
  311.000   93.869    0.427    0.267   10.557
  311.250   96.999    0.418    0.268   10.563
  311.500   95.756    0.410    0.272   10.765
  311.750   95.762    0.403    0.273   10.772
  312.000   95.766    0.400    0.278   10.981
  312.250   92.649    0.404    0.281   10.985
  312.500   88.284    0.403    0.276   10.790
  312.750   85.166    0.405    0.274   10.793
  313.000   81.426    0.411    0.267   10.601
  313.250   80.184    0.415    0.266   10.222
  313.500   83.313    0.425    0.262    9.855
  313.750   84.565    0.440    0.260    9.327
  314.000   87.069    0.452    0.252    8.991
  314.250   90.821    0.462    0.246    8.829
  314.500   94.575    0.461    0.241    8.357
  314.750   97.078    0.457    0.239    8.206
  315.000   98.957    0.448    0.237    8.364
  315.250   95.839    0.514    0.239    9.184
  315.500   88.352    0.542    0.422    9.537
  315.750   80.239    0.577    0.467    9.541
  316.000   71.502    0.610    0.493    9.370
  316.250   63.389    0.615    0.520    9.203
  316.500   64.643    0.589    0.473    8.872
  316.750   70.894    0.562    0.417    8.714
  317.000   78.393    0.515    0.346    8.719
  317.250   85.268    0.468    0.296    8.886
  317.500   88.401    0.468    0.272    9.227
  317.750   88.403    0.469    0.263    9.760
  318.000   89.034    0.473    0.263    9.947
  318.250   87.791    0.477    0.266   10.329
