~VERSION INFORMATION
 VERS.                 2.0:   CWLS LOG ASCII STANDARD -VERSION 2.0
 WRAP.                  NO:   ONE LINE PER DEPTH STEP
~WELL INFORMATION BLOCK
#MNEM.UNIT           DATA                    DESCRIPTION OF MNEMONIC
#---------    -------------------            -------------------------------
# Generated from Intellog Unique Number	CW_76_78/WELL/2814
WELL.         11-10-076-02W5                 : Well_name    - WELL
LOC .         00/11-10-076-02W5/0            : Location     - LOCATION
UWI .         00/11-10-076-02W5/0            : Uwi          - UNIQUE WELL ID
ENTR.         JJ                             : Entered      - ENTERED BY
SRVC.         WESTERN ATLAS                  : Scn          - SERVICE COMPANY
DATE.         30 JAN 71                      : Date         - LOG DATE
STRT.M        685.8                          : top_depth    - START DEPTH
STOP.M        807.8                          : bot_depth    - STOP DEPTH
STEP.M        0.25                           : increment    - STEP LENGTH
 NULL. -999.2500:NULL Value
~CURVE INFORMATION BLOCK
#MNEM UNIT       ERCB CURVE CODE    CURVE DESCRIPTION
#-----------   ------------------   ----------------------------------
DEPT.M        00 001 00 00         : DEPTH        - DEPTH
DELT.US/F     00 520 00 00         : DELT         - SONIC TRAVEL TIME
CALI.MM       00 280 01 00         : CAL          - CALIPER
GR  .API      00 310 00 00         : GR           - GAMMA RAY
ILD .OHMM     00 120 00 00         : RESD         - DEEP RESISTIVITY (DIL)
~PARAMETER INFORMATION
#MNEM.UNIT           DATA             DESCRIPTION OF MNEMONIC
#---------         -----------     ------------------------------
GL  .M        900.989              : gl           - GROUND LEVEL ELEVATION
EREF.M        904.646              : kb           - ELEVATION OF DEPTH REFERENCE
DATM.M        904.646              : datum        - DATUM ELEVATION
TDD .M        811.378              : tdd          - TOTAL DEPTH DRILLER
RUN .         ONE                  : Run          - RUN NUMBER
ENG .         SUPRONOVICH-COLE     : Engineer     - RECORDING ENGINEER
WIT .         KVILL                : Witness      - WITNESSED BY
BASE.         EDMONTON             : Branch       - HOME BASE OF LOGGING UNIT
MUD .         GEL                  : Mud_type     - MUD TYPE
MATR.         SANDSTONE            : Logunit      - NEUTRON MATRIX
TMAX.C        26.6667              : BHT          - MAXIMUM RECORDED TEMPERATURE
BHTD.M        810.463              : BHTDEP       - MAXIMUM RECORDED TEMPERATURE
RMT .C        7.22222              : MDTP         - TEMPERATURE OF MUD
MUDD.KG/M     1176                 : MWT          - MUD DENSITY
NEUT.         1                    : NEUTRON      - NEUTRON TYPE
RESI.         0                    : RESIST       - RESISTIVITY TYPE
RM  .OHMM     6                    : RM           - RESISTIVITY OF MUD
RMC .OHMM     0                    : RMC          - RESISTIVITY OF MUD CAKE
RMF .OHMM     0                    : RMF          - RESISTIVITY OF MUD FILTRATE
SUFT.C        5                    : SUFT         - SURFACE TEMPERATURE
~A  DEPTH     DELT      CAL       GR     RESD
  685.800  371.405  195.972   91.284    4.505
  686.050  375.741  196.324   84.123    4.280
  686.300  381.254  199.833   81.357    4.370
  686.550  379.788  203.131   78.594    4.746
  686.800  331.302  206.746   83.558    5.056
  687.050  304.468  207.506   78.790    5.728
  687.300  289.435  206.753   70.941    6.199
  687.550  311.121  205.369   70.820    6.114
  687.800  381.130  202.770   78.130    5.391
  688.050  372.883  200.993   83.188    4.967
  688.300  369.263  201.956   93.773    4.781
  688.550  380.778  204.246   96.238    4.440
  688.800  378.459  206.021   95.187    4.257
  689.050  380.715  207.292   93.598    4.192
  689.300  372.727  208.364   94.598    4.125
  689.550  377.846  209.228   89.834    4.137
  689.800  368.880  210.295   92.691    4.031
  690.050  373.611  210.644   86.998    3.984
  690.300  377.291  209.887   89.758    3.802
  690.550  377.330  209.841  100.096    3.754
  690.800  373.516  209.379  107.454    3.687
  691.050  374.267  208.610  100.880    3.801
  691.300  377.628  207.653   92.540    3.954
  691.550  363.835  208.312   95.548    4.305
  691.800  289.654  209.877   96.503    4.917
  692.050  330.709  213.285   92.660    5.132
  692.300  391.522  211.505   88.187    5.225
  692.550  380.015  211.352   88.894    5.078
  692.800  380.828  207.645  102.804    4.416
  693.050  388.364  204.227  106.592    4.271
  693.300  394.073  208.143  110.478    4.603
  693.550  373.498  208.195  107.912    4.977
  693.800  378.159  205.398  103.730    4.810
  694.050  376.305  206.366  103.951    4.645
  694.300  374.187  207.839  111.553    4.482
  694.550  378.132  206.874  105.219    4.636
  694.800  376.011  206.002  106.761    4.807
  695.050  368.744  208.391  109.524    4.883
  695.300  356.323  205.600  109.301    4.896
  695.550  361.182  202.401  102.724    4.809
  695.800  378.236  205.902  100.009    4.727
  696.050  374.942  211.238  102.234    4.697
  696.300  368.912  213.728  103.918    4.651
  696.550  363.662  214.799  103.454    4.766
  696.800  369.176  213.121  111.446    4.918
  697.050  367.320  211.238  103.892    4.932
  697.300  356.390  210.674  104.796    4.947
  697.550  354.669  211.033  112.302    4.880
  697.800  356.527  212.204  104.748    4.736
  698.050  367.521  212.959  105.503    4.572
  698.300  389.661  208.841   98.977    4.504
  698.550  387.935  208.691  109.413    4.560
  698.800  376.753  210.778  101.811    4.592
  699.050  388.458  211.637  102.815    4.525
  699.300  383.473  212.194  101.956    4.146
  699.550  388.918  213.364   96.211    3.975
  699.800  391.233  213.311   96.136    3.692
  700.050  389.507  208.788  102.517    3.625
  700.300  389.282  207.919  108.163    3.641
  700.550  388.920  211.328  103.347    3.692
  700.800  379.696  214.326  100.877    3.767
  701.050  384.753  213.256  101.975    3.803
  701.300  383.874  209.643   99.358    3.799
  701.550  378.622  204.817  104.616    3.810
  701.800  366.789  204.258  103.174    3.866
  702.050  358.473  207.766   96.789    3.996
  702.300  366.790  211.371   97.107    4.150
  702.550  291.436  208.683   88.820    4.621
  702.800  278.621  205.374   93.731    4.916
  703.050  253.548  204.811   91.948    5.054
  703.300  357.794  205.983   85.174    4.982
  703.550  359.331  207.661   89.647    4.617
  703.800  340.647  208.932   97.934    4.194
  704.050  356.921  207.250  104.657    4.148
  704.300  382.257  201.909   93.729    4.241
  704.550  391.158  199.519   95.515    4.456
  704.800  390.804  198.853  100.279    4.707
  705.050  395.009  198.914  100.156    4.861
  705.300  381.152  198.854   92.063    5.014
  705.550  377.077  198.908   84.313    5.068
  705.800  374.177  198.949   88.252    5.203
  706.050  368.798  199.310   93.259    5.594
  706.300  346.921  199.669   81.157    6.145
  706.550  325.629  200.019   81.333    6.538
  706.800  292.531  200.678   78.076    6.534
  707.050  318.914  200.626   75.315    6.309
  707.300  357.097  199.660   79.592    5.903
  707.550  381.785  198.793   78.834    5.478
  707.800  377.572  199.665   82.767    4.916
  708.050  378.975  201.240   87.484    4.731
  708.300  383.647  200.265   80.811    4.828
  708.550  381.853  198.084   87.776    4.936
  708.800  375.039  198.129   84.868    5.429
  709.050  352.901  199.906   81.224    6.101
  709.300  313.610  201.689   79.242    6.256
  709.550  291.797  201.334   77.165    6.068
  709.800  342.373  200.161   73.817    5.783
  710.050  373.449  199.394   78.384    5.501
  710.300  378.308  199.444   87.308    5.693
  710.550  372.082  199.903   86.456    6.184
  710.800  335.596  203.615   83.299    6.396
  711.050  288.608  206.110   79.948    6.232
  711.300  277.947  202.399   77.283    5.908
  711.550  359.696  199.901   74.518    5.326
  711.800  379.491  196.290   80.996    4.860
  712.050  375.026  191.455   83.367    4.475
  712.300  379.621  192.933   86.177    4.191
  712.550  378.872  198.679   95.294    3.945
  712.800  373.039  205.031   94.830    3.682
  713.050  370.006  208.133   90.604    3.535
  713.300  377.344  207.680   88.179    3.393
  713.550  373.924  207.013   99.988    3.288
  713.800  393.651  207.981  104.557    3.278
  714.050  404.186  210.775  106.734    3.196
  714.300  381.456  213.061  100.548    3.189
  714.550  376.731  216.675  101.598    3.082
  714.800  381.200  218.350  102.501    3.015
  715.050  375.427  214.840  106.731    3.112
  715.300  370.899  213.266  111.105    3.205
  715.550  374.977  216.162  109.468    3.178
  715.800  377.490  216.522  108.122    3.193
  716.050  380.324  216.567  108.683    3.206
  716.300  385.447  217.133  110.563    3.222
  716.550  377.850  216.871  112.693    3.314
  716.800  386.950  211.227  109.389    3.346
  717.050  380.657  214.233  113.227    3.223
  717.300  361.125  215.392  110.515    3.256
  717.550  381.441  215.343  106.480    3.427
  717.800  369.409  217.431  101.807    3.661
  718.050  365.403  218.492   95.722    3.957
  718.300  369.543  213.761   97.161    4.209
  718.550  369.317  208.726   93.861    4.440
  718.800  367.524  206.944   95.991    4.573
  719.050  362.271  209.848   96.502    4.926
  719.300  354.094  207.763   93.739    5.420
  719.550  321.259  203.231   86.964    5.810
  719.800  262.729  201.452   82.590    6.183
  720.050  333.913  200.587   85.057    6.417
  720.300  329.252  201.246   90.021    5.973
  720.550  358.959  203.635   88.379    5.827
  720.800  376.012  201.659   92.415    6.079
  721.050  338.874  200.784   92.879    5.995
  721.300  308.647  202.564   98.278    5.768
  721.550  353.551  203.842   97.963    5.365
  721.800  365.715  204.707   97.495    4.801
  722.050  377.162  204.751  102.018    4.519
  722.300  372.691  207.346   98.521    4.390
  722.550  375.597  206.681  107.931    4.248
  722.800  376.739  205.407  106.683    4.121
  723.050  369.405  205.967  100.304    4.035
  723.300  370.024  208.361   99.886    3.932
  723.550  365.624  210.440   95.708    3.922
  723.800  368.851  212.738  103.798    3.937
  724.050  375.537  214.609   98.786    3.930
  724.300  376.485  216.189   96.803    3.985
  724.550  380.170  214.511  108.024    4.078
  724.800  383.858  205.002   95.629    4.111
  725.050  386.631  199.451  108.951    4.325
  725.300  377.536  198.997  114.108    4.579
  725.550  362.763  198.540  101.911    4.951
  725.800  373.822  198.406   93.331    5.424
  726.050  392.573  198.024   86.312    5.795
  726.300  377.346  197.972   89.269    6.227
  726.550  371.119  197.624   89.880    6.641
  726.800  400.368  197.986   76.166    6.934
  727.050  413.248  198.334   70.224    7.107
  727.300  392.350  198.375   76.603    7.321
  727.550  380.968  197.920   73.206    7.472
  727.800  372.656  197.772   73.376    7.527
  728.050  343.015  197.820   76.822    7.402
  728.300  326.549  197.254   75.527    7.255
  728.550  345.041  196.796   73.788    7.033
  728.800  362.619  196.539   72.350    6.845
  729.050  342.890  196.492   69.533    6.603
