~VERSION INFORMATION
 VERS.                 2.0:   CWLS LOG ASCII STANDARD -VERSION 2.0
 WRAP.                  NO:   ONE LINE PER DEPTH STEP
~WELL INFORMATION BLOCK
#MNEM.UNIT           DATA                    DESCRIPTION OF MNEMONIC
#---------    -------------------            -------------------------------
# Generated from Intellog Unique Number	CW_79_81/WELL/3696
WELL.         EAGLE RESOURCES LTD.           : Well_name    - WELL
LOC .         00/15-23-079-22W4/0            : Location     - LOCATION
UWI .         00/15-23-079-22W4/0            : Uwi          - UNIQUE WELL ID
ENTR.         JOETTE                         : Entered      - ENTERED BY
SRVC.         COMPUTALOG                     : Scn          - SERVICE COMPANY
DATE.         08-26-92                       : Date         - LOG DATE
STRT.M        175                            : top_depth    - START DEPTH
STOP.M        450                            : bot_depth    - STOP DEPTH
STEP.M        0.25                           : increment    - STEP LENGTH
 NULL. -999.2500:NULL Value
~CURVE INFORMATION BLOCK
#MNEM UNIT       ERCB CURVE CODE    CURVE DESCRIPTION
#-----------   ------------------   ----------------------------------
DEPT.M        00 001 00 00         : DEPTH        - DEPTH
NPHI.V/V      00 330 00 00         : PHIN         - NEUTRON POROSITY (SANDSTONE)
GR  .API      00 310 00 00         : GR           - GAMMA RAY
DPHI.V/V      00 890 00 00         : PHID         - DENSITY POROSITY (SANDSTONE)
ILD .OHMM     00 120 00 00         : RESD         - DEEP RESISTIVITY (DIL)
~PARAMETER INFORMATION
#MNEM.UNIT           DATA             DESCRIPTION OF MNEMONIC
#---------         -----------     ------------------------------
GL  .M        575.8                : gl           - GROUND LEVEL ELEVATION
EREF.M        579.42               : kb           - ELEVATION OF DEPTH REFERENCE
DATM.M        579.42               : datum        - DATUM ELEVATION
TDD .M        449                  : tdd          - TOTAL DEPTH DRILLER
RUN .         ONE                  : Run          - RUN NUMBER
ENG .         BILL                 : Engineer     - RECORDING ENGINEER
WIT .         JIM                  : Witness      - WITNESSED BY
MUD .         GEL                  : Mud_type     - MUD TYPE
MATR.         SANDSTONE            : Logunit      - NEUTRON MATRIX
TMAX.C        22                   : BHT          - MAXIMUM RECORDED TEMPERATURE
BHTD.M        449                  : BHTDEP       - MAXIMUM RECORDED TEMPERATURE
MATR.         1                    : LOGUNIT      - NEUTRON MATRIX
RMT .C        20                   : MDTP         - TEMPERATURE OF MUD
NEUT.         1                    : NEUTRON      - NEUTRON TYPE
RESI.         0                    : RESIST       - RESISTIVITY TYPE
RMC .OHMM     3.1                  : RMC          - RESISTIVITY OF MUD CAKE
RMF .OHMM     4.5                  : RMF          - RESISTIVITY OF MUD FILTRATE
SUFT.C        15                   : SUFT         - SURFACE TEMPERATURE
~A  DEPTH     PHIN       GR     PHID     RESD
# ...
  262.000    0.445   57.882    0.354   70.210
  262.250    0.435   57.922    0.351   70.247
  262.500    0.425   57.349    0.341   70.340
  262.750    0.434   60.400    0.337   70.414
  263.000    0.440   64.064    0.347   70.470
  263.250    0.439   61.069    0.352   70.545
  263.500    0.428   59.898    0.349   70.638
  263.750    0.398   61.739    0.344   72.022
  264.000    0.194   62.376    0.336   77.689
  264.250    0.159   57.572    0.237   86.956
  264.500    0.143   50.331    0.193   97.303
  264.750    0.127   44.316    0.132  117.324
  265.000    0.121   46.762    0.045  131.353
  265.250    0.118   47.400   -0.015  136.477
  265.500    0.118   47.440   -0.023  134.104
  265.750    0.118   46.866   -0.023  131.771
  266.000    0.120   46.890   -0.022  122.483
  266.250    0.127   46.946   -0.020  113.759
  266.500    0.138   46.954   -0.013   89.414
  266.750    0.222   47.608    0.001   58.348
  267.000    0.326   48.834    0.043   50.332
  267.250    0.386   53.112    0.296   45.063
  267.500    0.397   56.164    0.329   40.346
  267.750    0.394   56.204    0.341   38.217
  268.000    0.393   53.814    0.346   37.532
  268.250    0.408   53.248    0.352   37.572
  268.500    0.406   53.886    0.355   36.928
  268.750    0.402   54.523    0.355   36.967
  269.000    0.405   53.942    0.357   36.315
  269.250    0.412   53.368    0.366   35.025
  269.500    0.420   55.830    0.358   34.434
  269.750    0.419   55.854    0.347   33.818
  270.000    0.410   54.675    0.344   33.853
  270.250    0.397   52.899    0.351   33.265
  270.500    0.396   51.114    0.361   33.309
  270.750    0.404   50.541    0.354   32.729
  271.000    0.415   51.776    0.374   32.773
  271.250    0.423   51.816    0.383   32.186
  271.500    0.425   51.242    0.380   32.220
  271.750    0.424   50.661    0.375   31.076
  272.000    0.429   50.087    0.367   29.980
  272.250    0.435   50.119    0.364   28.383
  272.500    0.438   51.362    0.354   26.870
  272.750    0.436   53.211    0.347   24.963
  273.000    0.428   54.453    0.343   22.770
  273.250    0.423   56.302    0.351   20.386
  273.500    0.422   58.771    0.355   18.600
  273.750    0.428   58.198    0.350   18.970
  274.000    0.426   55.808    0.340   20.462
  274.250    0.425   53.418    0.338   21.648
  274.500    0.429   52.239    0.340   21.677
  274.750    0.439   55.291    0.335   18.011
  275.000    0.448   63.193    0.322   11.321
  275.250    0.455   68.674    0.311    7.526
  275.500    0.467   74.156    0.310    6.494
  275.750    0.490   79.039    0.320    5.813
  276.000    0.482   76.044    0.337    5.110
  276.250    0.463   71.838    0.334    5.021
  276.500    0.455   67.026    0.336    5.218
  276.750    0.443   65.847    0.334    5.319
  277.000    0.436   66.484    0.310    5.635
  277.250    0.442   69.544    0.293    5.744
  277.500    0.448   74.419    0.320    5.750
  277.750    0.453   74.451    0.321    5.757
  278.000    0.442   67.210    0.324    5.762
  278.250    0.435   62.406    0.315    5.766
  278.500    0.440   60.622    0.306    5.774
  278.750    0.446   58.224    0.320    5.890
  279.000    0.444   55.842    0.332    6.117
  279.250    0.441   54.050    0.337    6.848
  279.500    0.441   49.246    0.345    7.663
  279.750    0.431   44.426    0.352   10.334
  280.000    0.415   39.009    0.356   14.731
  280.250    0.397   34.803    0.353   16.488
  280.500    0.383   34.238    0.352   19.515
  280.750    0.376   35.473    0.351   23.530
  281.000    0.363   36.739    0.353   27.342
  281.250    0.371   37.361    0.360   28.950
  281.500    0.390   37.393    0.365   28.981
  281.750    0.393   38.030    0.369   29.019
  282.000    0.388   38.668    0.371   27.989
  282.250    0.379   40.524    0.367   28.003
  282.500    0.381   38.732    0.348   28.560
  282.750    0.390   36.342    0.337   29.674
  283.000    0.395   35.163    0.368   30.271
  283.250    0.400   36.414    0.378   30.295
  283.500    0.408   38.262    0.373   28.688
  283.750    0.406   39.505    0.349   28.197
  284.000    0.393   39.545    0.345   28.212
  284.250    0.385   39.561    0.340   28.780
  284.500    0.382   40.198    0.335   29.902
  284.750    0.384   41.449    0.334   29.382
  285.000    0.399   42.684    0.333   28.864
  285.250    0.432   43.927    0.326   26.822
  285.500    0.442   47.002    0.320   24.465
  285.750    0.456   47.624    0.313   23.168
  286.000    0.439   48.261    0.311   23.198
  286.250    0.443   45.871    0.342   23.211
  286.500    0.450   44.087    0.348   23.248
  286.750    0.447   44.724    0.360   23.697
  287.000    0.439   47.800    0.367   24.628
  287.250    0.428   48.429    0.359   25.110
  287.500    0.424   49.074    0.356   25.622
  287.750    0.428   49.106    0.356   26.117
  288.000    0.419   47.919    0.356   26.643
  288.250    0.404   46.740    0.355   26.678
  288.500    0.406   46.780    0.351   26.692
  288.750    0.433   46.804    0.346   26.721
  289.000    0.441   48.653    0.346   26.749
  289.250    0.436   50.501    0.346   26.785
  289.500    0.426   51.744    0.339   26.806
  289.750    0.432   51.784    0.337   26.806
  290.000    0.439   50.613    0.339   28.420
  290.250    0.441   50.032    0.336   28.976
  290.500    0.444   48.247    0.334   28.999
  290.750    0.438   46.463    0.332   28.510
  291.000    0.430   47.100    0.336   28.533
  291.250    0.424   47.124    0.338   28.555
  291.500    0.416   48.375    0.337   28.593
  291.750    0.413   49.012    0.330   28.631
  292.000    0.420   49.658    0.325   28.654
  292.250    0.429   49.084    0.327   28.692
  292.500    0.434   47.897    0.329   28.715
  292.750    0.429   45.508    0.328   29.293
  293.000    0.423   45.548    0.326   30.435
  293.250    0.415   48.607    0.323   32.821
  293.500    0.359   50.455    0.184   37.426
  293.750    0.290   51.085    0.140   43.467
  294.000    0.241   51.117    0.020  104.351
  294.250    0.192   46.305    0.016  106.423
  294.500    0.240   46.942    0.045  100.753
  294.750    0.323   53.037    0.153   65.747
  295.000    0.362   56.694    0.315   54.629
  295.250    0.407   60.358    0.311   43.744
  295.500    0.426   58.574    0.308   35.686
  295.750    0.434   54.973    0.307   29.659
  296.000    0.423   52.591    0.298   23.750
  296.250    0.402   50.201    0.284   20.109
  296.500    0.388   47.804    0.247   17.347
  296.750    0.413   42.992    0.214   18.033
  297.000    0.423   42.418    0.306   18.727
  297.250    0.428   46.091    0.319   20.579
  297.500    0.430   47.326    0.326   22.187
  297.750    0.425   47.963    0.332   24.847
  298.000    0.419   48.601    0.333   25.327
  298.250    0.414   48.641    0.339   25.830
  298.500    0.414   48.673    0.338   26.350
  298.750    0.422   48.713    0.346   25.884
  299.000    0.433   48.737    0.362   25.441
  299.250    0.436   49.980    0.352   24.085
  299.500    0.431   52.433    0.340   23.236
  299.750    0.423   53.071    0.332   23.249
  300.000    0.427   51.900    0.337   23.273
  300.250    0.424   50.721    0.337   23.298
  300.500    0.410   49.534    0.330   24.213
  300.750    0.391   50.171    0.321   26.119
  301.000    0.379   49.606    0.319   26.623
  301.250    0.389   47.814    0.322   27.152
  301.500    0.394   45.432    0.321   27.706
  301.750    0.389   44.858    0.319   27.209
  302.000    0.391   44.882    0.323   26.250
  302.250    0.400   46.125    0.328   25.787
  302.500    0.409   47.981    0.322   25.338
  302.750    0.412   49.224    0.306   25.372
  303.000    0.321   49.256    0.232   26.362
  303.250    0.224   49.894    0.182   26.878
  303.500    0.192   51.734    0.148   28.993
  303.750    0.193   49.344    0.072   33.690
  304.000    0.222   47.568    0.024   36.332
  304.250    0.252   48.205    0.120   36.361
  304.500    0.283   53.686    0.235   35.070
  304.750    0.365   60.378    0.264   27.056
  305.000    0.405   68.281    0.257   21.660
  305.250    0.425   75.578    0.223   13.367
