~VERSION INFORMATION
 VERS.                 2.0:   CWLS LOG ASCII STANDARD -VERSION 2.0
 WRAP.                  NO:   ONE LINE PER DEPTH STEP
~WELL INFORMATION BLOCK
#MNEM.UNIT           DATA                    DESCRIPTION OF MNEMONIC
#---------    -------------------            -------------------------------
# Generated from Intellog Unique Number	CS_67_68/WELL/2217
WELL.         15-01-067-06W4                 : Well_name    - WELL
LOC .         00/15-01-067-06W4/0            : Location     - LOCATION
UWI .         00/15-01-067-06W4/0            : Uwi          - UNIQUE WELL ID
ENTR.         SP                             : Entered      - ENTERED BY
SRVC.         SCHLUMBERGER                   : Scn          - SERVICE COMPANY
STRT.M        315                            : top_depth    - START DEPTH
STOP.M        535                            : bot_depth    - STOP DEPTH
STEP.M        0.25                           : increment    - STEP LENGTH
 NULL. -999.2500:NULL Value
~CURVE INFORMATION BLOCK
#MNEM UNIT       ERCB CURVE CODE    CURVE DESCRIPTION
#-----------   ------------------   ----------------------------------
DEPT.M        00 001 00 00         : DEPTH        - DEPTH
ILD .OHMM     00 120 00 00         : RESD         - DEEP RESISTIVITY (DIL)
DPHI.V/V      00 890 00 00         : PHID         - DENSITY POROSITY (LIMESTONE)
NPHI.V/V      00 330 00 00         : PHIN         - NEUTRON POROSITY (LIMESTONE)
GR  .API      00 310 00 00         : GR           - GAMMA RAY
CALI.MM       00 280 01 00         : CAL          - CALIPER
~PARAMETER INFORMATION
#MNEM.UNIT           DATA             DESCRIPTION OF MNEMONIC
#---------         -----------     ------------------------------
GL  .M        647.05               : gl           - GROUND LEVEL ELEVATION
EREF.M        650.03               : kb           - ELEVATION OF DEPTH REFERENCE
DATM.M        650.03               : datum        - DATUM ELEVATION
TDD .M        542                  : tdd          - TOTAL DEPTH DRILLER
RUN .         ONE                  : Run          - RUN NUMBER
ENG .         BILL                 : Engineer     - RECORDING ENGINEER
WIT .         JIM                  : Witness      - WITNESSED BY
MUD .         GEL                  : Mud_type     - MUD TYPE
MATR.         LIMESTONE            : Logunit      - NEUTRON MATRIX
TMAX.C        18.8                 : BHT          - MAXIMUM RECORDED TEMPERATURE
BHTD.M        544                  : BHTDEP       - MAXIMUM RECORDED TEMPERATURE
MATR.         1                    : LOGUNIT      - NEUTRON MATRIX
RMT .C        25                   : MDTP         - TEMPERATURE OF MUD
NEUT.         1                    : NEUTRON      - NEUTRON TYPE
RESI.         0                    : RESIST       - RESISTIVITY TYPE
RMC .OHMM     0.25                 : RMC          - RESISTIVITY OF MUD CAKE
RMF .OHMM     0.25                 : RMF          - RESISTIVITY OF MUD FILTRATE
SUFT.C        15                   : SUFT         - SURFACE TEMPERATURE
~A  DEPTH     RESD     PHID     PHIN       GR      CAL
# ...
  424.500    6.727    0.325    0.437   53.757  157.346
  424.750    6.564    0.325    0.430   53.508  157.340
  425.000    6.453    0.325    0.427   54.478  157.738
  425.250    7.290    0.326    0.434   56.544  158.441
  425.500    8.282    0.324    0.447   57.332  158.840
  425.750    8.977    0.302    0.465   54.830  159.542
  426.000    8.959    0.199    0.479   53.973  159.534
  426.250    8.612    0.148    0.225   54.334  159.528
  426.500    7.913    0.141    0.207   55.243  159.723
  426.750    7.313    0.207    0.384   56.883  159.919
  427.000    6.707    0.318    0.408   58.522  159.505
  427.250    6.233    0.335    0.425   60.041  159.295
  427.500    5.814    0.340    0.441   60.950  159.083
  427.750    5.454    0.334    0.450   61.737  158.670
  428.000    5.174    0.332    0.453   64.473  158.459
  428.250    4.964    0.334    0.439   66.843  158.249
  428.500    4.727    0.338    0.431   68.604  158.242
  428.750    4.544    0.352    0.439   69.515  158.539
  429.000    4.409    0.352    0.456   69.510  159.040
  429.250    4.425    0.351    0.472   68.165  159.641
  429.500    4.491    0.354    0.482   66.638  159.430
  429.750    4.533    0.358    0.489   65.843  158.611
  430.000    4.541    0.358    0.496   67.117  157.487
  430.250    4.541    0.347    0.504   66.868  157.175
  430.500    4.489    0.338    0.507   64.428  157.573
  430.750    4.405    0.342    0.493   63.693  157.972
  431.000    4.291    0.345    0.484   65.211  158.066
  431.250    4.187    0.348    0.498   66.607  157.855
  431.500    4.132    0.350    0.507   67.516  157.747
  431.750    4.186    0.351    0.513   67.816  157.638
  432.000    4.329    0.353    0.519   68.421  157.427
  432.250    4.436    0.353    0.505   69.816  157.420
  432.500    4.536    0.345    0.499   71.091  157.411
  432.750    4.648    0.336    0.491   72.975  157.608
  433.000    4.709    0.329    0.480   74.493  157.802
  433.250    4.735    0.323    0.482   74.184  158.100
  433.500    4.708    0.313    0.489   75.093  158.498
  433.750    4.663    0.296    0.496   78.864  158.999
  434.000    4.576    0.276    0.498   82.697  159.600
  434.250    4.465    0.266    0.488   85.189  160.201
  434.500    4.252    0.258    0.478   85.001  160.498
  434.750    3.929    0.261    0.489   84.693  160.897
  435.000    3.445    0.272    0.490   85.115  161.905
  435.250    2.871    0.294    0.478   85.658  170.119
  435.500    2.638    0.317    0.498   85.958  181.378
  435.750    2.489    0.324    0.525   86.623  189.491
  436.000    2.374    0.303    0.553   87.655  196.994
  436.250    2.308    0.290    0.576   88.259  201.656
  436.500    2.257    0.290    0.565   87.097  196.675
  436.750    2.231    0.293    0.549   85.936  190.679
  437.000    2.227    0.295    0.541   84.896  183.768
  437.250    2.239    0.306    0.552   83.734  177.976
  437.500    2.333    0.316    0.558   82.756  182.333
  437.750    2.364    0.326    0.564   82.203  188.213
  438.000    2.355    0.320    0.578   81.650  192.164
  438.250    2.394    0.309    0.578   81.341  188.908
  438.500    2.542    0.299    0.551   81.641  181.796
  438.750    3.108    0.293    0.532   80.601  176.003
  439.000    4.049    0.303    0.511   78.100  170.716
  439.250    5.731    0.326    0.472   73.710  165.938
  439.500    8.941    0.366    0.369   70.722  162.785
  439.750   11.116    0.401    0.285   66.820  159.631
  440.000   12.629    0.428    0.222   64.319  157.085
  440.250   13.715    0.443    0.205   61.512  155.251
  440.500   14.158    0.418    0.218   61.264  154.127
  440.750   14.534    0.410    0.232   61.930  154.120
  441.000   14.532    0.410    0.236   62.595  156.447
  441.250   14.154    0.414    0.235   63.200  157.555
  441.500   12.409    0.409    0.244   63.256  155.720
  441.750   11.024    0.394    0.263   62.399  152.363
  442.000    9.396    0.381    0.283   60.568  151.443
  442.250    8.025    0.374    0.310   58.614  151.232
  442.500    6.996    0.371    0.327   58.670  151.530
  442.750    6.191    0.372    0.339   60.493  152.029
  443.000    6.404    0.375    0.345   62.133  153.038
  443.250    7.625    0.131    0.367   61.398  154.451
  443.500   10.529    0.040    0.432   59.322  156.778
  443.750   11.097    0.027    0.212   54.750  158.902
  444.000   12.443    0.287    0.163   49.569  160.722
  444.250   13.236    0.349    0.165   53.340  158.887
  444.500   12.819    0.372    0.344   57.538  156.748
  444.750   12.207    0.386    0.412   59.239  156.131
  445.000   11.175    0.377    0.447   57.894  157.139
  445.250   10.661    0.360    0.456   58.499  158.553
  445.500   10.580    0.347    0.460   60.261  159.358
  445.750   10.841    0.338    0.465   62.022  159.248
  446.000   11.233    0.331    0.472   63.480  158.631
  446.250   11.510    0.332    0.485   64.267  157.812
  446.500   11.552    0.338    0.479   63.897  156.587
  446.750   11.209    0.339    0.479   62.005  155.563
  447.000   11.061    0.336    0.466   60.843  155.251
  447.250   11.143    0.331    0.453   61.752  155.042
  447.500   11.079    0.328    0.459   64.671  154.730
  447.750   10.995    0.326    0.471   67.163  154.824
  448.000   10.749    0.332    0.469   66.063  154.512
  448.250   10.489    0.339    0.463   66.788  154.504
  448.500   10.178    0.340    0.463   67.880  154.292
  448.750    9.968    0.326    0.470   67.998  153.880
  449.000    9.800    0.318    0.459   67.993  154.075
  449.250    9.744    0.312    0.451   65.979  154.474
  449.500    9.652    0.309    0.458   63.417  155.076
  449.750    9.561    0.312    0.457   65.970  155.472
  450.000    9.156    0.316    0.446   66.270  155.871
  450.250    8.801    0.322    0.442   60.967  156.373
  450.500    8.524    0.326    0.447   59.196  156.873
  450.750    8.286    0.329    0.451   61.080  157.678
  451.000    8.131    0.332    0.459   61.685  158.380
  451.250    8.039    0.332    0.474   61.801  158.676
  451.500    8.023    0.331    0.474   61.249  158.365
  451.750    7.947    0.331    0.470   60.757  158.155
  452.000    7.682    0.333    0.469   60.266  157.945
  452.250    7.482    0.339    0.459   59.287  157.633
  452.500    7.425    0.346    0.444   57.760  157.219
  452.750    7.397    0.349    0.447   56.355  156.603
  453.000    7.579    0.350    0.463   55.072  155.783
  453.250    7.794    0.351    0.475   55.676  155.369
  453.500    8.122    0.351    0.480   56.037  155.057
  453.750    8.480    0.357    0.475   54.571  155.253
  454.000    8.853    0.358    0.472   53.714  156.666
  454.250    9.105    0.357    0.477   54.318  157.065
  454.500    9.542    0.356    0.472   55.227  156.449
  454.750    9.980    0.356    0.467   55.832  156.137
  455.000   10.459    0.363    0.462   55.401  157.753
  455.250   10.899    0.369    0.457   53.264  159.369
  455.500   11.230    0.369    0.456   51.921  160.073
  455.750   11.571    0.366    0.459   51.855  160.065
  456.000   11.878    0.366    0.471   53.191  159.144
  456.250   12.125    0.373    0.478   54.160  158.324
  456.500   12.238    0.381    0.481   54.278  158.013
  456.750   12.122    0.386    0.485   54.821  158.208
  457.000   11.674    0.385    0.480   55.852  157.997
  457.250   11.370    0.378    0.465   57.126  157.787
  457.500   11.074    0.372    0.470   57.427  157.476
  457.750   10.969    0.367    0.479   54.499  156.655
  458.000   10.886    0.361    0.476   53.764  156.750
  458.250   10.543    0.355    0.471   54.612  156.742
  458.500   10.153    0.356    0.474   54.912  156.431
  458.750    9.852    0.357    0.476   54.968  155.611
  459.000    9.541    0.355    0.467   56.181  155.197
  459.250    9.275    0.349    0.462   57.760  154.479
  459.500    9.085    0.345    0.460   59.705  155.486
  459.750    8.965    0.349    0.462   61.162  156.495
  460.000    8.931    0.353    0.470   62.498  156.385
  460.250    9.116    0.354    0.481   63.831  156.479
  460.500    9.375    0.349    0.477   64.437  155.964
  460.750    9.624    0.346    0.471   64.006  155.348
