~VERSION INFORMATION
 VERS.                 2.0:   CWLS LOG ASCII STANDARD -VERSION 2.0
 WRAP.                  NO:   ONE LINE PER DEPTH STEP
~WELL INFORMATION BLOCK
#MNEM.UNIT           DATA                    DESCRIPTION OF MNEMONIC
#---------    -------------------            -------------------------------
# Generated from Intellog Unique Number	CS_73_76/WELL/3239
WELL.         10-23-076-08W4                 : Well_name    - WELL
LOC .         00/10-23-076-08W4/0            : Location     - LOCATION
UWI .         00/10-23-076-08W4/0            : Uwi          - UNIQUE WELL ID
ENTR.         SP                             : Entered      - ENTERED BY
SRVC.         SCHLUMBERGER                   : Scn          - SERVICE COMPANY
STRT.M        204.216                        : top_depth    - START DEPTH
STOP.M        432.466                        : bot_depth    - STOP DEPTH
STEP.M        0.25                           : increment    - STEP LENGTH
 NULL. -999.2500:NULL Value
~CURVE INFORMATION BLOCK
#MNEM UNIT       ERCB CURVE CODE    CURVE DESCRIPTION
#-----------   ------------------   ----------------------------------
DEPT.M        00 001 00 00         : DEPTH        - DEPTH
GR  .API      00 310 00 00         : GR           - GAMMA RAY
DPHI.V/V      00 890 00 00         : PHID         - DENSITY POROSITY (SANDSTONE)
NPHI.V/V      00 330 00 00         : PHIN         - NEUTRON POROSITY (SANDSTONE)
ILD .OHMM     00 120 00 00         : RESD         - DEEP RESISTIVITY (DIL)
~PARAMETER INFORMATION
#MNEM.UNIT           DATA             DESCRIPTION OF MNEMONIC
#---------         -----------     ------------------------------
GL  .M        612.587              : gl           - GROUND LEVEL ELEVATION
EREF.M        616.427              : kb           - ELEVATION OF DEPTH REFERENCE
DATM.M        612.587              : datum        - DATUM ELEVATION
TDD .M        545.592              : tdd          - TOTAL DEPTH DRILLER
RUN .         ONE                  : Run          - RUN NUMBER
ENG .         BILL                 : Engineer     - RECORDING ENGINEER
WIT .         JIM                  : Witness      - WITNESSED BY
MUD .         GEL                  : Mud_type     - MUD TYPE
MATR.         SANDSTONE            : Logunit      - NEUTRON MATRIX
TMAX.C        60                   : BHT          - MAXIMUM RECORDED TEMPERATURE
BHTD.M        545.592              : BHTDEP       - MAXIMUM RECORDED TEMPERATURE
MATR.         1                    : LOGUNIT      - NEUTRON MATRIX
RMT .C        25                   : MDTP         - TEMPERATURE OF MUD
NEUT.         1                    : NEUTRON      - NEUTRON TYPE
RESI.         0                    : RESIST       - RESISTIVITY TYPE
RMC .OHMM     0.25                 : RMC          - RESISTIVITY OF MUD CAKE
RMF .OHMM     0.25                 : RMF          - RESISTIVITY OF MUD FILTRATE
SUFT.C        15                   : SUFT         - SURFACE TEMPERATURE
~A  DEPTH       GR     PHID     PHIN     RESD
# ...
  247.716  101.588    0.233    0.470   11.142
  247.966   98.493    0.212    0.467   11.613
  248.216   96.819    0.191    0.479   11.948
  248.466   94.700    0.199    0.478   12.597
  248.716   96.693    0.258    0.466   12.957
  248.966   99.315    0.267    0.440   13.190
  249.216  100.942    0.269    0.422   13.473
  249.466   99.789    0.275    0.422   13.438
  249.716   99.177    0.278    0.425   13.294
  249.966   97.683    0.269    0.428   13.159
  250.216   94.891    0.255    0.420   12.777
  250.466   98.319    0.252    0.425   11.855
  250.716  100.484    0.243    0.440   11.533
  250.966  103.057    0.246    0.452   10.677
  251.216  104.871    0.240    0.463   10.004
  251.466  105.139    0.244    0.468    9.402
  251.716  104.129    0.256    0.459    8.304
  251.966  103.250    0.264    0.465    7.311
  252.216  103.302    0.269    0.486    6.507
  252.466  101.620    0.274    0.511    5.938
  252.716   99.380    0.273    0.528    5.666
  252.966   96.834    0.287    0.547    5.780
  253.216   94.320    0.296    0.559    5.936
  253.466   93.406    0.295    0.566    5.523
  253.716   92.356    0.276    0.582    4.804
  253.966   92.247    0.292    0.540    4.381
  254.216   92.942    0.287    0.538    4.212
  254.466   94.928    0.267    0.552    4.133
  254.716   98.096    0.239    0.563    4.114
  254.966  103.190    0.233    0.555    4.060
  255.216  105.925    0.232    0.543    4.128
  255.466  106.214    0.247    0.533    4.338
  255.716  106.233    0.263    0.534    5.114
  255.966  106.358    0.275    0.538    6.616
  256.216  103.888    0.300    0.549    8.443
  256.466   97.312    0.321    0.556   11.141
  256.716   86.233    0.330    0.567   14.913
  256.966   78.789    0.333    0.533   18.521
  257.216   70.606    0.326    0.478   20.602
  257.466   62.314    0.317    0.433   21.853
  257.716   60.426    0.311    0.407   22.035
  257.966   61.103    0.318    0.418   22.298
  258.216   61.059    0.315    0.422   23.032
  258.466   60.451    0.320    0.417   23.282
  258.716   58.767    0.315    0.419   23.762
  258.966   57.792    0.312    0.421   23.724
  259.216   57.265    0.316    0.425   23.681
  259.466   59.041    0.317    0.427   24.168
  259.716   58.465    0.317    0.430   24.750
  259.966   59.074    0.315    0.426   25.839
  260.216   59.595    0.312    0.426   27.825
  260.466   60.986    0.317    0.419   28.586
  260.716   60.066    0.323    0.437   28.978
  260.966   58.880    0.324    0.445   30.410
  261.216   58.493    0.329    0.446   31.284
  261.466   59.806    0.332    0.450   31.939
  261.716   61.480    0.328    0.437   33.866
  261.966   60.367    0.325    0.429   35.531
  262.216   59.031    0.323    0.421   36.625
  262.466   58.396    0.330    0.415   37.694
  262.716   58.413    0.340    0.403   37.570
  262.966   59.348    0.344    0.396   38.307
  263.216   60.304    0.347    0.400   39.018
  263.466   62.236    0.358    0.410   38.263
  263.716   65.547    0.364    0.432   38.293
  263.966   68.238    0.351    0.454   38.286
  264.216   69.421    0.340    0.464   38.277
  264.466   65.631    0.342    0.449   38.265
  264.716   63.278    0.344    0.432   38.263
  264.966   63.906    0.347    0.423   38.701
  265.216   65.829    0.348    0.428   38.940
  265.466   67.408    0.349    0.436   38.952
  265.716   67.523    0.348    0.439   38.941
  265.966   66.828    0.347    0.433   38.933
  266.216   66.804    0.344    0.434   38.904
  266.466   67.248    0.340    0.439   38.593
  266.716   66.826    0.339    0.442   38.193
  266.966   65.727    0.339    0.448   38.189
  267.216   65.697    0.342    0.453   38.410
  267.466   64.364    0.348    0.456   38.867
  267.716   62.706    0.353    0.455   39.354
  267.966   61.571    0.355    0.470   39.511
  268.216   60.154    0.352    0.477   40.291
  268.466   58.960    0.350    0.469   40.728
  268.716   60.593    0.348    0.451   40.995
  268.966   58.425    0.347    0.442   41.728
  269.216   57.156    0.349    0.452   41.801
  269.466   58.279    0.349    0.454   41.876
  269.716   59.779    0.351    0.448   42.600
  269.966   60.684    0.352    0.444   42.491
  270.216   60.646    0.352    0.452   43.370
  270.466   59.830    0.346    0.457   43.318
  270.716   57.691    0.339    0.464   43.322
  270.966   56.952    0.341    0.466   43.316
  271.216   55.884    0.346    0.465   43.300
  271.466   55.689    0.348    0.468   43.291
  271.716   56.288    0.346    0.467   43.282
  271.966   55.007    0.347    0.455   43.276
  272.216   53.756    0.348    0.448   43.287
  272.466   53.164    0.346    0.454   42.566
  272.716   55.357    0.342    0.445   42.441
  272.966   56.917    0.338    0.433   42.370
  273.216   58.448    0.333    0.442   41.673
  273.466   59.932    0.332    0.456   40.817
  273.716   62.373    0.335    0.459   40.080
  273.966   63.579    0.337    0.455   35.964
  274.216   64.306    0.324    0.454   29.349
  274.466   62.989    0.327    0.459   22.639
  274.716   63.616    0.326    0.454   18.817
  274.966   65.843    0.313    0.447   16.111
  275.216   69.330    0.306    0.446   13.856
  275.466   70.740    0.306    0.450   11.811
  275.716   68.171    0.316    0.441   13.462
  275.966   68.004    0.308    0.437   14.053
  276.216   69.930    0.296    0.443   14.584
  276.466   73.996    0.276    0.453   15.184
  276.716   75.488    0.283    0.470   15.566
  276.966   76.516    0.294    0.460   15.985
  277.216   77.456    0.305    0.437   15.463
  277.466   80.632    0.301    0.425   14.069
  277.716   83.903    0.268    0.416   12.307
  277.966   87.601    0.231    0.419   10.544
  278.216   88.723    0.247    0.430    9.304
  278.466   88.889    0.243    0.435    8.609
  278.716   88.897    0.245    0.435    8.389
  278.966   90.463    0.251    0.439    7.887
  279.216   92.104    0.234    0.436    7.583
  279.466   92.690    0.238    0.441    7.024
  279.716   92.844    0.244    0.461    6.356
  279.966   93.882    0.265    0.464    5.848
  280.216   95.513    0.233    0.458    5.193
  280.466   96.459    0.242    0.483    4.677
  280.716   97.466    0.243    0.515    4.047
  280.966   97.407    0.256    0.537    3.597
  281.216   98.179    0.266    0.561    4.087
  281.466   97.030    0.276    0.577    4.867
  281.716   95.294    0.285    0.563    5.946
  281.966   93.477    0.298    0.525    7.758
  282.216   88.917    0.311    0.504    9.901
  282.466   83.871    0.315    0.487   12.489
  282.716   79.557    0.316    0.471   13.975
  282.966   77.767    0.314    0.458   11.687
  283.216   78.713    0.303    0.461    8.547
  283.466   79.711    0.293    0.468    6.524
  283.716   81.425    0.281    0.469    5.163
  283.966   84.617    0.275    0.471    4.305
  284.216   88.055    0.267    0.487    3.889
  284.466   89.922    0.266    0.531    3.573
  284.716   87.900    0.290    0.552    3.558
  284.966   84.752    0.292    0.570    3.784
  285.216   83.514    0.279    0.582    3.983
  285.466   84.689    0.283    0.560    4.094
  285.716   86.648    0.270    0.542    3.983
  285.966   88.609    0.266    0.543    3.630
  286.216   91.276    0.254    0.541    3.452
  286.466   94.710    0.223    0.537    3.388
  286.716   97.954    0.215    0.543    3.407
  286.966   99.125    0.229    0.558    3.453
  287.216   97.731    0.237    0.568    3.492
  287.466   96.421    0.227    0.562    3.516
  287.716   94.324    0.238    0.560    3.459
  287.966   93.562    0.243    0.561    3.192
  288.216   94.588    0.251    0.550    3.026
  288.466   98.719    0.266    0.530    3.023
  288.716   99.195    0.282    0.524    3.136
  288.966   95.287    0.318    0.552    3.345
  289.216   92.858    0.306    0.563    3.917
  289.466   89.861    0.285    0.580    4.503
  289.716   89.874    0.247    0.553    4.815
  289.966   86.211    0.264    0.529    5.623
  290.216   82.506    0.268    0.486    6.374
  290.466   82.440    0.275    0.472    7.211
  290.716   82.380    0.295    0.473    7.438
  290.966   82.966    0.301    0.469    6.524
