~VERSION INFORMATION
 VERS.                 2.0:   CWLS LOG ASCII STANDARD -VERSION 2.0
 WRAP.                  NO:   ONE LINE PER DEPTH STEP
~WELL INFORMATION BLOCK
#MNEM.UNIT           DATA                    DESCRIPTION OF MNEMONIC
#---------    -------------------            -------------------------------
# Generated from Intellog Unique Number	CX_WELLS/WELL/2955
WELL.         ATCOR HANGINGSTONE             : Well_name    - WELL
LOC .         00/12-07-082-10W4/0            : Location     - LOCATION
UWI .         00/12-07-082-10W400            : Uwi          - UNIQUE WELL ID
ENTR.         T                              : Entered      - ENTERED BY
SRVC.         SCHLUMBERGER                   : Scn          - SERVICE COMPANY
STRT.M        260                            : top_depth    - START DEPTH
STOP.M        480                            : bot_depth    - STOP DEPTH
STEP.M        0.25                           : increment    - STEP LENGTH
 NULL. -999.2500:NULL Value
~CURVE INFORMATION BLOCK
#MNEM UNIT       ERCB CURVE CODE    CURVE DESCRIPTION
#-----------   ------------------   ----------------------------------
DEPT.M        00 001 00 00         : DEPTH        - DEPTH
GR  .API      00 310 00 00         : GR           - GAMMA RAY
NPHI.V/V      00 330 00 00         : PHIN         - NEUTRON POROSITY (SANDSTONE)
DPHI.V/V      00 890 00 00         : PHID         - DENSITY POROSITY (SANDSTONE)
ILD .OHMM     00 120 00 00         : RESD         - DEEP RESISTIVITY (OTHER)
~PARAMETER INFORMATION
#MNEM.UNIT           DATA             DESCRIPTION OF MNEMONIC
#---------         -----------     ------------------------------
GL  .M        702                  : gl           - GROUND LEVEL ELEVATION
EREF.M        706                  : kb           - ELEVATION OF DEPTH REFERENCE
DATM.M        706                  : datum        - DATUM ELEVATION
TDD .M        490                  : tdd          - TOTAL DEPTH DRILLER
RUN .         ONE                  : Run          - RUN NUMBER
ENG .         BILL                 : Engineer     - RECORDING ENGINEER
WIT .         JIM                  : Witness      - WITNESSED BY
MUD .         GEL                  : Mud_type     - MUD TYPE
MATR.         SANDSTONE            : Logunit      - NEUTRON MATRIX
TMAX.C        24                   : BHT          - MAXIMUM RECORDED TEMPERATURE
BHTD.M        490                  : BHTDEP       - MAXIMUM RECORDED TEMPERATURE
MATR.         1                    : LOGUNIT      - NEUTRON MATRIX
RMT .C        24                   : MDTP         - TEMPERATURE OF MUD
NEUT.         1                    : NEUTRON      - NEUTRON TYPE
RESI.         7                    : RESIST       - RESISTIVITY TYPE
RMC .OHMM     8.6                  : RMC          - RESISTIVITY OF MUD CAKE
RMF .OHMM     8.6                  : RMF          - RESISTIVITY OF MUD FILTRATE
SUFT.C        4                    : SUFT         - SURFACE TEMPERATURE
~A  DEPTH       GR     PHIN     PHID     RESD
# ...
  390.500   85.391    0.242    0.067   12.740
  390.750   88.299    0.284    0.115   11.867
  391.000   93.518    0.353    0.202   11.452
  391.250   94.145    0.390    0.237   10.284
  391.500   92.451    0.418    0.243    9.070
  391.750   90.787    0.438    0.241    7.860
  392.000   92.534    0.462    0.240    7.588
  392.250   96.048    0.460    0.239    7.458
  392.500   94.374    0.455    0.237    7.338
  392.750   93.819    0.451    0.237    7.343
  393.000   92.710    0.431    0.237    7.629
  393.250   90.450    0.421    0.240    7.918
  393.500   88.766    0.417    0.244    8.530
  393.750   87.667    0.410    0.252    9.015
  394.000   85.983    0.403    0.261    9.709
  394.250   85.438    0.384    0.280    9.893
  394.500   82.603    0.376    0.301   10.271
  394.750   80.343    0.377    0.308   10.476
  395.000   78.084    0.406    0.310   10.489
  395.250   75.834    0.421    0.305   10.314
  395.500   76.451    0.430    0.287   10.141
  395.750   78.794    0.431    0.282    9.620
  396.000   79.976    0.425    0.280    9.122
  396.250   83.469    0.417    0.276    8.969
  396.500   87.559    0.409    0.256    8.505
  396.750   89.316    0.414    0.241    8.210
  397.000   91.083    0.421    0.243    8.073
  397.250   91.135    0.434    0.251    8.234
  397.500   89.440    0.432    0.259    8.244
  397.750   87.766    0.426    0.270    8.562
  398.000   86.667    0.422    0.276    8.727
  398.250   86.134    0.417    0.276    8.895
  398.500   86.751    0.416    0.268    9.241
  398.750   87.347    0.416    0.265    9.423
  399.000   86.813    0.408    0.265    9.432
  399.250   83.413    0.397    0.263    9.444
  399.500   81.153    0.400    0.262    9.456
  399.750   84.657    0.424    0.263    9.297
  400.000   86.414    0.428    0.263    9.142
  400.250   87.616    0.430    0.268    8.828
  400.500   87.668    0.434    0.273    8.373
  400.750   87.114    0.436    0.278    8.086
  401.000   85.450    0.433    0.284    7.805
  401.250   85.481    0.433    0.292    7.539
  401.500   84.947    0.431    0.296    7.546
  401.750   83.263    0.428    0.299    7.558
  402.000   82.719    0.437    0.299    7.434
  402.250   82.185    0.442    0.299    7.308
  402.500   82.802    0.449    0.298    7.054
  402.750   81.128    0.444    0.297    6.455
  403.000   80.594    0.440    0.295    6.117
  403.250   80.625    0.445    0.293    5.698
  403.500   82.978    0.446    0.292    5.403
  403.750   84.746    0.453    0.291    5.313
  404.000   88.239    0.464    0.286    5.320
  404.250   91.157    0.476    0.280    5.525
  404.500   91.795    0.473    0.274    5.736
  404.750   91.816    0.458    0.276    6.287
  405.000   91.857    0.438    0.277    7.277
  405.250   88.447    0.436    0.284    8.273
  405.500   83.885    0.436    0.289    8.749
  405.750   80.475    0.436    0.293    9.089
  406.000   78.236    0.439    0.296    9.434
  406.250   78.257    0.443    0.300   10.160
  406.500   76.018    0.449    0.301   10.542
  406.750   74.898    0.449    0.302   11.561
  407.000   72.638    0.443    0.270   12.674
  407.250   69.218    0.411    0.243   12.466
  407.500   68.119    0.344    0.211   11.817
  407.750   70.451    0.323    0.153   11.004
  408.000   73.945    0.392    0.155   10.435
  408.250   79.750    0.410    0.224    9.720
  408.500   82.668    0.425    0.236    9.380
  408.750   86.172    0.425    0.232    8.895
  409.000   86.213    0.425    0.228    8.440
  409.250   86.245    0.426    0.228    8.152
  409.500   86.872    0.426    0.227    8.160
  409.750   87.489    0.427    0.221    8.021
  410.000   88.095    0.431    0.220    7.887
  410.250   89.298    0.436    0.221    7.760
  410.500   89.915    0.441    0.218    7.628
  410.750   91.117    0.440    0.213    7.500
  411.000   91.734    0.415    0.218    7.377
  411.250   91.775    0.405    0.224    7.249
  411.500   91.806    0.395    0.231    6.874
  411.750   91.293    0.392    0.231    6.521
  412.000   90.749    0.400    0.231    5.965
  412.250   90.780    0.421    0.232    5.758
  412.500   89.671    0.427    0.232    5.173
  412.750   87.987    0.450    0.236    4.814
  413.000   86.878    0.463    0.238    4.323
  413.250   85.204    0.494    0.267    3.678
  413.500   84.084    0.529    0.277    3.303
  413.750   83.550    0.547    0.289    3.368
  414.000   82.451    0.539    0.288    3.626
  414.250   81.907    0.459    0.271    3.903
  414.500   80.819    0.430    0.253    4.357
  414.750   80.860    0.413    0.248    5.046
  415.000   80.902    0.413    0.242    5.530
  415.250   83.245    0.413    0.237    5.846
  415.500   85.012    0.412    0.235    5.963
  415.750   84.478    0.409    0.230    5.861
  416.000   82.794    0.405    0.225    5.660
  416.250   82.835    0.410    0.231    5.270
  416.500   84.603    0.418    0.238    4.820
  416.750   85.795    0.424    0.245    4.328
  417.000   87.563    0.447    0.255    3.961
  417.250   88.179    0.451    0.258    4.038
  417.500   85.930    0.455    0.255    4.115
  417.750   83.660    0.422    0.247    4.597
  418.000   83.126    0.386    0.220    4.858
  418.250   84.914    0.413    0.192    4.867
  418.500   86.096    0.423    0.190    4.871
  418.750   87.864    0.430    0.210    4.620
  419.000   90.771    0.433    0.236    4.461
  419.250   93.700    0.441    0.251    4.230
  419.500   96.628    0.454    0.257    4.010
  419.750   96.649    0.464    0.261    3.668
  420.000   95.561    0.470    0.261    3.606
  420.250   93.876    0.472    0.258    3.483
  420.500   93.332    0.469    0.255    3.486
  420.750   92.233    0.462    0.249    3.555
  421.000   92.264    0.455    0.244    3.759
  421.250   92.316    0.444    0.239    4.049
  421.500   92.944    0.429    0.239    4.203
  421.750   93.550    0.435    0.238    4.210
  422.000   94.752    0.448    0.236    4.215
  422.250   94.773    0.455    0.228    4.219
  422.500   95.965    0.457    0.190    4.223
  422.750   98.894    0.444    0.168    4.388
  423.000  100.661    0.442    0.194    4.471
  423.250  102.439    0.444    0.212    4.561
  423.500  103.067    0.444    0.232    4.566
  423.750  102.533    0.450    0.246    4.570
  424.000   99.102    0.449    0.245    4.746
  424.250   90.513    0.440    0.243    5.205
  424.500   83.640    0.431    0.242    5.501
  424.750   79.079    0.408    0.247    6.370
  425.000   76.244    0.395    0.276    6.984
  425.250   73.995    0.393    0.284    7.523
  425.500   75.187    0.394    0.298    7.664
  425.750   76.379    0.394    0.314    7.814
  426.000   78.157    0.393    0.272    7.969
  426.250   78.763    0.389    0.232    8.125
  426.500   78.240    0.381    0.258    8.290
  426.750   76.556    0.368    0.274    8.295
  427.000   74.871    0.354    0.274    8.463
  427.250   76.063    0.357    0.273    8.626
  427.500   77.820    0.363    0.269    8.792
  427.750   80.749    0.370    0.265    8.965
  428.000   83.092    0.373    0.264    9.143
  428.250   86.585    0.370    0.261    9.155
  428.500   87.212    0.374    0.258    8.681
  428.750   88.404    0.384    0.249    8.380
  429.000   91.312    0.395    0.246    7.946
  429.250   95.381    0.401    0.238    7.816
  429.500   98.310    0.395    0.230    7.969
  429.750   99.502    0.374    0.241    8.428
  430.000  100.704    0.361    0.242    9.243
  430.250  102.472    0.353    0.238    9.765
  430.500  104.250    0.382    0.233   11.101
  430.750  104.270    0.388    0.239   15.979
  431.000   91.079    0.365    0.244   17.203
  431.250   85.943    0.363    0.253   19.205
  431.500   79.646    0.354    0.262   21.446
  431.750   69.331    0.343    0.270   23.081
  432.000   67.657    0.346    0.275   28.239
  432.250   69.425    0.348    0.278   29.837
  432.500   67.165    0.350    0.284   32.720
  432.750   56.265    0.347    0.296   33.372
  433.000   51.704    0.344    0.306   32.793
  433.250   51.191    0.342    0.294   30.008
  433.500   52.948    0.341    0.277   28.437
  433.750   55.280    0.342    0.261   24.629
