~VERSION INFORMATION
 VERS.                 2.0:   CWLS LOG ASCII STANDARD -VERSION 2.0
 WRAP.                  NO:   ONE LINE PER DEPTH STEP
~WELL INFORMATION BLOCK
#MNEM.UNIT           DATA                    DESCRIPTION OF MNEMONIC
#---------    -------------------            -------------------------------
# Generated from Intellog Unique Number	CW_70_72/WELL/3029
NULL.         -999.25                        : NULL_VALUE
WELL.         CHIEFCO ET AL DANCING 11-12    : Well_name    - WELL              
LOC .         11-12-070-27W4                 : Location     - LOCATION          
UWI .         00/11-12-070-27W4/0            : Uwi          - UNIQUE WELL ID    
ENTR.         JAYE                           : Entered      - ENTERED BY        
SRVC.         SCHLUMBERGER                   : Scn          - SERVICE COMPANY   
DATE.         5 OCT 76                       : Date         - LOG DATE          
STRT.M        469.392                        : top_depth    - START DEPTH       
STOP.M        719.392                        : bot_depth    - STOP DEPTH        
STEP.M        0.25                           : increment    - STEP LENGTH       
~CURVE INFORMATION BLOCK
#MNEM UNIT       ERCB CURVE CODE    CURVE DESCRIPTION
#-----------   ------------------   ----------------------------------
DEPT.M        00 001 00 00         : DEPTH        - DEPTH                       
ILD .OHMM     00 120 00 00         : RESD         - DEEP RESISTIVITY (DIL)      
CALI.MM       00 280 01 00         : CAL          - CALIPER                     
GR  .API      00 310 00 00         : GR           - GAMMA RAY                   
NPHI.V/V      00 330 00 00         : PHIN         - NEUTRON POROSITY (SANDSTONE)
DPHI.V/V      00 890 00 00         : PHID         - DENSITY POROSITY (SANDSTONE)
~PARAMETER INFORMATION       
#MNEM.UNIT           DATA             DESCRIPTION OF MNEMONIC
#---------         -----------     ------------------------------
GL  .M        636.422              : gl           - GROUND LEVEL ELEVATION      
EREF.M        639.166              : kb           - ELEVATION OF DEPTH REFERENCE
DATM.M        636.422              : datum        - DATUM ELEVATION             
TDD .M        733.654              : tdd          - TOTAL DEPTH DRILLER         
RUN .         ONE                  : Run          - RUN NUMBER                  
ENG .         PAQUIN               : Engineer     - RECORDING ENGINEER          
WIT .         ERICKSON             : Witness      - WITNESSED BY                
BASE.         EDM                  : Branch       - HOME BASE OF LOGGING UNIT   
MUD .         GEL                  : Mud_type     - MUD TYPE                    
MATR.         SANDSTONE            : Logunit      - NEUTRON MATRIX              
TMAX.C        -17.7778             : BHT          - MAXIMUM RECORDED TEMPERATURE
BHTD.M        733.958              : BHTDEP       - MAXIMUM RECORDED TEMPERATURE
RMT .C        10.5556              : MDTP         - TEMPERATURE OF MUD          
MUDD.KG/M     1140                 : MWT          - MUD DENSITY                 
NEUT.         1                    : NEUTRON      - NEUTRON TYPE                
RESI.         0                    : RESIST       - RESISTIVITY TYPE            
RM  .OHMM     4.35                 : RM           - RESISTIVITY OF MUD          
RMC .OHMM     0.25                 : RMC          - RESISTIVITY OF MUD CAKE     
RMF .OHMM     3.86                 : RMF          - RESISTIVITY OF MUD FILTRATE 
SUFT.C        -17.7778             : SUFT         - SURFACE TEMPERATURE         
~A  DEPTH     RESD      CAL       GR     PHIN     PHID
  469.392    2.427  199.698   96.285    0.520    0.152
  469.642    2.445  198.867   97.004    0.530    0.171
  469.892    2.454  198.960   98.451    0.556    0.147
  470.142    2.441  199.152  100.260    0.555    0.163
  470.392    2.375  200.268  101.281    0.542    0.149
  470.642    2.337  200.257  101.456    0.527    0.164
  470.892    2.316  196.553  102.358    0.499    0.181
  471.142    2.299  194.900  103.076    0.507    0.188
  471.392    2.287  194.374  101.677    0.518    0.186
  471.642    2.266  194.465   98.279    0.505    0.181
  471.892    2.254  195.068   96.152    0.496    0.170
  472.142    2.230  196.590   95.357    0.520    0.175
  472.392    2.222  197.809   91.656    0.530    0.197
  472.642    2.230  198.518   87.227    0.532    0.209
  472.892    2.255  196.865   83.406    0.522    0.190
  473.142    2.326  190.597   76.375    0.515    0.202
  473.392    2.571  178.281   68.132    0.496    0.207
  473.642    2.832  160.118   60.252    0.466    0.235
  473.892    2.958  158.055   55.400    0.433    0.229
  474.142    2.997  158.554   57.028    0.399    0.254
  474.392    2.975  159.362   61.320    0.400    0.256
  474.642    2.932  160.991   63.493    0.409    0.246
  474.892    2.901  161.288   64.213    0.421    0.220
  475.142    2.890  160.863   61.662    0.435    0.216
  475.392    2.875  160.442   63.532    0.439    0.234
  475.642    2.896  160.325   65.280    0.433    0.239
  475.892    2.944  160.316   66.424    0.415    0.234
  476.142    3.026  161.225   65.327    0.431    0.224
  476.392    3.237  162.135   63.200    0.435    0.192
  476.642    3.565  163.355   61.740    0.422    0.165
  476.892    3.849  163.650   63.851    0.399    0.120
  477.142    3.856  162.203   68.386    0.419    0.149
  477.392    3.658  160.241   72.072    0.425    0.188
  477.642    3.408  159.306   72.672    0.423    0.208
  477.892    3.134  160.012   73.209    0.413    0.222
  478.142    2.815  162.356   79.439    0.407    0.230
  478.392    2.608  165.218   87.850    0.499    0.218
  478.642    2.561  170.229   93.232    0.513    0.175
  478.892    2.656  171.653   92.316    0.477    0.210
  479.142    2.770  168.359   93.095    0.458    0.187
  479.392    2.557  166.092   96.843    0.443    0.184
  479.642    2.443  164.232  100.349    0.476    0.179
  479.892    2.507  162.372   94.891    0.494    0.164
  480.142    2.662  161.441   87.073    0.438    0.185
  480.392    2.812  160.198   77.800    0.407    0.207
  480.642    2.927  158.644   70.343    0.397    0.219
  480.892    3.171  158.123   66.704    0.397    0.256
  481.142    3.399  158.005   58.944    0.462    0.335
  481.392    3.636  158.916   51.792    0.505    0.365
  481.642    3.854  159.929   45.669    0.484    0.401
  481.892    4.093  160.533   52.807    0.453    0.450
  482.142    4.245  160.830   66.728    0.438    0.180
  482.392    4.200  161.228   69.567    0.425    0.165
  482.642    4.042  161.216   69.924    0.419    0.189
  482.892    3.926  160.896   73.610    0.427    0.183
  483.142    3.849  160.987   83.352    0.440    0.172
  483.392    3.849  160.459   81.347    0.453    0.169
  483.642    3.942  159.321   74.678    0.441    0.189
  483.892    4.044  157.771   70.310    0.432    0.205
  484.142    4.248  156.323   69.031    0.444    0.205
  484.392    4.487  155.286   70.174    0.452    0.251
  484.642    4.611  155.271   72.165    0.446    0.281
  484.892    4.241  156.081   75.066    0.436    0.281
  485.142    3.734  158.734   82.204    0.445    0.257
  485.392    3.222  167.439   86.982    0.500    0.201
  485.642    2.786  170.604   92.121    0.516    0.187
  485.892    2.343  174.282   91.025    0.508    0.185
  486.142    2.199  171.607   80.662    0.463    0.200
  486.392    2.252  159.186   74.538    0.397    0.223
  486.642    2.457  164.813   75.197    0.407    0.197
  486.892    2.672  167.366   66.591    0.426    0.147
  487.142    2.737  160.893   55.563    0.427    0.207
  487.392    2.549  156.266   51.680    0.405    0.253
  487.642    2.273  155.843   52.036    0.397    0.286
  487.892    2.064  155.728   55.843    0.398    0.288
  488.142    1.902  156.436   61.771    0.413    0.282
  488.392    1.794  158.370   69.212    0.432    0.293
  488.642    1.765  163.076   74.473    0.464    0.281
  488.892    1.878  177.009   77.131    0.539    0.246
  489.142    1.923  179.560   59.744    0.495    0.239
  489.392    1.838  155.756   46.171    0.404    0.290
  489.642    1.703  155.641   42.592    0.382    0.288
  489.892    1.578  156.653   52.879    0.367    0.284
  490.142    1.524  157.256   61.713    0.361    0.254
  490.392    1.538  158.065   68.973    0.375    0.243
  490.642    1.639  158.770   72.962    0.387    0.240
  490.892    1.835  159.680   75.802    0.386    0.230
  491.142    1.946  159.873   80.275    0.385    0.204
  491.392    2.059  159.556   82.993    0.386    0.200
  491.642    2.171  158.621   84.621    0.386    0.210
  491.892    2.276  157.788   85.704    0.378    0.194
  492.142    2.417  157.367   88.663    0.369    0.187
  492.392    2.525  157.764   95.378    0.381    0.198
  492.642    2.638  159.597  100.519    0.400    0.202
  492.892    2.756  163.689  104.689    0.421    0.181
  493.142    2.901  168.394  106.257    0.440    0.165
  493.392    3.143  170.945  106.065    0.405    0.170
  493.642    3.493  168.266  106.000    0.387    0.195
  493.892    3.723  168.252  105.327    0.375    0.186
  494.142    3.597  168.754  105.320    0.380    0.172
  494.392    3.219  172.843  107.733    0.444    0.195
  494.642    2.763  181.957  107.364    0.494    0.190
  494.892    2.477  195.994  107.114    0.520    0.212
  495.142    2.197  189.932  111.770    0.531    0.210
  495.392    1.973  205.506  110.915    0.514    0.186
  495.642    2.043  203.956  109.394    0.478    0.216
  495.892    2.217  190.818  103.997    0.460    0.230
  496.142    2.342  171.938   97.026    0.479    0.225
  496.392    2.469  177.770   90.358    0.516    0.199
  496.642    2.622  180.322   82.781    0.502    0.176
  496.892    2.730  169.030   73.630    0.435    0.208
  497.142    2.873  160.507   71.684    0.413    0.201
  497.392    3.012  156.903   76.643    0.400    0.209
  497.642    3.199  158.020   80.995    0.398    0.234
  497.892    3.354  159.957   83.956    0.411    0.209
  498.142    3.549  164.251   87.097    0.447    0.222
  498.392    3.608  166.596   88.120    0.437    0.175
  498.642    3.635  165.560   87.507    0.427    0.190
  498.892    3.576  162.779   84.653    0.443    0.184
  499.142    3.505  160.102   81.558    0.460    0.189
  499.392    3.386  156.704   75.677    0.443    0.210
  499.642    3.254  154.844   72.096    0.451    0.225
  499.892    3.132  154.525   72.694    0.457    0.220
  500.142    3.004  154.408   71.658    0.455    0.231
  500.392    2.896  154.496   64.263    0.459    0.231
  500.642    2.733  154.489   56.565    0.454    0.249
  500.892    2.564  155.194   54.742    0.436    0.274
  501.142    2.380  155.797   54.431    0.424    0.284
  501.392    2.233  156.195   55.392    0.422    0.281
  501.642    2.149  156.491   56.656    0.431    0.272
  501.892    2.039  156.785   56.892    0.436    0.262
  502.142    1.977  156.672   58.155    0.434    0.257
  502.392    1.938  156.249   59.603    0.431    0.243
  502.642    1.935  155.825   62.017    0.427    0.254
  502.892    1.974  155.814   64.070    0.425    0.267
  503.142    2.040  155.801   65.577    0.423    0.284
  503.392    2.108  155.584   72.170    0.421    0.265
  503.642    2.210  155.780   75.917    0.414    0.254
  503.892    2.330  156.075   78.877    0.436    0.224
  504.142    2.378  156.369   80.928    0.465    0.214
  504.392    2.369  156.460   79.347    0.461    0.221
  504.642    2.289  156.038   80.431    0.449    0.242
  504.892    2.240  155.512   84.419    0.466    0.255
  505.142    2.256  157.552   89.863    0.485    0.218
  505.392    2.319  159.692   84.222    0.493    0.202
  505.642    2.449  154.451   82.339    0.459    0.235
