~VERSION INFORMATION
 VERS.                 2.0:   CWLS LOG ASCII STANDARD -VERSION 2.0
 WRAP.                  NO:   ONE LINE PER DEPTH STEP
~WELL INFORMATION BLOCK
#MNEM.UNIT           DATA                    DESCRIPTION OF MNEMONIC
#---------    -------------------            -------------------------------
# Generated from Intellog Unique Number	CC_88_90/WELL/3147
WELL.         CANTERRA ENERGY LTD.           : Well_name    - WELL
LOC .         00/10-12-089-18W4/0            : Location     - LOCATION
UWI .         00/10-12-089-18W400            : Uwi          - UNIQUE WELL ID
ENTR.         JOETTE                         : Entered      - ENTERED BY
SRVC.         SCHLUMBERGER                   : Scn          - SERVICE COMPANY
DATE.         03/04/92                       : Date         - LOG DATE
STRT.M        100                            : top_depth    - START DEPTH
STOP.M        185                            : bot_depth    - STOP DEPTH
STEP.M        0.25                           : increment    - STEP LENGTH
 NULL. -999.2500:NULL Value
~CURVE INFORMATION BLOCK
#MNEM UNIT       ERCB CURVE CODE    CURVE DESCRIPTION
#-----------   ------------------   ----------------------------------
DEPT.M        00 001 00 00         : DEPTH        - DEPTH
GR  .API      00 310 00 00         : GR           - GAMMA RAY
ILD .OHMM     00 120 00 00         : RESD         - DEEP RESISTIVITY (DIL)
NPHI.V/V      00 330 00 00         : PHIN         - NEUTRON POROSITY (SANDSTONE)
DPHI.V/V      00 890 00 00         : PHID         - DENSITY POROSITY (SANDSTONE)
~PARAMETER INFORMATION
#MNEM.UNIT           DATA             DESCRIPTION OF MNEMONIC
#---------         -----------     ------------------------------
GL  .M        476.25               : gl           - GROUND LEVEL ELEVATION
EREF.M        479.25               : kb           - ELEVATION OF DEPTH REFERENCE
DATM.M        479.25               : datum        - DATUM ELEVATION
TDD .M        183.5                : tdd          - TOTAL DEPTH DRILLER
RUN .         ONE                  : Run          - RUN NUMBER
ENG .         BILL                 : Engineer     - RECORDING ENGINEER
WIT .         JIM                  : Witness      - WITNESSED BY
MUD .         GEL                  : Mud_type     - MUD TYPE
MATR.         SANDSTONE            : Logunit      - NEUTRON MATRIX
TMAX.C        18.3                 : BHT          - MAXIMUM RECORDED TEMPERATURE
BHTD.M        183.5                : BHTDEP       - MAXIMUM RECORDED TEMPERATURE
RMT .C        13.8                 : MDTP         - TEMPERATURE OF MUD
MUDD.KG/M     1070                 : MWT          - MUD DENSITY
NEUT.         1                    : NEUTRON      - NEUTRON TYPE
RESI.         0                    : RESIST       - RESISTIVITY TYPE
RM  .OHMM     2.1                  : RM           - RESISTIVITY OF MUD
RMC .OHMM     2.1                  : RMC          - RESISTIVITY OF MUD CAKE
RMF .OHMM     2.1                  : RMF          - RESISTIVITY OF MUD FILTRATE
SUFT.C        4                    : SUFT         - SURFACE TEMPERATURE
~A  DEPTH       GR     RESD     PHIN     PHID
# ...
  143.500  102.567   12.556    0.461    0.199
  143.750  110.560   12.325    0.458    0.182
  144.000  116.708   12.326    0.472    0.187
  144.250  103.806   12.098    0.503    0.214
  144.500   81.685   11.876    0.510    0.216
  144.750   82.302   11.441    0.504    0.194
  145.000  101.972   11.230    0.497    0.165
  145.250  102.590   11.231    0.487    0.160
  145.500   88.457   11.232    0.464    0.186
  145.750   79.857   11.232    0.458    0.198
  146.000   83.548   11.233    0.482    0.201
  146.250   81.093   11.233    0.472    0.214
  146.500   77.408   11.026    0.470    0.229
  146.750   94.619   11.027    0.469    0.215
  147.000  107.528   11.235    0.453    0.210
  147.250  105.073   12.107    0.439    0.214
  147.500   96.472   12.336    0.455    0.217
  147.750  105.079   13.293    0.432    0.150
  148.000  108.770   14.059    0.402    0.158
  148.250   95.867   14.595    0.418    0.186
  148.500   91.568   15.151    0.436    0.206
  148.750   87.884   15.437    0.450    0.216
  149.000   89.116   15.438    0.462    0.214
  149.250   77.443   15.154    0.450    0.218
  149.500   80.519   15.155    0.431    0.223
  149.750  111.865   15.441    0.412    0.228
  150.000  114.941   15.733    0.403    0.221
  150.250  114.329   16.641    0.391    0.196
  150.500  111.260   16.334    0.361    0.098
  150.750   84.836   16.032    0.336    0.109
  151.000   81.767   15.161    0.344    0.166
  151.250   84.843   14.335    0.406    0.194
  151.500   89.148   12.818    0.428    0.213
  151.750  103.900   12.581    0.427    0.221
  152.000  130.330   12.582    0.427    0.223
  152.250  124.188   12.820    0.429    0.218
  152.500  111.899   13.559    0.438    0.183
  152.750  104.529   14.075    0.468    0.175
  153.000  105.146   12.352    0.462    0.176
  153.250   91.013    9.692    0.483    0.201
  153.500   85.486    8.193    0.478    0.227
  153.750   83.031    7.326    0.470    0.247
  154.000   82.420    7.326    0.478    0.245
  154.250   84.881    8.667    0.490    0.234
  154.500   82.425   11.256    0.496    0.216
  154.750   80.585   11.905    0.463    0.168
  155.000   91.650   11.685    0.427    0.092
  155.250  115.622   11.050    0.407    0.129
  155.500  122.385   10.255    0.434    0.167
  155.750  116.857    9.880    0.455    0.196
  156.000  121.162    9.170    0.453    0.213
  156.250  121.780    8.199    0.452    0.214
  156.500  121.783    7.753    0.457    0.225
  156.750  108.880    7.610    0.471    0.231
  157.000   92.905    7.754    0.482    0.225
  157.250   83.075    8.673    0.494    0.214
  157.500  100.286    8.837    0.462    0.129
  157.750  124.257    8.838    0.442    0.108
  158.000  124.875    8.357    0.419    0.148
  158.250  116.889    7.902    0.451    0.188
  158.500  111.361    8.052    0.468    0.214
  158.750   97.229    8.516    0.479    0.216
  159.000   84.940   10.074    0.469    0.220
  159.250   64.663   10.856    0.454    0.206
  159.500   41.313   12.604    0.456    0.200
  159.750   43.774   13.583    0.454    0.147
  160.000   40.705   13.086    0.375    0.112
  160.250   33.333   11.483    0.349    0.150
  160.500   35.179    9.708    0.403    0.190
  160.750   59.151    9.353    0.424    0.209
  161.000   99.101   10.269    0.418    0.208
  161.250  105.250   10.269    0.403    0.209
  161.500  108.326    9.711    0.402    0.215
  161.750   84.361    9.532    0.414    0.222
  162.000   68.385   10.082    0.423    0.226
  162.250   48.722   11.277    0.434    0.214
  162.500   46.267   12.851    0.441    0.160
  162.750   60.406   14.109    0.448    0.101
  163.000   65.940   13.849    0.354    0.070
  163.250   57.953   13.342    0.334    0.168
  163.500   45.050   11.493    0.350    0.203
  163.750   45.668   10.666    0.375    0.213
  164.000   51.203    9.900    0.406    0.202
  164.250   58.581    9.361    0.432    0.186
  164.500   58.584    8.688    0.422    0.170
  164.750   54.900    8.216    0.427    0.189
  165.000   57.975    7.210    0.464    0.215
  165.250   63.510    8.065    0.474    0.255
  165.500   61.669   11.715    0.438    0.298
  165.750   61.673   14.386    0.392    0.308
  166.000   55.530   17.665    0.386    0.303
  166.250   62.908   22.942    0.370    0.305
  166.500   75.817   33.953    0.375    0.314
  166.750   83.809   45.772    0.392    0.320
  167.000   83.198   51.200    0.405    0.320
  167.250   78.284   55.171    0.421    0.316
  167.500   67.840   57.273    0.413    0.315
  167.750   57.396   57.277    0.412    0.315
  168.000   47.566   57.280    0.412    0.318
  168.250   35.892   57.283    0.411    0.324
  168.500   32.823   57.287    0.395    0.329
  168.750   35.284   57.292    0.418    0.326
  169.000   38.360   57.294    0.437    0.315
  169.250   37.134   57.299    0.436    0.308
  169.500   40.210   57.302    0.446    0.314
  169.750   46.359   57.304    0.455    0.318
  170.000   38.987   57.309    0.452    0.318
  170.250   43.907   54.191    0.444    0.318
  170.500   48.826   51.243    0.436    0.320
  170.750   48.830   47.559    0.436    0.326
  171.000   46.989   43.324    0.432    0.332
  171.250   46.377   38.736    0.411    0.335
  171.500   46.381   33.366    0.430    0.324
  171.750   42.697   29.280    0.442    0.309
  172.000   48.231   25.221    0.442    0.280
  172.250   48.849   20.928    0.451    0.259
  172.500   36.560   17.366    0.456    0.253
  172.750   29.189   15.819    0.444    0.258
  173.000   25.505   15.820    0.440    0.260
  173.250   21.820   15.821    0.448    0.261
  173.500   31.042   14.961    0.446    0.255
  173.750   48.867   13.376    0.429    0.234
  174.000   44.568    9.039    0.403    0.185
  174.250   42.728    6.582    0.387    0.179
  174.500   45.190    5.164    0.387    0.194
  174.750   47.651    4.128    0.387    0.202
  175.000   71.622    3.691    0.425    0.212
  175.250   87.604    3.556    0.488    0.223
  175.500   92.523    3.490    0.532    0.236
  175.750   94.370    3.491    0.547    0.249
  176.000   77.780    3.624    0.553    0.253
  176.250   71.638    3.762    0.543    0.247
  176.500   86.391    4.054    0.525    0.231
  176.750   96.841    4.795    0.507    0.207
  177.000   96.230    5.265    0.494    0.150
  177.250   95.618    5.364    0.482    0.116
  177.500   82.716    5.265    0.472    0.173
  177.750   72.272    5.466    0.447    0.210
  178.000   64.285    6.001    0.444    0.297
  178.250   64.903    8.242    0.435    0.326
  178.500   82.728   13.392    0.424    0.365
  178.750   82.117   15.261    0.408    0.262
  179.000   75.360   16.756    0.385    0.230
  179.250   75.363   16.756    0.351    0.215
  179.500   77.210   14.166    0.327    0.217
  179.750   71.068   10.315    0.331    0.235
  180.000   69.227   10.316    0.340    0.263
  180.250   66.772   11.756    0.343    0.270
  180.500   63.702   13.650    0.337    0.296
  180.750   46.498   17.400    0.331    0.288
  181.000   45.886   20.584    0.323    0.281
  181.250   55.722   23.900    0.318    0.279
  181.500   73.548   26.734    0.320    0.279
  181.750   83.999   28.809    0.325    0.281
  182.000   79.700   28.810    0.333    0.285
  182.250   66.797   26.244    0.342    0.288
  182.500   48.978   21.777    0.357    0.293
  182.750   71.105   14.716    0.369    0.296
  183.000   95.691    9.581    0.366    0.300
  183.250  123.964    6.237    0.347    0.302
  183.500  115.978    5.577    0.332    0.296
  183.750  115.981    5.373    0.339    0.204
  184.000  124.588    5.274    0.357    0.104
  184.250  120.904    5.176    0.134    0.006
  184.500   92.637    5.177    0.058    0.027
  184.750   76.047    5.177    0.082    0.041
  185.000   47.780    5.275    0.079    0.022
