~VERSION INFORMATION
 VERS.                 2.0:   CWLS LOG ASCII STANDARD -VERSION 2.0
 WRAP.                  NO:   ONE LINE PER DEPTH STEP
~WELL INFORMATION BLOCK
#MNEM.UNIT           DATA                    DESCRIPTION OF MNEMONIC
#---------    -------------------            -------------------------------
# Generated from Intellog Unique Number	CW_70_72/WELL/2907
NULL.         -999.25                        : NULL_VALUE
WELL.         CHEVRON CALLING WEST           : Well_name    - WELL              
LOC .         11-27-070-21W4                 : Location     - LOCATION          
UWI .         00/11-27-070-21W4/0            : Uwi          - UNIQUE WELL ID    
ENTR.         MAX                            : Entered      - ENTERED BY        
SRVC.         SCHLUMBERGER                   : Scn          - SERVICE COMPANY   
DATE.         30 JAN 74                      : Date         - LOG DATE
STRT.M        405.384                        : top_depth    - START DEPTH       
STOP.M        573.134                        : bot_depth    - STOP DEPTH        
STEP.M        0.25                           : increment    - STEP LENGTH       
~CURVE INFORMATION BLOCK
#MNEM UNIT       ERCB CURVE CODE    CURVE DESCRIPTION
#-----------   ------------------   ----------------------------------
DEPT.M        00 001 00 00         : DEPTH        - DEPTH                       
ILD .OHMM     00 120 00 00         : RESD         - DEEP RESISTIVITY (DIL)      
NPHI.V/V      00 330 00 00         : PHIN         - NEUTRON POROSITY (SANDSTONE)
DPHI.V/V      00 890 00 00         : PHID         - DENSITY POROSITY (SANDSTONE)
CALI.MM       00 280 01 00         : CAL          - CALIPER                     
GR  .API      00 310 00 00         : GR           - GAMMA RAY                   
~PARAMETER INFORMATION       
#MNEM.UNIT           DATA             DESCRIPTION OF MNEMONIC
#---------         -----------     ------------------------------
GL  .M        649.529              : gl           - GROUND LEVEL ELEVATION      
EREF.M        652.882              : kb           - ELEVATION OF DEPTH REFERENCE
DATM.M        649.529              : datum        - DATUM ELEVATION             
TDD .M        573.634              : tdd          - TOTAL DEPTH DRILLER         
RUN .         ONE                  : Run          - RUN NUMBER                  
ENG .         BILL                 : Engineer     - RECORDING ENGINEER          
WIT .         JIM                  : Witness      - WITNESSED BY                
MUD .         GEL                  : Mud_type     - MUD TYPE                    
MATR.         SANDSTONE            : Logunit      - NEUTRON MATRIX              
TMAX.C        72                   : BHT          - MAXIMUM RECORDED TEMPERATURE
BHTD.M        573.634              : BHTDEP       - MAXIMUM RECORDED TEMPERATURE
RMT .C        12.7778              : MDTP         - TEMPERATURE OF MUD          
MUDD.KG/M     9900                 : MWT          - MUD DENSITY                 
NEUT.         1                    : NEUTRON      - NEUTRON TYPE                
RESI.         0                    : RESIST       - RESISTIVITY TYPE            
RM  .OHMM     2.9                  : RM           - RESISTIVITY OF MUD          
RMC .OHMM     0.25                 : RMC          - RESISTIVITY OF MUD CAKE     
RMF .OHMM     3.87                 : RMF          - RESISTIVITY OF MUD FILTRATE 
SUFT.C        -20.5556             : SUFT         - SURFACE TEMPERATURE         
~A  DEPTH     RESD     PHIN     PHID      CAL       GR
# ...
  514.884    3.767    0.483    0.228  200.474   79.749
  515.134    3.732    0.511    0.230  202.920   84.100
  515.384    3.598    0.498    0.225  206.840   88.745
  515.634    3.406    0.503    0.222  207.811   92.517
  515.884    3.139    0.522    0.214  207.793   95.706
  516.134    2.764    0.538    0.224  207.779   96.278
  516.384    2.244    0.591    0.226  209.235   98.885
  516.634    2.183    0.624    0.231  210.206  101.785
  516.884    2.105    0.613    0.240  210.680  106.720
  517.134    2.047    0.601    0.258  209.188  111.363
  517.384    2.047    0.600    0.284  207.198  114.261
  517.634    2.102    0.605    0.302  207.184  114.252
  517.884    2.199    0.605    0.285  206.674  113.660
  518.134    2.635    0.603    0.250  201.240  110.740
  518.384    2.906    0.581    0.208  202.157  102.790
  518.634    3.124    0.565    0.175  203.127  103.069
  518.884    3.388    0.566    0.212  204.588  102.471
  519.134    3.607    0.568    0.213  206.043  100.411
  519.384    3.739    0.515    0.194  206.515   99.228
  519.634    3.909    0.476    0.201  206.496   98.634
  519.884    4.051    0.446    0.213  205.973   97.157
  520.134    4.236    0.434    0.212  203.476   95.978
  520.384    4.471    0.466    0.199  201.475   94.209
  520.634    4.804    0.460    0.191  200.961   95.364
  520.884    5.070    0.464    0.177  200.439   97.395
  521.134    5.254    0.464    0.157  199.428   95.046
  521.384    5.345    0.454    0.150  198.419   92.987
  521.634    5.196    0.445    0.194  198.397   94.142
  521.884    5.099    0.443    0.187  198.372   91.791
  522.134    5.093    0.459    0.205  198.347   90.027
  522.384    5.425    0.474    0.205  197.833   88.260
  522.634    5.884    0.462    0.216  197.805   86.493
  522.884    6.438    0.440    0.191  197.785   84.144
  523.134    6.552    0.417    0.145  198.254   82.085
  523.384    6.487    0.360    0.125  197.738   82.362
  523.634    6.248    0.386    0.136  197.218   84.104
  523.884    5.910    0.424    0.162  198.182   87.886
  524.134    5.489    0.445    0.193  198.654   91.083
  524.384    5.146    0.450    0.205  199.126   90.778
  524.634    4.780    0.429    0.207  199.101   89.888
  524.884    4.520    0.413    0.181  199.081   89.583
  525.134    4.435    0.422    0.186  199.551   87.818
  525.384    4.512    0.431    0.192  199.528   88.971
  525.634    4.762    0.443    0.180  200.492   88.372
  525.884    5.164    0.453    0.203  201.462   86.609
  526.134    5.551    0.454    0.196  202.425   83.090
  526.384    6.359    0.453    0.162  202.892   80.156
  526.634    7.555    0.408    0.095  202.378   73.717
  526.884    8.814    0.377    0.080  201.367   69.322
  527.134   10.098    0.321    0.094  200.352   66.386
  527.384   10.179    0.344    0.109  199.341   64.912
  527.634    8.953    0.342    0.121  199.319   65.778
  527.884    7.121    0.337    0.138  199.294   70.728
  528.134    5.664    0.363    0.172  198.774   85.899
  528.384    4.846    0.411    0.207  197.271   94.645
  528.634    4.668    0.495    0.206  195.765   93.464
  528.884    4.707    0.501    0.194  194.751   84.688
  529.134    4.921    0.475    0.186  194.234   79.713
  529.384    5.100    0.425    0.163  194.212   73.853
  529.634    5.095    0.407    0.188  194.184   74.427
  529.884    4.819    0.454    0.211  195.151   74.704
  530.134    4.729    0.443    0.199  195.128   73.231
  530.384    4.989    0.401    0.198  194.114   72.051
  530.634    5.982    0.378    0.191  193.600   67.946
  530.884    6.088    0.348    0.185  194.067   66.767
  531.134    6.543    0.347    0.155  195.036   66.754
  531.384    6.477    0.343    0.155  196.003   69.367
  531.634    6.184    0.339    0.148  196.964   71.398
  531.884    5.640    0.352    0.129  197.439   72.257
  532.134    5.191    0.367    0.139  197.905   73.412
  532.384    4.955    0.373    0.186  197.886   76.029
  532.634    4.861    0.386    0.198  197.861   79.812
  532.884    4.813    0.396    0.197  198.335   82.425
  533.134    4.808    0.393    0.202  198.805   83.286
  533.384    4.848    0.381    0.209  199.271   85.903
  533.634    5.210    0.380    0.199  199.749   92.898
  533.884    5.548    0.407    0.203  200.713  103.395
  534.134    5.749    0.433    0.192  201.679  106.594
  534.384    5.796    0.449    0.193  202.146  101.033
  534.634    5.687    0.487    0.203  202.618   95.178
  534.884    5.477    0.475    0.199  202.593   91.659
  535.134    5.325    0.464    0.192  202.079   88.725
  535.384    5.224    0.448    0.192  201.062   86.960
  535.634    5.125    0.422    0.198  200.051   86.653
  535.884    5.074    0.409    0.197  199.042   84.885
  536.134    5.070    0.404    0.200  198.031   82.831
  536.384    5.254    0.396    0.201  198.006   79.894
  536.634    5.647    0.389    0.203  197.983   78.422
  536.884    6.352    0.382    0.187  197.961   75.779
  537.134    7.275    0.345    0.161  197.939   75.179
  537.384    7.677    0.331    0.134  199.391   77.505
  537.634    7.464    0.388    0.099  202.830   85.960
  537.884    6.685    0.493    0.116  204.792   98.794
  538.134    5.616    0.509    0.172  208.225  103.451
  538.384    4.591    0.538    0.200  210.180  107.525
  538.634    4.112    0.567    0.224  212.136  108.099
  538.884    3.715    0.578    0.211  211.119  106.332
  539.134    3.514    0.583    0.209  209.616  107.779
  539.384    3.386    0.582    0.202  207.121  110.392
  539.634    3.322    0.558    0.210  206.107  112.715
  539.884    3.318    0.543    0.198  205.588  110.656
  540.134    3.408    0.515    0.182  206.557  108.011
  540.384    3.563    0.515    0.177  206.529  108.001
  540.634    3.864    0.511    0.198  206.510  105.941
  540.884    4.153    0.496    0.191  206.487  105.053
  541.134    4.343    0.471    0.191  206.462  103.869
  541.384    4.584    0.453    0.186  206.934  102.691
  541.634    4.926    0.446    0.160  207.901  100.340
  541.884    5.342    0.453    0.142  208.867   98.867
  542.134    5.846    0.437    0.137  208.351   93.888
  542.384    6.114    0.433    0.140  207.337   92.997
  542.634    6.164    0.462    0.160  205.825   92.107
  542.884    6.048    0.462    0.160  205.808   90.632
  543.134    5.933    0.445    0.145  206.278   89.743
  543.384    5.982    0.428    0.105  206.744   91.482
  543.634    5.923    0.451    0.093  207.219   94.681
  543.884    5.758    0.485    0.171  208.183   99.632
  544.134    5.597    0.502    0.156  208.658  100.201
  544.384    5.491    0.483    0.140  210.608   99.894
  544.634    5.436    0.465    0.161  212.072   99.589
  544.884    5.383    0.454    0.188  209.080   97.240
  545.134    5.378    0.425    0.178  205.593   95.183
  545.384    5.471    0.410    0.159  203.099   95.461
  545.634    5.467    0.425    0.144  202.090   97.197
  545.884    5.412    0.441    0.149  202.065   97.769
  546.134    5.261    0.449    0.168  202.040   98.340
  546.384    5.162    0.447    0.184  202.020  100.078
  546.634    5.157    0.456    0.180  201.990  101.231
  546.884    5.200    0.459    0.168  201.967  102.678
  547.134    5.340    0.450    0.168  201.945  103.831
  547.384    5.737    0.448    0.165  201.428  104.111
  547.634    6.167    0.450    0.174  201.406  102.930
  547.884    6.749    0.435    0.173  201.378   98.243
  548.134    7.524    0.414    0.150  201.853   92.390
  548.384    8.541    0.392    0.127  201.830   78.358
  548.634   10.147    0.347    0.100  201.808   73.963
  548.884   12.849    0.324    0.078  201.291   66.358
  549.134   16.424    0.279    0.059  200.774   60.796
  549.384   21.183    0.242    0.024  200.749   59.321
  549.634   21.949    0.207   -0.011  201.713   61.642
  549.884   18.610    0.215   -0.005  202.185   67.763
  550.134   14.536    0.249    0.022  202.160   70.378
  550.384   11.457    0.308    0.040  202.138   82.044
  550.634    9.892    0.418    0.072  202.115   88.455
  550.884    8.388    0.426    0.153  202.093   96.034
  551.134    7.047    0.435    0.153  202.071   94.849
