~VERSION INFORMATION
 VERS.                 2.0:   CWLS LOG ASCII STANDARD -VERSION 2.0
 WRAP.                  NO:   ONE LINE PER DEPTH STEP
~WELL INFORMATION BLOCK
#MNEM.UNIT           DATA                    DESCRIPTION OF MNEMONIC
#---------    -------------------            -------------------------------
# Generated from Intellog Unique Number	CS_67_68/WELL/2208
WELL.         MANNVILLE ET AL ATMORE         : Well_name    - WELL
LOC .         00/11-22-067-15W4/0            : Location     - LOCATION
UWI .         00/11-22-067-15W4/0            : Uwi          - UNIQUE WELL ID
ENTR.         SP                             : Entered      - ENTERED BY
SRVC.         SCHLUMBERGER                   : Scn          - SERVICE COMPANY
STRT.M        330                            : top_depth    - START DEPTH
STOP.M        540                            : bot_depth    - STOP DEPTH
STEP.M        0.25                           : increment    - STEP LENGTH
 NULL. -999.2500:NULL Value
~CURVE INFORMATION BLOCK
#MNEM UNIT       ERCB CURVE CODE    CURVE DESCRIPTION
#-----------   ------------------   ----------------------------------
DEPT.M        00 001 00 00         : DEPTH        - DEPTH
ILD .OHMM     00 120 00 00         : RESD         - DEEP RESISTIVITY (DIL)
DPHI.V/V      00 890 00 00         : PHID         - DENSITY POROSITY (LIMESTONE)
NPHI.V/V      00 330 00 00         : PHIN         - NEUTRON POROSITY (LIMESTONE)
GR  .API      00 310 00 00         : GR           - GAMMA RAY
CALI.MM       00 280 01 00         : CAL          - CALIPER
~PARAMETER INFORMATION
#MNEM.UNIT           DATA             DESCRIPTION OF MNEMONIC
#---------         -----------     ------------------------------
GL  .M        580.3                : gl           - GROUND LEVEL ELEVATION
EREF.M        583.5                : kb           - ELEVATION OF DEPTH REFERENCE
DATM.M        583.5                : datum        - DATUM ELEVATION
TDD .M        542.5                : tdd          - TOTAL DEPTH DRILLER
RUN .         ONE                  : Run          - RUN NUMBER
ENG .         BILL                 : Engineer     - RECORDING ENGINEER
WIT .         JIM                  : Witness      - WITNESSED BY
MUD .         GEL                  : Mud_type     - MUD TYPE
MATR.         LIMESTONE            : Logunit      - NEUTRON MATRIX
TMAX.C        16.6                 : BHT          - MAXIMUM RECORDED TEMPERATURE
BHTD.M        540                  : BHTDEP       - MAXIMUM RECORDED TEMPERATURE
MATR.         1                    : LOGUNIT      - NEUTRON MATRIX
RMT .C        25                   : MDTP         - TEMPERATURE OF MUD
NEUT.         1                    : NEUTRON      - NEUTRON TYPE
RESI.         0                    : RESIST       - RESISTIVITY TYPE
RMC .OHMM     0.25                 : RMC          - RESISTIVITY OF MUD CAKE
RMF .OHMM     0.25                 : RMF          - RESISTIVITY OF MUD FILTRATE
SUFT.C        15                   : SUFT         - SURFACE TEMPERATURE
~A  DEPTH     RESD     PHID     PHIN       GR      CAL
  330.000    2.224    0.210    0.515  107.693  195.818
  330.250    2.271    0.206    0.524  107.392  194.605
  330.500    2.363    0.205    0.522  108.556  194.408
  330.750    2.464    0.214    0.503  110.880  202.453
  331.000    2.569    0.209    0.494  110.334  199.917
  331.250    2.658    0.175    0.486  109.362  195.853
  331.500    2.772    0.157    0.494  108.451  194.435
  331.750    2.862    0.164    0.513  107.050  196.477
  332.000    2.837    0.195    0.503  103.818  198.926
  332.250    2.739    0.185    0.470  106.875  191.608
  332.500    2.629    0.182    0.461  104.376  187.747
  332.750    2.519    0.177    0.473   99.252  194.775
  333.000    2.441    0.171    0.479   96.631  200.277
  333.250    2.392    0.176    0.494  102.069  202.827
  333.500    2.371    0.172    0.505   99.997  202.529
  333.750    2.399    0.188    0.490   99.879  201.214
  334.000    2.450    0.199    0.493  104.096  201.423
  334.250    2.497    0.184    0.488  106.908  200.820
  334.500    2.550    0.175    0.480  109.599  197.469
  334.750    2.590    0.166    0.487  111.435  196.051
  335.000    2.586    0.168    0.486  109.790  200.026
  335.250    2.530    0.175    0.475  106.009  197.998
  335.500    2.502    0.180    0.485  101.984  194.851
  335.750    2.513    0.175    0.494  105.529  193.943
  336.000    2.576    0.166    0.473  107.181  194.661
  336.250    2.656    0.179    0.472  101.813  197.517
  336.500    2.702    0.205    0.486  100.413  187.451
  336.750    2.713    0.224    0.496   97.121  178.605
  337.000    2.664    0.000    0.392   82.289  169.454
  337.250    2.606    0.000    0.382   74.296  163.763
  337.500    2.558    0.295    0.421  102.566  183.714
  337.750    2.559    0.366    0.455  106.539  201.221
  338.000    2.724    0.395    0.494  100.133  196.548
  338.250    2.861    0.258    0.522   98.061  180.071
  338.500    2.933    0.244    0.432   97.821  164.511
  338.750    2.962    0.253    0.411   98.131  156.479
  339.000    2.947    0.256    0.400   97.891  152.213
  339.250    2.937    0.253    0.402   96.796  150.694
  339.500    2.999    0.249    0.406  101.318  150.598
  339.750    3.145    0.234    0.399  104.191  151.114
  340.000    3.212    0.229    0.391  107.248  151.935
  340.250    3.189    0.229    0.412  109.205  152.145
  340.500    3.044    0.232    0.422  110.553  150.423
  340.750    2.966    0.236    0.425  108.725  149.208
  341.000    2.973    0.259    0.429   96.092  148.606
  341.250    3.071    0.303    0.452   58.062  148.408
  341.500    3.172    0.414    0.487   50.740  148.618
  341.750    3.173    0.337    0.522   57.887  149.338
  342.000    3.052    0.310    0.471   65.095  150.465
  342.250    2.913    0.295    0.452   70.105  150.878
  342.500    2.719    0.324    0.442   74.444  150.783
  342.750    2.500    0.354    0.456   76.036  150.586
  343.000    2.400    0.366    0.470   73.109  150.084
  343.250    2.455    0.296    0.385   73.907  149.480
  343.500    2.555    0.245    0.373   82.031  148.674
  343.750    2.818    0.219    0.387   88.201  147.562
  344.000    3.033    0.205    0.393   92.051  146.653
  344.250    3.234    0.215    0.400   92.910  145.947
  344.500    3.410    0.236    0.397   91.205  145.750
  344.750    3.542    0.254    0.377   88.157  146.571
  345.000    3.672    0.213    0.363   86.268  149.020
  345.250    3.850    0.191    0.358   94.270  156.659
  345.500    4.067    0.176    0.380  100.806  163.686
  345.750    3.956    0.161    0.409  105.389  167.457
  346.000    3.783    0.252    0.453   94.466  169.398
  346.250    3.466    0.291    0.520   86.838  165.843
  346.500    3.075    0.274    0.452   80.555  159.645
  346.750    2.759    0.274    0.429   77.384  155.683
  347.000    2.604    0.282    0.414   77.937  153.349
  347.250    2.538    0.284    0.405   77.087  153.254
  347.500    2.492    0.280    0.411   74.160  153.160
  347.750    2.488    0.288    0.401   72.394  153.471
  348.000    2.489    0.291    0.393   74.657  153.275
  348.250    2.471    0.282    0.405   77.042  152.671
  348.500    2.449    0.281    0.390   78.267  152.373
  348.750    2.418    0.284    0.409   78.882  152.787
  349.000    2.410    0.285    0.424   80.108  153.201
  349.250    2.407    0.297    0.418   81.882  153.513
  349.500    2.403    0.306    0.410   84.145  153.825
  349.750    2.418    0.289    0.401   86.225  154.239
  350.000    2.428    0.270    0.412   86.473  154.450
  350.250    2.434    0.266    0.430   82.997  155.067
  350.500    2.448    0.261    0.447   86.787  155.785
  350.750    2.496    0.256    0.429   85.020  156.709
  351.000    2.568    0.266    0.420   77.454  157.936
  351.250    2.667    0.277    0.412   71.597  159.063
  351.500    2.802    0.278    0.410   73.434  159.883
  351.750    2.899    0.277    0.406   76.734  160.297
  352.000    2.836    0.271    0.401   77.471  159.999
  352.250    2.769    0.270    0.403   74.056  159.396
  352.500    2.594    0.272    0.408   73.267  158.996
  352.750    2.490    0.266    0.414   73.087  158.394
  353.000    2.596    0.260    0.407   71.993  158.297
  353.250    2.706    0.267    0.413   74.134  157.795
  353.500    2.870    0.280    0.415   79.510  157.293
  353.750    3.066    0.279    0.416   87.267  156.893
  354.000    3.319    0.261    0.414   93.560  156.289
  354.250    3.545    0.251    0.411   96.311  156.296
  354.500    3.634    0.241    0.409   95.949  156.609
  354.750    3.615    0.226    0.409   91.741  156.921
  355.000    3.484    0.210    0.402   90.035  157.843
  355.250    3.319    0.184    0.398  101.395  159.479
  355.500    3.259    0.133    0.404  109.214  161.011
  355.750    3.230    0.148    0.443  113.613  166.003
  356.000    3.361    0.157    0.467  117.220  177.814
  356.250    3.604    0.165    0.459  119.971  191.353
  356.500    3.872    0.208    0.438  128.827  208.759
  356.750    4.067    0.218    0.416  136.279  193.708
  357.000    4.233    0.215    0.395  122.120  175.908
  357.250    4.282    0.225    0.384  108.815  166.452
  357.500    4.349    0.230    0.386  104.546  162.593
  357.750    4.391    0.218    0.391  102.231  161.175
  358.000    4.312    0.212    0.394  102.051  160.877
  358.250    4.139    0.210    0.388  106.695  160.883
  358.500    3.914    0.218    0.383  102.243  159.262
  358.750    3.653    0.218    0.409  105.788  156.624
  359.000    3.461    0.212    0.404  108.844  153.273
  359.250    3.267    0.222    0.384  102.072  151.041
  359.500    3.078    0.239    0.381   98.169  149.217
  359.750    2.938    0.228    0.426  100.371  152.683
  360.000    2.939    0.217    0.461  108.373  158.286
  360.250    3.059    0.231    0.458  114.421  163.991
  360.500    3.165    0.245    0.442  111.067  157.994
  360.750    3.239    0.255    0.431  103.562  152.508
  361.000    3.277    0.266    0.427  100.696  150.275
  361.250    3.334    0.242    0.426  107.111  153.742
  361.500    3.329    0.214    0.426  111.267  155.783
  361.750    3.355    0.234    0.425  112.431  156.605
  362.000    3.313    0.274    0.433  103.583  155.493
  362.250    3.168    0.289    0.444   98.031  153.770
  362.500    2.957    0.298    0.453   92.602  151.945
  362.750    2.786    0.302    0.432   88.455  152.868
  363.000    2.640    0.294    0.416   88.397  154.808
  363.250    2.473    0.279    0.413   91.515  156.036
  363.500    2.383    0.268    0.429   91.703  156.754
  363.750    2.357    0.274    0.438   92.195  157.067
  364.000    2.476    0.269    0.445   94.824  156.565
  364.250    2.616    0.231    0.453  102.948  155.352
  364.500    2.752    0.213    0.458  111.133  155.256
  364.750    2.913    0.220    0.461  117.486  155.874
  365.000    2.986    0.233    0.452  110.287  157.915
  365.250    2.982    0.244    0.444  104.125  159.552
  365.500    2.950    0.246    0.452  105.777  160.576
  365.750    2.951    0.239    0.463  113.108  161.396
  366.000    2.952    0.229    0.470  122.269  162.014
  366.250    2.899    0.214    0.475  131.980  162.732
