~VERSION INFORMATION
 VERS.                 2.0:   CWLS LOG ASCII STANDARD -VERSION 2.0
 WRAP.                  NO:   ONE LINE PER DEPTH STEP
~WELL INFORMATION BLOCK
#MNEM.UNIT           DATA                    DESCRIPTION OF MNEMONIC
#---------    -------------------            -------------------------------
# Generated from Intellog Unique Number	CW_73_75/WELL/1051
WELL.         CHIEFCO LILY LAKE 13-07        : Well_name    - WELL
LOC .         00/13-07-075-05W5/0            : Location     - LOCATION
UWI .         00/13-07-075-05W5/0            : Uwi          - UNIQUE WELL ID
ENTR.         JAYE                           : Entered      - ENTERED BY
SRVC.         SCHLUMBERGER                   : Scn          - SERVICE COMPANY
DATE.         14 JAN 84                      : Date         - LOG DATE
STRT.M        625                            : top_depth    - START DEPTH
STOP.M        870                            : bot_depth    - STOP DEPTH
STEP.M        0.25                           : increment    - STEP LENGTH
 NULL. -999.2500:NULL Value
~CURVE INFORMATION BLOCK
#MNEM UNIT       ERCB CURVE CODE    CURVE DESCRIPTION
#-----------   ------------------   ----------------------------------
DEPT.M        00 001 00 00         : DEPTH        - DEPTH
ILD .OHMM     00 120 00 00         : RESD         - DEEP RESISTIVITY (DIL)
NPHI.V/V      00 330 00 00         : PHIN         - NEUTRON POROSITY (SANDSTONE)
DPHI.V/V      00 890 00 00         : PHID         - DENSITY POROSITY (SANDSTONE)
GR  .API      00 310 00 00         : GR           - GAMMA RAY
CALI.MM       00 280 01 00         : CAL          - CALIPER
~PARAMETER INFORMATION
#MNEM.UNIT           DATA             DESCRIPTION OF MNEMONIC
#---------         -----------     ------------------------------
GL  .M        873.9                : gl           - GROUND LEVEL ELEVATION
EREF.M        876                  : kb           - ELEVATION OF DEPTH REFERENCE
DATM.M        873.9                : datum        - DATUM ELEVATION
TDD .M        889                  : tdd          - TOTAL DEPTH DRILLER
RUN .         ONE                  : Run          - RUN NUMBER
ENG .         BRANDSTROM           : Engineer     - RECORDING ENGINEER
WIT .         KUCHINSKI            : Witness      - WITNESSED BY
BASE.         5202                 : Branch       - HOME BASE OF LOGGING UNIT
MUD .         GEL CHEM             : Mud_type     - MUD TYPE
MATR.         SANDSTONE            : Logunit      - NEUTRON MATRIX
TMAX.C        31                   : BHT          - MAXIMUM RECORDED TEMPERATURE
BHTD.M        890.5                : BHTDEP       - MAXIMUM RECORDED TEMPERATURE
RMT .C        31                   : MDTP         - TEMPERATURE OF MUD
MUDD.KG/M     1110                 : MWT          - MUD DENSITY
NEUT.         1                    : NEUTRON      - NEUTRON TYPE
RESI.         0                    : RESIST       - RESISTIVITY TYPE
RM  .OHMM     7.829                : RM           - RESISTIVITY OF MUD
RMC .OHMM     0                    : RMC          - RESISTIVITY OF MUD CAKE
RMF .OHMM     8.115                : RMF          - RESISTIVITY OF MUD FILTRATE
SUFT.C        0                    : SUFT         - SURFACE TEMPERATURE
~A  DEPTH     RESD     PHIN     PHID       GR      CAL
# ...
  661.500    3.959    0.447    0.276   91.166  203.396
  661.750    3.930    0.434    0.276   86.298  203.854
  662.000    3.916    0.418    0.264   82.609  204.220
  662.250    3.909    0.435    0.263   78.553  204.058
  662.500    3.910    0.434    0.265   75.666  204.003
  662.750    3.881    0.437    0.276   72.161  204.051
  663.000    3.752    0.442    0.282   75.476  204.110
  663.250    3.648    0.449    0.276   79.908  204.253
  663.500    3.628    0.455    0.277   78.388  204.309
  663.750    3.797    0.469    0.307   73.395  204.362
  664.000    4.003    0.605    0.384   64.500  204.406
  664.250    4.157    0.719    0.453   57.094  204.452
  664.500    4.245    0.695    0.461   50.613  204.393
  664.750    4.198    0.565    0.390   45.931  201.656
  665.000    4.059    0.433    0.338   47.945  200.258
  665.250    3.887    0.424    0.321   49.960  200.307
  665.500    3.730    0.423    0.316   50.668  201.807
  665.750    3.627    0.421    0.314   49.025  202.992
  666.000    3.566    0.426    0.329   46.143  204.384
  666.250    3.494    0.449    0.341   43.693  205.880
  666.500    3.488    0.461    0.346   42.358  206.443
  666.750    3.468    0.443    0.343   42.952  206.605
  667.000    3.456    0.427    0.338   43.719  206.643
  667.250    3.483    0.434    0.333   46.045  206.596
  667.500    3.509    0.449    0.341   46.753  206.647
  667.750    3.550    0.450    0.346   46.782  206.590
  668.000    3.577    0.436    0.343   47.002  206.641
  668.250    3.612    0.443    0.332   47.463  206.384
  668.500    3.654    0.461    0.330   47.801  206.424
  668.750    3.682    0.462    0.340   47.768  206.583
  669.000    3.717    0.453    0.336   47.365  206.634
  669.250    3.732    0.445    0.331   46.901  206.377
  669.500    3.739    0.440    0.341   46.930  206.314
  669.750    3.740    0.429    0.349   46.403  205.641
  670.000    3.755    0.431    0.339   45.563  205.897
  670.250    3.769    0.440    0.342   45.218  206.671
  670.500    3.792    0.451    0.336   45.500  206.510
  670.750    3.785    0.459    0.328   45.651  205.840
  671.000    3.757    0.460    0.334   45.929  204.554
  671.250    3.667    0.466    0.342   48.004  202.628
  671.500    3.626    0.463    0.346   52.742  198.655
  671.750    3.579    0.450    0.343   53.268  197.052
  672.000    3.526    0.450    0.336   50.327  196.474
  672.250    3.467    0.444    0.343   50.724  195.909
  672.500    3.416    0.430    0.351   53.545  196.372
  672.750    3.397    0.425    0.354   50.600  197.244
  673.000    3.379    0.435    0.353   49.449  198.745
  673.250    3.348    0.445    0.349   50.162  200.132
  673.500    3.361    0.442    0.341   50.872  201.633
  673.750    3.355    0.434    0.338   49.290  203.025
  674.000    3.349    0.419    0.342   46.905  204.006
  674.250    3.362    0.422    0.345   46.064  204.572
  674.500    3.363    0.423    0.344   45.599  204.613
  674.750    3.376    0.421    0.335   45.569  204.765
  675.000    3.389    0.421    0.333   45.782  204.713
  675.250    3.396    0.424    0.336   46.247  204.351
  675.500    3.416    0.429    0.338   47.514  203.572
  675.750    3.417    0.436    0.341   49.965  202.797
  676.000    3.430    0.450    0.347   52.473  202.124
  676.250    3.437    0.465    0.341   53.801  201.550
  676.500    3.444    0.464    0.336   53.153  201.087
  676.750    3.451    0.436    0.348   52.065  200.724
  677.000    3.491    0.440    0.357   50.792  200.463
  677.250    3.518    0.436    0.362   46.358  200.508
  677.500    3.559    0.431    0.365   45.148  200.560
  677.750    3.552    0.442    0.358   48.960  199.884
  678.000    3.566    0.435    0.350   51.777  198.389
  678.250    3.614    0.444    0.329   50.137  197.503
  678.500    3.684    0.456    0.317   46.569  197.245
  678.750    3.754    0.443    0.310   44.369  197.199
  679.000    3.798    0.431    0.314   43.903  197.341
  679.250    3.820    0.419    0.329   44.862  197.602
  679.500    3.842    0.432    0.334   46.502  197.751
  679.750    3.857    0.441    0.335   47.895  197.907
  680.000    3.909    0.445    0.336   48.794  198.063
  680.250    3.969    0.452    0.337   49.878  198.111
  680.500    4.099    0.465    0.342   51.702  198.158
  680.750    4.346    0.473    0.344   53.967  198.202
  681.000    4.696    0.466    0.338   54.798  198.256
  681.250    5.083    0.456    0.326   53.588  198.203
  681.500    5.472    0.451    0.314   50.642  198.253
  681.750    5.791    0.442    0.305   51.479  197.888
  682.000    6.014    0.427    0.303   51.880  197.625
  682.250    6.049    0.437    0.305   49.432  197.465
  682.500    5.893    0.439    0.313   47.166  197.517
  682.750    5.729    0.419    0.320   46.143  197.572
  683.000    5.698    0.416    0.322   46.731  197.511
  683.250    5.742    0.420    0.329   47.814  197.562
  683.500    5.700    0.432    0.337   51.129  197.718
  683.750    5.563    0.443    0.337   56.055  197.977
  684.000    5.348    0.441    0.330   50.691  198.122
  684.250    5.017    0.439    0.329   47.560  197.864
  684.500    4.689    0.440    0.328   49.142  197.814
  684.750    4.457    0.446    0.325   49.916  197.658
  685.000    4.134    0.449    0.325   49.199  197.803
  685.250    3.915    0.439    0.331   48.917  197.955
  685.500    3.700    0.418    0.339   50.249  198.011
  685.750    3.584    0.460    0.344   48.483  198.158
  686.000    3.504    0.474    0.350   48.634  198.310
  686.250    3.485    0.469    0.358   49.906  198.169
  686.500    3.473    0.454    0.353   48.385  197.902
  686.750    3.486    0.456    0.352   45.998  197.946
  687.000    3.493    0.461    0.355   45.840  197.587
  687.250    3.494    0.458    0.354   46.925  198.046
  687.500    3.528    0.464    0.339   50.552  199.124
  687.750    3.561    0.466    0.329   52.623  198.145
  688.000    3.616    0.461    0.345   53.334  197.985
  688.250    3.672    0.455    0.346   50.328  198.346
  688.500    3.700    0.446    0.349   47.569  198.397
  688.750    3.715    0.459    0.347   47.971  198.656
  689.000    3.715    0.477    0.339   50.665  198.702
  689.250    3.688    0.498    0.330   51.625  198.641
  689.500    3.620    0.506    0.325   48.494  198.292
  689.750    3.607    0.494    0.320   51.684  198.224
  690.000    3.824    0.454    0.313   56.547  199.003
  690.250    4.506    0.424    0.307   60.669  199.774
  690.500    5.576    0.407    0.296   68.013  201.474
  690.750    7.138    0.425    0.232   75.913  202.867
  691.000    8.620    0.468    0.193   67.636  203.437
  691.250    8.752    0.410    0.131   58.368  203.792
  691.500    6.354    0.218    0.035   49.660  203.534
  691.750    4.928    0.173   -0.001   44.730  203.269
  692.000    4.006    0.175    0.001   50.649  202.697
  692.250    3.388    0.197    0.125   64.936  202.229
  692.500    3.107    0.414    0.176   70.541  201.778
  692.750    2.993    0.458    0.270   78.195  201.614
  693.000    2.949    0.484    0.306   77.730  201.355
  693.250    2.921    0.496    0.316   71.312  201.086
  693.500    2.961    0.497    0.316   67.437  200.727
  693.750    3.046    0.488    0.314   69.883  200.777
  694.000    3.146    0.478    0.310   73.695  200.719
  694.250    3.164    0.474    0.290   80.170  200.565
  694.500    3.194    0.469    0.281   77.351  200.832
  694.750    3.268    0.474    0.287   70.190  200.976
  695.000    3.318    0.473    0.290   73.008  201.020
  695.250    3.331    0.460    0.281   76.570  201.284
  695.500    3.344    0.472    0.282   75.917  201.223
  695.750    3.370    0.491    0.289   72.663  201.373
  696.000    3.409    0.490    0.287   70.709  201.629
  696.250    3.442    0.480    0.284   69.685  202.214
  696.500    3.449    0.465    0.279   71.015  202.346
  696.750    3.443    0.455    0.271   74.332  202.298
  697.000    3.450    0.469    0.262   75.786  202.239
  697.250    3.444    0.463    0.249   74.451  202.403
  697.500    3.471    0.460    0.253   73.675  202.753
  697.750    3.484    0.462    0.254   75.877  203.113
