~VERSION INFORMATION
 VERS.                 2.0:   CWLS LOG ASCII STANDARD -VERSION 2.0
 WRAP.                  NO:   ONE LINE PER DEPTH STEP
~WELL INFORMATION BLOCK
#MNEM.UNIT           DATA                    DESCRIPTION OF MNEMONIC
#---------    -------------------            -------------------------------
# Generated from Intellog Unique Number	CS_71_72/WELL/866
WELL.         PEX PHILLIPS AEC GRIST         : Well_name    - WELL
LOC .         00/10-23-071-07W4/0            : Location     - LOCATION
UWI .         00/10-23-071-07W4/0            : Uwi          - UNIQUE WELL ID
ENTR.         SP                             : Entered      - ENTERED BY
SRVC.         SCHLUMBERGER                   : Scn          - SERVICE COMPANY
STRT.M        300                            : top_depth    - START DEPTH
STOP.M        520                            : bot_depth    - STOP DEPTH
STEP.M        0.25                           : increment    - STEP LENGTH
 NULL. -999.2500:NULL Value
~CURVE INFORMATION BLOCK
#MNEM UNIT       ERCB CURVE CODE    CURVE DESCRIPTION
#-----------   ------------------   ----------------------------------
DEPT.M        00 001 00 00         : DEPTH        - DEPTH
ILD .OHMM     00 120 00 00         : RESD         - DEEP RESISTIVITY (DIL)
DPHI.V/V      00 890 00 00         : PHID         - DENSITY POROSITY (LIMESTONE)
NPHI.V/V      00 330 00 00         : PHIN         - NEUTRON POROSITY (LIMESTONE)
GR  .API      00 310 00 00         : GR           - GAMMA RAY
~PARAMETER INFORMATION
#MNEM.UNIT           DATA             DESCRIPTION OF MNEMONIC
#---------         -----------     ------------------------------
GL  .M        662.4                : gl           - GROUND LEVEL ELEVATION
EREF.M        666.2                : kb           - ELEVATION OF DEPTH REFERENCE
DATM.M        662.4                : datum        - DATUM ELEVATION
TDD .M        529                  : tdd          - TOTAL DEPTH DRILLER
RUN .         ONE                  : Run          - RUN NUMBER
ENG .         BILL                 : Engineer     - RECORDING ENGINEER
WIT .         JIM                  : Witness      - WITNESSED BY
MUD .         GEL                  : Mud_type     - MUD TYPE
MATR.         LIMESTONE            : Logunit      - NEUTRON MATRIX
TMAX.C        24                   : BHT          - MAXIMUM RECORDED TEMPERATURE
BHTD.M        529                  : BHTDEP       - MAXIMUM RECORDED TEMPERATURE
MATR.         1                    : LOGUNIT      - NEUTRON MATRIX
RMT .C        25                   : MDTP         - TEMPERATURE OF MUD
NEUT.         1                    : NEUTRON      - NEUTRON TYPE
RESI.         0                    : RESIST       - RESISTIVITY TYPE
RMC .OHMM     0.25                 : RMC          - RESISTIVITY OF MUD CAKE
RMF .OHMM     0.25                 : RMF          - RESISTIVITY OF MUD FILTRATE
SUFT.C        15                   : SUFT         - SURFACE TEMPERATURE
~A  DEPTH     RESD     PHID     PHIN       GR
# ...
  430.500    5.800    0.213    0.472   85.978
  430.750    5.812    0.190    0.474   86.226
  431.000    5.858    0.165    0.455   87.330
  431.250    5.827    0.193    0.452   87.212
  431.500    5.840    0.228    0.471   84.407
  431.750    5.897    0.249    0.464   81.846
  432.000    6.045    0.220    0.457   80.323
  432.250    6.302    0.210    0.461   82.465
  432.500    6.734    0.209    0.470   83.385
  432.750    7.599    0.068    0.484   76.794
  433.000    8.495   -0.005    0.218   66.782
  433.250    9.145   -0.011    0.184   55.426
  433.500    9.865    0.052    0.246   64.409
  433.750    9.979    0.184    0.370   72.902
  434.000    9.613    0.224    0.424   80.358
  434.250    7.499    0.243    0.452   82.744
  434.500    6.074    0.241    0.469   83.237
  434.750    5.478    0.216    0.483   86.722
  435.000    5.297    0.208    0.474   91.308
  435.250    5.219    0.246    0.459   94.549
  435.500    5.231    0.266    0.451   91.377
  435.750    5.292    0.264    0.476   83.625
  436.000    5.644    0.248    0.467   80.575
  436.250    6.180    0.256    0.467   78.198
  436.500    6.653    0.155    0.465   75.454
  436.750    7.003    0.112    0.371   73.870
  437.000    7.070    0.168    0.318   78.027
  437.250    6.118    0.227    0.387   82.551
  437.500    5.263    0.297    0.423   85.182
  437.750    4.720    0.338    0.447   80.850
  438.000    4.454    0.373    0.459   76.213
  438.250    4.307    0.367    0.457   75.300
  438.500    4.079    0.323    0.452   74.388
  438.750    3.713    0.334    0.488   71.278
  439.000    3.159    0.366    0.520   68.107
  439.250    2.764    0.382    0.545   66.035
  439.500    2.479    0.324    0.540   65.916
  439.750    2.278    0.313    0.503   68.974
  440.000    2.215    0.308    0.512   71.544
  440.250    2.288    0.306    0.560   72.159
  440.500    2.390    0.318    0.590   68.621
  440.750    2.578    0.383    0.615   67.220
  441.000    2.998    0.385    0.631   69.790
  441.250    3.514    0.312    0.587   73.948
  441.500    3.832    0.278    0.436   75.662
  441.750    4.196    0.236    0.445   76.948
  442.000    4.384    0.220    0.457   76.220
  442.250    4.511    0.251    0.465   74.820
  442.500    4.504    0.291    0.473   73.052
  442.750    4.454    0.299    0.490   71.408
  443.000    4.356    0.279    0.515   71.352
  443.250    4.244    0.257    0.515   73.126
  443.500    4.150    0.269    0.509   74.475
  443.750    4.028    0.321    0.504   74.295
  444.000    4.083    0.359    0.495   72.162
  444.250    4.338    0.356    0.498   68.320
  444.500    4.877    0.368    0.513   64.842
  444.750    5.715    0.397    0.502   59.166
  445.000    6.634    0.047    0.331   54.223
  445.250    8.042    0.114    0.303   52.151
  445.500    9.058    0.154    0.314   53.499
  445.750   10.634    0.167    0.313   55.030
  446.000   12.251    0.158    0.304   56.317
  446.250   12.992    0.146    0.329   55.649
  446.500   12.007    0.197    0.356   52.539
  446.750    9.930    0.255    0.404   55.414
  447.000    8.228    0.284    0.433   58.105
  447.250    6.868    0.295    0.423   59.698
  447.500    6.113    0.297    0.413   56.160
  447.750    5.607    0.305    0.411   52.988
  448.000    5.301    0.277    0.429   51.099
  448.250    5.088    0.258    0.424   54.035
  448.500    4.985    0.268    0.418   58.620
  448.750    4.967    0.293    0.432   60.395
  449.000    4.886    0.291    0.432   56.613
  449.250    4.786    0.258    0.410   60.343
  449.500    4.457    0.264    0.413   68.592
  449.750    3.960    0.252    0.454   76.597
  450.000    3.694    0.234    0.488   81.854
  450.250    3.344    0.224    0.510   84.973
  450.500    3.144    0.251    0.528   81.924
  450.750    3.006    0.252    0.541   79.546
  451.000    3.001    0.229    0.533   81.505
  451.250    3.076    0.225    0.523   82.364
  451.500    3.177    0.236    0.513   78.826
  451.750    3.338    0.234    0.490   79.563
  452.000    3.696    0.238    0.494   81.278
  452.250    4.405    0.258    0.515   79.572
  452.500    5.260    0.265    0.418   73.957
  452.750    6.293    0.248    0.397   67.121
  453.000    7.803    0.242    0.394   61.323
  453.250    9.459    0.230    0.389   59.129
  453.500   10.534    0.141    0.382   60.233
  453.750   11.004    0.163    0.388   64.329
  454.000   10.600    0.209    0.397   67.449
  454.250    9.723    0.246    0.397   68.552
  454.500    8.460    0.242    0.383   68.129
  454.750    6.587    0.223    0.398   68.255
  455.000    4.996    0.225    0.431   71.985
  455.250    4.077    0.246    0.463   74.494
  455.500    3.884    0.245    0.480   74.436
  455.750    4.399    0.222    0.486   73.219
  456.000    5.332    0.218    0.439   70.537
  456.250    6.587    0.231    0.397   67.793
  456.500    8.370    0.231    0.378   65.720
  456.750    9.481    0.243    0.366   63.953
  457.000   10.207    0.241    0.365   61.943
  457.250   10.783    0.225    0.375   61.092
  457.500   11.158    0.229    0.388   61.034
  457.750   11.591    0.225    0.394   62.199
  458.000   11.638    0.215    0.386   66.174
  458.250   11.318    0.212    0.372   68.132
  458.500   10.922    0.204    0.402   65.938
  458.750   11.071    0.177    0.419   62.950
  459.000   12.377    0.153    0.399   62.892
  459.250   13.100    0.127    0.372   67.172
  459.500   13.352    0.150    0.353   70.903
  459.750   12.863    0.218    0.342   72.983
  460.000   12.182    0.250    0.359   76.408
  460.250   12.441    0.266    0.371   78.855
  460.500   13.598    0.275    0.384   81.913
  460.750   14.502    0.281    0.392   83.688
  461.000   14.782    0.281    0.397   85.708
  461.250   14.186    0.268    0.400   85.773
  461.500   13.087    0.245    0.399   84.067
  461.750   12.488    0.225    0.390   81.751
  462.000   12.212    0.220    0.397   81.633
  462.250   13.098    0.230    0.409   82.187
  462.500   15.436    0.232    0.414   75.534
  462.750   17.683    0.238    0.397   57.277
  463.000   21.035    0.269    0.380   48.425
  463.250   26.231    0.294    0.376   49.529
  463.500   29.769    0.305    0.392   56.007
  463.750   32.533    0.292    0.402   61.874
  464.000   36.232    0.278    0.406   63.650
  464.250   40.581    0.288    0.384   39.652
  464.500   44.350    0.288    0.352   38.923
  464.750   48.106    0.289    0.320   50.715
  465.000   50.347    0.300    0.333   57.132
  465.250   46.094    0.298    0.365   62.084
  465.500   34.956    0.286    0.387   66.485
  465.750   24.400    0.281    0.392   73.574
  466.000   17.388    0.258    0.358   80.907
  466.250   13.236    0.232    0.333   88.119
  466.500   11.217    0.205    0.357   95.269
  466.750    8.850    0.232    0.393   87.639
  467.000    8.869    0.261    0.430   77.199
  467.250   10.792    0.283    0.451   71.524
  467.500   13.033    0.242    0.375   69.879
  467.750   15.360    0.221    0.351   66.341
  468.000   17.964    0.255    0.353   61.276
  468.250   21.130    0.278    0.356   58.043
  468.500   25.614    0.290    0.367   59.758
  468.750   29.510    0.301    0.382   64.404
  469.000   30.825    0.311    0.399   67.645
  469.250   28.222    0.307    0.400   68.321
  469.500   21.122    0.295    0.395   69.730
  469.750   15.484    0.283    0.385   74.621
  470.000   12.926    0.257    0.372   79.878
  470.250   11.079    0.245    0.362   83.974
  470.500    9.880    0.235    0.371   86.849
  470.750    9.200    0.223    0.382   89.112
  471.000    8.763    0.216    0.378   91.683
  471.250    8.618    0.217    0.372   93.030
  471.500    8.653    0.207    0.362   92.057
  471.750    8.854    0.205    0.354   88.153
  472.000    9.479    0.229    0.366   82.171
  472.250   10.052    0.250    0.394   74.847
  472.500   10.760    0.273    0.419   67.583
  472.750   11.050    0.283    0.432   62.457
  473.000   10.705    0.287    0.385   60.140
  473.250   10.489    0.253    0.356   64.420
  473.500   11.463    0.218    0.337   67.295
  473.750   13.282    0.222    0.364   68.276
