~VERSION INFORMATION
 VERS.                 2.0:   CWLS LOG ASCII STANDARD -VERSION 2.0
 WRAP.                  NO:   ONE LINE PER DEPTH STEP
~WELL INFORMATION BLOCK
#MNEM.UNIT           DATA                    DESCRIPTION OF MNEMONIC
#---------    -------------------            -------------------------------
# Generated from Intellog Unique Number	CW_70_72/WELL/1047
NULL.         -999.25                        : NULL_VALUE
WELL.         SUNDANCE ET AL TOMATO 10-33    : Well_name    - WELL              
LOC .         10-33-072-23W4                 : Location     - LOCATION          
UWI .         00/10-33-072-23W4/0            : Uwi          - UNIQUE WELL ID    
ENTR.         JAYE                           : Entered      - ENTERED BY        
SRVC.         SCHLUMBERGER                   : Scn          - SERVICE COMPANY   
DATE.         11 JAN 74                      : Date         - LOG DATE          
STRT.M        414.528                        : top_depth    - START DEPTH       
STOP.M        637.028                        : bot_depth    - STOP DEPTH        
STEP.M        0.25                           : increment    - STEP LENGTH       
~CURVE INFORMATION BLOCK
#MNEM UNIT       ERCB CURVE CODE    CURVE DESCRIPTION
#-----------   ------------------   ----------------------------------
DEPT.M        00 001 00 00         : DEPTH        - DEPTH                       
DPHI.V/V      00 890 00 00         : PHID         - DENSITY POROSITY (SANDSTONE)
NPHI.V/V      00 330 00 00         : PHIN         - NEUTRON POROSITY (SANDSTONE)
GR  .API      00 310 00 00         : GR           - GAMMA RAY                   
CALI.MM       00 280 01 00         : CAL          - CALIPER                     
ILD .OHMM     00 120 00 00         : RESD         - DEEP RESISTIVITY (DIL)      
~PARAMETER INFORMATION       
#MNEM.UNIT           DATA             DESCRIPTION OF MNEMONIC
#---------         -----------     ------------------------------
GL  .M        670.103              : gl           - GROUND LEVEL ELEVATION      
EREF.M        673.151              : kb           - ELEVATION OF DEPTH REFERENCE
DATM.M        670.103              : datum        - DATUM ELEVATION             
TDD .M        647.09               : tdd          - TOTAL DEPTH DRILLER         
RUN .         ONE                  : Run          - RUN NUMBER                  
MATR.         SANDSTONE            : Logunit      - NEUTRON MATRIX              
TMAX.C        41.6667              : BHT          - MAXIMUM RECORDED TEMPERATURE
BHTD.M        646.176              : BHTDEP       - MAXIMUM RECORDED TEMPERATURE
RMT .C        14.4444              : MDTP         - TEMPERATURE OF MUD          
MUDD.KG/M     0                    : MWT          - MUD DENSITY                 
NEUT.         1                    : NEUTRON      - NEUTRON TYPE                
RESI.         0                    : RESIST       - RESISTIVITY TYPE            
RM  .OHMM     3.72                 : RM           - RESISTIVITY OF MUD          
RMC .OHMM     0                    : RMC          - RESISTIVITY OF MUD CAKE     
RMF .OHMM     2.21                 : RMF          - RESISTIVITY OF MUD FILTRATE 
SUFT.C        0                    : SUFT         - SURFACE TEMPERATURE         
~A  DEPTH     PHID     PHIN       GR      CAL     RESD
# ...
  524.028    0.264    0.511   68.056  152.098    5.582
  524.278    0.249    0.544   65.673  151.080    6.076
  524.528    0.172    0.433   60.223  152.458    6.926
  524.778    0.117    0.229   54.526  155.180    8.220
  525.028    0.060    0.199   50.670  159.570    9.810
  525.278    0.095    0.205   57.930  159.592   12.102
  525.528    0.163    0.236   62.549  151.506   13.642
  525.778    0.255    0.300   66.432  151.530   10.961
  526.028    0.298    0.469   69.329  152.695    9.255
  526.278    0.285    0.500   69.097  152.613    7.644
  526.528    0.294    0.542   68.068  152.117    6.574
  526.778    0.295    0.508   70.538  151.724    5.696
  527.028    0.308    0.549   71.594  152.373    5.224
  527.278    0.296    0.485   69.213  153.642    5.102
  527.528    0.272    0.359   66.954  155.224    5.169
  527.778    0.268    0.378   65.617  156.080    5.443
  528.028    0.212    0.389   63.850  157.349    5.870
  528.278    0.172    0.332   61.285  158.829    6.425
  528.528    0.156    0.280   58.720  158.641    7.085
  528.778    0.178    0.332   59.102  156.274    7.812
  529.028    0.239    0.423   61.140  154.424    8.318
  529.278    0.280    0.439   63.980  152.680    8.552
  529.528    0.220    0.383   65.343  151.663    8.617
  529.778    0.197    0.327   64.374  151.375    8.794
  530.028    0.165    0.308   64.081  151.500    9.142
  530.278    0.226    0.333   63.848  152.149    9.574
  530.528    0.284    0.448   66.072  152.692    9.664
  530.778    0.290    0.563   71.305  154.067    8.655
  531.028    0.261    0.576   76.230  155.648    7.695
  531.278    0.208    0.559   81.893  158.685    6.968
  531.528    0.191    0.535   87.923  158.605    6.570
  531.778    0.213    0.496   95.121  159.459    6.428
  532.028    0.183    0.471   96.915  161.045    6.524
  532.278    0.162    0.446   96.192  162.730    6.647
  532.528    0.178    0.423   95.898  163.790    6.697
  532.778    0.165    0.433   95.177  162.878    6.772
  533.028    0.176    0.431   92.487  159.574    6.899
  533.278    0.186    0.459   92.747  159.285    7.041
  533.528    0.178    0.463   94.909  160.035    7.133
  533.778    0.161    0.444   94.309  161.721    7.174
  534.028    0.142    0.428   91.191  162.264    7.201
  534.278    0.161    0.437   91.326  160.418    7.256
  534.528    0.142    0.455   96.805  158.359    7.297
  534.778    0.158    0.478  100.440  156.722    7.272
  535.028    0.159    0.494  103.770  156.118    7.219
  535.278    0.155    0.481  104.520  155.832    7.115
  535.528    0.154    0.482  105.761  155.540    6.973
  535.778    0.151    0.469  107.864  156.290    6.747
  536.028    0.158    0.454  105.358  158.708    6.686
  536.278    0.159    0.448  102.732  160.598    6.602
  536.528    0.154    0.488   99.860  162.492    6.531
  536.778    0.170    0.499   96.681  156.486    6.460
  537.028    0.197    0.484   94.790  158.692    6.402
  537.278    0.183    0.475   95.970  163.497    6.391
  537.528    0.178    0.497   97.396  164.871    6.380
  537.778    0.171    0.492   97.164  163.334    6.346
  538.028    0.184    0.467   98.344  161.902    6.323
  538.278    0.175    0.480  101.367  162.340    6.325
  538.528    0.184    0.532  101.626  160.806    6.361
  538.778    0.202    0.497  100.719  158.752    6.327
  539.028    0.215    0.477  102.697  157.212    6.304
  539.278    0.200    0.460   97.245  156.402    6.294
  539.528    0.204    0.474   93.697  157.569    6.376
  539.778    0.167    0.452   90.212  159.360    6.544
  540.028    0.140    0.353   84.760  159.486    6.853
  540.278    0.141    0.342   81.888  157.846    7.230
  540.528    0.185    0.384   86.507  156.207    7.884
  540.778    0.193    0.449   92.659  155.503    8.121
  541.028    0.188    0.437   94.024  155.421    8.033
  541.278    0.179    0.428   93.670  155.754    7.645
  541.528    0.182    0.421   97.060  157.440    7.117
  541.778    0.180    0.452   98.976  159.860    6.686
  542.028    0.174    0.440   98.254  161.541    6.517
  542.278    0.175    0.472   97.592  163.018    6.423
  542.528    0.194    0.500   95.579  163.044    6.400
  542.778    0.184    0.506   90.803  162.338    6.401
  543.028    0.180    0.469   88.054  158.617    6.449
  543.278    0.173    0.435   87.578  155.521    6.474
  543.528    0.183    0.417   89.370  155.335    6.475
  543.778    0.166    0.442   94.480  156.087    6.440
  544.028    0.171    0.458   96.581  157.358    6.477
  544.278    0.172    0.455   92.910  159.875    6.586
  544.528    0.193    0.474   91.328  162.292    6.734
  544.778    0.190    0.481   92.876  162.729    6.899
  545.028    0.166    0.500   93.136  158.801    6.976
  545.278    0.180    0.471   89.894  157.266    7.016
  545.528    0.200    0.454   90.768  158.847    7.030
  545.778    0.185    0.442   95.079  163.028    6.992
  546.028    0.177    0.444  100.680  165.026    6.930
  546.278    0.171    0.464   97.746  164.321    6.829
  546.528    0.176    0.455   96.041  162.056    6.743
  546.778    0.180    0.448   95.073  160.624    6.633
  547.028    0.172    0.450   95.331  160.546    6.477
  547.278    0.175    0.446   96.634  160.877    6.279
  547.528    0.151    0.452   97.200  162.360    6.098
  547.778    0.147    0.469   97.029  163.835    5.987
  548.028    0.173    0.489   95.754  165.834    5.988
  548.278    0.153    0.503   92.451  166.168    6.045
  548.528    0.161    0.520   88.535  163.279    6.146
  548.778    0.153    0.482   88.303  159.872    6.331
  549.028    0.205    0.453   89.422  156.255    6.655
  549.278    0.211    0.476   91.645  153.680    7.060
  549.528    0.181    0.494   91.168  153.290    7.727
  549.778    0.182    0.366   85.226  154.141    8.458
  550.028    0.164    0.333   81.616  156.348    9.105
  550.278    0.165    0.336   85.130  158.552    9.518
  550.528    0.193    0.398   93.002  161.072    9.732
  550.778    0.163    0.425  102.779  162.652    9.026
  551.028    0.161    0.410   94.688  163.407    8.464
  551.278    0.136    0.384   85.737  163.533    8.466
  551.528    0.122    0.341   79.610  162.825    8.688
  551.778    0.113    0.366   77.905  161.497    8.818
  552.028    0.143    0.424   86.452  159.856    8.852
  552.278    0.170    0.438   94.877  160.088    8.773
  552.528    0.191    0.444  100.540  163.230    8.614
  552.778    0.197    0.416   97.361  152.129    8.033
  553.028    0.179    0.394   91.786  151.007    7.701
  553.278    0.154    0.353   82.468  155.188    7.731
  553.528    0.134    0.332   76.956  160.096    7.993
  553.778    0.143    0.384   79.118  160.952    8.324
  554.028    0.152    0.404   79.868  157.753    8.750
  554.278    0.135    0.364   78.838  158.297    9.265
  554.528    0.079    0.285   82.658  161.957    9.721
  554.778    0.050    0.235   79.662  163.021   10.105
  555.028    0.024    0.220   71.265  162.732   10.681
  555.278    0.066    0.289   67.901  162.027   11.330
  555.528    0.131    0.349   79.642  161.840   12.131
  555.778    0.156    0.409   85.979  164.259   13.011
  556.028    0.162    0.425   90.538  166.774   14.085
  556.278    0.160    0.427   92.023  167.315   12.430
  556.528    0.166    0.418   93.083  165.778   10.970
  556.778    0.153    0.392   94.445  163.307    9.504
  557.028    0.141    0.404   93.906  162.500    8.465
  557.278    0.124    0.415   91.281  162.311    8.373
  557.528    0.130    0.403   90.496  162.231    8.359
  557.778    0.145    0.391   91.308  162.570    8.315
  558.028    0.158    0.391   91.935  163.005    8.331
  558.278    0.160    0.389   93.791  163.026    8.379
  558.528    0.147    0.389   95.769  163.157    8.457
  558.778    0.144    0.392   96.396  163.073    8.521
  559.028    0.147    0.392   95.552  160.498    8.570
  559.278    0.143    0.379   94.457  158.234    8.666
  559.528    0.125    0.366   92.569  158.050    8.716
  559.778    0.140    0.373   91.845  158.801    8.717
  560.028    0.161    0.389   92.289  160.069    8.481
  560.278    0.165    0.403   92.609  161.962    7.866
