~VERSION INFORMATION
 VERS.                 2.0:   CWLS LOG ASCII STANDARD -VERSION 2.0
 WRAP.                  NO:   ONE LINE PER DEPTH STEP
~WELL INFORMATION BLOCK
#MNEM.UNIT           DATA                    DESCRIPTION OF MNEMONIC
#---------    -------------------            -------------------------------
# Generated from Intellog Unique Number	CS_77_79/WELL/1024
WELL.         DOME COWPAR                    : Well_name    - WELL
LOC .         00/16-11-079-03W4/0            : Location     - LOCATION
UWI .         00/16-11-079-03W4/0            : Uwi          - UNIQUE WELL ID
ENTR.         JHS                            : Entered      - ENTERED BY
SRVC.         SCHLUMBERGER                   : Scn          - SERVICE COMPANY
STRT.M        120                            : top_depth    - START DEPTH
STOP.M        360                            : bot_depth    - STOP DEPTH
STEP.M        0.25                           : increment    - STEP LENGTH
 NULL. -999.2500:NULL Value
~CURVE INFORMATION BLOCK
#MNEM UNIT       ERCB CURVE CODE    CURVE DESCRIPTION
#-----------   ------------------   ----------------------------------
DEPT.M        00 001 00 00         : DEPTH        - DEPTH
DPHI.V/V      00 890 00 00         : PHID         - DENSITY POROSITY (LIMESTONE)
NPHI.V/V      00 330 00 00         : PHIN         - NEUTRON POROSITY (LIMESTONE)
GR  .API      00 310 00 00         : GR           - GAMMA RAY
ILD .OHMM     00 120 00 00         : RESD         - DEEP RESISTIVITY (DIL)
RHOB.KG/M3    00 350 00 00         : DENS         - BULK DENSITY
~PARAMETER INFORMATION
#MNEM.UNIT           DATA             DESCRIPTION OF MNEMONIC
#---------         -----------     ------------------------------
GL  .M        525.3                : gl           - GROUND LEVEL ELEVATION
EREF.M        528.7                : kb           - ELEVATION OF DEPTH REFERENCE
DATM.M        528.7                : datum        - DATUM ELEVATION
TDD .M        365                  : tdd          - TOTAL DEPTH DRILLER
RUN .         ONE                  : Run          - RUN NUMBER
ENG .         BILL                 : Engineer     - RECORDING ENGINEER
WIT .         JIM                  : Witness      - WITNESSED BY
MUD .         GEL                  : Mud_type     - MUD TYPE
MATR.         LIMESTONE            : Logunit      - NEUTRON MATRIX
TMAX.C        24                   : BHT          - MAXIMUM RECORDED TEMPERATURE
BHTD.M        365                  : BHTDEP       - MAXIMUM RECORDED TEMPERATURE
MATR.         1                    : LOGUNIT      - NEUTRON MATRIX
RMT .C        25                   : MDTP         - TEMPERATURE OF MUD
NEUT.         1                    : NEUTRON      - NEUTRON TYPE
RESI.         0                    : RESIST       - RESISTIVITY TYPE
RMC .OHMM     0.25                 : RMC          - RESISTIVITY OF MUD CAKE
RMF .OHMM     0.25                 : RMF          - RESISTIVITY OF MUD FILTRATE
SUFT.C        15                   : SUFT         - SURFACE TEMPERATURE
~A  DEPTH     PHID     PHIN       GR     RESD     DENS
# ...
  156.500    0.334    0.372   60.053   19.885    0.000
  156.750    0.313    0.380   66.175   19.522    0.000
  157.000    0.296    0.359   71.690   18.812    0.000
  157.250    0.303    0.329   68.672   18.469    0.000
  157.500    0.313    0.317   61.385   18.817    0.000
  157.750    0.309    0.317   55.917   19.532    0.000
  158.000    0.290    0.307   54.116   19.533    0.000
  158.250    0.285    0.313   61.460   19.536    0.000
  158.500    0.302    0.327   65.145   18.480    0.000
  158.750    0.292    0.324   66.392   17.159    0.000
  159.000    0.262    0.313   74.958   16.232    0.000
  159.250    0.256    0.327   77.421   16.538    0.000
  159.500    0.280    0.311   72.575   16.851    0.000
  159.750    0.267    0.315   63.456   17.490    0.000
  160.000    0.271    0.328   61.648   18.154    0.000
  160.250    0.286    0.329   64.724   18.496    0.000
  160.500    0.308    0.342   64.145   18.499    0.000
  160.750    0.300    0.369   63.559   18.161    0.000
  161.000    0.286    0.371   56.273   17.829    0.000
  161.250    0.294    0.361   58.740   17.832    0.000
  161.500    0.316    0.356   61.203   18.169    0.000
  161.750    0.316    0.352   57.569   18.170    0.000
  162.000    0.298    0.340   54.550   18.861    0.000
  162.250    0.278    0.335   55.803   19.216    0.000
  162.500    0.274    0.333   53.991   19.579    0.000
  162.750    0.270    0.336   52.196   19.581    0.000
  163.000    0.262    0.329   55.267   19.951    0.000
  163.250    0.272    0.318   61.390   19.955    0.000
  163.500    0.263    0.318   55.932   20.330    0.000
  163.750    0.260    0.337   59.619   20.715    0.000
  164.000    0.294    0.331   64.520   20.717    0.000
  164.250    0.298    0.333   63.329   20.721    0.000
  164.500    0.293    0.343   56.649   20.722    0.000
  164.750    0.296    0.339   59.723   20.726    0.000
  165.000    0.285    0.336   66.460   20.727    0.000
  165.250    0.285    0.351   65.877   20.349    0.000
  165.500    0.302    0.349   64.077   20.351    0.000
  165.750    0.298    0.343   64.709   20.354    0.000
  166.000    0.276    0.348   67.787   19.982    0.000
  166.250    0.298    0.357   62.941   19.984    0.000
  166.500    0.316    0.354   58.084   20.363    0.000
  166.750    0.322    0.334   55.066   20.364    0.000
  167.000    0.315    0.327   58.137   20.366    0.000
  167.250    0.310    0.332   62.435   19.996    0.000
  167.500    0.333    0.344   62.467   19.629    0.000
  167.750    0.419    0.420   60.051   19.270    0.000
  168.000    0.467    0.441   56.424   19.274    0.000
  168.250    0.461    0.417   56.446   19.638    0.000
  168.500    0.307    0.376   61.960   19.639    0.000
  168.750    0.282    0.373   63.212   20.010    0.000
  169.000    0.288    0.364   57.744   20.013    0.000
  169.250    0.346    0.360   48.015   19.648    0.000
  169.500    0.380    0.361   51.091   19.650    0.000
  169.750    0.326    0.359   57.218   19.652    0.000
  170.000    0.292    0.361   63.344   19.655    0.000
  170.250    0.298    0.361   64.587   20.025    0.000
  170.500    0.325    0.332   53.031   20.028    0.000
  170.750    0.318    0.320   50.008   18.946    0.000
  171.000    0.322    0.328   56.133   18.257    0.000
  171.250    0.259    0.349   64.698   17.593    0.000
  171.500    0.257    0.356   62.285   16.955    0.000
  171.750    0.331    0.357   61.094   16.956    0.000
  172.000    0.173    0.339   61.121   16.959    0.000
  172.250    0.137    0.318   67.245   17.279    0.000
  172.500    0.215    0.341   67.879   17.281    0.000
  172.750    0.346    0.360   48.394   16.965    0.000
  173.000    0.322    0.355   41.105   16.656    0.000
  173.250    0.277    0.349   64.305   16.050    0.000
  173.500    0.254    0.344   67.987   15.467    0.000
  173.750    0.260    0.369   65.575   14.631    0.000
  174.000    0.333    0.381   64.385   14.099    0.000
  174.250    0.260    0.359   69.288   13.587    0.000
  174.500    0.231    0.339   75.417   13.338    0.000
  174.750    0.223    0.345   81.540   13.095    0.000
  175.000    0.233    0.349   84.006   12.619    0.000
  175.250    0.249    0.347   82.204   11.718    0.000
  175.500    0.244    0.336   93.207   11.503    0.000
  175.750    0.218    0.363  102.990   11.293    0.000
  176.000    0.205    0.384  114.601   11.295    0.000
  176.250    0.206    0.392  120.730   11.088    0.000
  176.500    0.199    0.381  121.975   10.685    0.000
  176.750    0.188    0.365  121.396   10.297    0.000
  177.000    0.180    0.350  114.710   10.298    0.000
  177.250    0.245    0.337  107.420   10.492    0.000
  177.500    0.252    0.362  105.617   10.891    0.000
  177.750    0.255    0.390   98.328   11.732    0.000
  178.000    0.263    0.390   95.304   12.178    0.000
  178.250    0.275    0.361  100.823   12.180    0.000
  178.500    0.277    0.352   97.805   12.181    0.000
  178.750    0.328    0.375   93.558   12.183    0.000
  179.000    0.250    0.404   97.852   11.960    0.000
  179.250    0.203    0.368  105.809   11.742    0.000
  179.500    0.239    0.362  114.369   11.527    0.000
  179.750    0.257    0.384  114.397   11.529    0.000
  180.000    0.257    0.403  108.326   11.746    0.000
  180.250    0.221    0.376  112.014   11.747    0.000
  180.500    0.200    0.341  115.089   11.969    0.000
  180.750    0.181    0.347   99.873   12.195    0.000
  181.000    0.154    0.366   93.799   12.197    0.000
  181.250    0.230    0.354   91.394   12.198    0.000
  181.500    0.284    0.358   89.585   12.429    0.000
  181.750    0.278    0.348   87.786   12.431    0.000
  182.000    0.273    0.356   89.033   12.432    0.000
  182.250    0.271    0.349   89.060   12.205    0.000
  182.500    0.300    0.347   84.207   11.982    0.000
  182.750    0.297    0.361   92.773   11.763    0.000
  183.000    0.293    0.366   96.455   11.764    0.000
  183.250    0.294    0.351  102.584   11.550    0.000
  183.500    0.291    0.334   99.561   11.550    0.000
  183.750    0.280    0.337   88.611   11.553    0.000
  184.000    0.275    0.345   84.983   11.554    0.000
  184.250    0.278    0.368   78.302   11.555    0.000
  184.500    0.299    0.357   80.769   11.773    0.000
  184.750    0.325    0.356   88.111   11.775    0.000
  185.000    0.294    0.364   87.528   11.997    0.000
  185.250    0.272    0.359   79.628   12.223    0.000
  185.500    0.249    0.359   89.411   12.225    0.000
  185.750    0.226    0.360   96.148   12.226    0.000
  186.000    0.217    0.363   88.246   12.228    0.000
  186.250    0.200    0.363   88.273   12.459    0.000
  186.500    0.184    0.353   91.350   12.694    0.000
  186.750    0.186    0.390   95.037   12.933    0.000
  187.000    0.205    0.369   94.450   13.677    0.000
  187.250    0.042    0.347   82.284   14.195    0.000
  187.500    0.016    0.332   74.388   14.735    0.000
  187.750    0.061    0.341   70.139   15.294    0.000
  188.000    0.144    0.381   80.537   15.583    0.000
  188.250    0.213    0.355   67.148   15.585    0.000
  188.500    0.239    0.355   61.079   15.300    0.000
  188.750    0.246    0.362   69.031   14.744    0.000
  189.000    0.220    0.361   74.546   13.947    0.000
  189.250    0.207    0.358   79.449   12.950    0.000
  189.500    0.207    0.369   88.016   12.250    0.000
  189.750    0.218    0.375   83.774   11.588    0.000
  190.000    0.248    0.358   80.756   11.589    0.000
  190.250    0.248    0.344   78.947   11.591    0.000
  190.500    0.235    0.348   80.805   11.592    0.000
  190.750    0.215    0.336   83.270   11.594    0.000
  191.000    0.207    0.339   80.252   11.595    0.000
  191.250    0.209    0.350   79.668   11.383    0.000
  191.500    0.206    0.339   88.844   10.970    0.000
  191.750    0.208    0.365   87.039   10.571    0.000
  192.000    0.215    0.371   86.458   10.000    0.000
  192.250    0.212    0.361   90.141   10.001    0.000
  192.500    0.215    0.387   92.000    9.819    0.000
  192.750    0.215    0.398   95.073    9.819    0.000
