~VERSION INFORMATION
 VERS.                 2.0:   CWLS LOG ASCII STANDARD -VERSION 2.0
 WRAP.                  NO:   ONE LINE PER DEPTH STEP
~WELL INFORMATION BLOCK
#MNEM.UNIT           DATA                    DESCRIPTION OF MNEMONIC
#---------    -------------------            -------------------------------
# Generated from Intellog Unique Number	CX_WELLS/WELL/3688
WELL.         HANGINGSTONE 11A-1             : Well_name    - WELL
LOC .         00/11-01-085-11W4/0            : Location     - LOCATION
UWI .         00/11-01-085-11W400            : Uwi          - UNIQUE WELL ID
ENTR.         T                              : Entered      - ENTERED BY
SRVC.         SCHLUMBERGER                   : Scn          - SERVICE COMPANY
STRT.M        100                            : top_depth    - START DEPTH
STOP.M        310                            : bot_depth    - STOP DEPTH
STEP.M        0.25                           : increment    - STEP LENGTH
 NULL. -999.2500:NULL Value
~CURVE INFORMATION BLOCK
#MNEM UNIT       ERCB CURVE CODE    CURVE DESCRIPTION
#-----------   ------------------   ----------------------------------
DEPT.M        00 001 00 00         : DEPTH        - DEPTH
GR  .API      00 310 00 00         : GR           - GAMMA RAY
NPHI.V/V      00 330 00 00         : PHIN         - NEUTRON POROSITY (SANDSTONE)
DPHI.V/V      00 890 00 00         : PHID         - DENSITY POROSITY (SANDSTONE)
ILD .OHMM     00 120 00 00         : RESD         - DEEP RESISTIVITY (OTHER)
~PARAMETER INFORMATION
#MNEM.UNIT           DATA             DESCRIPTION OF MNEMONIC
#---------         -----------     ------------------------------
GL  .M        554                  : gl           - GROUND LEVEL ELEVATION
EREF.M        556.6                : kb           - ELEVATION OF DEPTH REFERENCE
DATM.M        556.6                : datum        - DATUM ELEVATION
TDD .M        320                  : tdd          - TOTAL DEPTH DRILLER
RUN .         ONE                  : Run          - RUN NUMBER
ENG .         BILL                 : Engineer     - RECORDING ENGINEER
WIT .         JIM                  : Witness      - WITNESSED BY
MUD .         GEL                  : Mud_type     - MUD TYPE
MATR.         SANDSTONE            : Logunit      - NEUTRON MATRIX
TMAX.C        27                   : BHT          - MAXIMUM RECORDED TEMPERATURE
BHTD.M        320                  : BHTDEP       - MAXIMUM RECORDED TEMPERATURE
MATR.         1                    : LOGUNIT      - NEUTRON MATRIX
RMT .C        25                   : MDTP         - TEMPERATURE OF MUD
NEUT.         1                    : NEUTRON      - NEUTRON TYPE
RESI.         4.24                 : RESIST       - RESISTIVITY TYPE
RMC .OHMM     3.22                 : RMC          - RESISTIVITY OF MUD CAKE
RMF .OHMM     4.54                 : RMF          - RESISTIVITY OF MUD FILTRATE
SUFT.C        4                    : SUFT         - SURFACE TEMPERATURE
~A  DEPTH       GR     PHIN     PHID     RESD
  100.000   99.837    0.397    0.302   14.427
  100.250  101.162    0.397    0.304   13.898
  100.500   99.304    0.403    0.300   13.921
  100.750   93.038    0.418    0.299   13.944
  101.000   87.391    0.414    0.294   14.225
  101.250   84.283    0.418    0.285   14.527
  101.500   89.385    0.427    0.291   14.829
  101.750   99.564    0.431    0.300   14.560
  102.000   98.350    0.430    0.310   12.494
  102.250   98.412    0.436    0.323   11.354
  102.500  101.607    0.446    0.337    9.739
  102.750  106.065    0.451    0.342    9.026
  103.000  128.863    0.451    0.339    8.695
  103.250  137.123    0.443    0.326   14.118
  103.500  115.068    0.434    0.328   20.816
  103.750   85.422    0.417    0.327   24.813
  104.000   75.985    0.398    0.321   25.825
  104.250   72.245    0.401    0.327   26.364
  104.500   68.505    0.405    0.336   26.398
  104.750   66.660    0.409    0.342   24.005
  105.000   73.657    0.405    0.341   22.233
  105.250   82.573    0.404    0.335   19.450
  105.500   86.412    0.402    0.328   18.020
  105.750   88.344    0.402    0.322   15.760
  106.000   89.656    0.403    0.309   14.896
  106.250   90.969    0.405    0.292   14.354
  106.500   93.545    0.404    0.274   14.369
  106.750  106.238    0.403    0.262   14.107
  107.000  105.037    0.403    0.246   13.855
  107.250  105.718    0.408    0.239   13.873
  107.500  103.241    0.411    0.256   14.163
  107.750  101.384    0.414    0.271   14.745
  108.000  100.170    0.419    0.272   15.646
  108.250  102.114    0.420    0.276   16.921
  108.500   96.480    0.412    0.286   17.954
  108.750   87.687    0.406    0.295   19.058
  109.000   75.093    0.413    0.305   19.828
  109.250   70.090    0.428    0.315   21.451
  109.500   66.994    0.428    0.332   25.578
  109.750   71.452    0.423    0.343   23.713
  110.000   77.186    0.423    0.343   22.828
  110.250   81.656    0.424    0.343   22.435
  110.500   87.415    0.424    0.342   23.343
  110.750   89.346    0.422    0.337   23.829
  111.000   95.080    0.425    0.328   24.334
  111.250   98.919    0.428    0.319   23.426
  111.500   93.916    0.428    0.313   22.142
  111.750   90.176    0.427    0.308   20.922
  112.000   88.962    0.424    0.305   20.949
  112.250   95.327    0.421    0.304   20.983
  112.500  100.442    0.418    0.304   21.407
  112.750  100.491    0.419    0.307   22.715
  113.000   99.278    0.449    0.321   24.573
  113.250   96.169    0.449    0.328   25.576
  113.500   92.417    0.445    0.329   27.147
  113.750   86.151    0.440    0.328   28.255
  114.000   83.043    0.435    0.329   28.301
  114.250   87.513    0.437    0.336   27.786
  114.500   90.733    0.442    0.344   27.813
  114.750   84.454    0.447    0.351   26.802
  115.000   81.990    0.447    0.347   26.314
  115.250   85.829    0.447    0.341   25.366
  115.500   90.918    0.455    0.328   24.896
  115.750   95.414    0.416    0.322   24.451
  116.000   94.200    0.415    0.319   24.483
  116.250   94.869    0.416    0.316   23.142
  116.500   96.194    0.415    0.307   22.285
  116.750   98.150    0.417    0.297   20.667
  117.000   98.807    0.431    0.289   20.291
  117.250   99.488    0.432    0.294   19.554
  117.500  101.444    0.427    0.301   18.470
  117.750  103.388    0.421    0.306   17.118
  118.000  105.333    0.414    0.307   15.864
  118.250  106.645    0.409    0.301   14.426
  118.500  108.589    0.410    0.296   13.622
  118.750  111.822    0.419    0.291   12.387
  119.000  113.741    0.426    0.271   11.700
  119.250  118.224    0.431    0.214   10.640
  119.500  121.419    0.426    0.228   10.246
  119.750  125.889    0.418    0.217    9.317
  120.000  126.570    0.446    0.211    8.801
  120.250  124.725    0.470    0.222    8.000
  120.500  126.669    0.478    0.238    7.136
  120.750  129.889    0.486    0.232    6.486
  121.000  133.096    0.478    0.217    6.127
  121.250  136.935    0.457    0.224    5.360
  121.500  141.418    0.451    0.244    5.065
  121.750  138.310    0.456    0.256    5.170
  122.000  133.938    0.460    0.270    6.041
  122.250  130.198    0.455    0.301   10.198
  122.500  125.183    0.446    0.313   12.879
  122.750  121.431    0.433    0.318   15.951
  123.000  117.691    0.416    0.324   19.008
  123.250  115.214    0.414    0.335   20.971
  123.500  124.749    0.411    0.343   22.260
  123.750  130.495    0.410    0.343   22.274
  124.000  126.112    0.414    0.335   22.739
  124.250  115.412    0.416    0.323   22.769
  124.500  108.514    0.418    0.309   23.259
  124.750  100.354    0.414    0.294   23.289
  125.000  101.666    0.412    0.296   23.775
  125.250  106.137    0.412    0.326   24.263
  125.500  103.660    0.411    0.330   25.260
  125.750  101.815    0.412    0.339   25.787
  126.000   99.969    0.413    0.332   26.334
  126.250   98.756    0.412    0.322   24.874
  126.500   97.542    0.407    0.312   23.045
  126.750   99.486    0.403    0.297   16.293
  127.000  102.694    0.399    0.282   15.395
  127.250  107.808    0.398    0.261   14.268
  127.500  113.542    0.403    0.250   12.970
  127.750  120.538    0.417    0.243   14.585
  128.000  118.062    0.420    0.268   21.505
  128.250  108.638    0.417    0.294   22.382
  128.500  101.108    0.416    0.300   23.750
  128.750   94.830    0.416    0.306   24.710
  129.000   92.365    0.417    0.312   24.284
  129.250   96.848    0.418    0.320   23.378
  129.500  100.675    0.419    0.325   22.090
  129.750  107.672    0.420    0.321   21.695
  130.000  113.405    0.419    0.309   21.314
  130.250  111.560    0.416    0.303   20.934
  130.500  104.662    0.409    0.298   20.166
  130.750   99.028    0.396    0.292   19.799
  131.000   95.300    0.389    0.283   18.350
  131.250   97.232    0.382    0.279   17.006
  131.500  100.439    0.383    0.279   15.464
  131.750  103.647    0.391    0.275   14.612
  132.000  107.498    0.409    0.273   13.542
  132.250  107.535    0.412    0.270   14.941
  132.500  104.427    0.408    0.270   16.158
  132.750  100.055    0.404    0.267   17.474
  133.000   96.315    0.403    0.271   18.904
  133.250   90.049    0.407    0.282   20.458
  133.500   84.415    0.411    0.299   20.884
  133.750   78.161    0.408    0.252   22.175
  134.000   77.579    0.407    0.192   22.622
  134.250   77.628    0.407    0.212   23.545
  134.500   75.139    0.407    0.278   24.044
  134.750   73.926    0.405    0.310   23.614
  135.000   75.251    0.403    0.322   21.878
  135.250   77.814    0.403    0.317   19.507
  135.500   83.548    0.409    0.313   17.060
  135.750   88.018    0.420    0.311   14.079
  136.000   93.120    0.426    0.308   12.558
  136.250   96.971    0.422    0.303   13.590
  136.500   95.126    0.411    0.300   13.864
  136.750   91.374    0.412    0.294   14.434
  137.000   85.739    0.419    0.285   14.176
  137.250   92.761    0.429    0.274   13.918
  137.500   95.337    0.424    0.261   13.670
  137.750   94.123    0.412    0.235   13.168
  138.000   92.265    0.400    0.168   12.933
  138.250   87.894    0.395    0.182   12.702
  138.500   89.838    0.408    0.227   12.240
  138.750   97.466    0.414    0.257   11.791
  139.000  105.095    0.410    0.273   11.138
  139.250  110.197    0.410    0.266   10.524
  139.500  115.943    0.412    0.256    9.753
  139.750  121.689    0.421    0.248    9.216
  140.000  123.633    0.427    0.242    8.544
  140.250  124.314    0.429    0.234    8.388
  140.500  124.982    0.418    0.229    8.086
  140.750  126.295    0.411    0.220    7.936
  141.000  126.976    0.409    0.210    7.947
  141.250  127.657    0.406    0.265    8.765
  141.500  123.286    0.406    0.287   10.051
  141.750  116.388    0.406    0.271   10.870
  142.000  116.438    0.402    0.256   11.542
  142.250  118.382    0.400    0.254   11.553
  142.500  119.694    0.408    0.255   11.565
  142.750  120.375    0.419    0.257   11.583
  143.000  119.793    0.415    0.259   11.821
  143.250  117.329    0.409    0.259   11.840
