~VERSION INFORMATION
 VERS.                 2.0:   CWLS LOG ASCII STANDARD -VERSION 2.0
 WRAP.                  NO:   ONE LINE PER DEPTH STEP
~WELL INFORMATION BLOCK
#MNEM.UNIT           DATA                    DESCRIPTION OF MNEMONIC
#---------    -------------------            -------------------------------
# Generated from Intellog Unique Number	CW_79_81/WELL/2471
WELL.         GULF AMOCO HOOLE               : Well_name    - WELL
LOC .         00/10-21-081-24W4/0            : Location     - LOCATION
UWI .         00/10-21-081-24W4/0            : Uwi          - UNIQUE WELL ID
ENTR.         MAX                            : Entered      - ENTERED BY
SRVC.         COMPUTALOG                     : Scn          - SERVICE COMPANY
STRT.M        245                            : top_depth    - START DEPTH
STOP.M        482                            : bot_depth    - STOP DEPTH
STEP.M        0.25                           : increment    - STEP LENGTH
 NULL. -999.2500:NULL Value
~CURVE INFORMATION BLOCK
#MNEM UNIT       ERCB CURVE CODE    CURVE DESCRIPTION
#-----------   ------------------   ----------------------------------
DEPT.M        00 001 00 00         : DEPTH        - DEPTH
ILD .OHMM     00 120 00 00         : RESD         - DEEP RESISTIVITY (DIL)
NPHI.V/V      00 330 00 00         : PHIN         - NEUTRON POROSITY (SANDSTONE)
DPHI.V/V      00 890 00 00         : PHID         - DENSITY POROSITY (SANDSTONE)
GR  .API      00 310 00 00         : GR           - GAMMA RAY
CALI.MM       00 280 01 00         : CAL          - CALIPER
~PARAMETER INFORMATION
#MNEM.UNIT           DATA             DESCRIPTION OF MNEMONIC
#---------         -----------     ------------------------------
GL  .M        596.1                : gl           - GROUND LEVEL ELEVATION
EREF.M        600.35               : kb           - ELEVATION OF DEPTH REFERENCE
DATM.M        596.1                : datum        - DATUM ELEVATION
TDD .M        502                  : tdd          - TOTAL DEPTH DRILLER
RUN .         ONE                  : Run          - RUN NUMBER
ENG .         BILL                 : Engineer     - RECORDING ENGINEER
WIT .         JIM                  : Witness      - WITNESSED BY
MUD .         GEL                  : Mud_type     - MUD TYPE
MATR.         SANDSTONE            : Logunit      - NEUTRON MATRIX
TMAX.C        16                   : BHT          - MAXIMUM RECORDED TEMPERATURE
BHTD.M        502                  : BHTDEP       - MAXIMUM RECORDED TEMPERATURE
MATR.         1                    : LOGUNIT      - NEUTRON MATRIX
RMT .C        14                   : MDTP         - TEMPERATURE OF MUD
NEUT.         1                    : NEUTRON      - NEUTRON TYPE
RESI.         0                    : RESIST       - RESISTIVITY TYPE
RMC .OHMM     4.2                  : RMC          - RESISTIVITY OF MUD CAKE
RMF .OHMM     5.2                  : RMF          - RESISTIVITY OF MUD FILTRATE
SUFT.C        -15                  : SUFT         - SURFACE TEMPERATURE
~A  DEPTH     RESD     PHIN     PHID       GR      CAL
  245.000    3.022    0.496    0.292   82.990  243.842
  245.250    3.283    0.482    0.338   77.002  236.359
  245.500    3.676    0.451    0.409   64.304  230.375
  245.750    4.316    0.415    0.449   52.203  227.386
  246.000    5.499    0.373    0.431   43.938  227.293
  246.250    8.991    0.307    0.337   37.573  226.318
  246.500   11.264    0.298    0.192   38.076  223.413
  246.750   13.557    0.326    0.230   40.957  222.622
  247.000   17.173    0.350    0.263   42.759  222.729
  247.250   21.682    0.367    0.292   43.242  222.936
  247.500   25.574    0.379    0.311   42.887  223.143
  247.750   27.489    0.385    0.314   43.341  223.866
  248.000   28.340    0.395    0.316   45.593  223.458
  248.250   29.177    0.393    0.323   45.117  223.065
  248.500   30.527    0.396    0.330   43.743  222.673
  248.750   31.902    0.394    0.334   43.148  222.281
  249.000   32.914    0.391    0.337   43.572  221.888
  249.250   33.548    0.397    0.333   43.767  221.414
  249.500   34.322    0.396    0.326   43.521  221.005
  249.750   34.824    0.382    0.327   43.286  221.811
  250.000   34.950    0.369    0.331   42.511  222.617
  250.250   34.692    0.365    0.335   42.036  223.024
  250.500   34.059    0.373    0.338   42.161  223.030
  250.750   33.128    0.386    0.339   42.696  222.873
  251.000   33.379    0.391    0.339   42.950  222.048
  251.250   34.865    0.385    0.337   44.871  221.656
  251.500   36.813    0.370    0.333   46.613  221.564
  251.750   38.755    0.361    0.330   45.179  221.770
  252.000   40.495    0.365    0.328   41.289  222.276
  252.250   42.445    0.384    0.325   39.277  222.918
  252.500   43.094    0.393    0.324   38.781  222.092
  252.750   43.092    0.394    0.325   39.745  221.301
  253.000   43.325    0.395    0.328   41.606  220.809
  253.250   44.430    0.398    0.331   43.648  220.417
  253.500   46.505    0.405    0.331   45.090  220.223
  253.750   49.107    0.413    0.331   44.845  220.464
  254.000   49.858    0.418    0.330   43.602  219.639
  254.250   50.588    0.412    0.335   42.647  219.646
  254.500   50.771    0.403    0.334   43.850  219.354
  254.750   50.396    0.400    0.332   45.053  218.962
  255.000   49.936    0.401    0.332   44.997  218.470
  255.250   50.374    0.396    0.328   43.124  217.762
  255.500   50.756    0.396    0.320   42.130  218.186
  255.750   50.752    0.397    0.296   41.654  218.992
  256.000   50.748    0.398    0.307   41.898  220.097
  256.250   50.373    0.399    0.322   42.981  220.903
  256.500   49.267    0.401    0.327   44.843  221.209
  256.750   46.032    0.404    0.320   48.643  221.218
  257.000   41.115    0.410    0.312   55.638  221.226
  257.250   36.512    0.414    0.336   61.156  221.233
  257.500   34.547    0.423    0.331   62.358  221.540
  257.750   33.679    0.430    0.302   59.126  221.747
  258.000   33.188    0.429    0.259   54.816  221.854
  258.250   32.603    0.413    0.238   56.958  223.759
  258.500   32.109    0.415    0.340   60.458  231.256
  258.750   31.873    0.433    0.461   66.694  240.452
  259.000   31.813    0.432    0.508   68.975  247.549
  259.250   32.504    0.434    0.530   62.748  254.347
  259.500   34.256    0.445    0.546   51.428  259.647
  259.750   38.791    0.451    0.544   45.500  256.676
  260.000   49.770    0.447    0.525   41.010  243.783
  260.250   56.641    0.433    0.466   37.419  230.607
  260.500   63.876    0.427    0.416   35.806  224.923
  260.750   67.895    0.424    0.365   35.571  223.333
  261.000   67.004    0.420    0.318   36.175  223.341
  261.250   63.184    0.411    0.301   37.538  223.348
  261.500   60.827    0.406    0.353   39.539  223.357
  261.750   59.500    0.403    0.408   39.064  223.363
  262.000   58.850    0.405    0.406   39.668  223.370
  262.250   59.060    0.413    0.390   40.272  223.577
  262.500   60.667    0.425    0.380   40.336  224.082
  262.750   65.780    0.432    0.372   39.911  224.891
  263.000   71.021    0.429    0.358   40.165  224.897
  263.250   73.649    0.391    0.336   38.731  224.905
  263.500   72.707    0.305    0.257   36.218  224.612
  263.750   69.812    0.251    0.161   34.785  224.419
  264.000   65.950    0.256    0.097   35.808  225.325
  264.250   60.472    0.304    0.156   40.087  229.262
  264.500   56.489    0.361    0.307   41.090  230.934
  264.750   53.252    0.405    0.337   40.855  228.944
  265.000   51.923    0.425    0.363   41.878  227.254
  265.250   51.355    0.433    0.405   42.482  226.662
  265.500   51.801    0.435    0.453   41.767  227.267
  265.750   55.673    0.426    0.449   39.365  228.557
  266.000   59.646    0.406    0.407   38.120  228.980
  266.250   60.520    0.420    0.344   38.604  229.787
  266.500   60.074    0.435    0.331   39.447  230.593
  266.750   58.977    0.442    0.341   38.733  231.599
  267.000   57.367    0.435    0.358   36.641  233.104
  267.250   54.142    0.419    0.370   35.646  235.760
  267.500   50.576    0.435    0.365   36.649  237.016
  267.750   45.935    0.437    0.353   37.852  239.019
  268.000   43.434    0.433    0.360   37.796  240.423
  268.250   41.880    0.428    0.368   37.321  241.029
  268.500   40.900    0.425    0.369   37.026  239.839
  268.750   40.537    0.426    0.364   37.122  234.638
  269.000   40.227    0.423    0.369   36.377  232.564
  269.250   40.816    0.415    0.374   36.141  230.973
  269.500   41.188    0.414    0.375   37.343  229.382
  269.750   41.185    0.424    0.375   38.067  227.991
  270.000   40.501    0.439    0.374   38.310  226.901
  270.250   38.284    0.440    0.368   40.143  225.943
  270.500   36.032    0.427    0.371   40.896  225.119
  270.750   34.987    0.410    0.368   40.182  224.326
  271.000   33.786    0.380    0.356   41.265  224.133
  271.250   32.448    0.326    0.334   42.108  224.141
  271.500   30.997    0.255    0.268   41.393  224.048
  271.750   28.900    0.191    0.073   38.272  223.574
  272.000   26.396    0.154   -0.005   37.028  223.164
  272.250   23.974    0.133   -0.024   37.273  223.172
  272.500   19.706    0.149   -0.019   36.977  223.179
  272.750   15.480    0.197    0.034   37.101  223.186
  273.000   12.085    0.258    0.162   38.663  225.190
  273.250    9.417    0.312    0.411   42.992  233.354
  273.500    8.731    0.357    0.458   44.246  234.193
  273.750    8.415    0.408    0.488   44.729  229.007
  274.000    8.523    0.449    0.512   46.830  232.510
  274.250    8.962    0.469    0.526   49.351  234.914
  274.500    9.661    0.469    0.519   50.673  232.325
  274.750   10.806    0.454    0.463   47.912  226.575
  275.000   12.811    0.436    0.415   43.673  225.750
  275.250   14.995    0.401    0.344   41.039  225.757
  275.500   18.294    0.387    0.299   37.868  225.464
  275.750   21.420    0.378    0.288   35.356  225.271
  276.000   22.778    0.368    0.305   34.162  225.078
  276.250   22.913    0.364    0.332   34.457  224.288
  276.500   23.623    0.391    0.335   34.711  224.296
  276.750   23.621    0.392    0.330   35.194  223.903
  277.000   23.360    0.391    0.332   34.959  223.212
  277.250   22.592    0.388    0.333   34.244  222.820
  277.500   21.670    0.384    0.329   33.469  223.025
  277.750   21.156    0.371    0.322   33.435  223.999
  278.000   20.214    0.365    0.325   34.438  224.839
  278.250   18.636    0.377    0.332   35.161  224.048
  278.500   17.285    0.387    0.334   36.424  223.556
  278.750   16.741    0.389    0.335   38.106  223.363
  279.000   16.924    0.385    0.337   39.667  223.470
  279.250   17.246    0.376    0.340   39.353  224.045
  279.500   16.984    0.374    0.343   35.362  224.883
  279.750   16.130    0.376    0.344   35.127  226.489
  280.000   15.495    0.374    0.342   37.229  226.595
  280.250   15.105    0.371    0.339   39.870  226.202
  280.500   14.913    0.371    0.335   41.612  225.810
  280.750   14.870    0.382    0.332   41.178  225.337
  281.000   15.213    0.396    0.331   40.183  224.927
  281.250   15.776    0.397    0.330   38.030  224.935
