~VERSION INFORMATION
 VERS.                 2.0:   CWLS LOG ASCII STANDARD -VERSION 2.0
 WRAP.                  NO:   ONE LINE PER DEPTH STEP
~WELL INFORMATION BLOCK
#MNEM.UNIT           DATA                    DESCRIPTION OF MNEMONIC
#---------    -------------------            -------------------------------
# Generated from Intellog Unique Number	CW_73_75/WELL/1044
WELL.         PARAMOUNT ER AL RO 11-20       : Well_name    - WELL
LOC .         00/11-20-075-22W4/0            : Location     - LOCATION
UWI .         00/11-20-075-22W4/0            : Uwi          - UNIQUE WELL ID
ENTR.         JAYE                           : Entered      - ENTERED BY
SRVC.         WESTERN ATLAS                  : Scn          - SERVICE COMPANY
DATE.         22 FEB 77                      : Date         - LOG DATE
STRT.M        359.664                        : top_depth    - START DEPTH
STOP.M        612.664                        : bot_depth    - STOP DEPTH
STEP.M        0.25                           : increment    - STEP LENGTH
 NULL. -999.2500:NULL Value
~CURVE INFORMATION BLOCK
#MNEM UNIT       ERCB CURVE CODE    CURVE DESCRIPTION
#-----------   ------------------   ----------------------------------
DEPT.M        00 001 00 00         : DEPTH        - DEPTH
ILD .OHMM     00 120 00 00         : RESD         - DEEP RESISTIVITY (DIL)
NPHI.V/V      00 330 00 00         : PHIN         - NEUTRON POROSITY (SANDSTONE)
DPHI.V/V      00 890 00 00         : PHID         - DENSITY POROSITY (SANDSTONE)
GR  .API      00 310 00 00         : GR           - GAMMA RAY
CALI.MM       00 280 01 00         : CAL          - CALIPER
~PARAMETER INFORMATION
#MNEM.UNIT           DATA             DESCRIPTION OF MNEMONIC
#---------         -----------     ------------------------------
GL  .M        651.51               : gl           - GROUND LEVEL ELEVATION
EREF.M        654.558              : kb           - ELEVATION OF DEPTH REFERENCE
DATM.M        651.51               : datum        - DATUM ELEVATION
TDD .M        624.23               : tdd          - TOTAL DEPTH DRILLER
RUN .         ONE                  : Run          - RUN NUMBER
ENG .         KING                 : Engineer     - RECORDING ENGINEER
WIT .         COMMELLY             : Witness      - WITNESSED BY
BASE.         MEDICINE HAT         : Branch       - HOME BASE OF LOGGING UNIT
MUD .         GEL CHEM             : Mud_type     - MUD TYPE
MATR.         SANDSTONE            : Logunit      - NEUTRON MATRIX
TMAX.C        20.5556              : BHT          - MAXIMUM RECORDED TEMPERATURE
BHTD.M        624.84               : BHTDEP       - MAXIMUM RECORDED TEMPERATURE
RMT .C        15                   : MDTP         - TEMPERATURE OF MUD
MUDD.KG/M     1176                 : MWT          - MUD DENSITY
NEUT.         1                    : NEUTRON      - NEUTRON TYPE
RESI.         0                    : RESIST       - RESISTIVITY TYPE
RM  .OHMM     3.4                  : RM           - RESISTIVITY OF MUD
RMC .OHMM     0                    : RMC          - RESISTIVITY OF MUD CAKE
RMF .OHMM     2.4                  : RMF          - RESISTIVITY OF MUD FILTRATE
SUFT.C        -17.7778             : SUFT         - SURFACE TEMPERATURE
~A  DEPTH     RESD     PHIN     PHID       GR      CAL
# ...
  542.164    3.630    0.417    0.135  130.872  163.710
  542.414    4.608    0.394    0.127  121.018  164.012
  542.664    5.610    0.355    0.110  115.681  164.005
  542.914    6.061    0.353    0.082  115.162  163.889
  543.164    6.148    0.376    0.118  126.082  163.152
  543.414    6.006    0.416    0.150  130.982  162.310
  543.664    5.913    0.435    0.144  128.950  161.676
  543.914    6.072    0.376    0.142  128.141  161.560
  544.164    6.540    0.388    0.143  118.888  161.760
  544.414    7.356    0.401    0.139  105.138  162.169
  544.664    8.708    0.314    0.127   92.590  161.949
  544.914   10.505    0.247    0.118   80.031  161.106
  545.164   13.148    0.241    0.209   68.395  159.744
  545.414   14.085    0.264    0.258   66.975  158.588
  545.664   14.543    0.313    0.258   66.756  157.745
  545.914   15.020    0.302    0.260   65.025  157.528
  546.164   15.941    0.279    0.269   58.497  157.831
  546.414   17.139    0.300    0.269   56.175  158.030
  546.664   17.582    0.315    0.259   57.169  157.916
  546.914   17.692    0.332    0.260   59.044  157.803
  547.164   17.599    0.317    0.277   64.244  157.586
  547.414   17.247    0.278    0.277   62.824  157.367
  547.664   16.400    0.224    0.267   61.114  157.045
  547.914   15.446    0.228    0.266   56.968  157.139
  548.164   14.835    0.231    0.281   53.445  157.442
  548.414   14.076    0.231    0.280   52.325  157.746
  548.664   13.271    0.243    0.276   47.610  158.363
  548.914   12.358    0.246    0.269   51.298  159.082
  549.164   12.591    0.219    0.260   53.794  159.384
  549.414   13.244    0.216    0.250   54.767  159.168
  549.664   13.930    0.215    0.237   54.549  158.428
  549.914   13.627    0.164    0.221   52.838  157.585
  550.164   12.902    0.161    0.225   51.408  157.159
  550.414   12.128    0.184    0.251   55.406  157.150
  550.664   11.272    0.244    0.255   59.695  157.350
  550.914   10.604    0.276    0.253   62.502  157.549
  551.164    9.902    0.247    0.249   64.677  158.477
  551.414    9.719    0.230    0.248   68.676  159.197
  551.664    9.676    0.244    0.250   72.063  159.812
  551.914    9.592    0.232    0.252   76.062  159.908
  552.164    9.581    0.236    0.247   78.558  159.898
  552.414    9.625    0.319    0.239   75.925  159.888
  552.664    9.647    0.281    0.236   71.511  159.671
  552.914    9.648    0.282    0.237   69.780  159.453
  553.164    9.639    0.324    0.240   68.359  159.444
  553.414    9.579    0.321    0.238   69.644  159.538
  553.664    9.544    0.297    0.227   67.933  159.842
  553.914    9.491    0.301    0.225   68.305  160.042
  554.164    9.431    0.335    0.221   69.900  160.136
  554.414    9.388    0.327    0.214   73.598  160.022
  554.664    9.247    0.381    0.204   79.089  159.493
  554.914    8.846    0.326    0.191   84.289  158.649
  555.164    8.300    0.310    0.181   88.578  157.390
  555.414    7.695    0.290    0.194   94.680  156.026
  555.664    7.196    0.290    0.212   92.358  156.746
  555.914    6.821    0.316    0.207   93.041  158.613
  556.164    6.491    0.331    0.204   96.139  157.456
  556.414    6.375    0.339    0.202   93.807  159.948
  556.664    6.533    0.331    0.200   92.687  162.438
  556.914    6.871    0.313    0.193  100.291  162.324
  557.164    7.290    0.295    0.183  103.399  161.898
  557.414    7.887    0.287    0.170   99.855  161.785
  557.664    8.516    0.280    0.155  102.651  162.295
  557.914    9.009    0.268    0.138  107.251  163.017
  558.164    9.671    0.243    0.116  108.535  163.736
  558.414   10.292    0.220    0.109  103.799  164.352
  558.664   10.484    0.203    0.099   95.468  164.863
  558.914   10.286    0.090    0.055   94.648  165.271
  559.164    9.949    0.113    0.087   99.839  165.783
  559.414    9.581    0.163    0.138  116.768  166.503
  559.664    9.009    0.355    0.154  127.988  167.118
  559.914    8.398    0.404    0.140  125.967  167.630
  560.164    7.842    0.436    0.134  123.645  167.828
  560.414    7.636    0.418    0.137  121.023  168.131
  560.664    7.534    0.376    0.141  121.105  168.122
  560.914    7.525    0.345    0.139  126.896  168.114
  561.164    7.511    0.385    0.132  128.501  168.313
  561.414    7.533    0.396    0.134  128.874  168.408
  561.664    7.577    0.383    0.137  125.050  168.294
  561.914    7.654    0.348    0.136  126.043  167.346
  562.164    7.735    0.327    0.138  127.328  166.504
  562.414    7.884    0.312    0.142  127.099  166.182
  562.664    7.995    0.279    0.134  125.679  166.069
  562.914    8.089    0.292    0.123  123.958  166.163
  563.164    8.199    0.345    0.129  114.414  166.258
  563.414    8.261    0.359    0.135  115.398  166.248
  563.664    8.275    0.355    0.132  114.299  165.927
  563.914    8.230    0.329    0.119  111.967  165.397
  564.164    8.098    0.318    0.133  122.876  163.928
  564.414    7.883    0.321    0.149  121.456  162.356
  564.664    7.570    0.348    0.163  119.735  162.347
  564.914    7.170    0.365    0.174  120.138  162.755
  565.164    6.981    0.355    0.195  120.200  163.475
  565.414    7.634    0.371    0.218  117.878  164.611
  565.664    8.613    0.442    0.242  110.739  165.749
  565.914    9.696    0.442    0.262  104.210  166.468
  566.164   10.821    0.394    0.279   95.869  167.188
  566.414   15.524    0.358    0.275   93.547  167.908
  566.664   16.624    0.419    0.265  102.954  168.107
  566.914   14.487    0.405    0.265  103.648  168.619
  567.164   13.291    0.392    0.263  101.336  168.921
  567.414   11.835    0.404    0.256  104.403  169.433
  567.664    9.308    0.440    0.247  126.150  169.839
  567.914    8.064    0.462    0.233  136.458  170.456
  568.164    7.005    0.448    0.194  133.836  171.176
  568.414    6.409    0.434    0.176  137.234  171.167
  568.664    6.163    0.436    0.185  139.430  169.804
  568.914    6.167    0.448    0.217  135.295  166.356
  569.164    6.358    0.463    0.249  129.357  164.157
  569.414    6.615    0.478    0.294  108.686  163.837
  569.664    6.911    0.441    0.297   94.034  163.827
  569.914    7.151    0.339    0.298   81.175  163.921
  570.164    7.360    0.362    0.300   79.454  163.809
  570.414    7.469    0.373    0.313   71.714  163.487
  570.664    7.434    0.409    0.337   70.304  162.956
  570.914    7.082    0.448    0.363   63.776  162.530
  571.164    6.542    0.485    0.395   60.231  162.103
  571.414    5.988    0.484    0.385   61.546  162.095
  571.664    5.384    0.346    0.289   64.913  162.086
  571.914    4.902    0.339    0.277   70.725  161.868
  572.164    4.476    0.358    0.276   69.294  161.546
  572.414    4.133    0.381    0.281   64.579  161.328
  572.664    3.828    0.339    0.290   64.050  161.319
  572.914    3.582    0.339    0.301   66.536  161.517
  573.164    3.449    0.353    0.303   73.840  161.508
  573.414    3.479    0.376    0.296   79.641  161.811
  573.664    3.719    0.398    0.285   97.171  162.011
  573.914    4.121    0.422    0.262  108.682  162.210
  574.164    4.538    0.441    0.247  111.789  162.304
  574.414    4.998    0.457    0.267   97.718  162.087
  574.664    5.709    0.457    0.302   83.668  161.973
  574.914    5.762    0.328    0.318   75.927  161.859
  575.164    5.054    0.268    0.256   49.837  161.746
  575.414    4.392    0.192    0.256   40.604  161.737
  575.664    4.137    0.186    0.254   37.972  161.519
  575.914    3.906    0.203    0.250   38.675  161.197
  576.164    3.725    0.224    0.247   37.255  160.979
  576.414    3.583    0.245    0.244   38.239  160.969
  576.664    3.475    0.263    0.240   40.414  161.482
  576.914    3.391    0.288    0.243   43.822  162.098
  577.164    3.337    0.304    0.263   46.297  163.026
  577.414    3.318    0.302    0.267   48.794  163.850
  577.664    3.331    0.268    0.268   50.689  164.674
  577.914    3.344    0.257    0.267   51.372  165.185
  578.164    3.431    0.253    0.266   51.143  165.176
  578.414    3.589    0.265    0.265   50.024  165.167
