~VERSION INFORMATION
 VERS.                 2.0:   CWLS LOG ASCII STANDARD -VERSION 2.0
 WRAP.                  NO:   ONE LINE PER DEPTH STEP
~WELL INFORMATION BLOCK
#MNEM.UNIT           DATA                    DESCRIPTION OF MNEMONIC
#---------    -------------------            -------------------------------
# Generated from Intellog Unique Number	CW_79_81/WELL/901
WELL.         PARAMOUNT ET AL HORIZON        : Well_name    - WELL
LOC .         00/11-11-080-19W4/0            : Location     - LOCATION
UWI .         00/11-11-080-19W4/0            : Uwi          - UNIQUE WELL ID
ENTR.         MAX                            : Entered      - ENTERED BY
SRVC.         COMPUTALOG                     : Scn          - SERVICE COMPANY
STRT.M        185.928                        : top_depth    - START DEPTH
STOP.M        365.678                        : bot_depth    - STOP DEPTH
STEP.M        0.25                           : increment    - STEP LENGTH
 NULL. -999.2500:NULL Value
~CURVE INFORMATION BLOCK
#MNEM UNIT       ERCB CURVE CODE    CURVE DESCRIPTION
#-----------   ------------------   ----------------------------------
DEPT.M        00 001 00 00         : DEPTH        - DEPTH
ILD .OHMM     00 120 00 00         : RESD         - DEEP RESISTIVITY (DIL)
NPHI.V/V      00 330 00 00         : PHIN         - NEUTRON POROSITY (SANDSTONE)
DPHI.V/V      00 890 00 00         : PHID         - DENSITY POROSITY (SANDSTONE)
CALI.MM       00 280 01 00         : CAL          - CALIPER
GR  .API      00 310 00 00         : GR           - GAMMA RAY
~PARAMETER INFORMATION
#MNEM.UNIT           DATA             DESCRIPTION OF MNEMONIC
#---------         -----------     ------------------------------
GL  .M        563.88               : gl           - GROUND LEVEL ELEVATION
EREF.M        566.928              : kb           - ELEVATION OF DEPTH REFERENCE
DATM.M        563.88               : datum        - DATUM ELEVATION
TDD .M        366.674              : tdd          - TOTAL DEPTH DRILLER
RUN .         ONE                  : Run          - RUN NUMBER
ENG .         BILL                 : Engineer     - RECORDING ENGINEER
WIT .         JIM                  : Witness      - WITNESSED BY
MUD .         GEL                  : Mud_type     - MUD TYPE
MATR.         SANDSTONE            : Logunit      - NEUTRON MATRIX
TMAX.C        16.1111              : BHT          - MAXIMUM RECORDED TEMPERATURE
BHTD.M        366.674              : BHTDEP       - MAXIMUM RECORDED TEMPERATURE
RMT .C        20                   : MDTP         - TEMPERATURE OF MUD
MUDD.KG/M     9600                 : MWT          - MUD DENSITY
NEUT.         1                    : NEUTRON      - NEUTRON TYPE
RESI.         0                    : RESIST       - RESISTIVITY TYPE
RM  .OHMM     4.6                  : RM           - RESISTIVITY OF MUD
RMC .OHMM     0                    : RMC          - RESISTIVITY OF MUD CAKE
RMF .OHMM     3.9                  : RMF          - RESISTIVITY OF MUD FILTRATE
SUFT.C        -3.88889             : SUFT         - SURFACE TEMPERATURE
~A  DEPTH     RESD     PHIN     PHID      CAL       GR
# ...
  258.928   15.706    0.427    0.303  151.082   52.992
  259.178   15.749    0.428    0.304  150.594   53.608
  259.428   15.870    0.476    0.307  150.106   56.323
  259.678   15.755    0.494    0.310  150.127   58.441
  259.928   15.519    0.497    0.314  150.655   57.552
  260.178   15.323    0.487    0.319  152.203   59.970
  260.428   15.049    0.480    0.319  154.265   62.688
  260.678   14.774    0.471    0.310  155.301   64.504
  260.928   14.181    0.456    0.309  155.834   60.006
  261.178   14.026    0.463    0.310  155.852   57.614
  261.428   13.989    0.480    0.303  156.892   58.228
  261.678   13.992    0.491    0.298  154.371   60.947
  261.928   13.995    0.499    0.295  152.353   63.365
  262.178   14.077    0.510    0.298  150.848   60.972
  262.428   14.239    0.495    0.300  151.378   55.875
  262.678   14.440    0.468    0.300  152.417   54.687
  262.928   14.682    0.459    0.296  152.441   54.699
  263.178   14.764    0.454    0.296  152.462   53.508
  263.428   14.649    0.444    0.295  154.012   54.422
  263.678   14.413    0.452    0.295  154.545   56.538
  263.928   14.099    0.455    0.301  155.073   59.257
  264.178   13.903    0.470    0.310  155.091   62.277
  264.428   13.787    0.475    0.309  154.603   64.993
  264.678   13.710    0.473    0.302  154.630   67.410
  264.928   13.555    0.467    0.302  155.157   62.916
  265.178   13.359    0.452    0.298  155.178   62.028
  265.428   13.244    0.440    0.277  154.693   61.137
  265.678   13.167    0.430    0.272  154.205   58.745
  265.928   13.090    0.458    0.302  154.733   55.151
  266.178   12.895    0.477    0.294  153.227   56.065
  266.428   12.620    0.486    0.305  150.704   53.975
  266.678   12.226    0.476    0.307  150.216   51.883
  266.928   11.236    0.474    0.301  152.275   58.509
  267.178   10.405    0.471    0.285  154.839   66.635
  267.428    9.494    0.461    0.258  156.389   72.658
  267.678    8.822    0.471    0.248  156.408   75.677
  267.928    8.428    0.484    0.278  157.449   69.081
  268.178    8.312    0.483    0.292  158.488   69.391
  268.428    8.355    0.487    0.294  157.494   68.504
  268.678    8.636    0.501    0.267  155.477   66.113
  268.928    8.917    0.500    0.265  153.462   64.319
  269.178    9.198    0.485    0.287  152.468   61.927
  269.428    9.360    0.450    0.283  153.001   63.443
  269.678    9.085    0.448    0.264  152.004   72.772
  269.928    8.770    0.445    0.252  152.020   73.085
  270.178    8.456    0.446    0.247  152.044   67.988
  270.428    8.022    0.437    0.253  152.574   69.205
  270.678    7.866    0.475    0.251  154.634   71.623
  270.928    7.790    0.483    0.246  155.675   71.035
  271.178    7.674    0.469    0.236  156.712   69.846
  271.428    7.399    0.451    0.233  158.257   70.156
  271.678    7.402    0.437    0.230  160.314   73.779
  271.928    7.722    0.430    0.241  163.391   77.695
  272.178    8.441    0.427    0.257  165.960   75.004
  272.428    8.682    0.431    0.263  164.961   64.195
  272.678    8.963    0.447    0.259  159.383   60.901
  272.928    9.363    0.447    0.261  153.809   66.626
  273.178    9.486    0.440    0.271  153.321   67.240
  273.428    9.250    0.428    0.271  154.869   65.151
  273.678    8.657    0.429    0.258  154.890   64.261
  273.928    8.423    0.436    0.263  154.405   63.670
  274.178    8.307    0.466    0.292  153.915   63.984
  274.428    8.230    0.492    0.298  152.409   63.395
  274.678    8.272    0.499    0.297  151.415   61.609
  274.928    8.632    0.484    0.292  151.439   60.717
  275.178    8.596    0.476    0.272  151.460   60.729
  275.428    8.678    0.467    0.256  152.496   64.048
  275.678    8.642    0.451    0.234  153.026   71.875
  275.928    8.049    0.435    0.253  152.027   70.688
  276.178    8.053    0.466    0.257  152.048   68.593
  276.428    8.413    0.454    0.292  154.619   60.190
  276.678    9.250    0.440    0.318  155.147   56.596
  276.928   10.087    0.437    0.357  153.641   54.805
  277.178   11.083    0.486    0.379  153.153   54.819
  277.428   11.801    0.504    0.380  153.174   50.322
  277.678   12.400    0.509    0.365  154.216   47.329
  277.928   12.761    0.495    0.318  153.725   45.840
  278.178   13.081    0.480    0.169  152.225   41.646
  278.428   13.441    0.369    0.124  152.241   35.947
  278.678   13.841    0.286    0.095  153.792   32.954
  278.928   14.281    0.343    0.225  155.345   36.573
  279.178   13.808    0.447    0.297  155.361   46.806
  279.428   12.024    0.505    0.304  151.822   48.622
  279.678   10.041    0.479    0.306  150.314   54.645
  279.928    9.091    0.469    0.282  151.862   63.374
  280.178    8.617    0.478    0.273  156.463   66.694
  280.428    8.303    0.465    0.273  159.032   69.712
  280.678    8.147    0.450    0.267  161.086   72.430
  280.928    8.031    0.451    0.261  167.729   74.845
  281.178    7.955    0.436    0.256  167.750   70.650
  281.428    7.918    0.442    0.247  167.768   66.157
  281.678    7.921    0.451    0.251  168.301   68.572
  281.928    7.844    0.440    0.259  169.340   73.395
  282.178    7.688    0.440    0.259  169.873   77.915
  282.428    7.493    0.445    0.253  169.380   82.135
  282.678    7.417    0.466    0.251  163.803   75.836
  282.928    7.380    0.483    0.254  159.246   74.649
  283.178    7.384    0.515    0.255  159.773   73.458
  283.428    7.386    0.522    0.251  163.360   72.569
  283.678    7.429    0.486    0.248  167.455   73.483
  283.928    7.432    0.439    0.245  169.509   76.502
  284.178    7.395    0.430    0.245  170.548   81.623
  284.428    7.319    0.438    0.240  170.061   78.329
  284.678    7.283    0.434    0.232  167.540   75.939
  284.928    7.246    0.436    0.229  163.998   78.356
  285.178    7.249    0.444    0.234  159.945   81.072
  285.428    7.251    0.450    0.240  157.424   81.388
  285.678    7.175    0.453    0.236  155.921   82.604
  285.928    7.099    0.452    0.233  155.431   80.810
  286.178    7.023    0.453    0.230  154.946   75.713
  286.428    6.985    0.459    0.218  153.954   76.026
  286.678    7.068    0.465    0.201  154.479   77.844
  286.928    7.509    0.454    0.204  155.515   77.554
  287.178    7.948    0.449    0.222  156.051   74.263
  287.428    8.547    0.447    0.243  155.049   75.176
  287.678    9.662    0.442    0.270  153.037   77.292
  287.928   10.618    0.445    0.270  151.025   69.789
  288.178   11.654    0.452    0.264  149.519   71.007
  288.428   11.180    0.467    0.249  149.029   73.423
  288.678   10.866    0.477    0.245  149.561   71.032
  288.928   11.584    0.438    0.210  149.071   64.130
  289.178   13.294    0.049    0.069  149.604   50.317
  289.428   15.005    0.069    0.026  151.661   44.018
  289.678   17.590    0.254    0.067  154.735   40.126
  289.928   19.738    0.323    0.110  155.266   42.842
  290.178   18.152    0.357    0.217  155.287   49.465
  290.428   16.368    0.378    0.253  154.293   60.599
  290.678   14.703    0.422    0.255  152.278   67.525
  290.928   13.475    0.464    0.252  150.261   72.048
  291.178   11.929    0.487    0.243  148.755   68.753
  291.428   10.860    0.498    0.235  147.761   69.967
  291.678   10.624    0.472    0.233  147.782   74.789
  291.928   10.389    0.438    0.227  148.821   73.299
  292.178   10.194    0.450    0.219  150.366   75.415
  292.428    9.879    0.434    0.212  151.922   78.735
  292.678    9.684    0.438    0.219  153.974   75.442
  292.928    9.646    0.423    0.232  155.013   79.962
  293.178    9.649    0.416    0.235  155.543   80.277
  293.428    9.693    0.417    0.231  155.564   74.277
  293.678    9.736    0.431    0.232  155.585   70.085
  293.928    9.739    0.447    0.234  156.118   70.096
  294.178    9.741    0.462    0.234  156.648   71.010
  294.428    9.705    0.452    0.234  156.667   69.219
  294.678    9.668    0.435    0.226  157.200   72.537
  294.928    9.473    0.428    0.220  160.277   73.453
  295.178    9.277    0.431    0.225  161.822   69.857
