~VERSION INFORMATION
 VERS.                 2.0:   CWLS LOG ASCII STANDARD -VERSION 2.0
 WRAP.                  NO:   ONE LINE PER DEPTH STEP
~WELL INFORMATION BLOCK
#MNEM.UNIT           DATA                    DESCRIPTION OF MNEMONIC
#---------    -------------------            -------------------------------
# Generated from Intellog Unique Number	CS_73_76/WELL/3257
WELL.         CANADIAN WORLDWIDE ENERGY      : Well_name    - WELL
LOC .         00/11-07-076-03W4/0            : Location     - LOCATION
UWI .         00/11-07-076-03W4/0            : Uwi          - UNIQUE WELL ID
ENTR.         SP                             : Entered      - ENTERED BY
SRVC.         SCHLUMBERGER                   : Scn          - SERVICE COMPANY
STRT.M        225                            : top_depth    - START DEPTH
STOP.M        485                            : bot_depth    - STOP DEPTH
STEP.M        0.25                           : increment    - STEP LENGTH
 NULL. -999.2500:NULL Value
~CURVE INFORMATION BLOCK
#MNEM UNIT       ERCB CURVE CODE    CURVE DESCRIPTION
#-----------   ------------------   ----------------------------------
DEPT.M        00 001 00 00         : DEPTH        - DEPTH
DPHI.V/V      00 890 00 00         : PHID         - DENSITY POROSITY (LIMESTONE)
NPHI.V/V      00 330 00 00         : PHIN         - NEUTRON POROSITY (LIMESTONE)
GR  .API      00 310 00 00         : GR           - GAMMA RAY
ILD .OHMM     00 120 00 00         : RESD         - DEEP RESISTIVITY (DIL)
~PARAMETER INFORMATION
#MNEM.UNIT           DATA             DESCRIPTION OF MNEMONIC
#---------         -----------     ------------------------------
GL  .M        617.13               : gl           - GROUND LEVEL ELEVATION
EREF.M        620.23               : kb           - ELEVATION OF DEPTH REFERENCE
DATM.M        617.13               : datum        - DATUM ELEVATION
TDD .M        492                  : tdd          - TOTAL DEPTH DRILLER
RUN .         ONE                  : Run          - RUN NUMBER
ENG .         BILL                 : Engineer     - RECORDING ENGINEER
WIT .         JIM                  : Witness      - WITNESSED BY
MUD .         GEL                  : Mud_type     - MUD TYPE
MATR.         LIMESTONE            : Logunit      - NEUTRON MATRIX
TMAX.C        18                   : BHT          - MAXIMUM RECORDED TEMPERATURE
BHTD.M        492                  : BHTDEP       - MAXIMUM RECORDED TEMPERATURE
MATR.         1                    : LOGUNIT      - NEUTRON MATRIX
RMT .C        25                   : MDTP         - TEMPERATURE OF MUD
NEUT.         1                    : NEUTRON      - NEUTRON TYPE
RESI.         0                    : RESIST       - RESISTIVITY TYPE
RMC .OHMM     0.25                 : RMC          - RESISTIVITY OF MUD CAKE
RMF .OHMM     0.25                 : RMF          - RESISTIVITY OF MUD FILTRATE
SUFT.C        15                   : SUFT         - SURFACE TEMPERATURE
~A  DEPTH     PHID     PHIN       GR     RESD
# ...
  268.500    0.231    0.550  118.569    3.502
  268.750    0.243    0.537  117.359    3.567
  269.000    0.249    0.504  118.577    3.917
  269.250    0.240    0.484  114.331    4.382
  269.500    0.220    0.452  105.226    5.285
  269.750    0.217    0.446   87.618    6.140
  270.000    0.242    0.443   75.477    7.834
  270.250    0.268    0.414   66.979   12.288
  270.500    0.293    0.396   63.340   15.678
  270.750    0.295    0.397   62.129   17.541
  271.000    0.298    0.393   57.883   18.205
  271.250    0.311    0.394   56.065   17.861
  271.500    0.310    0.408   63.965   17.522
  271.750    0.289    0.411   69.434   17.189
  272.000    0.257    0.392   81.585   16.864
  272.250    0.260    0.399   82.803   17.178
  272.500    0.290    0.416   78.557   17.829
  272.750    0.317    0.430   76.740   18.856
  273.000    0.312    0.431   75.529   19.206
  273.250    0.301    0.432   78.570   19.562
  273.500    0.290    0.438   82.826   19.193
  273.750    0.293    0.430   85.258   18.479
  274.000    0.295    0.417   87.085   17.793
  274.250    0.290    0.404   86.483   17.455
  274.500    0.290    0.408   86.487   18.116
  274.750    0.287    0.421   86.490   19.160
  275.000    0.285    0.446   87.103   21.038
  275.250    0.296    0.445   85.285   22.670
  275.500    0.310    0.437   86.504   23.973
  275.750    0.317    0.420   88.329   24.418
  276.000    0.305    0.403   85.298   24.874
  276.250    0.307    0.392   76.799   24.867
  276.500    0.322    0.383   64.658   24.394
  276.750    0.320    0.378   65.877   23.488
  277.000    0.293    0.378   86.529   23.478
  277.250    0.254    0.387   57.990   24.832
  277.500    0.258    0.403   43.420   28.845
  277.750    0.298    0.389   37.958   34.788
  278.000    0.333    0.373   34.319   39.657
  278.250    0.326    0.346   36.146   41.162
  278.500    0.322    0.346   41.009   41.150
  278.750    0.328    0.355   42.228   39.620
  279.000    0.334    0.373   41.624   37.433
  279.250    0.330    0.384   41.628   36.043
  279.500    0.328    0.382   44.670   34.055
  279.750    0.326    0.388   47.103   32.792
  280.000    0.318    0.361   52.573   31.575
  280.250    0.308    0.345   59.258   31.561
  280.500    0.304    0.363   62.298   32.149
  280.750    0.312    0.390   64.731   34.641
  281.000    0.279    0.383   59.271   36.633
  281.250    0.229    0.367   57.453   37.318
  281.500    0.238    0.365   62.316   38.013
  281.750    0.291    0.359   65.356   37.293
  282.000    0.315    0.354   67.790   36.586
  282.250    0.306    0.390   64.150   35.889
  282.500    0.311    0.398   59.297   35.880
  282.750    0.319    0.391   55.657   35.201
  283.000    0.330    0.383   53.839   34.536
  283.250    0.319    0.379   56.881   33.251
  283.500    0.328    0.396   61.745   32.620
  283.750    0.343    0.398   63.570   32.000
  284.000    0.356    0.407   65.397   31.398
  284.250    0.355    0.424   66.615   30.802
  284.500    0.346    0.429   69.049   29.106
  284.750    0.335    0.417   70.874   28.025
  285.000    0.324    0.393   75.130   25.989
  285.250    0.314    0.393   78.170   23.650
  285.500    0.305    0.406   80.604   21.524
  285.750    0.297    0.412   82.430   19.961
  286.000    0.290    0.417   84.864   18.863
  286.250    0.283    0.417   88.512   17.166
  286.500    0.279    0.421   93.981   16.221
  286.750    0.272    0.426  100.666   15.328
  287.000    0.254    0.430  105.528   14.213
  287.250    0.235    0.435  112.820   13.179
  287.500    0.221    0.435  116.468   12.453
  287.750    0.230    0.433  112.829   11.992
  288.000    0.247    0.445  109.797   11.331
  288.250    0.246    0.444  109.803   10.909
  288.500    0.232    0.432  109.806   10.504
  288.750    0.224    0.441  107.382   10.113
  289.000    0.229    0.454  106.172    9.922
  289.250    0.230    0.460  104.353   10.106
  289.500    0.230    0.462  101.928   10.688
  289.750    0.237    0.456   99.503   11.736
  290.000    0.257    0.446   95.257   12.886
  290.250    0.271    0.428   90.403   14.418
  290.500    0.287    0.414   89.799   15.830
  290.750    0.292    0.411   92.841   17.382
  291.000    0.285    0.414   91.630   18.383
  291.250    0.300    0.420   84.955   18.725
  291.500    0.309    0.411   80.708   19.072
  291.750    0.306    0.422   83.142   19.428
  292.000    0.291    0.429   87.396   21.735
  292.250    0.277    0.444   91.652   23.866
  292.500    0.304    0.452   77.081   26.702
  292.750    0.328    0.428   63.118   28.775
  293.000    0.347    0.396   46.725   32.801
  293.250    0.350    0.390   41.872   34.693
  293.500    0.343    0.387   42.483   35.335
  293.750    0.330    0.387   44.310   34.023
  294.000    0.340    0.387   45.528   30.961
  294.250    0.343    0.389   49.784   27.655
  294.500    0.334    0.398   53.431   24.701
  294.750    0.314    0.411   63.153   22.482
  295.000    0.295    0.408   68.622   20.461
  295.250    0.279    0.395   72.877   18.620
  295.500    0.257    0.390   77.740   17.268
  295.750    0.238    0.400   80.174   16.625
  296.000    0.233    0.406   77.142   20.051
  296.250    0.248    0.415   76.538   24.640
  296.500    0.287    0.402   85.046   28.626
  296.750    0.327    0.395   88.693   33.252
  297.000    0.332    0.404   89.913   35.165
  297.250    0.335    0.417   88.095   34.500
  297.500    0.345    0.398   86.277   33.846
  297.750    0.341    0.391   83.852   32.588
  298.000    0.335    0.401   75.962   29.652
  298.250    0.337    0.420   72.930   28.022
  298.500    0.324    0.418   75.971   26.477
  298.750    0.308    0.410   83.263   25.021
  299.000    0.302    0.413   88.126   23.202
  299.250    0.296    0.407   90.559   21.924
  299.500    0.272    0.414   90.562   20.332
  299.750    0.256    0.418   90.567   19.577
  300.000    0.249    0.399   90.571   19.938
  300.250    0.249    0.399   88.754   21.892
  300.500    0.252    0.399   74.183   23.155
  300.750    0.253    0.399   65.685   24.951
  301.000    0.263    0.399   59.617   25.898
  301.250    0.274    0.375   61.444   24.933
  301.500    0.276    0.364   65.699   22.270
  301.750    0.259    0.385   68.740   21.044
  302.000    0.249    0.396   72.995   19.516
  302.250    0.238    0.401   73.000   17.430
  302.500    0.237    0.404   72.397   15.863
  302.750    0.234    0.382   74.222   14.712
  303.000    0.225    0.371   78.477   13.388
  303.250    0.220    0.380   80.912   13.135
  303.500    0.228    0.376   83.344   13.380
  303.750    0.229    0.372   83.350   14.969
  304.000    0.229    0.397   81.531   16.748
  304.250    0.243    0.416   63.317   18.389
  304.500    0.229    0.447   52.391   18.730
  304.750    0.160    0.300   48.750   18.377
  305.000    0.025    0.221   49.362   17.693
  305.250    0.053    0.193   71.229   16.719
  305.500    0.178    0.344   75.485   15.503
  305.750    0.231    0.411   74.882   14.927
  306.000    0.257    0.416   66.383   15.205
  306.250    0.267    0.392   66.389   16.079
  306.500    0.270    0.376   64.573   16.074
  306.750    0.268    0.372   71.256   15.188
  307.000    0.262    0.377   73.688   14.352
  307.250    0.255    0.392   73.085   14.896
  307.500    0.249    0.383   71.876   15.171
  307.750    0.251    0.376   70.666   15.455
  308.000    0.265    0.375   71.276   15.449
  308.250    0.272    0.387   76.746   15.157
  308.500    0.273    0.392   74.322   14.593
  308.750    0.272    0.391   68.861   14.588
  309.000    0.268    0.389   67.650   15.139
  309.250    0.263    0.389   67.654   15.423
  309.500    0.260    0.389   68.874   15.709
  309.750    0.259    0.402   68.270   16.001
  310.000    0.268    0.404   71.311   15.997
  310.250    0.273    0.397   71.316   16.293
  310.500    0.273    0.398   68.891   16.911
  310.750    0.270    0.405   68.288   18.223
  311.000    0.270    0.417   67.078   19.273
  311.250    0.287    0.432   54.329   21.161
  311.500    0.298    0.375   44.616   23.233
  311.750    0.313    0.357   39.155   25.512
