~VERSION INFORMATION
 VERS.                 2.0:   CWLS LOG ASCII STANDARD -VERSION 2.0
 WRAP.                  NO:   ONE LINE PER DEPTH STEP
~WELL INFORMATION BLOCK
#MNEM.UNIT           DATA                    DESCRIPTION OF MNEMONIC
#---------    -------------------            -------------------------------
# Generated from Intellog Unique Number	CX_WELLS/WELL/2307
WELL.         CDN SUP CR RAP                 : Well_name    - WELL
LOC .         00/11-29-089-12W4/0            : Location     - LOCATION
UWI .         00/11-29-089-12W400            : Uwi          - UNIQUE WELL ID
ENTR.         RJA                            : Entered      - ENTERED BY
SRVC.         SCHLUMBERGER                   : Scn          - SERVICE COMPANY
STRT.M        100                            : top_depth    - START DEPTH
STOP.M        255                            : bot_depth    - STOP DEPTH
STEP.M        0.25                           : increment    - STEP LENGTH
 NULL. -999.2500:NULL Value
~CURVE INFORMATION BLOCK
#MNEM UNIT       ERCB CURVE CODE    CURVE DESCRIPTION
#-----------   ------------------   ----------------------------------
DEPT.M        00 001 00 00         : DEPTH        - DEPTH
GR  .API      00 310 00 00         : GR           - GAMMA RAY
NPHI.V/V      00 330 00 00         : PHIN         - NEUTRON POROSITY (SANDSTONE)
DPHI.V/V      00 890 00 00         : PHID         - DENSITY POROSITY (SANDSTONE)
ILD .OHMM     00 120 00 00         : RESD         - DEEP RESISTIVITY (DIL)
~PARAMETER INFORMATION
#MNEM.UNIT           DATA             DESCRIPTION OF MNEMONIC
#---------         -----------     ------------------------------
GL  .M        520.9                : gl           - GROUND LEVEL ELEVATION
EREF.M        525                  : kb           - ELEVATION OF DEPTH REFERENCE
DATM.M        525                  : datum        - DATUM ELEVATION
TDD .M        255                  : tdd          - TOTAL DEPTH DRILLER
RUN .         ONE                  : Run          - RUN NUMBER
ENG .         BILL                 : Engineer     - RECORDING ENGINEER
WIT .         JIM                  : Witness      - WITNESSED BY
MUD .         GEL                  : Mud_type     - MUD TYPE
MATR.         SANDSTONE            : Logunit      - NEUTRON MATRIX
TMAX.C        39                   : BHT          - MAXIMUM RECORDED TEMPERATURE
BHTD.M        255                  : BHTDEP       - MAXIMUM RECORDED TEMPERATURE
MATR.         1                    : LOGUNIT      - NEUTRON MATRIX
RMT .C        25                   : MDTP         - TEMPERATURE OF MUD
NEUT.         1                    : NEUTRON      - NEUTRON TYPE
RESI.         0                    : RESIST       - RESISTIVITY TYPE
RMC .OHMM     0.25                 : RMC          - RESISTIVITY OF MUD CAKE
RMF .OHMM     0.25                 : RMF          - RESISTIVITY OF MUD FILTRATE
SUFT.C        15                   : SUFT         - SURFACE TEMPERATURE
~A  DEPTH       GR     PHIN     PHID     RESD
# ...
  187.000   92.439    0.441    0.208    8.829
  187.250   91.842    0.446    0.207    8.528
  187.500   93.758    0.446    0.203    8.384
  187.750   95.036    0.449    0.202    8.241
  188.000   96.324    0.457    0.197    7.673
  188.250   95.728    0.460    0.192    7.405
  188.500   93.309    0.463    0.173    7.026
  188.750   90.880    0.465    0.148    6.904
  189.000   89.079    0.461    0.134    6.553
  189.250   89.121    0.471    0.160    6.442
  189.500   90.399    0.493    0.205    6.332
  189.750   92.923    0.500    0.230    6.117
  190.000   94.180    0.507    0.240    5.798
  190.250   96.085    0.515    0.247    5.494
  190.500   96.128    0.526    0.252    4.930
  190.750   94.934    0.536    0.256    4.672
  191.000   95.594    0.543    0.254    4.039
  191.250   96.872    0.549    0.248    3.368
  191.500   98.150    0.526    0.244    3.077
  191.750   99.438    0.511    0.239    3.257
  192.000   99.480    0.498    0.230    3.511
  192.250   97.668    0.481    0.219    4.636
  192.500   96.465    0.455    0.205    5.480
  192.750   92.810    0.448    0.200    6.359
  193.000   90.392    0.444    0.195    7.249
  193.250   89.198    0.445    0.192    7.533
  193.500   86.769    0.442    0.187    7.408
  193.750   83.722    0.437    0.173    5.843
  194.000   80.675    0.449    0.190    4.522
  194.250   78.246    0.481    0.241    3.253
  194.500   75.817    0.537    0.271    2.384
  194.750   73.388    0.582    0.302    2.260
  195.000   70.341    0.585    0.312    2.306
  195.250   67.922    0.574    0.295    2.353
  195.500   67.944    0.560    0.277    2.584
  195.750   66.771    0.540    0.261    2.891
  196.000   67.431    0.512    0.239    3.235
  196.250   68.698    0.494    0.243    3.617
  196.500   73.076    0.481    0.245    3.972
  196.750   77.432    0.483    0.249    4.612
  197.000   83.683    0.486    0.247    4.882
  197.250   84.940    0.492    0.249    4.981
  197.500   86.836    0.506    0.250    4.468
  197.750   86.888    0.524    0.252    3.724
  198.000   86.313    0.529    0.252    3.220
  198.250   86.344    0.522    0.252    2.891
  198.500   86.407    0.513    0.249    2.893
  198.750   86.439    0.496    0.247    3.065
  199.000   87.120    0.491    0.244    3.184
  199.250   87.151    0.488    0.243    3.433
  199.500   87.811    0.491    0.238    3.568
  199.750   87.843    0.498    0.233    3.708
  200.000   87.896    0.507    0.228    3.783
  200.250   87.320    0.521    0.222    3.790
  200.500   86.126    0.522    0.216    3.661
  200.750   84.933    0.519    0.224    3.470
  201.000   83.739    0.511    0.238    3.411
  201.250   80.692    0.469    0.254    3.356
  201.500   77.646    0.441    0.254    3.301
  201.750   72.127    0.417    0.247    3.494
  202.000   65.992    0.376    0.238    3.910
  202.250   60.473    0.322    0.229    4.137
  202.500   54.348    0.281    0.276    6.566
  202.750   48.819    0.262    0.300    7.345
  203.000   38.359    0.239    0.333    9.011
  203.250   31.605    0.125    0.374   10.080
  203.500   31.029    0.112    0.395   12.136
  203.750   32.307    0.118    0.407   16.324
  204.000   35.449    0.119    0.415   20.769
  204.250   38.590    0.119    0.416   26.926
  204.500   39.868    0.119    0.417   34.258
  204.750   39.910    0.120    0.416   44.395
  205.000   39.942    0.122    0.415   49.703
  205.250   39.984    0.134    0.411   49.788
  205.500   39.429    0.143    0.407   47.216
  205.750   39.450    0.150    0.403   46.395
  206.000   40.749    0.153    0.400   43.178
  206.250   41.388    0.157    0.397   39.451
  206.500   43.912    0.169    0.394   38.799
  206.750   45.190    0.190    0.387   36.108
  207.000   46.467    0.198    0.380   31.234
  207.250   44.656    0.202    0.376   30.170
  207.500   39.138    0.200    0.371   30.196
  207.750   34.248    0.204    0.363   30.836
  208.000   31.201    0.216    0.354   32.059
  208.250   28.772    0.235    0.352   33.289
  208.500   28.803    0.252    0.350   37.237
  208.750   30.102    0.268    0.349   37.317
  209.000   32.616    0.292    0.341   33.460
  209.250   33.904    0.316    0.325   28.931
  209.500   34.543    0.332    0.320   22.817
  209.750   34.585    0.345    0.310   17.345
  210.000   34.648    0.361    0.293   14.724
  210.250   34.680    0.374    0.278   12.277
  210.500   34.743    0.381    0.271   10.812
  210.750   34.774    0.382    0.267   10.062
  211.000   34.806    0.384    0.266    9.364
  211.250   34.848    0.387    0.267    9.206
  211.500   34.890    0.392    0.269    8.888
  211.750   34.953    0.393    0.274    8.582
  212.000   34.974    0.392    0.274    8.597
  212.250   35.027    0.389    0.270    8.462
  212.500   35.069    0.388    0.265    8.472
  212.750   36.368    0.389    0.264    8.336
  213.000   37.017    0.390    0.265    8.191
  213.250   37.667    0.391    0.267    8.059
  213.500   39.562    0.391    0.269    7.936
  213.750   42.725    0.402    0.266    8.086
  214.000   44.610    0.404    0.265    8.100
  214.250   45.877    0.406    0.265    8.268
  214.500   47.155    0.404    0.265    8.282
  214.750   49.050    0.403    0.266    8.293
  215.000   49.114    0.402    0.268    8.156
  215.250   48.548    0.405    0.270    7.878
  215.500   47.952    0.406    0.272    7.748
  215.750   47.376    0.412    0.274    7.626
  216.000   46.800    0.417    0.276    7.636
  216.250   46.842    0.418    0.281    7.506
  216.500   46.906    0.418    0.286    7.519
  216.750   47.555    0.416    0.285    7.398
  217.000   48.236    0.408    0.281    7.411
  217.250   48.875    0.402    0.277    7.288
  217.500   48.299    0.391    0.272    7.297
  217.750   46.488    0.385    0.265    7.177
  218.000   44.676    0.373    0.261    7.064
  218.250   42.258    0.357    0.256    7.076
  218.500   41.064    0.339    0.249    7.088
  218.750   38.635    0.288    0.240    7.500
  219.000   35.578    0.190    0.229    8.090
  219.250   31.913    0.177    0.206    8.884
  219.500   30.741    0.136    0.168    9.938
  219.750   30.175    0.114    0.063   11.533
  220.000   29.579    0.110    0.006   13.632
  220.250   27.778    0.112    0.003   16.725
  220.500   26.584    0.116   -0.001   20.891
  220.750   25.998    0.116   -0.003   25.620
  221.000   26.051    0.116   -0.002   42.188
  221.250   26.093    0.117   -0.001   85.049
  221.500   26.753    0.118   -0.001   90.066
  221.750   28.031    0.123   -0.001   90.220
  222.000   28.691    0.135   -0.002   90.375
  222.250   30.596    0.141   -0.002   88.879
  222.500   33.110    0.145   -0.004   82.751
  222.750   35.005    0.154   -0.005   77.013
  223.000   36.294    0.166   -0.005   67.825
  223.250   36.336    0.179   -0.003   59.733
  223.500   38.242    0.184    0.001   52.584
  223.750   38.881    0.184    0.004   48.046
  224.000   39.541    0.181    0.005   43.918
  224.250   36.504    0.179    0.008   41.631
  224.500   34.065    0.176    0.009   41.685
  224.750   31.028    0.171    0.009   41.756
  225.000   31.688    0.154    0.009   43.413
  225.250   34.212    0.149    0.006   44.295
  225.500   36.725    0.168    0.004   46.033
  225.750   41.103    0.184    0.001   47.008
  226.000   42.988    0.210   -0.000   47.943
  226.250   46.747    0.218   -0.000   46.290
  226.500   49.260    0.224   -0.000   42.295
  226.750   50.538    0.229   -0.000   39.345
  227.000   48.727    0.229    0.007   34.666
  227.250   47.533    0.223    0.019   31.084
  227.500   44.476    0.215    0.024   26.876
  227.750   41.429    0.209    0.020   25.012
  228.000   38.393    0.198    0.015   23.278
  228.250   35.963    0.182    0.010   24.651
  228.500   35.398    0.171    0.006   27.061
  228.750   35.440    0.165    0.005   31.431
  229.000   42.268    0.171    0.004   34.503
  229.250   62.101    0.180    0.006   37.891
  229.500   64.614    0.194    0.012   40.854
  229.750   67.117    0.216    0.008   29.389
  230.000   72.102    0.226    0.006   24.493
  230.250   85.746    0.232    0.003   21.972
