~VERSION INFORMATION
 VERS.                 2.0:   CWLS LOG ASCII STANDARD -VERSION 2.0
 WRAP.                  NO:   ONE LINE PER DEPTH STEP
~WELL INFORMATION BLOCK
#MNEM.UNIT           DATA                    DESCRIPTION OF MNEMONIC
#---------    -------------------            -------------------------------
# Generated from Intellog Unique Number	CS_67_68/WELL/857
WELL.         AEC FISHCREEK                  : Well_name    - WELL
LOC .         00/15-05-068-08W4/0            : Location     - LOCATION
UWI .         00/15-05-068-08W4/0            : Uwi          - UNIQUE WELL ID
ENTR.         SP                             : Entered      - ENTERED BY
SRVC.         SCHLUMBERGER                   : Scn          - SERVICE COMPANY
STRT.M        355                            : top_depth    - START DEPTH
STOP.M        570                            : bot_depth    - STOP DEPTH
STEP.M        0.25                           : increment    - STEP LENGTH
 NULL. -999.2500:NULL Value
~CURVE INFORMATION BLOCK
#MNEM UNIT       ERCB CURVE CODE    CURVE DESCRIPTION
#-----------   ------------------   ----------------------------------
DEPT.M        00 001 00 00         : DEPTH        - DEPTH
ILD .OHMM     00 120 00 00         : RESD         - DEEP RESISTIVITY (DIL)
DPHI.V/V      00 890 00 00         : PHID         - DENSITY POROSITY (LIMESTONE)
NPHI.V/V      00 330 00 00         : PHIN         - NEUTRON POROSITY (LIMESTONE)
GR  .API      00 310 00 00         : GR           - GAMMA RAY
~PARAMETER INFORMATION
#MNEM.UNIT           DATA             DESCRIPTION OF MNEMONIC
#---------         -----------     ------------------------------
GL  .M        668.25               : gl           - GROUND LEVEL ELEVATION
EREF.M        671.52               : kb           - ELEVATION OF DEPTH REFERENCE
DATM.M        668.25               : datum        - DATUM ELEVATION
TDD .M        576                  : tdd          - TOTAL DEPTH DRILLER
RUN .         ONE                  : Run          - RUN NUMBER
ENG .         BILL                 : Engineer     - RECORDING ENGINEER
WIT .         JIM                  : Witness      - WITNESSED BY
MUD .         GEL                  : Mud_type     - MUD TYPE
MATR.         LIMESTONE            : Logunit      - NEUTRON MATRIX
TMAX.C        20                   : BHT          - MAXIMUM RECORDED TEMPERATURE
BHTD.M        576                  : BHTDEP       - MAXIMUM RECORDED TEMPERATURE
MATR.         1                    : LOGUNIT      - NEUTRON MATRIX
RMT .C        25                   : MDTP         - TEMPERATURE OF MUD
NEUT.         1                    : NEUTRON      - NEUTRON TYPE
RESI.         0                    : RESIST       - RESISTIVITY TYPE
RMC .OHMM     0.25                 : RMC          - RESISTIVITY OF MUD CAKE
RMF .OHMM     0.25                 : RMF          - RESISTIVITY OF MUD FILTRATE
SUFT.C        15                   : SUFT         - SURFACE TEMPERATURE
~A  DEPTH     RESD     PHID     PHIN       GR
# ...
  485.500    4.079    0.279    0.426   92.639
  485.750    4.096    0.285    0.412   88.322
  486.000    4.152    0.267    0.417   87.824
  486.250    4.153    0.254    0.425   91.389
  486.500    4.154    0.258    0.424   93.969
  486.750    4.124    0.263    0.438   97.103
  487.000    4.064    0.266    0.446   98.453
  487.250    4.004    0.269    0.437   96.107
  487.500    3.968    0.269    0.409   98.564
  487.750    4.201    0.267    0.405   98.804
  488.000    4.618    0.256    0.409   92.455
  488.250    5.136    0.228    0.396   88.200
  488.500    5.614    0.168    0.368   83.576
  488.750    6.338    0.148    0.349   77.659
  489.000    6.773    0.179    0.338   74.266
  489.250    7.010    0.225    0.354   77.154
  489.500    6.959    0.261    0.370   78.379
  489.750    6.215    0.280    0.390   77.634
  490.000    5.551    0.296    0.409   76.889
  490.250    5.149    0.305    0.433   77.191
  490.500    4.997    0.308    0.431   78.232
  490.750    4.970    0.304    0.415   79.950
  491.000    5.115    0.292    0.401   79.205
  491.250    5.364    0.264    0.394   77.106
  491.500    5.668    0.250    0.400   74.944
  491.750    5.933    0.267    0.400   73.091
  492.000    6.305    0.282    0.405   75.979
  492.250    6.649    0.295    0.417   81.515
  492.500    6.895    0.312    0.414   81.940
  492.750    6.858    0.309    0.406   73.805
  493.000    6.732    0.309    0.399   67.457
  493.250    6.496    0.302    0.404   84.446
  493.500    6.163    0.267    0.400   93.307
  493.750    5.463    0.266    0.395   99.089
  494.000    4.898    0.272    0.397  103.455
  494.250    4.612    0.271    0.401  103.449
  494.500    4.401    0.263    0.400  106.522
  494.750    4.231    0.252    0.421  106.208
  495.000    3.999    0.242    0.440  100.536
  495.250    3.773    0.245    0.447   96.097
  495.500    3.586    0.260    0.423   95.721
  495.750    3.454    0.277    0.409   93.191
  496.000    3.265    0.289    0.404   91.152
  496.250    2.988    0.299    0.408   91.331
  496.500    2.644    0.352    0.423   90.217
  496.750    2.343    0.371    0.439   84.915
  497.000    2.027    0.373    0.455   79.737
  497.250    1.834    0.403    0.466   78.438
  497.500    1.638    0.442    0.477   86.005
  497.750    1.560    0.447    0.489   90.925
  498.000    1.517    0.412    0.491   92.643
  498.250    1.472    0.398    0.482   85.063
  498.500    1.464    0.410    0.476   82.347
  498.750    1.524    0.360    0.474   85.605
  499.000    1.575    0.326    0.452   89.047
  499.250    1.642    0.317    0.432   90.827
  499.500    1.677    0.313    0.418   90.267
  499.750    1.713    0.306    0.426   87.059
  500.000    1.762    0.316    0.446   87.422
  500.250    1.807    0.322    0.457   91.726
  500.500    1.801    0.332    0.460   98.555
  500.750    1.751    0.353    0.463  102.059
  501.000    1.709    0.354    0.466  101.437
  501.250    1.665    0.358    0.468  102.909
  501.500    1.653    0.370    0.472  104.565
  501.750    1.704    0.382    0.481  105.483
  502.000    1.767    0.380    0.491  102.398
  502.250    1.850    0.366    0.481   98.574
  502.500    1.903    0.368    0.460   93.765
  502.750    1.974    0.393    0.443   87.663
  503.000    2.039    0.413    0.424   82.424
  503.250    2.094    0.322    0.418   92.516
  503.500    2.151    0.297    0.444   99.037
  503.750    2.209    0.298    0.463  100.816
  504.000    2.252    0.323    0.469   99.085
  504.250    2.287    0.343    0.466   98.957
  504.500    2.296    0.345    0.464   99.689
  504.750    2.302    0.330    0.459   99.622
  505.000    2.373    0.333    0.440   98.815
  505.250    2.456    0.315    0.423   95.299
  505.500    2.576    0.296    0.415   92.090
  505.750    2.665    0.281    0.422   88.637
  506.000    2.733    0.271    0.427   85.429
  506.250    2.791    0.291    0.431   85.054
  506.500    2.824    0.305    0.442   90.528
  506.750    2.846    0.289    0.440   94.893
  507.000    2.825    0.269    0.428   97.659
  507.250    2.773    0.256    0.420   99.869
  507.500    2.712    0.263    0.431  101.710
  507.750    2.647    0.270    0.431  101.889
  508.000    2.633    0.276    0.416   96.772
  508.250    2.664    0.269    0.408   95.596
  508.500    2.700    0.260    0.419  100.886
  508.750    2.727    0.312    0.430  104.143
  509.000    2.738    0.346    0.421  105.615
  509.250    2.744    0.325    0.413   98.404
  509.500    2.730    0.284    0.429   96.921
  509.750    2.700    0.291    0.460   99.992
  510.000    2.690    0.310    0.427  101.771
  510.250    2.837    0.299    0.403  102.321
  510.500    3.021    0.273    0.387  102.069
  510.750    3.265    0.261    0.379  101.570
  511.000    3.529    0.265    0.376   94.482
  511.250    3.888    0.225    0.343   87.334
  511.500    4.242    0.073    0.351   83.201
  511.750    4.594    0.175    0.394   86.274
  512.000    4.937    0.243    0.415   90.147
  512.250    5.337    0.275    0.399   92.050
  512.500    5.704    0.280    0.395   92.906
  512.750    5.993    0.322    0.396   90.314
  513.000    6.273    0.350    0.387   91.416
  513.250    6.517    0.333    0.379  102.740
  513.500    6.719    0.278    0.372  114.742
  513.750    6.708    0.277    0.379  121.693
  514.000    6.175    0.300    0.422  125.875
  514.250    6.513    0.315    0.423  102.285
  514.500    7.283    0.330    0.386   87.378
  514.750    8.411    0.334    0.366   68.837
  515.000    9.370    0.336    0.353   67.538
  515.250    9.752    0.330    0.335   73.505
  515.500    8.076    0.318    0.337   71.959
  515.750    6.828    0.315    0.352   72.138
  516.000    5.654    0.315    0.353   71.763
  516.250    5.040    0.318    0.345   83.394
  516.500    4.882    0.321    0.344   96.381
  516.750    4.977    0.313    0.342  107.089
  517.000    5.190    0.306    0.337  117.551
  517.250    5.392    0.299    0.352  127.766
  517.500    5.580    0.295    0.365  142.908
  517.750    5.667    0.291    0.366  136.497
  518.000    5.573    0.291    0.379  127.748
  518.250    5.358    0.325    0.394  112.964
  518.500    5.151    0.341    0.383   92.760
  518.750    4.742    0.313    0.348   79.516
  519.000    4.365    0.294    0.328   67.995
  519.250    3.754    0.279    0.319   70.821
  519.500    3.791    0.151    0.317   81.345
  519.750    3.945    0.098    0.303   89.344
  520.000    4.145    0.063    0.274   90.199
  520.250    4.481    0.158    0.241   83.542
  520.500    4.780    0.215    0.344   80.212
  520.750    4.919    0.280    0.372   77.312
  521.000    4.792    0.309    0.374   73.365
  521.250    4.386    0.312    0.362   67.756
  521.500    3.829    0.313    0.375   64.794
  521.750    3.407    0.334    0.371   58.014
  522.000    3.276    0.331    0.361   52.343
  522.250    3.167    0.325    0.357   54.676
  522.500    3.115    0.326    0.362   55.841
  522.750    3.110    0.331    0.362   59.037
  523.000    3.170    0.322    0.366   68.882
  523.250    3.375    0.302    0.371   76.265
  523.500    3.635    0.285    0.363   84.019
  523.750    3.811    0.268    0.355   91.032
  524.000    4.104    0.249    0.350   98.599
  524.250    4.353    0.236    0.352  103.704
  524.500    4.609    0.228    0.352  104.745
  524.750    4.936    0.221    0.344  105.047
  525.000    4.993    0.211    0.342  109.844
  525.250    5.051    0.192    0.332  112.609
  525.500    5.139    0.088    0.317  109.708
  525.750    5.269    0.089    0.309  102.990
  526.000    5.371    0.237    0.336   97.627
  526.250    5.507    0.288    0.369   93.619
  526.500    5.603    0.305    0.378   88.625
  526.750    5.637    0.318    0.362   78.397
  527.000    5.554    0.330    0.355   69.278
  527.250    5.360    0.330    0.364   68.348
  527.500    5.028    0.314    0.367   70.375
  527.750    4.788    0.302    0.374   74.371
  528.000    4.383    0.296    0.386   74.611
  528.250    4.019    0.293    0.389   75.897
  528.500    3.756    0.295    0.378   76.262
  528.750    3.504    0.302    0.371   58.706
