~VERSION INFORMATION
 VERS.                 2.0:   CWLS LOG ASCII STANDARD -VERSION 2.0
 WRAP.                  NO:   ONE LINE PER DEPTH STEP
~WELL INFORMATION BLOCK
#MNEM.UNIT           DATA                    DESCRIPTION OF MNEMONIC
#---------    -------------------            -------------------------------
# Generated from Intellog Unique Number	CW_82_90/WELL/879
WELL.         10-20-083-20W4                 : Well_name    - WELL
LOC .         00/10-20-083-20W4/0            : Location     - LOCATION
UWI .         00/10-20-083-20W4/0            : Uwi          - UNIQUE WELL ID
ENTR.         JAYE                           : Entered      - ENTERED BY
SRVC.         SCHLUMBERGER                   : Scn          - SERVICE COMPANY
DATE.         16 MAR 74                      : Date         - LOG DATE
STRT.M        222.504                        : top_depth    - START DEPTH
STOP.M        436.504                        : bot_depth    - STOP DEPTH
STEP.M        0.25                           : increment    - STEP LENGTH
 NULL. -999.2500:NULL Value
~CURVE INFORMATION BLOCK
#MNEM UNIT       ERCB CURVE CODE    CURVE DESCRIPTION
#-----------   ------------------   ----------------------------------
DEPT.M        00 001 00 00         : DEPTH        - DEPTH
ILD .OHMM     00 120 00 00         : RESD         - DEEP RESISTIVITY (DIL)
CALI.MM       00 280 01 00         : CAL          - CALIPER
GR  .API      00 310 00 00         : GR           - GAMMA RAY
NPHI.V/V      00 330 00 00         : PHIN         - NEUTRON POROSITY (SANDSTONE)
DPHI.V/V      00 890 00 00         : PHID         - DENSITY POROSITY (SANDSTONE)
~PARAMETER INFORMATION
#MNEM.UNIT           DATA             DESCRIPTION OF MNEMONIC
#---------         -----------     ------------------------------
GL  .M        632.765              : gl           - GROUND LEVEL ELEVATION
EREF.M        637.032              : kb           - ELEVATION OF DEPTH REFERENCE
DATM.M        632.765              : datum        - DATUM ELEVATION
TDD .M        444.094              : tdd          - TOTAL DEPTH DRILLER
RUN .         ONE                  : Run          - RUN NUMBER
ENG .         AUGUSTIN             : Engineer     - RECORDING ENGINEER
WIT .         FYFFE                : Witness      - WITNESSED BY
BASE.         EDMONTON             : Branch       - HOME BASE OF LOGGING UNIT
MUD .         GEL CHEM             : Mud_type     - MUD TYPE
MATR.         SANDSTONE            : Logunit      - NEUTRON MATRIX
TMAX.C        22.2222              : BHT          - MAXIMUM RECORDED TEMPERATURE
BHTD.M        444.094              : BHTDEP       - MAXIMUM RECORDED TEMPERATURE
RMT .C        15.5556              : MDTP         - TEMPERATURE OF MUD
MUDD.KG/M     8500                 : MWT          - MUD DENSITY
NEUT.         1                    : NEUTRON      - NEUTRON TYPE
RESI.         0                    : RESIST       - RESISTIVITY TYPE
RM  .OHMM     4.85                 : RM           - RESISTIVITY OF MUD
RMC .OHMM     0                    : RMC          - RESISTIVITY OF MUD CAKE
RMF .OHMM     0                    : RMF          - RESISTIVITY OF MUD FILTRATE
SUFT.C        -17.7778             : SUFT         - SURFACE TEMPERATURE
~A  DEPTH     RESD      CAL       GR     PHIN     PHID
# ...
  295.504    7.314  203.024   89.311    0.570    0.271
  295.754    7.069  203.201   87.581    0.570    0.267
  296.004    6.896  203.970   88.342    0.562    0.260
  296.254    6.801  204.443   87.156    0.554    0.248
  296.504    6.782  204.901   84.331    0.546    0.252
  296.754    7.053  205.166   84.852    0.532    0.244
  297.004    7.455  205.120   87.073    0.499    0.228
  297.254    8.205  204.663   90.207    0.405    0.208
  297.504    9.297  203.689   92.916    0.380    0.177
  297.754   10.440  203.121   92.094    0.374    0.148
  298.004   11.830  202.041   86.476    0.477    0.263
  298.254   13.406  201.072   79.515    0.551    0.309
  298.504   14.069  200.409   74.623    0.566    0.305
  298.754   14.579  200.361   74.169    0.571    0.297
  299.004   15.328  201.440   73.835    0.570    0.301
  299.254   16.026  201.798   72.834    0.564    0.299
  299.504   17.192  201.241   71.348    0.552    0.299
  299.754   19.411  200.785   69.250    0.500    0.295
  300.004   22.156  200.426   67.642    0.433    0.264
  300.254   27.012  201.494   63.841    0.343    0.226
  300.504   32.395  202.182   59.862    0.254    0.114
  300.754   38.776  204.083   59.714    0.231    0.068
  301.004   40.992  203.525   63.938    0.243    0.063
  301.254   32.649  202.447   68.533    0.264    0.086
  301.504   27.066  201.478   73.675    0.329    0.134
  301.754   22.196  200.196   68.962    0.391    0.255
  302.004   18.981  198.810   65.106    0.555    0.320
  302.254   15.766  197.525   59.663    0.555    0.347
  302.504   14.062  196.954   57.744    0.545    0.363
  302.754   13.445  196.286   57.294    0.523    0.364
  303.004   13.259  196.249   56.843    0.513    0.364
  303.254   13.199  196.200   57.178    0.528    0.365
  303.504   13.207  195.740   58.669    0.536    0.360
  303.754   13.341  195.789   60.039    0.530    0.354
  304.004   13.398  195.840   61.227    0.526    0.348
  304.254   13.483  195.798   61.919    0.521    0.342
  304.504   13.543  195.639   62.085    0.515    0.339
  304.754   13.555  195.707   62.111    0.513    0.331
  305.004   13.638  195.952   62.084    0.523    0.317
  305.254   13.701  196.229   61.871    0.524    0.308
  305.504   13.785  196.173   62.883    0.519    0.314
  305.754   13.844  195.819   65.349    0.512    0.319
  306.004   13.854  195.560   67.263    0.504    0.316
  306.254   13.867  194.898   65.410    0.530    0.316
  306.504   13.827  195.368   61.977    0.543    0.311
  306.754   13.713  195.933   62.618    0.511    0.307
  307.004   13.600  196.602   64.965    0.496    0.314
  307.254   13.485  196.152   66.817    0.506    0.325
  307.504   13.226  195.994   67.155    0.521    0.335
  307.754   12.995  195.647   66.033    0.526    0.342
  308.004   12.701  195.283   66.674    0.536    0.344
  308.254   12.502  195.548   68.283    0.547    0.344
  308.504   12.331  196.524   68.257    0.559    0.350
  308.754   12.160  197.399   67.680    0.565    0.359
  309.004   11.929  197.352   66.683    0.567    0.364
  309.254   11.721  196.593   66.653    0.570    0.362
  309.504   11.497  196.133   66.501    0.579    0.355
  309.754   11.358  196.073   66.720    0.588    0.345
  310.004   11.222  196.139   69.422    0.592    0.349
  310.254   11.069  195.985   71.340    0.593    0.357
  310.504   10.996  196.041   70.767    0.589    0.365
  310.754   10.867  196.403   70.191    0.584    0.370
  311.004   10.754  196.669   71.138    0.525    0.359
  311.254   10.664  197.232   69.893    0.510    0.351
  311.504   10.583  196.984   69.008    0.517    0.344
  311.754   10.547  196.826   69.405    0.530    0.336
  312.004   10.515  196.786   71.388    0.555    0.322
  312.254   10.333  196.223   71.662    0.547    0.329
  312.504   10.006  196.587   72.365    0.535    0.347
  312.754    9.410  196.433   74.892    0.526    0.355
  313.004    8.137  196.695   78.510    0.517    0.348
  313.254    7.486  197.165   81.706    0.519    0.334
  313.504    6.863  198.143   86.784    0.525    0.314
  313.754    6.144  201.187   87.667    0.574    0.267
  314.004    5.460  206.491   88.004    0.589    0.275
  314.254    4.996  208.487   87.607    0.590    0.293
  314.504    4.448  209.379   85.998    0.590    0.294
  314.754    3.896  211.079   84.514    0.591    0.356
  315.004    3.513  212.993   83.204    0.591    0.352
  315.254    3.262  207.590   84.454    0.591    0.383
  315.504    3.147  213.000   88.317    0.592    0.400
  315.754    3.172  222.938   90.057    0.593    0.388
  316.004    3.348  214.547   90.576    0.592    0.375
  316.254    3.571  214.807   92.793    0.590    0.358
  316.504    4.084  218.979   93.436    0.587    0.370
  316.754    4.629  227.072   92.496    0.584    0.351
  317.004    5.047  211.579   89.915    0.580    0.313
  317.254    5.772  207.928   87.205    0.574    0.282
  317.504    6.601  207.875   85.535    0.549    0.269
  317.754    7.251  207.104   82.229    0.528    0.277
  318.004    8.143  206.959   82.079    0.536    0.307
  318.254    8.655  206.192   81.321    0.532    0.289
  318.504    9.000  205.114   78.008    0.518    0.294
  318.754    9.225  202.904   74.515    0.489    0.275
  319.004    9.181  202.239   77.649    0.505    0.235
  319.254    8.989  202.186   85.949    0.561    0.254
  319.504    8.832  202.446   86.704    0.555    0.261
  319.754    8.617  202.704   86.743    0.534    0.256
  320.004    8.544  203.067   88.114    0.522    0.253
  320.254    8.519  202.911   89.364    0.523    0.258
  320.504    8.527  202.867   88.905    0.522    0.256
  320.754    8.595  203.133   87.543    0.515    0.253
  321.004    8.649  203.077   85.994    0.506    0.255
  321.254    8.751  203.035   86.816    0.495    0.265
  321.504    8.839  202.986   87.642    0.498    0.269
  321.754    9.107  203.152   85.972    0.515    0.266
  322.004    9.333  204.018   81.744    0.519    0.263
  322.254    9.514  204.382   78.007    0.508    0.266
  322.504    9.661  202.801   72.508    0.506    0.276
  322.754    9.793  200.488   67.735    0.512    0.285
  323.004    9.945  199.919   67.948    0.482    0.292
  323.254    9.988  199.878   71.391    0.476    0.299
  323.504    9.977  199.404   75.068    0.503    0.288
  323.754    9.949  199.257   77.837    0.496    0.272
  324.004   10.067  199.006   73.190    0.470    0.268
  324.254   10.167  198.645   70.363    0.469    0.274
  324.504   10.230  198.605   70.089    0.489    0.268
  324.754   10.333  197.939   71.159    0.485    0.275
  325.004   10.436  197.368   71.922    0.486    0.290
  325.254   10.676  197.222   69.579    0.487    0.282
  325.504   10.780  197.486   66.453    0.472    0.231
  325.754   10.968  197.637   65.270    0.383    0.146
  326.004   10.976  197.905   65.181    0.393    0.148
  326.254   10.629  197.757   68.312    0.472    0.260
  326.504    9.979  197.285   72.359    0.494    0.257
  326.754    9.402  197.241   74.762    0.537    0.269
  327.004    8.874  197.192   76.194    0.551    0.264
  327.254    8.255  197.356   76.714    0.545    0.263
  327.504    7.651  198.228   78.446    0.531    0.272
  327.754    7.235  199.210   80.424    0.518    0.279
  328.004    6.955  199.576   81.918    0.524    0.298
  328.254    6.847  199.941   81.161    0.527    0.312
  328.504    6.777  199.891   78.213    0.516    0.290
  328.754    6.661  200.057   75.145    0.507    0.263
  329.004    6.473  199.594   75.419    0.516    0.247
  329.254    5.923  200.064   78.127    0.531    0.264
  329.504    5.244  201.248   83.694    0.539    0.311
  329.754    4.923  205.012   85.792    0.539    0.308
  330.004    4.945  212.892   83.940    0.541    0.298
  330.254    5.247  199.248   81.601    0.541    0.291
  330.504    5.628  197.657   78.594    0.532    0.284
  330.754    6.027  197.921   77.651    0.518    0.314
  331.004    6.501  198.082   77.197    0.505    0.306
  331.254    6.736  198.537   77.532    0.511    0.295
  331.504    6.841  198.907   77.868    0.552    0.285
  331.754    6.909  199.890   77.845    0.554    0.271
