~VERSION INFORMATION
 VERS.                 2.0:   CWLS LOG ASCII STANDARD -VERSION 2.0
 WRAP.                  NO:   ONE LINE PER DEPTH STEP
~WELL INFORMATION BLOCK
#MNEM.UNIT           DATA                    DESCRIPTION OF MNEMONIC
#---------    -------------------            -------------------------------
# Generated from Intellog Unique Number	CS_77_79/WELL/1002
WELL.         MAYNARD ET AL THORNBURY        : Well_name    - WELL
LOC .         00/11-29-079-11W4/0            : Location     - LOCATION
UWI .         00/11-29-079-11W4/0            : Uwi          - UNIQUE WELL ID
ENTR.         JHS                            : Entered      - ENTERED BY
SRVC.         SCHLUMBERGER                   : Scn          - SERVICE COMPANY
STRT.M        250                            : top_depth    - START DEPTH
STOP.M        495                            : bot_depth    - STOP DEPTH
STEP.M        0.25                           : increment    - STEP LENGTH
 NULL. -999.2500:NULL Value
~CURVE INFORMATION BLOCK
#MNEM UNIT       ERCB CURVE CODE    CURVE DESCRIPTION
#-----------   ------------------   ----------------------------------
DEPT.M        00 001 00 00         : DEPTH        - DEPTH
DPHI.V/V      00 890 00 00         : PHID         - DENSITY POROSITY (LIMESTONE)
NPHI.V/V      00 330 00 00         : PHIN         - NEUTRON POROSITY (LIMESTONE)
GR  .API      00 310 00 00         : GR           - GAMMA RAY
ILD .OHMM     00 120 00 00         : RESD         - DEEP RESISTIVITY (DIL)
RHOB.KG/M3    00 350 00 00         : DENS         - BULK DENSITY
~PARAMETER INFORMATION
#MNEM.UNIT           DATA             DESCRIPTION OF MNEMONIC
#---------         -----------     ------------------------------
GL  .M        690.19               : gl           - GROUND LEVEL ELEVATION
EREF.M        693.39               : kb           - ELEVATION OF DEPTH REFERENCE
DATM.M        693.39               : datum        - DATUM ELEVATION
TDD .M        500                  : tdd          - TOTAL DEPTH DRILLER
RUN .         ONE                  : Run          - RUN NUMBER
ENG .         BILL                 : Engineer     - RECORDING ENGINEER
WIT .         JIM                  : Witness      - WITNESSED BY
MUD .         GEL                  : Mud_type     - MUD TYPE
MATR.         LIMESTONE            : Logunit      - NEUTRON MATRIX
TMAX.C        22                   : BHT          - MAXIMUM RECORDED TEMPERATURE
BHTD.M        500                  : BHTDEP       - MAXIMUM RECORDED TEMPERATURE
MATR.         1                    : LOGUNIT      - NEUTRON MATRIX
RMT .C        25                   : MDTP         - TEMPERATURE OF MUD
NEUT.         1                    : NEUTRON      - NEUTRON TYPE
RESI.         0                    : RESIST       - RESISTIVITY TYPE
RMC .OHMM     0.25                 : RMC          - RESISTIVITY OF MUD CAKE
RMF .OHMM     0.25                 : RMF          - RESISTIVITY OF MUD FILTRATE
SUFT.C        15                   : SUFT         - SURFACE TEMPERATURE
~A  DEPTH     PHID     PHIN       GR     RESD     DENS
# ...
  396.000    0.278    0.417   84.589    7.659    0.000
  396.250    0.291    0.410   82.172    7.993    0.000
  396.500    0.288    0.412   77.309    8.326    0.000
  396.750    0.290    0.418   74.887    8.909    0.000
  397.000    0.298    0.412   74.303    9.160    0.000
  397.250    0.301    0.404   73.731    9.576    0.000
  397.500    0.310    0.392   73.754   10.485    0.000
  397.750    0.285    0.365   73.172   11.559    0.000
  398.000    0.192    0.304   71.979   12.223    0.000
  398.250    0.135    0.263   67.723   12.639    0.000
  398.500    0.090    0.261   62.856   12.809    0.000
  398.750    0.091    0.279   62.273   12.154    0.000
  399.000    0.165    0.354   65.977   10.595    0.000
  399.250    0.287    0.406   71.522    9.942    0.000
  399.500    0.308    0.388   73.387   10.112    0.000
  399.750    0.279    0.277   78.315   11.350    0.000
  400.000    0.158    0.225   63.674   14.215    0.000
  400.250    0.122    0.211   56.341   13.554    0.000
  400.500    0.076    0.212   44.724   12.067    0.000
  400.750    0.146    0.245   45.349   10.496    0.000
  401.000    0.239    0.289   59.446    9.009    0.000
  401.250    0.278    0.416   73.542    7.770    0.000
  401.500    0.302    0.439   79.071    7.357    0.000
  401.750    0.285    0.442   81.530    7.357    0.000
  402.000    0.278    0.444   82.159    7.440    0.000
  402.250    0.270    0.453   80.338    7.523    0.000
  402.500    0.265    0.455   79.128    7.440    0.000
  402.750    0.276    0.458   79.144    7.358    0.000
  403.000    0.265    0.464   81.608    7.193    0.000
  403.250    0.252    0.460   84.682    7.110    0.000
  403.500    0.265    0.460   84.692    6.945    0.000
  403.750    0.291    0.462   86.547    6.863    0.000
  404.000    0.292    0.465   88.402    6.780    0.000
  404.250    0.280    0.465   87.799    6.698    0.000
  404.500    0.269    0.466   85.978    6.616    0.000
  404.750    0.265    0.467   85.379    6.616    0.000
  405.000    0.277    0.461   86.006    6.616    0.000
  405.250    0.287    0.459   86.021    6.534    0.000
  405.500    0.288    0.456   86.032    6.368    0.000
  405.750    0.276    0.457   84.212    5.955    0.000
  406.000    0.276    0.461   80.553    5.708    0.000
  406.250    0.278    0.466   80.566    5.543    0.000
  406.500    0.280    0.472   83.641    5.625    0.000
  406.750    0.276    0.462   86.717    5.708    0.000
  407.000    0.276    0.442   90.405    5.791    0.000
  407.250    0.262    0.435   90.419    5.792    0.000
  407.500    0.264    0.434   90.436    5.874    0.000
  407.750    0.268    0.437   91.676    6.122    0.000
  408.000    0.271    0.445   91.687    6.453 2246.750
  408.250    0.286    0.450   88.644    6.867 2221.670
  408.500    0.283    0.448   83.760    7.445 2225.910
  408.750    0.278    0.443   79.487    7.859 2234.330
  409.000    0.282    0.441   75.827    8.190 2228.090
  409.250    0.257    0.430   74.617    8.272 2270.020
  409.500    0.247    0.426   75.858    8.521 2286.820
  409.750    0.223    0.429   77.098    8.769 2328.750
  410.000    0.205    0.420   74.665    8.769 2360.200
  410.250    0.174    0.427   72.228    8.521 2412.610
  410.500    0.157    0.441   71.628    8.274 2441.960
  410.750    0.167    0.452   80.214    7.943 2425.260
  411.000    0.155    0.463   88.800    7.696 2444.160
  411.250    0.209    0.480   97.390    7.283 2352.080
  411.500    0.225    0.473   98.014    7.035 2324.910
  411.750    0.229    0.468   98.641    7.035 2318.670
  412.000    0.223    0.465  101.107    7.035 2329.190
  412.250    0.217    0.457   99.894    7.118 2339.710
  412.500    0.225    0.450  100.521    7.201 2325.100
  412.750    0.235    0.447  100.535    7.366 2308.410
  413.000    0.238    0.447   99.938    7.697 2302.170
  413.250    0.230    0.441  104.852    7.863 2316.880
  413.500    0.221    0.433  101.804    8.194 2331.590
  413.750    0.204    0.422   98.144    8.194 2360.950
  414.000    0.196    0.415   95.711    8.111 2375.650
  414.250    0.183    0.411   96.339    7.946 2396.650
  414.500    0.188    0.411  102.472    7.616 2388.320
  414.750    0.213    0.421  107.998    7.120 2346.490
  415.000    0.233    0.437  109.847    6.542 2310.940
  415.250    0.243    0.445  111.699    6.129 2294.250
  415.500    0.227    0.460  108.044    5.633 2321.520
  415.750    0.223    0.455  106.831    5.055 2327.850
  416.000    0.228    0.446  105.620    4.394 2319.520
  416.250    0.234    0.460  103.801    3.898 2309.100
  416.500    0.242    0.478  106.263    3.403 2296.580
  416.750    0.245    0.495  103.215    2.824 2290.360
  417.000    0.254    0.522   97.722    2.411 2275.750
  417.250    0.267    0.544   92.837    2.164 2252.770
  417.500    0.277    0.561   91.012    2.081 2236.060
  417.750    0.280    0.578   93.479    1.999 2231.930
  418.000    0.288    0.586   91.657    2.082 2217.310
  418.250    0.297    0.559   89.835    2.165 2202.700
  418.500    0.303    0.544   89.239    2.413 2192.280
  418.750    0.293    0.519   89.251    2.578 2209.090
  419.000    0.268    0.491   88.042    2.909 2251.010
  419.250    0.249    0.472   86.831    3.405 2284.570
  419.500    0.237    0.459   87.455    4.149 2305.550
  419.750    0.235    0.447   91.756    4.976 2307.700
  420.000    0.232    0.430   91.775    5.803 2314.030
  420.250    0.224    0.419   89.337    6.464 2326.640
  420.500    0.195    0.409   86.288    6.795 2376.950
  420.750    0.176    0.399   81.406    6.712 2408.400
  421.000    0.170    0.399   81.420    6.134 2418.920
  421.250    0.171    0.407   85.720    5.308 2416.880
  421.500    0.192    0.426   90.632    4.812 2381.330
  421.750    0.206    0.464   95.546    4.812 2358.350
  422.000    0.215    0.469   99.235    4.978 2341.640
  422.250    0.219    0.446   99.861    5.226 2335.410
  422.500    0.208    0.421   97.424    5.805 2354.310
  422.750    0.190    0.403   90.707    6.218 2385.770
  423.000    0.171    0.393   85.825    5.888 2417.220
  423.250    0.163    0.404   86.448    5.392 2431.930
  423.500    0.193    0.427   92.585    4.814 2379.640
  423.750    0.205    0.447   95.660    4.153 2358.740
  424.000    0.214    0.465   95.676    3.823 2344.130
  424.250    0.236    0.485   97.525    3.658 2306.490
  424.500    0.242    0.496   99.377    3.740 2296.070
  424.750    0.238    0.507  103.679    3.823 2302.420
  425.000    0.225    0.506  107.364    3.906 2325.480
  425.250    0.156    0.497  104.933    4.072 2442.800
  425.500    0.148    0.479  100.660    4.237 2457.510
  425.750    0.145    0.467   93.941    4.403 2461.730
  426.000    0.172    0.457   90.894    4.568 2415.720
  426.250    0.198    0.455   99.478    4.816 2371.810
  426.500    0.200    0.459  100.720    4.899 2367.660
  426.750    0.214    0.473  102.568    5.065 2344.680
  427.000    0.218    0.482  108.094    5.313 2336.360
  427.250    0.210    0.473  104.435    5.396 2351.060
  427.500    0.179    0.461  100.163    5.561 2403.450
  427.750    0.171    0.456  100.180    5.644 2418.170
  428.000    0.176    0.462  103.866    6.057 2409.830
  428.250    0.194    0.447  106.940    6.801 2378.480
  428.500    0.210    0.420  109.404    7.876 2351.310
  428.750    0.194    0.359  102.684    8.620 2378.580
  429.000    0.191    0.333   79.435   10.025 2382.820
  429.250    0.211    0.315   67.203   12.257 2349.360
  429.500    0.216    0.306   67.832   14.158 2341.030
  429.750    0.272    0.311   80.704   14.985 2244.770
  430.000    0.283    0.322   89.902   14.902 2225.970
  430.250    0.296    0.317   94.200   14.654 2202.990
  430.500    0.295    0.310   92.382   14.902 2205.130
  430.750    0.263    0.306   81.985   15.316 2259.630
  431.000    0.254    0.320   76.487   15.151 2276.420
  431.250    0.246    0.336   72.220   14.903 2289.040
  431.500    0.245    0.356   75.296   15.151 2291.180
  431.750    0.242    0.366   77.146   16.556 2295.420
  432.000    0.249    0.370   81.443   18.127 2284.990
  432.250    0.264    0.370   86.357   19.036 2257.820
