~VERSION INFORMATION
 VERS.                 2.0:   CWLS LOG ASCII STANDARD -VERSION 2.0
 WRAP.                  NO:   ONE LINE PER DEPTH STEP
~WELL INFORMATION BLOCK
#MNEM.UNIT           DATA                    DESCRIPTION OF MNEMONIC
#---------    -------------------            -------------------------------
# Generated from Intellog Unique Number	CS_73_76/WELL/3243
WELL.         SIEBENS OIL GAS LID.           : Well_name    - WELL
LOC .         00/10-26-076-09W4/0            : Location     - LOCATION
UWI .         00/10-26-076-09W4/0            : Uwi          - UNIQUE WELL ID
ENTR.         SP                             : Entered      - ENTERED BY
SRVC.         SCHLUMBERGER                   : Scn          - SERVICE COMPANY
STRT.M        240.792                        : top_depth    - START DEPTH
STOP.M        463.042                        : bot_depth    - STOP DEPTH
STEP.M        0.25                           : increment    - STEP LENGTH
 NULL. -999.2500:NULL Value
~CURVE INFORMATION BLOCK
#MNEM UNIT       ERCB CURVE CODE    CURVE DESCRIPTION
#-----------   ------------------   ----------------------------------
DEPT.M        00 001 00 00         : DEPTH        - DEPTH
GR  .API      00 310 00 00         : GR           - GAMMA RAY
DPHI.V/V      00 890 00 00         : PHID         - DENSITY POROSITY (SANDSTONE)
NPHI.V/V      00 330 00 00         : PHIN         - NEUTRON POROSITY (SANDSTONE)
ILD .OHMM     00 120 00 00         : RESD         - DEEP RESISTIVITY (DIL)
~PARAMETER INFORMATION
#MNEM.UNIT           DATA             DESCRIPTION OF MNEMONIC
#---------         -----------     ------------------------------
GL  .M        650.748              : gl           - GROUND LEVEL ELEVATION
EREF.M        654.406              : kb           - ELEVATION OF DEPTH REFERENCE
DATM.M        650.748              : datum        - DATUM ELEVATION
TDD .M        473.659              : tdd          - TOTAL DEPTH DRILLER
RUN .         ONE                  : Run          - RUN NUMBER
ENG .         BILL                 : Engineer     - RECORDING ENGINEER
WIT .         JIM                  : Witness      - WITNESSED BY
MUD .         GEL                  : Mud_type     - MUD TYPE
MATR.         SANDSTONE            : Logunit      - NEUTRON MATRIX
TMAX.C        15.5556              : BHT          - MAXIMUM RECORDED TEMPERATURE
BHTD.M        473.659              : BHTDEP       - MAXIMUM RECORDED TEMPERATURE
MATR.         1                    : LOGUNIT      - NEUTRON MATRIX
RMT .C        25                   : MDTP         - TEMPERATURE OF MUD
NEUT.         1                    : NEUTRON      - NEUTRON TYPE
RESI.         0                    : RESIST       - RESISTIVITY TYPE
RMC .OHMM     0.25                 : RMC          - RESISTIVITY OF MUD CAKE
RMF .OHMM     0.25                 : RMF          - RESISTIVITY OF MUD FILTRATE
SUFT.C        15                   : SUFT         - SURFACE TEMPERATURE
~A  DEPTH       GR     PHID     PHIN     RESD
  240.792  101.400    0.263    0.568    2.850
  241.042  101.129    0.254    0.557    2.944
  241.292   99.512    0.234    0.539    2.956
  241.542   99.565    0.237    0.552    3.014
  241.792  101.444    0.237    0.540    3.018
  242.042  104.121    0.243    0.531    3.021
  242.292  105.556    0.253    0.536    3.024
  242.542  105.563    0.243    0.541    3.027
  242.792  106.335    0.237    0.534    3.031
  243.042  108.382    0.228    0.529    3.128
  243.292  109.503    0.223    0.524    3.199
  243.542  109.149    0.229    0.527    3.331
  243.792  106.251    0.221    0.520    3.423
  244.042  102.718    0.195    0.508    3.612
  244.292  100.308    0.138    0.491    3.718
  244.542   98.574    0.112    0.468    3.840
  244.792  102.561    0.083    0.497    3.862
  245.042  103.878    0.147    0.511    3.870
  245.292  102.944    0.209    0.518    3.768
  245.542  105.876    0.212    0.504    3.583
  245.792  108.614    0.223    0.522    3.479
  246.042  105.116    0.231    0.532    3.475
  246.292  103.768    0.232    0.533    3.479
  246.542  101.525    0.236    0.518    3.591
  246.792   98.427    0.224    0.508    3.701
  247.042   99.046    0.233    0.498    3.817
  247.292  102.115    0.225    0.490    3.769
  247.542  102.192    0.211    0.497    3.733
  247.792   99.717    0.221    0.507    3.749
  248.042   97.939    0.213    0.505    3.893
  248.292   98.524    0.203    0.463    4.222
  248.542   97.939    0.190    0.418    4.472
  248.792   98.669    0.204    0.411    4.998
  249.042  101.054    0.213    0.429    5.724
  249.292  103.534    0.229    0.431    6.416
  249.542  105.986    0.244    0.447    7.644
  249.792  106.835    0.258    0.462    8.662
  250.042  104.493    0.266    0.470    9.613
  250.292  102.391    0.256    0.453   10.273
  250.542  105.580    0.258    0.445   10.393
  250.792  110.404    0.264    0.446   10.400
  251.042  113.622    0.250    0.454   10.415
  251.292  111.227    0.232    0.466   10.235
  251.542  109.239    0.216    0.452   10.232
  251.792  107.295    0.211    0.445   10.236
  252.042  106.888    0.214    0.448   10.239
  252.292  105.978    0.235    0.450   10.183
  252.542  104.226    0.255    0.448    9.882
  252.792   99.701    0.278    0.458    9.774
  253.042   94.913    0.285    0.487    9.112
  253.292   89.375    0.304    0.513    8.389
  253.542   81.376    0.345    0.631    7.588
  253.792   79.003    0.412    0.620    7.087
  254.042   79.261    0.458    0.620    6.177
  254.292   78.481    0.478    0.621    5.532
  254.542   80.013    0.486    0.622    5.003
  254.792   79.325    0.476    0.624    4.551
  255.042   79.048    0.483    0.625    4.402
  255.292   78.028    0.491    0.626    4.273
  255.542   76.077    0.497    0.628    4.280
  255.792   74.063    0.501    0.629    4.284
  256.042   71.404    0.509    0.630    4.286
  256.292   70.756    0.514    0.630    4.349
  256.542   73.665    0.518    0.630    4.375
  256.792   78.643    0.492    0.630    4.295
  257.042   86.102    0.431    0.630    4.297
  257.292   96.568    0.375    0.629    4.283
  257.542  105.304    0.288    0.633    4.224
  257.792  108.010    0.255    0.515    4.237
  258.042  106.144    0.250    0.534    4.156
  258.292  105.231    0.224    0.540    4.300
  258.542  103.091    0.243    0.537    4.462
  258.792  104.697    0.264    0.542    4.742
  259.042  106.144    0.265    0.514    5.039
  259.292  106.945    0.242    0.479    5.301
  259.542  106.896    0.220    0.470    5.598
  259.792  105.881    0.210    0.468    5.978
  260.042  104.780    0.218    0.468    6.056
  260.292  102.775    0.216    0.466    6.147
  260.542  101.175    0.212    0.463    6.150
  260.792   99.490    0.209    0.460    6.150
  261.042   99.105    0.202    0.451    6.252
  261.292   99.135    0.196    0.449    6.396
  261.542   98.307    0.191    0.446    6.554
  261.792   95.224    0.193    0.443    6.761
  262.042   92.967    0.194    0.444    6.909
  262.292   94.417    0.225    0.454    6.899
  262.542   95.802    0.234    0.446    6.824
  262.792   97.323    0.227    0.450    6.665
  263.042   99.117    0.217    0.461    6.423
  263.292  102.524    0.198    0.468    6.166
  263.542  104.700    0.204    0.470    5.949
  263.792  102.848    0.202    0.471    5.770
  264.042  103.366    0.202    0.460    5.818
  264.292  104.451    0.192    0.462    5.991
  264.542  101.287    0.200    0.475    6.079
  264.792   97.879    0.177    0.469    6.238
  265.042  102.247    0.169    0.485    6.104
  265.292  113.823    0.157    0.512    6.125
  265.542  123.033    0.193    0.533    5.987
  265.792  129.803    0.200    0.478    6.125
  266.042  131.611    0.208    0.463    6.187
  266.292  132.441    0.219    0.448    6.562
  266.542  131.083    0.211    0.442    6.957
  266.792  121.267    0.236    0.440    7.917
  267.042  111.460    0.262    0.449    8.828
  267.292  109.446    0.280    0.460    9.970
  267.542  108.087    0.289    0.471   11.329
  267.792  107.440    0.283    0.470   11.993
  268.042  106.472    0.273    0.448   12.782
  268.292  107.139    0.255    0.458   12.845
  268.542  108.880    0.256    0.460   12.575
  268.792  112.111    0.256    0.467   11.959
  269.042  114.025    0.266    0.458   11.424
  269.292  115.358    0.256    0.447   11.127
  269.542  115.743    0.250    0.440   10.932
  269.792  115.848    0.242    0.434   10.666
  270.042  113.798    0.230    0.443   10.555
  270.292  106.812    0.207    0.448   10.328
  270.542   96.537    0.208    0.445   10.595
  270.792   86.821    0.213    0.438   11.127
  271.042   78.750    0.199    0.431   11.837
  271.292   74.042    0.185    0.423   13.519
  271.542   81.913    0.157    0.429   14.350
  271.792   89.224    0.137    0.437   15.302
  272.042   96.322    0.213    0.439   13.649
  272.292  105.098    0.252    0.446   11.180
  272.542  113.889    0.229    0.453    9.406
  272.792  118.953    0.208    0.457    8.387
  273.042  118.095    0.195    0.455    7.188
  273.292  115.681    0.181    0.447    6.683
  273.542  112.161    0.183    0.460    6.696
  273.792  107.495    0.189    0.462    7.289
  274.042  102.700    0.211    0.452    8.310
  274.292   97.013    0.230    0.435    9.241
  274.542   98.388    0.218    0.425    9.978
  274.792  102.443    0.217    0.421   10.486
  275.042  109.412    0.217    0.431    9.935
  275.292  116.335    0.227    0.443    8.931
  275.542  123.831    0.212    0.454    8.118
  275.792  127.952    0.199    0.463    7.457
  276.042  124.467    0.205    0.477    7.095
  276.292  116.921    0.226    0.488    7.030
  276.542  109.404    0.229    0.490    7.433
  276.792  102.828    0.217    0.505    8.607
  277.042   97.853    0.228    0.503    9.672
  277.292   94.534    0.220    0.485   11.339
  277.542   91.436    0.208    0.475   11.811
  277.792   98.154    0.186    0.492   11.528
  278.042  104.187    0.239    0.499   10.450
  278.292  104.464    0.255    0.473   10.201
  278.542  102.075    0.250    0.463   10.193
  278.792   98.523    0.268    0.446   10.820
  279.042   96.219    0.275    0.430   11.411
  279.292   97.173    0.261    0.425   12.027
  279.542   99.005    0.269    0.443   12.075
  279.792   99.777    0.261    0.439   12.101
  280.042  101.378    0.248    0.436   11.724
  280.292   98.387    0.233    0.449   11.594
  280.542   96.716    0.235    0.454   10.708
  280.792   94.218    0.244    0.462   10.014
  281.042   95.148    0.241    0.480    9.339
  281.292   90.952    0.235    0.491    9.233
  281.542   82.550    0.245    0.468   10.829
  281.792   73.305    0.259    0.424   13.850
  282.042   66.119    0.273    0.413   16.093
  282.292   60.446    0.280    0.412   17.591
  282.542   60.842    0.273    0.411   19.254
  282.792   60.809    0.271    0.408   19.888
  283.042   61.714    0.271    0.411   20.020
  283.292   62.666    0.277    0.416   20.034
  283.542   62.663    0.268    0.421   19.860
  283.792   61.822    0.267    0.420   19.669
  284.042   59.285    0.274    0.412   19.333
