~VERSION INFORMATION
 VERS.                 2.0:   CWLS LOG ASCII STANDARD -VERSION 2.0
 WRAP.                  NO:   ONE LINE PER DEPTH STEP
~WELL INFORMATION BLOCK
#MNEM.UNIT           DATA                    DESCRIPTION OF MNEMONIC
#---------    -------------------            -------------------------------
# Generated from Intellog Unique Number	CW_70_72/WELL/1029
NULL.         -999.25                        : NULL_VALUE
WELL.         SUNDANCE ET AL SMITH 10-01     : Well_name    - WELL              
LOC .         10-01-071-23W4                 : Location     - LOCATION          
UWI .         00/10-01-071-23W4/0            : Uwi          - UNIQUE WELL ID    
ENTR.         J                              : Entered      - ENTERED BY        
SRVC.         SCHLUMBERGER                   : Scn          - SERVICE COMPANY   
DATE.         20 FEB 76                      : Date         - LOG DATE          
STRT.M        414.528                        : top_depth    - START DEPTH       
STOP.M        594.278                        : bot_depth    - STOP DEPTH        
STEP.M        0.25                           : increment    - STEP LENGTH       
~CURVE INFORMATION BLOCK
#MNEM UNIT       ERCB CURVE CODE    CURVE DESCRIPTION
#-----------   ------------------   ----------------------------------
DEPT.M        00 001 00 00         : DEPTH        - DEPTH                       
DPHI.V/V      00 890 00 00         : PHID         - DENSITY POROSITY (SANDSTONE)
NPHI.V/V      00 330 00 00         : PHIN         - NEUTRON POROSITY (SANDSTONE)
GR  .API      00 310 00 00         : GR           - GAMMA RAY                   
CALI.MM       00 280 01 00         : CAL          - CALIPER                     
ILD .OHMM     00 120 00 00         : RESD         - DEEP RESISTIVITY (DIL)      
~PARAMETER INFORMATION       
#MNEM.UNIT           DATA             DESCRIPTION OF MNEMONIC
#---------         -----------     ------------------------------
GL  .M        658.216              : gl           - GROUND LEVEL ELEVATION      
EREF.M        661.416              : kb           - ELEVATION OF DEPTH REFERENCE
DATM.M        658.216              : datum        - DATUM ELEVATION             
TDD .M        622.097              : tdd          - TOTAL DEPTH DRILLER         
RUN .         ONE                  : Run          - RUN NUMBER                  
BASE.         EDM                  : Branch       - HOME BASE OF LOGGING UNIT   
MUD .         GEL                  : Mud_type     - MUD TYPE                    
MATR.         SANDSTONE            : Logunit      - NEUTRON MATRIX              
TMAX.C        26.6667              : BHT          - MAXIMUM RECORDED TEMPERATURE
BHTD.M        622.097              : BHTDEP       - MAXIMUM RECORDED TEMPERATURE
RMT .C        18.8889              : MDTP         - TEMPERATURE OF MUD          
MUDD.KG/M     0                    : MWT          - MUD DENSITY                 
NEUT.         1                    : NEUTRON      - NEUTRON TYPE                
RESI.         0                    : RESIST       - RESISTIVITY TYPE            
RM  .OHMM     1.56                 : RM           - RESISTIVITY OF MUD          
RMC .OHMM     0                    : RMC          - RESISTIVITY OF MUD CAKE     
RMF .OHMM     1.85                 : RMF          - RESISTIVITY OF MUD FILTRATE 
SUFT.C        -17.7778             : SUFT         - SURFACE TEMPERATURE         
~A  DEPTH     PHID     PHIN       GR      CAL     RESD
# ...
  487.528    0.294    0.454   61.362  139.546    2.691
  487.778    0.298    0.459   56.232  140.798    2.701
  488.028    0.291    0.427   53.103  143.901    2.708
  488.278    0.284    0.407   52.999  145.479    2.710
  488.528    0.270    0.421   53.158  146.067    2.706
  488.778    0.284    0.432   54.540  146.439    2.707
  489.028    0.301    0.436   56.371  146.493    2.708
  489.278    0.295    0.433   56.659  145.772    2.715
  489.528    0.286    0.429   56.168  143.634    2.716
  489.778    0.295    0.426   55.809  140.846    2.702
  490.028    0.294    0.430   55.579  139.261    2.704
  490.278    0.283    0.432   55.543  139.845    2.720
  490.528    0.281    0.418   55.896  142.623    2.741
  490.778    0.274    0.412   56.574  146.055    2.763
  491.028    0.262    0.418   56.855  147.853    2.789
  491.278    0.275    0.415   57.332  148.335    2.832
  491.528    0.280    0.404   57.811  148.495    2.859
  491.778    0.274    0.403   58.358  148.645    2.881
  492.028    0.281    0.415   58.573  148.582    2.899
  492.278    0.269    0.427   59.443  148.630    2.910
  492.528    0.278    0.421   60.697  148.570    2.928
  492.778    0.260    0.416   65.103  148.614    2.941
  493.028    0.265    0.412   70.547  148.767    2.953
  493.278    0.273    0.422   73.088  148.494    2.948
  493.528    0.260    0.424   72.921  148.106    2.939
  493.778    0.271    0.418   71.147  147.931    2.940
  494.028    0.275    0.440   72.979  147.762    2.969
  494.278    0.272    0.440   74.874  147.911    3.042
  494.528    0.282    0.435   74.902  148.079    3.105
  494.778    0.286    0.432   73.511  148.348    3.181
  495.028    0.277    0.415   69.935  148.167    3.289
  495.278    0.277    0.408   67.896  148.218    3.314
  495.528    0.288    0.413   65.860  148.154    3.250
  495.778    0.310    0.427   63.892  148.201    3.118
  496.028    0.324    0.446   61.600  148.251    3.041
  496.278    0.316    0.448   60.206  148.402    2.950
  496.528    0.306    0.437   63.973  148.336    2.898
  496.778    0.306    0.425   63.487  148.394    2.821
  497.028    0.307    0.432   62.288  148.324    2.741
  497.278    0.300    0.452   60.963  148.477    2.703
  497.528    0.299    0.457   59.254  148.525    2.675
  497.778    0.300    0.448   58.182  148.578    2.661
  498.028    0.299    0.431   56.662  148.627    2.662
  498.278    0.302    0.418   55.530  148.670    2.635
  498.528    0.298    0.419   58.073  148.821    2.646
  498.778    0.306    0.423   61.194  148.654    2.706
  499.028    0.304    0.426   63.929  148.488    2.838
  499.278    0.297    0.430   62.863  148.526    3.105
  499.528    0.264    0.417   61.731  148.465    3.422
  499.778    0.218    0.385   60.020  148.510    3.758
  500.028    0.171    0.348   58.497  149.541    4.172
  500.278    0.129    0.267   55.818  153.631    4.564
  500.528    0.105    0.253   54.428  156.730    4.921
  500.778    0.130    0.259   56.517  158.092    4.627
  501.028    0.202    0.272   60.285  158.138    3.994
  501.278    0.226    0.319   62.890  156.326    3.504
  501.528    0.261    0.350   66.079  152.775    3.241
  501.778    0.315    0.431   68.168  149.215    3.031
  502.028    0.309    0.448   69.484  147.952    2.892
  502.278    0.312    0.461   69.576  147.679    2.810
  502.528    0.320    0.465   65.222  147.828    2.745
  502.778    0.312    0.460   62.478  147.885    2.717
  503.028    0.303    0.439   61.798  147.703    2.704
  503.278    0.311    0.430   61.631  147.646    2.710
  503.528    0.308    0.449   61.658  147.478    2.716
  503.778    0.307    0.462   61.814  147.089    2.737
  504.028    0.301    0.460   61.977  146.478    2.734
  504.278    0.290    0.454   61.935  144.666    2.730
  504.528    0.282    0.437   62.284  143.735    2.732
  504.778    0.286    0.438   63.538  143.573    2.738
  505.028    0.297    0.431   65.822  143.607    2.774
  505.278    0.289    0.440   66.494  143.657    2.791
  505.528    0.296    0.451   65.235  143.598    2.813
  505.778    0.290    0.465   64.937  143.965    2.850
  506.028    0.302    0.476   65.609  144.232    2.958
  506.278    0.310    0.481   67.894  145.590    3.091
  506.528    0.310    0.467   69.600  147.054    3.327
  506.778    0.304    0.457   69.110  147.105    3.673
  507.028    0.302    0.449   67.784  147.149    4.019
  507.278    0.292    0.442   69.165  147.644    3.992
  507.528    0.287    0.432   70.807  148.008    3.815
  507.778    0.284    0.432   67.868  148.275    3.634
  508.028    0.274    0.447   65.962  148.105    3.461
  508.278    0.287    0.450   66.376  148.150    3.388
  508.528    0.293    0.449   67.951  148.197    3.408
  508.778    0.290    0.445   69.784  148.243    3.556
  509.028    0.286    0.435   72.582  148.185    3.758
  509.278    0.278    0.417   76.349  147.903    3.978
  509.528    0.253    0.400   74.636  147.627    4.266
  509.778    0.226    0.376   67.638  147.455    4.533
  510.028    0.261    0.396   64.571  147.276    4.635
  510.278    0.281    0.421   66.791  146.895    4.375
  510.528    0.267    0.420   69.332  146.835    4.321
  510.778    0.244    0.423   65.493  146.761    4.468
  511.028    0.225    0.419   60.817  146.594    4.799
  511.278    0.207    0.393   58.203  146.539    5.387
  511.528    0.177    0.325   56.877  146.468    6.068
  511.778    0.138    0.277   57.096  146.516    6.274
  512.028    0.177    0.289   59.187  146.893    5.709
  512.278    0.234    0.310   63.468  147.158    5.036
  512.528    0.277    0.355   67.687  147.533    4.508
  512.778    0.271    0.399   70.293  147.794    4.057
  513.028    0.276    0.431   72.189  148.277    3.712
  513.278    0.259    0.467   74.731  148.331    3.516
  513.528    0.271    0.458   76.824  148.816    3.460
  513.778    0.271    0.447   78.848  149.076    3.450
  514.028    0.249    0.437   82.872  149.120    3.521
  514.278    0.229    0.453   85.478  149.283    3.594
  514.528    0.236    0.446   88.729  149.214    3.723
  514.778    0.252    0.428   92.817  149.594    3.814
  515.028    0.258    0.436   97.807  151.495    3.900
  515.278    0.239    0.430  101.639  154.166    4.033
  515.528    0.224    0.439  102.440  156.177    4.184
  515.778    0.211    0.435  102.534  157.749    4.342
  516.028    0.205    0.432  103.140  158.998    4.424
  516.278    0.202    0.428  105.553  160.458    4.442
  516.528    0.184    0.414  108.740  161.713    4.485
  516.778    0.204    0.401  107.738  162.413    4.488
  517.028    0.200    0.414  106.087  163.438    4.490
  517.278    0.190    0.429  101.995  164.908    4.517
  517.528    0.202    0.444   99.055  165.823    4.611
  517.778    0.209    0.451   94.829  166.198    4.749
  518.028    0.196    0.445   90.728  164.502    5.056
  518.278    0.209    0.359   86.180  159.201    5.471
  518.528    0.199    0.338   82.792  155.973    5.942
  518.778    0.174    0.339   85.011  155.255    6.730
  519.028    0.168    0.357   85.748  155.633    7.849
  519.278    0.151    0.342   80.490  155.573    9.021
  519.528    0.110    0.291   72.655  155.398   10.273
  519.778    0.084    0.273   72.103  155.347   11.158
  520.028    0.094    0.275   74.129  155.391   11.287
  520.278    0.148    0.297   80.409  155.428   10.402
  520.528    0.192    0.367   85.078  155.366    7.412
  520.778    0.211    0.398   85.493  155.311    5.630
  521.028    0.248    0.425   85.522  155.246    4.711
  521.278    0.271    0.440   86.131  155.290    4.247
  521.528    0.270    0.433   87.641  155.673    3.994
  521.778    0.263    0.429   90.632  155.715    3.874
  522.028    0.258    0.445   93.429  155.877    3.806
  522.278    0.259    0.447   94.167  155.805    3.773
  522.528    0.260    0.441   93.746  156.293    3.802
  522.778    0.260    0.453   94.030  156.664    3.839
  523.028    0.260    0.469   95.153  157.365    3.876
  523.278    0.252    0.450   96.599  158.724    3.914
  523.528    0.258    0.436   97.916  159.863    3.966
  523.778    0.256    0.459   99.944  160.790    4.048
