~VERSION INFORMATION
 VERS.                 2.0:   CWLS LOG ASCII STANDARD -VERSION 2.0
 WRAP.                  NO:   ONE LINE PER DEPTH STEP
~WELL INFORMATION BLOCK
#MNEM.UNIT           DATA                    DESCRIPTION OF MNEMONIC
#---------    -------------------            -------------------------------
# Generated from Intellog Unique Number	CS_73_76/WELL/855
WELL.         MAYNARD ENERGY                 : Well_name    - WELL
LOC .         00/13-22-073-13W4/0            : Location     - LOCATION
UWI .         00/13-22-073-13W4/0            : Uwi          - UNIQUE WELL ID
ENTR.         SP                             : Entered      - ENTERED BY
SRVC.         SCHLUMBERGER                   : Scn          - SERVICE COMPANY
STRT.M        320                            : top_depth    - START DEPTH
STOP.M        531                            : bot_depth    - STOP DEPTH
STEP.M        0.25                           : increment    - STEP LENGTH
 NULL. -999.2500:NULL Value
~CURVE INFORMATION BLOCK
#MNEM UNIT       ERCB CURVE CODE    CURVE DESCRIPTION
#-----------   ------------------   ----------------------------------
DEPT.M        00 001 00 00         : DEPTH        - DEPTH
ILD .OHMM     00 120 00 00         : RESD         - DEEP RESISTIVITY (DIL)
DPHI.V/V      00 890 00 00         : PHID         - DENSITY POROSITY (LIMESTONE)
NPHI.V/V      00 330 00 00         : PHIN         - NEUTRON POROSITY (LIMESTONE)
GR  .API      00 310 00 00         : GR           - GAMMA RAY
~PARAMETER INFORMATION
#MNEM.UNIT           DATA             DESCRIPTION OF MNEMONIC
#---------         -----------     ------------------------------
GL  .M        674.31               : gl           - GROUND LEVEL ELEVATION
EREF.M        677.76               : kb           - ELEVATION OF DEPTH REFERENCE
DATM.M        674.31               : datum        - DATUM ELEVATION
TDD .M        541                  : tdd          - TOTAL DEPTH DRILLER
RUN .         ONE                  : Run          - RUN NUMBER
ENG .         BILL                 : Engineer     - RECORDING ENGINEER
WIT .         JIM                  : Witness      - WITNESSED BY
MUD .         GEL                  : Mud_type     - MUD TYPE
MATR.         LIMESTONE            : Logunit      - NEUTRON MATRIX
TMAX.C        22                   : BHT          - MAXIMUM RECORDED TEMPERATURE
BHTD.M        541                  : BHTDEP       - MAXIMUM RECORDED TEMPERATURE
MATR.         1                    : LOGUNIT      - NEUTRON MATRIX
RMT .C        25                   : MDTP         - TEMPERATURE OF MUD
NEUT.         1                    : NEUTRON      - NEUTRON TYPE
RESI.         0                    : RESIST       - RESISTIVITY TYPE
RMC .OHMM     0.25                 : RMC          - RESISTIVITY OF MUD CAKE
RMF .OHMM     0.25                 : RMF          - RESISTIVITY OF MUD FILTRATE
SUFT.C        15                   : SUFT         - SURFACE TEMPERATURE
~A  DEPTH     RESD     PHID     PHIN       GR
# ...
  494.000   16.300    0.238    0.365   79.019
  494.250   14.922    0.224    0.356   80.238
  494.500   14.111    0.202    0.350   81.456
  494.750   13.383    0.172    0.348   83.282
  495.000   12.330    0.181    0.349   88.143
  495.250   11.439    0.214    0.355   93.613
  495.500   10.386    0.235    0.360   96.652
  495.750    9.984    0.233    0.361   99.085
  496.000    9.826    0.230    0.367   99.089
  496.250    9.665    0.225    0.374   97.878
  496.500    9.344    0.214    0.382   98.488
  496.750    9.103    0.199    0.385  102.137
  497.000    8.375    0.180    0.389  104.568
  497.250    7.728    0.164    0.390  110.038
  497.500    7.406    0.157    0.391  113.686
  497.750    7.247    0.182    0.399  117.941
  498.000    7.251    0.201    0.408  119.766
  498.250    7.579    0.201    0.406  122.806
  498.500    8.396    0.203    0.394  124.023
  498.750    9.619    0.203    0.381  120.991
  499.000   11.330    0.197    0.373  113.100
  499.250   13.284    0.226    0.371  103.386
  499.500   14.995    0.228    0.366   92.459
  499.750   17.844    0.233    0.366   84.567
  500.000   19.880    0.216    0.366   77.283
  500.250   20.209    0.224    0.363   71.821
  500.500   20.294    0.221    0.361   75.469
  500.750   19.973    0.219    0.353   79.723
  501.000   19.570    0.217    0.350   83.371
  501.250   18.598    0.217    0.339   85.196
  501.500   18.194    0.225    0.335   82.772
  501.750   18.035    0.243    0.332   81.559
  502.000   18.446    0.236    0.327   79.742
  502.250   18.856    0.244    0.325   79.138
  502.500   18.779    0.251    0.323   79.749
  502.750   18.294    0.248    0.324   78.537
  503.000   18.053    0.245    0.328   80.970
  503.250   18.219    0.244    0.334   76.117
  503.500   18.712    0.256    0.339   73.690
  503.750   18.958    0.274    0.342   70.050
  504.000   19.287    0.284    0.347   67.018
  504.250   19.535    0.262    0.351   66.413
  504.500   19.132    0.248    0.353   73.706
  504.750   18.323    0.225    0.355   76.137
  505.000   17.676    0.205    0.354   81.607
  505.250   17.354    0.195    0.348   84.039
  505.500   17.438    0.188    0.344   82.221
  505.750   17.604    0.212    0.341   77.368
  506.000   14.763    0.229    0.344   76.155
  506.250   12.327    0.241    0.363   78.588
  506.500   10.461    0.244    0.380   86.486
  506.750    8.758    0.231    0.390   95.599
  507.000    7.623    0.220    0.394   99.247
  507.250    6.895    0.211    0.403   98.643
  507.500    6.086    0.189    0.421  100.468
  507.750    5.683    0.150    0.433  104.724
  508.000    5.768    0.118    0.438  107.763
  508.250    6.259    0.108    0.431  110.803
  508.500    7.482    0.142    0.394  108.985
  508.750    9.273    0.183    0.369   98.664
  509.000   22.853    0.215    0.352   87.129
  509.250   31.773    0.257    0.341   73.165
  509.500   39.863    0.278    0.337   63.452
  509.750   41.428    0.308    0.336   56.168
  510.000   37.285    0.304    0.342   52.528
  510.250   33.963    0.283    0.352   53.138
  510.500   30.638    0.268    0.357   56.180
  510.750   28.942    0.235    0.360   60.433
  511.000   27.248    0.204    0.355   68.940
  511.250   27.170    0.194    0.349   71.372
  511.500   27.117    0.200    0.346   71.983
  511.750   26.229    0.208    0.351   70.772
  512.000   22.906    0.236    0.354   71.990
  512.250   20.543    0.261    0.355   78.675
  512.500   20.465    0.256    0.355   81.714
  512.750   17.379    0.247    0.353   87.791
  513.000   15.106    0.246    0.351   91.439
  513.250   12.996    0.218    0.349   95.693
  513.500   11.292    0.200    0.351   99.341
  513.750   10.076    0.188    0.355  102.988
  514.000    9.267    0.174    0.365  104.205
  514.250    8.945    0.172    0.363  102.388
  514.500    8.868    0.171    0.359  100.569
  514.750    8.953    0.163    0.358  101.787
  515.000    9.282    0.159    0.355  105.434
  515.250    9.610    0.165    0.354  107.262
  515.500   10.183    0.182    0.352  108.479
  515.750   10.918    0.195    0.348  109.696
  516.000   11.898    0.211    0.342   99.376
  516.250   12.795    0.222    0.335   78.124
  516.500   13.042    0.231    0.326   69.018
  516.750   12.721    0.248    0.324   59.912
  517.000   11.668    0.263    0.321   52.629
  517.250   11.102    0.270    0.319   48.381
  517.500   10.780    0.285    0.324   44.134
  517.750   10.622    0.284    0.325   52.639
  518.000   10.300    0.279    0.330   62.967
  518.250    9.572    0.269    0.331   67.221
  518.500    8.925    0.274    0.331   68.439
  518.750    8.603    0.277    0.332   67.836
  519.000    8.444    0.268    0.332   68.447
  519.250    8.692    0.260    0.334   75.738
  519.500    9.427    0.249    0.339   81.814
  519.750   10.569    0.243    0.345   89.106
  520.000   11.385    0.242    0.351   97.612
  520.250   11.390    0.240    0.358  103.081
  520.500   10.662    0.237    0.359  107.335
  520.750   10.177    0.226    0.359  112.197
  521.000    9.692    0.220    0.354  115.237
  521.250    9.615    0.217    0.345  115.241
  521.500    9.781    0.234    0.340  112.208
  521.750    9.866    0.242    0.332  101.887
  522.000    9.951    0.254    0.328   83.065
  522.250    9.954    0.297    0.323   68.493
  522.500    9.958    0.312    0.326   52.707
  522.750    9.962    0.317    0.326   41.779
  523.000    9.883    0.319    0.323   38.139
  523.250    9.725    0.308    0.322   44.217
  523.500    9.403    0.243    0.320   52.115
  523.750    9.001    0.178    0.321   61.228
  524.000    8.761    0.082    0.325   73.377
  524.250    8.601    0.085    0.327   82.490
  524.500    8.523    0.082    0.327   83.101
  524.750    8.445    0.079    0.326   83.711
  525.000    8.368    0.069    0.326   84.930
  525.250    8.452    0.074    0.334   86.148
  525.500    8.293    0.067    0.342   86.152
  525.750    8.215    0.069    0.346   85.548
  526.000    8.138    0.076    0.349   84.337
  526.250    8.142    0.071    0.348   84.948
  526.500    8.144    0.080    0.344   86.774
  526.750    8.230    0.084    0.343   87.992
  527.000    8.234    0.085    0.343   88.602
  527.250    8.399    0.085    0.339   89.213
  527.500    8.484    0.088    0.334   88.610
  527.750    8.651    0.085    0.324   86.185
  528.000    8.735    0.078    0.313   82.546
  528.250    9.470    0.071    0.304   80.726
  528.500   10.612    0.067    0.300   76.478
  528.750   12.811    0.062    0.293   72.231
  529.000   13.383    0.055    0.287   67.983
  529.250   14.037    0.045    0.279   61.914
  529.500   14.854    0.052    0.268   59.488
  529.750   15.996    0.060    0.258   57.670
  530.000   17.625    0.051    0.251   56.459
  530.250   18.767    0.039    0.241   55.248
  530.500   19.420    0.022    0.232   53.430
  530.750   19.750    0.013    0.225   52.825
  531.000   19.915    0.007    0.221   51.617
