~VERSION INFORMATION
 VERS.                 2.0:   CWLS LOG ASCII STANDARD -VERSION 2.0
 WRAP.                  NO:   ONE LINE PER DEPTH STEP
~WELL INFORMATION BLOCK
#MNEM.UNIT           DATA                    DESCRIPTION OF MNEMONIC
#---------    -------------------            -------------------------------
# Generated from Intellog Unique Number	CS_77_79/WELL/3308
WELL.         ANDERSON EXPLORATION LTD.      : Well_name    - WELL
LOC .         00/14-33-077-03W4/0            : Location     - LOCATION
UWI .         00/14-33-077-03W4/0            : Uwi          - UNIQUE WELL ID
ENTR.         JOETTE                         : Entered      - ENTERED BY
SRVC.         COMPUTALOG                     : Scn          - SERVICE COMPANY
DATE.         08/26/92                       : Date         - LOG DATE
STRT.M        175                            : top_depth    - START DEPTH
STOP.M        435                            : bot_depth    - STOP DEPTH
STEP.M        0.25                           : increment    - STEP LENGTH
 NULL. -999.2500:NULL Value
~CURVE INFORMATION BLOCK
#MNEM UNIT       ERCB CURVE CODE    CURVE DESCRIPTION
#-----------   ------------------   ----------------------------------
DEPT.M        00 001 00 00         : DEPTH        - DEPTH
ILD .OHMM     00 120 00 00         : RESD         - DEEP RESISTIVITY (DIL)
NPHI.V/V      00 330 00 00         : PHIN         - NEUTRON POROSITY (SANDSTONE)
GR  .API      00 310 00 00         : GR           - GAMMA RAY
~PARAMETER INFORMATION
#MNEM.UNIT           DATA             DESCRIPTION OF MNEMONIC
#---------         -----------     ------------------------------
GL  .M        565.2                : gl           - GROUND LEVEL ELEVATION
EREF.M        568.8                : kb           - ELEVATION OF DEPTH REFERENCE
DATM.M        568.8                : datum        - DATUM ELEVATION
TDD .M        434.4                : tdd          - TOTAL DEPTH DRILLER
RUN .         ONE                  : Run          - RUN NUMBER
ENG .         BILL                 : Engineer     - RECORDING ENGINEER
WIT .         JIM                  : Witness      - WITNESSED BY
MUD .         GEL                  : Mud_type     - MUD TYPE
MATR.         SANDSTONE            : Logunit      - NEUTRON MATRIX
TMAX.C        25                   : BHT          - MAXIMUM RECORDED TEMPERATURE
BHTD.M        434.3                : BHTDEP       - MAXIMUM RECORDED TEMPERATURE
MATR.         1                    : LOGUNIT      - NEUTRON MATRIX
RMT .C        13                   : MDTP         - TEMPERATURE OF MUD
NEUT.         1                    : NEUTRON      - NEUTRON TYPE
RESI.         0                    : RESIST       - RESISTIVITY TYPE
RMC .OHMM     1.9                  : RMC          - RESISTIVITY OF MUD CAKE
RMF .OHMM     1.7                  : RMF          - RESISTIVITY OF MUD FILTRATE
SUFT.C        15                   : SUFT         - SURFACE TEMPERATURE
~A  DEPTH     RESD     PHIN       GR
# ...
  392.000    2.431    0.346   36.404
  392.250    2.477    0.343   35.147
  392.500    2.478    0.344   32.617
  392.750    2.525    0.348   30.084
  393.000    2.622    0.352   30.096
  393.250    2.623    0.349   31.380
  393.500    2.673    0.333   32.658
  393.750    2.674    0.326   36.480
  394.000    2.674    0.329   42.206
  394.250    2.675    0.338   42.852
  394.500    2.675    0.347   42.865
  394.750    2.831    0.346   42.238
  395.000    2.940    0.332   37.166
  395.250    3.053    0.316   34.001
  395.500    3.230    0.308   35.282
  395.750    3.292    0.310   41.644
  396.000    3.293    0.318   42.927
  396.250    3.113    0.319   39.124
  396.500    2.782    0.313   35.963
  396.750    2.534    0.307   36.606
  397.000    2.351    0.311   37.249
  397.250    2.397    0.325   38.533
  397.500    2.536    0.346   39.811
  397.750    2.584    0.363   43.638
  398.000    2.634    0.372   44.916
  398.250    2.537    0.369   46.831
  398.500    2.399    0.352   48.750
  398.750    2.355    0.332   51.936
  399.000    2.312    0.338   53.855
  399.250    2.312    0.348   51.955
  399.500    2.313    0.360   46.251
  399.750    2.313    0.356   42.447
  400.000    2.358    0.354   39.282
  400.250    2.358    0.353   42.473
  400.500    2.449    0.348   43.749
  400.750    2.496    0.347   48.208
  401.000    2.592    0.349   51.392
  401.250    2.794    0.350   50.132
  401.500    2.902    0.346   46.966
  401.750    2.902    0.340   53.964
  402.000    2.744    0.344   59.693
  402.250    2.644    0.350   64.150
  402.500    2.547    0.360   61.617
  402.750    2.454    0.363   49.561
  403.000    2.364    0.362   21.621
  403.250    2.278    0.364   20.361
  403.500    2.236    0.363   21.642
  403.750    2.195    0.360   21.652
  404.000    2.195    0.352   19.757
  404.250    2.196    0.350   17.862
  404.500    2.238    0.352   17.242
  404.750    2.324    0.355   17.250
  405.000    2.368    0.353   17.258
  405.250    2.459    0.347   18.543
  405.500    2.460    0.338   22.367
  405.750    2.460    0.334   24.281
  406.000    2.415    0.336   26.829
  406.250    2.371    0.341   23.664
  406.500    2.327    0.346   17.957
  406.750    2.328    0.354   17.333
  407.000    2.285    0.359   17.346
  407.250    2.285    0.363   17.356
  407.500    2.243    0.363   17.369
  407.750    2.244    0.359   17.374
  408.000    2.245    0.353   16.749
  408.250    2.245    0.343   15.492
  408.500    2.245    0.336   14.864
  408.750    2.246    0.343   14.239
  409.000    2.205    0.358   14.250
  409.250    2.164    0.365   14.895
  409.500    2.125    0.364   15.544
  409.750    2.125    0.356   16.189
  410.000    2.086    0.349   16.200
  410.250    2.086    0.342   16.842
  410.500    2.048    0.343   16.855
  410.750    2.049    0.347   16.866
  411.000    2.049    0.353   16.881
  411.250    2.088    0.353   16.889
  411.500    2.089    0.346   16.897
  411.750    2.129    0.344   16.275
  412.000    2.211    0.342   16.282
  412.250    2.339    0.345   16.295
  412.500    2.384    0.349   16.938
  412.750    2.522    0.349   17.586
  413.000    2.719    0.352   18.232
  413.250    3.220    0.419   19.513
  413.500    3.885    0.482   21.429
  413.750    4.600    0.547   25.247
  414.000    4.688    0.603   41.138
  414.250    4.602    0.559   60.839
  414.500    4.434    0.540   71.012
  414.750    4.435    0.553   98.338
  415.000    4.519    0.563  105.335
  415.250    4.965    0.575  116.144
  415.500    5.156    0.590   85.665
  415.750    5.061    0.615   78.689
  416.000    4.876    0.588   77.431
  416.250    4.786    0.557  100.306
  416.500    4.878    0.547  116.198
  416.750    5.065    0.513  120.020
  417.000    5.260    0.537  122.568
  417.250    5.262    0.549  125.760
  417.500    5.263    0.554  125.765
  417.750    5.263    0.528  123.870
  418.000    4.884    0.491  121.342
  418.250    4.448    0.481  121.990
  418.500    4.128    0.479  124.541
  418.750    3.977    0.465  123.281
  419.000    4.053    0.388   99.149
  419.250    4.209    0.422   65.495
  419.500    4.370    0.448   69.316
  419.750    4.892    0.457   80.125
  420.000    5.374    0.447  115.711
  420.250    6.015    0.435  107.461
  420.500    6.485    0.395   78.891
  420.750    6.734    0.382   92.237
  421.000    6.735    0.395  110.673
  421.250    6.490    0.409  109.408
  421.500    6.252    0.419  104.972
  421.750    5.911    0.447  101.807
  422.000    5.589    0.454   99.914
  422.250    5.285    0.459  100.557
  422.500    4.997    0.466  109.460
  422.750    4.814    0.498  118.998
  423.000    4.551    0.516  127.266
  423.250    4.304    0.519  131.087
  423.500    4.225    0.519  134.912
  423.750    4.225    0.517  135.560
  424.000    4.071    0.519  134.935
  424.250    3.996    0.525  134.313
  424.500    3.997    0.535  134.318
  424.750    3.924    0.545  135.601
  425.000    3.924    0.530  136.244
  425.250    4.153    0.537  132.443
  425.500    4.312    0.543  133.091
  425.750    4.395    0.531  134.370
  426.000    4.738    0.518  136.923
  426.250    4.920    0.511  137.569
  426.500    5.014    0.507  135.036
  426.750    5.016    0.461  129.965
  427.000    4.923    0.469  126.802
  427.250    4.743    0.455  124.269
  427.500    4.402    0.418  115.386
  427.750    4.240    0.414   89.354
  428.000    3.935    0.412   79.201
  428.250    3.791    0.458   71.590
  428.500    3.652    0.542   65.886
  428.750    3.519    0.538   64.623
  429.000    3.519    0.543   64.001
  429.250    3.587    0.554   64.009
  429.500    3.655    0.571   64.024
  429.750    3.796    0.561   64.030
  430.000    3.942    0.532   62.137
  430.250    3.942    0.522   61.512
  430.500    3.871    0.506   63.431
  430.750    3.944    0.500   64.706
  431.000    3.945    0.503   66.625
  431.250    4.021    0.507   67.270
  431.500    4.254    0.514   66.643
  431.750    4.673    0.494   65.385
  432.000    5.038    0.497   65.396
  432.250    5.331    0.511   66.041
  432.500    5.536    0.511   65.416
  432.750    5.858    0.506   64.792
  433.000    6.198    0.512   65.437
  433.250    7.069    0.519   65.448
  433.500    9.909    0.545   64.825
  433.750   10.684    0.523   65.471
  434.000   11.094    0.501   66.752
  434.250   11.520    0.510   67.397
  434.500   12.190    0.534   50.890
  434.750   12.659    0.541   34.386
  435.000   13.394    0.534   28.047
