~VERSION INFORMATION
 VERS.                 2.0:   CWLS LOG ASCII STANDARD -VERSION 2.0
 WRAP.                  NO:   ONE LINE PER DEPTH STEP
~WELL INFORMATION BLOCK
#MNEM.UNIT           DATA                    DESCRIPTION OF MNEMONIC
#---------    -------------------            -------------------------------
# Generated from Intellog Unique Number	CS_71_72/WELL/907
WELL.         KISSINGER PETROLEUM LIMITE     : Well_name    - WELL
LOC .         00/11-29-071-11W4/0            : Location     - LOCATION
UWI .         00/11-29-071-11W4/0            : Uwi          - UNIQUE WELL ID
ENTR.         SP                             : Entered      - ENTERED BY
SRVC.         SCHLUMBERGER                   : Scn          - SERVICE COMPANY
STRT.M        250                            : top_depth    - START DEPTH
STOP.M        470                            : bot_depth    - STOP DEPTH
STEP.M        0.25                           : increment    - STEP LENGTH
 NULL. -999.2500:NULL Value
~CURVE INFORMATION BLOCK
#MNEM UNIT       ERCB CURVE CODE    CURVE DESCRIPTION
#-----------   ------------------   ----------------------------------
DEPT.M        00 001 00 00         : DEPTH        - DEPTH
ILD .OHMM     00 120 00 00         : RESD         - DEEP RESISTIVITY (DIL)
DPHI.V/V      00 890 00 00         : PHID         - DENSITY POROSITY (LIMESTONE)
NPHI.V/V      00 330 00 00         : PHIN         - NEUTRON POROSITY (LIMESTONE)
GR  .API      00 310 00 00         : GR           - GAMMA RAY
~PARAMETER INFORMATION
#MNEM.UNIT           DATA             DESCRIPTION OF MNEMONIC
#---------         -----------     ------------------------------
GL  .M        590.76               : gl           - GROUND LEVEL ELEVATION
EREF.M        594.59               : kb           - ELEVATION OF DEPTH REFERENCE
DATM.M        590.76               : datum        - DATUM ELEVATION
TDD .M        479                  : tdd          - TOTAL DEPTH DRILLER
RUN .         ONE                  : Run          - RUN NUMBER
ENG .         BILL                 : Engineer     - RECORDING ENGINEER
WIT .         JIM                  : Witness      - WITNESSED BY
MUD .         GEL                  : Mud_type     - MUD TYPE
MATR.         LIMESTONE            : Logunit      - NEUTRON MATRIX
TMAX.C        28                   : BHT          - MAXIMUM RECORDED TEMPERATURE
BHTD.M        479                  : BHTDEP       - MAXIMUM RECORDED TEMPERATURE
MATR.         1                    : LOGUNIT      - NEUTRON MATRIX
RMT .C        25                   : MDTP         - TEMPERATURE OF MUD
NEUT.         1                    : NEUTRON      - NEUTRON TYPE
RESI.         0                    : RESIST       - RESISTIVITY TYPE
RMC .OHMM     0.25                 : RMC          - RESISTIVITY OF MUD CAKE
RMF .OHMM     0.25                 : RMF          - RESISTIVITY OF MUD FILTRATE
SUFT.C        15                   : SUFT         - SURFACE TEMPERATURE
~A  DEPTH     RESD     PHID     PHIN       GR
  250.000    2.846    0.242    0.473  104.971
  250.250    2.777    0.217    0.443  108.553
  250.500    2.734    0.203    0.435  110.791
  250.750    2.673    0.200    0.423  112.294
  251.000    2.613    0.203    0.398  111.601
  251.250    2.536    0.218    0.413  111.274
  251.500    2.508    0.220    0.447  118.272
  251.750    2.489    0.218    0.462  121.544
  252.000    2.510    0.223    0.453  122.198
  252.250    2.556    0.232    0.442  120.647
  252.500    2.643    0.238    0.443  119.770
  252.750    2.714    0.221    0.451  117.794
  253.000    2.768    0.222    0.474  114.715
  253.250    2.822    0.224    0.491  111.641
  253.500    2.950    0.224    0.467  111.376
  253.750    3.111    0.226    0.419  115.201
  254.000    3.320    0.214    0.412  117.864
  254.250    3.538    0.190    0.402  119.859
  254.500    3.739    0.155    0.376  120.263
  254.750    3.941    0.153    0.369  116.880
  255.000    4.109    0.181    0.397  115.088
  255.250    4.139    0.197    0.416  117.812
  255.500    4.021    0.200    0.399  117.487
  255.750    3.814    0.198    0.399  113.798
  256.000    3.492    0.213    0.410  112.068
  256.250    3.194    0.224    0.417  113.752
  256.500    3.044    0.224    0.413  116.236
  256.750    3.017    0.216    0.420  118.533
  257.000    3.054    0.212    0.415  119.367
  257.250    3.116    0.218    0.410  119.586
  257.500    3.170    0.210    0.412  119.323
  257.750    3.209    0.203    0.394  117.772
  258.000    3.238    0.197    0.393  115.550
  258.250    3.227    0.193    0.422  113.390
  258.500    3.150    0.202    0.452  110.866
  258.750    3.016    0.206    0.483  114.141
  259.000    2.891    0.203    0.458  117.477
  259.250    2.806    0.207    0.437  115.254
  259.500    2.794    0.233    0.421  113.647
  259.750    2.800    0.252    0.409  112.038
  260.000    2.911    0.259    0.399  109.508
  260.250    3.113    0.269    0.381  105.335
  260.500    3.625    0.292    0.429   99.692
  260.750    4.481    0.318    0.476   94.543
  261.000    5.459    0.352    0.503   89.329
  261.250    6.666    0.324    0.402   81.491
  261.500   11.914    0.296    0.265   72.797
  261.750   13.718    0.337    0.157   63.309
  262.000   14.664    0.367    0.153   53.883
  262.250   14.162    0.342    0.192   50.013
  262.500   10.495    0.316    0.235   46.754
  262.750    8.627    0.298    0.294   49.541
  263.000    7.487    0.289    0.325   54.587
  263.250    6.764    0.287    0.351   58.167
  263.500    6.115    0.256    0.334   59.730
  263.750    6.096    0.068    0.318   60.626
  264.000    6.575    0.017    0.291   61.091
  264.250    6.957    0.004    0.273   61.129
  264.500    7.288   -0.002    0.271   61.901
  264.750    7.343   -0.003    0.272   64.200
  265.000    7.381    0.032    0.288   76.024
  265.250    7.255    0.147    0.306   90.658
  265.500    6.917    0.188    0.324  100.528
  265.750    6.562    0.191    0.335  105.939
  266.000    6.330    0.183    0.343  107.443
  266.250    6.196    0.187    0.352  108.522
  266.500    6.201    0.206    0.359  110.637
  266.750    6.337    0.224    0.362  113.424
  267.000    6.399    0.234    0.364  114.745
  267.250    6.453    0.225    0.365  114.417
  267.500    6.483    0.213    0.361  111.890
  267.750    6.439    0.213    0.359  115.776
  268.000    6.322    0.222    0.371  120.823
  268.250    6.155    0.224    0.385  117.992
  268.500    5.964    0.220    0.388  117.782
  268.750    5.822    0.216    0.381  119.412
  269.000    5.802    0.208    0.379  119.696
  269.250    5.955    0.201    0.355  115.641
  269.500    6.230    0.208    0.346  110.611
  269.750    6.439    0.251    0.357  105.031
  270.000    6.575    0.273    0.372   99.024
  270.250    6.621    0.252    0.381   96.194
  270.500    6.585    0.228    0.371   96.660
  270.750    6.451    0.208    0.360   97.063
  271.000    6.301    0.210    0.349   97.959
  271.250    6.143    0.212    0.342   97.632
  271.500    6.042    0.212    0.349   91.559
  271.750    6.014    0.218    0.360   88.121
  272.000    5.953    0.229    0.339   87.611
  272.250    5.828    0.227    0.328   94.853
  272.500    5.563    0.203    0.335  101.549
  272.750    5.176    0.156    0.371  107.939
  273.000    4.747    0.138    0.393  113.595
  273.250    4.196    0.156    0.405  119.314
  273.500    3.645    0.183    0.409  125.395
  273.750    3.119    0.210    0.414  127.451
  274.000    2.707    0.231    0.425  122.849
  274.250    2.810    0.243    0.432  116.475
  274.500    3.412    0.253    0.435  111.263
  274.750    4.096    0.255    0.422  108.613
  275.000    5.394    0.255    0.408  105.171
  275.250    7.018    0.262    0.398   96.782
  275.500    8.323    0.241    0.395   89.189
  275.750    9.204    0.214    0.410   85.198
  276.000   10.583    0.185    0.425   80.900
  276.250   12.412    0.038    0.258   69.031
  276.500   14.363   -0.002    0.197   58.993
  276.750   16.070   -0.007    0.171   53.779
  277.000   17.154    0.043    0.244   62.855
  277.250   16.840    0.109    0.278   72.176
  277.500   14.940    0.173    0.301   79.236
  277.750   12.017    0.220    0.320   80.499
  278.000   10.550    0.239    0.345   80.293
  278.250    9.230    0.248    0.361   84.727
  278.500    8.409    0.254    0.375   88.554
  278.750    8.005    0.258    0.382   93.783
  279.000    7.765    0.254    0.367   92.538
  279.250    7.442    0.239    0.388   98.317
  279.500    7.203    0.213    0.398  112.769
  279.750    6.824    0.189    0.412  123.005
  280.000    6.387    0.171    0.422  126.706
  280.250    5.721    0.168    0.415  125.586
  280.500    5.064    0.169    0.408  127.697
  280.750    4.431    0.157    0.393  130.426
  281.000    3.970    0.159    0.387  133.332
  281.250    3.616    0.147    0.405  134.290
  281.500    3.588    0.116    0.428  130.175
  281.750    3.871    0.109    0.448  127.040
  282.000    4.260    0.137    0.452  126.528
  282.250    4.544    0.176    0.448  126.932
  282.500    5.088    0.194    0.422  125.079
  282.750    5.544    0.207    0.389  120.777
  283.000    6.456    0.224    0.375  115.934
  283.250    7.083    0.237    0.389  111.088
  283.500    7.538    0.249    0.396  105.997
  283.750    7.968    0.274    0.395  101.760
  284.000    8.227    0.287    0.396   98.011
  284.250    8.388    0.273    0.398   94.021
  284.500    8.401    0.272    0.401   90.213
  284.750    8.128    0.258    0.415   98.312
  285.000    7.904    0.240    0.427  107.329
  285.250    7.688    0.226    0.435  113.229
  285.500    7.489    0.224    0.430  114.184
  285.750    7.273    0.226    0.426  108.359
  286.000    7.115    0.252    0.418   99.970
  286.250    7.071    0.273    0.398   92.009
  286.500    7.207    0.280    0.383   86.492
  286.750    7.466    0.264    0.381   93.491
  287.000    7.845    0.257    0.391   98.416
  287.250    7.942    0.256    0.376  103.155
  287.500    8.070    0.244    0.364  106.065
  287.750    8.181    0.234    0.354  108.424
  288.000    8.186    0.234    0.358  106.387
  288.250    8.134    0.230    0.375  112.470
  288.500    7.984    0.220    0.385  117.638
  288.750    7.817    0.212    0.376  122.623
  289.000    7.667    0.206    0.371  119.182
  289.250    7.582    0.205    0.371  115.127
  289.500    7.595    0.211    0.365  113.640
  289.750    7.674    0.206    0.352  111.176
  290.000    7.948    0.204    0.357  107.489
  290.250    8.141    0.205    0.378  104.169
  290.500    8.147    0.208    0.404  103.536
  290.750    7.154    0.203    0.424  104.613
  291.000    6.170    0.184    0.447  107.579
  291.250    5.226    0.186    0.467  112.993
  291.500    4.455    0.200    0.482  117.125
  291.750    3.822    0.210    0.462  119.607
  292.000    3.516    0.217    0.450  116.223
  292.250    3.767    0.208    0.440  110.095
  292.500    4.075    0.191    0.441  105.430
  292.750    4.415    0.173    0.441  108.524
  293.000    4.788    0.186    0.423  113.692
  293.250    5.227    0.204    0.416  117.579
