~VERSION INFORMATION
 VERS.                 2.0:   CWLS LOG ASCII STANDARD -VERSION 2.0
 WRAP.                  NO:   ONE LINE PER DEPTH STEP
~WELL INFORMATION BLOCK
#MNEM.UNIT           DATA                    DESCRIPTION OF MNEMONIC
#---------    -------------------            -------------------------------
# Generated from Intellog Unique Number	CW_73_75/WELL/2751
WELL.         NORCEN POR MARTEN HILLS 15-34  : Well_name    - WELL
LOC .         00/15-34-073-25W4/0            : Location     - LOCATION
UWI .         00/15-34-073-25W4/0            : Uwi          - UNIQUE WELL ID
ENTR.         JAYE                           : Entered      - ENTERED BY
SRVC.         COMPUTALOG                     : Scn          - SERVICE COMPANY
DATE.         24 FEB 83                      : Date         - LOG DATE
STRT.M        430                            : top_depth    - START DEPTH
STOP.M        650                            : bot_depth    - STOP DEPTH
STEP.M        0.25                           : increment    - STEP LENGTH
 NULL. -999.2500:NULL Value
~CURVE INFORMATION BLOCK
#MNEM UNIT       ERCB CURVE CODE    CURVE DESCRIPTION
#-----------   ------------------   ----------------------------------
DEPT.M        00 001 00 00         : DEPTH        - DEPTH
DPHI.V/V      00 890 00 00         : PHID         - DENSITY POROSITY (SANDSTONE)
NPHI.V/V      00 330 00 00         : PHIN         - NEUTRON POROSITY (SANDSTONE)
GR  .API      00 310 00 00         : GR           - GAMMA RAY
CALI.MM       00 280 01 00         : CAL          - CALIPER
ILD .OHMM     00 120 00 00         : RESD         - DEEP RESISTIVITY (DIL)
~PARAMETER INFORMATION
#MNEM.UNIT           DATA             DESCRIPTION OF MNEMONIC
#---------         -----------     ------------------------------
GL  .M        681.45               : gl           - GROUND LEVEL ELEVATION
EREF.M        684.45               : kb           - ELEVATION OF DEPTH REFERENCE
DATM.M        681.45               : datum        - DATUM ELEVATION
TDD .M        652                  : tdd          - TOTAL DEPTH DRILLER
RUN .         ONE                  : Run          - RUN NUMBER
ENG .         GRBAVAC              : Engineer     - RECORDING ENGINEER
WIT .         STEVENS/BOGNER       : Witness      - WITNESSED BY
BASE.         EDM                  : Branch       - HOME BASE OF LOGGING UNIT
MUD .         GEL CHEM             : Mud_type     - MUD TYPE
MATR.         SANDSTONE            : Logunit      - NEUTRON MATRIX
TMAX.C        30                   : BHT          - MAXIMUM RECORDED TEMPERATURE
BHTD.M        651.5                : BHTDEP       - MAXIMUM RECORDED TEMPERATURE
RMT .C        17                   : MDTP         - TEMPERATURE OF MUD
MUDD.KG/M     1120                 : MWT          - MUD DENSITY
NEUT.         1                    : NEUTRON      - NEUTRON TYPE
RESI.         0                    : RESIST       - RESISTIVITY TYPE
RM  .OHMM     5                    : RM           - RESISTIVITY OF MUD
RMC .OHMM     5                    : RMC          - RESISTIVITY OF MUD CAKE
RMF .OHMM     5                    : RMF          - RESISTIVITY OF MUD FILTRATE
SUFT.C        0                    : SUFT         - SURFACE TEMPERATURE
~A  DEPTH     PHID     PHIN       GR      CAL     RESD
# ...
  503.000    0.282    0.399   59.487  196.806    4.451
  503.250    0.296    0.388   55.392  195.692    4.382
  503.500    0.300    0.374   53.986  194.985    4.321
  503.750    0.298    0.395   49.893  194.489    4.304
  504.000    0.298    0.395   51.928  194.308    4.277
  504.250    0.297    0.384   50.275  194.327    4.138
  504.500    0.296    0.375   47.556  194.457    3.860
  504.750    0.296    0.374   45.773  195.103    3.573
  505.000    0.296    0.371   46.000  195.648    3.314
  505.250    0.298    0.366   46.592  195.878    3.152
  505.500    0.297    0.368   46.068  196.628    2.945
  505.750    0.300    0.386   45.102  197.169    2.823
  506.000    0.300    0.403   44.755  197.820    2.731
  506.250    0.298    0.396   44.294  198.464    2.730
  506.500    0.296    0.386   43.575  199.009    2.740
  506.750    0.295    0.388   43.044  199.446    2.786
  507.000    0.297    0.391   43.203  199.988    2.861
  507.250    0.301    0.387   44.989  200.636    2.944
  507.500    0.302    0.387   48.465  200.971    3.047
  507.750    0.307    0.395   48.815  199.748    3.189
  508.000    0.313    0.384   48.220  196.343    3.319
  508.250    0.306    0.367   48.004  195.849    3.415
  508.500    0.303    0.379   50.169  196.183    3.501
  508.750    0.299    0.385   53.078  196.624    3.533
  509.000    0.291    0.392   56.992  196.547    3.552
  509.250    0.286    0.395   60.783  196.880    3.551
  509.500    0.286    0.388   56.686  197.220    3.509
  509.750    0.280    0.385   55.845  197.655    3.474
  510.000    0.271    0.384   56.441  197.884    3.473
  510.250    0.272    0.376   56.100  198.116    3.479
  510.500    0.274    0.378   54.319  198.453    3.498
  510.750    0.276    0.370   52.167  198.472    3.510
  511.000    0.284    0.359   52.199  198.913    3.529
  511.250    0.290    0.345   52.794  199.248    3.562
  511.500    0.287    0.335   53.768  199.478    3.595
  511.750    0.281    0.340   54.616  199.814    3.642
  512.000    0.281    0.370   55.090  200.256    3.683
  512.250    0.294    0.387   55.750  200.696    3.797
  512.500    0.300    0.392   56.661  200.819    3.922
  512.750    0.296    0.383   60.635  200.327    3.973
  513.000    0.292    0.367   55.411  200.348    3.934
  513.250    0.298    0.365   52.945  200.683    3.865
  513.500    0.294    0.381   53.602  200.811    3.820
  513.750    0.288    0.377   55.767  200.939    3.775
  514.000    0.282    0.363   59.432  200.856    3.730
  514.250    0.270    0.350   63.905  200.466    3.630
  514.500    0.259    0.371   68.694  200.490    3.525
  514.750    0.231    0.392   76.676  200.512    3.457
  515.000    0.189    0.435   77.087  200.536    3.371
  515.250    0.165    0.427   71.112  200.560    3.293
  515.500    0.246    0.405   66.330  200.584    3.310
  515.750    0.280    0.396   68.741  200.711    3.472
  516.000    0.297    0.391   72.344  200.632    3.593
  516.250    0.277    0.387   74.070  200.656    3.864
  516.500    0.259    0.382   74.663  200.368    4.132
  516.750    0.247    0.378   75.577  200.391    4.384
  517.000    0.238    0.380   76.545  200.309    4.545
  517.250    0.225    0.392   78.463  200.020    4.786
  517.500    0.232    0.388   75.862  200.046    4.981
  517.750    0.240    0.368   70.580  199.755    5.037
  518.000    0.237    0.341   66.921  199.676    4.987
  518.250    0.221    0.353   71.400  200.323    4.834
  518.500    0.201    0.376   77.691  201.903    4.650
  518.750    0.189    0.390   80.916  205.770    4.525
  519.000    0.187    0.389   82.575  207.043    4.429
  519.250    0.198    0.394   83.861  206.130    4.394
  519.500    0.202    0.405   81.767  202.103    4.367
  519.750    0.205    0.413   79.926  200.569    4.365
  520.000    0.229    0.399   79.527  199.866    4.372
  520.250    0.245    0.383   78.304  199.991    4.413
  520.500    0.214    0.371   74.647  200.741    4.480
  520.750    0.184    0.389   74.305  202.740    4.539
  521.000    0.177    0.402   78.411  206.191    4.625
  521.250    0.195    0.406   82.070  208.294    4.678
  521.500    0.210    0.395   85.047  207.694    4.694
  521.750    0.201    0.380   85.580  207.509    4.665
  522.000    0.184    0.409   84.303  208.157    4.691
  522.250    0.170    0.430   84.397  208.908    4.996
  522.500    0.174    0.425   86.436  209.552    5.626
  522.750    0.186    0.410   89.346  210.303    5.811
  523.000    0.191    0.401   84.936  210.534    5.463
  523.250    0.186    0.393   82.095  209.729    4.746
  523.500    0.213    0.386   81.817  208.816    4.359
  523.750    0.238    0.376   79.222  205.412    4.106
  524.000    0.295    0.367   71.434  199.516    4.241
  524.250    0.335    0.378   64.460  198.810    4.739
  524.500    0.358    0.415   67.873  200.397    5.676
  524.750    0.361    0.488   73.914  202.495    6.282
  525.000    0.322    0.485   71.947  198.986    6.353
  525.250    0.261    0.433   66.223  195.581    5.858
  525.500    0.240    0.390   61.316  195.502    5.412
  525.750    0.214    0.338   58.161  196.044    4.915
  526.000    0.194    0.283   57.379  197.416    4.541
  526.250    0.144    0.282   58.918  198.895    4.285
  526.500    0.195    0.349   61.139  199.022    4.259
  526.750    0.241    0.393   65.055  197.903    4.382
  527.000    0.257    0.388   68.594  196.475    5.098
  527.250    0.255    0.368   70.816  195.041    5.633
  527.500    0.250    0.373   72.413  193.510    6.504
  527.750    0.265    0.391   74.262  191.972    8.808
  528.000    0.272    0.413   73.922  189.920   10.878
  528.250    0.248    0.392   65.072  190.672   11.498
  528.500    0.210    0.294   58.787  193.191   10.871
  528.750    0.150    0.241   54.943  194.977    9.480
  529.000    0.093    0.237   51.660  196.661    8.142
  529.250    0.066    0.230   47.753  197.830    7.088
  529.500    0.038    0.218   45.156  198.578    6.241
  529.750    0.013    0.258   48.946  199.123    5.591
  530.000    0.099    0.309   55.173  200.912    5.327
  530.250    0.137    0.336   61.026  203.011    5.274
  530.500    0.183    0.356   66.942  204.180    5.292
  530.750    0.198    0.375   71.420  204.100    5.291
  531.000    0.197    0.388   75.272  203.189    5.238
  531.250    0.198    0.385   78.748  202.586    5.167
  531.500    0.187    0.387   83.598  202.095    5.057
  531.750    0.167    0.386   83.884  201.390    4.940
  532.000    0.162    0.380   83.604  201.099    4.743
  532.250    0.187    0.381   84.578  201.019    4.433
  532.500    0.197    0.398   85.926  202.084    4.347
  532.750    0.198    0.412   88.461  203.039    4.595
  533.000    0.185    0.408   86.621  205.141    4.847
  533.250    0.172    0.398   85.531  207.865    5.123
  533.500    0.189    0.399   86.625  210.383    5.322
  533.750    0.211    0.402   90.977  211.756    5.361
  534.000    0.234    0.388   87.507  212.403    5.349
  534.250    0.241    0.368   83.286  203.804    5.296
  534.500    0.233    0.355   80.005  204.243    5.233
  534.750    0.229    0.361   77.599  209.670    5.241
  535.000    0.235    0.378   74.942  212.498    5.230
  535.250    0.247    0.393   72.412  212.521    5.228
  535.500    0.252    0.401   69.191  202.676    5.226
  535.750    0.246    0.394   69.727  197.402    5.234
  536.000    0.243    0.403   71.016  194.724    5.252
  536.250    0.242    0.412   71.799  193.607    5.271
  536.500    0.243    0.408   73.335  193.318    5.310
  536.750    0.246    0.393   73.806  192.720    5.287
  537.000    0.241    0.376   73.279  191.909    5.245
  537.250    0.232    0.368   72.809  190.792    5.193
  537.500    0.231    0.383   75.097  190.298    5.181
  537.750    0.254    0.400   74.379  189.800    5.220
  538.000    0.255    0.404   71.347  189.718    5.360
  538.250    0.248    0.379   65.314  190.676    5.547
  538.500    0.225    0.351   64.538  192.571    5.886
  538.750    0.202    0.332   64.759  193.948    6.281
  539.000    0.187    0.334   66.166  194.905    6.437
  539.250    0.174    0.355   67.769  195.136    6.435
