~VERSION INFORMATION
 VERS.                 2.0:   CWLS LOG ASCII STANDARD -VERSION 2.0
 WRAP.                  NO:   ONE LINE PER DEPTH STEP
~WELL INFORMATION BLOCK
#MNEM.UNIT           DATA                    DESCRIPTION OF MNEMONIC
#---------    -------------------            -------------------------------
# Generated from Intellog Unique Number	CS_71_72/WELL/928
WELL.         ET AL IPIATIK                  : Well_name    - WELL
LOC .         00/16-34-071-10W4/0            : Location     - LOCATION
UWI .         00/16-34-071-10W4/0            : Uwi          - UNIQUE WELL ID
ENTR.         SP                             : Entered      - ENTERED BY
SRVC.         SCHLUMBERGER                   : Scn          - SERVICE COMPANY
STRT.M        310                            : top_depth    - START DEPTH
STOP.M        518                            : bot_depth    - STOP DEPTH
STEP.M        0.25                           : increment    - STEP LENGTH
 NULL. -999.2500:NULL Value
~CURVE INFORMATION BLOCK
#MNEM UNIT       ERCB CURVE CODE    CURVE DESCRIPTION
#-----------   ------------------   ----------------------------------
DEPT.M        00 001 00 00         : DEPTH        - DEPTH
ILD .OHMM     00 120 00 00         : RESD         - DEEP RESISTIVITY (DIL)
DPHI.V/V      00 890 00 00         : PHID         - DENSITY POROSITY (LIMESTONE)
NPHI.V/V      00 330 00 00         : PHIN         - NEUTRON POROSITY (LIMESTONE)
GR  .API      00 310 00 00         : GR           - GAMMA RAY
~PARAMETER INFORMATION
#MNEM.UNIT           DATA             DESCRIPTION OF MNEMONIC
#---------         -----------     ------------------------------
GL  .M        658.64               : gl           - GROUND LEVEL ELEVATION
EREF.M        662.14               : kb           - ELEVATION OF DEPTH REFERENCE
DATM.M        653.64               : datum        - DATUM ELEVATION
TDD .M        523                  : tdd          - TOTAL DEPTH DRILLER
RUN .         ONE                  : Run          - RUN NUMBER
ENG .         BILL                 : Engineer     - RECORDING ENGINEER
WIT .         JIM                  : Witness      - WITNESSED BY
MUD .         GEL                  : Mud_type     - MUD TYPE
MATR.         LIMESTONE            : Logunit      - NEUTRON MATRIX
TMAX.C        24                   : BHT          - MAXIMUM RECORDED TEMPERATURE
BHTD.M        523                  : BHTDEP       - MAXIMUM RECORDED TEMPERATURE
MATR.         1                    : LOGUNIT      - NEUTRON MATRIX
RMT .C        25                   : MDTP         - TEMPERATURE OF MUD
NEUT.         1                    : NEUTRON      - NEUTRON TYPE
RESI.         0                    : RESIST       - RESISTIVITY TYPE
RMC .OHMM     0.25                 : RMC          - RESISTIVITY OF MUD CAKE
RMF .OHMM     0.25                 : RMF          - RESISTIVITY OF MUD FILTRATE
SUFT.C        15                   : SUFT         - SURFACE TEMPERATURE
~A  DEPTH     RESD     PHID     PHIN       GR
# ...
  440.500    4.194    0.238    0.398   83.871
  440.750    3.705    0.238    0.405   83.078
  441.000    3.286    0.242    0.418   82.769
  441.250    2.876    0.251    0.439   83.432
  441.500    2.565    0.260    0.465   84.942
  441.750    2.379    0.267    0.522   85.845
  442.000    2.252    0.275    0.615   85.355
  442.250    2.252    0.276    0.633   84.502
  442.500    2.422    0.265    0.608   85.344
  442.750    2.792    0.249    0.551   87.339
  443.000    3.212    0.236    0.475   89.698
  443.250    3.573    0.231    0.447   90.723
  443.500    3.975    0.241    0.424   85.930
  443.750    4.283    0.248    0.400   81.622
  444.000    4.496    0.254    0.394   77.798
  444.250    4.649    0.260    0.396   76.521
  444.500    4.771    0.269    0.403   77.364
  444.750    4.870    0.266    0.407   78.994
  445.000    4.998    0.253    0.410   80.323
  445.250    5.246    0.222    0.414   81.590
  445.500    5.706    0.187    0.422   82.251
  445.750    6.479    0.163    0.406   81.580
  446.000    7.167    0.140    0.383   74.302
  446.250    7.411    0.145    0.360   63.206
  446.500    7.258    0.171    0.339   68.170
  446.750    6.950    0.195    0.378   72.286
  447.000    6.643    0.217    0.402   75.735
  447.250    6.421    0.163    0.416   77.609
  447.500    6.408    0.128    0.410   74.876
  447.750    6.515    0.108    0.395   66.023
  448.000    6.648    0.126    0.382   61.594
  448.250    6.697    0.166    0.372   66.376
  448.500    6.721    0.183    0.379   75.401
  448.750    6.644    0.190    0.388   83.335
  449.000    6.338    0.188    0.397   85.209
  449.250    6.115    0.190    0.401   83.810
  449.500    6.000    0.199    0.404   81.501
  449.750    5.965    0.206    0.407   83.011
  450.000    5.952    0.210    0.419   84.885
  450.250    5.927    0.216    0.429   86.454
  450.500    5.915    0.221    0.410   87.540
  450.750    5.914    0.224    0.403   87.474
  451.000    5.913    0.229    0.399   87.167
  451.250    5.900    0.229    0.397   87.460
  451.500    5.888    0.227    0.398   87.640
  451.750    5.864    0.225    0.414   88.059
  452.000    5.819    0.229    0.424   87.811
  452.250    5.785    0.234    0.420   87.261
  452.500    5.762    0.234    0.402   86.287
  452.750    5.728    0.227    0.395   84.949
  453.000    5.684    0.222    0.399   83.730
  453.250    5.650    0.218    0.399   83.544
  453.500    5.670    0.213    0.397   84.993
  453.750    5.711    0.208    0.394   87.775
  454.000    5.764    0.207    0.392   89.650
  454.250    5.904    0.206    0.389   92.856
  454.500    6.003    0.206    0.387   96.305
  454.750    6.092    0.205    0.386   98.785
  455.000    6.114    0.202    0.386   99.567
  455.250    6.032    0.198    0.391  100.653
  455.500    5.659    0.192    0.398   94.224
  455.750    5.113    0.191    0.399   88.945
  456.000    4.326    0.192    0.403   85.546
  456.250    3.758    0.196    0.413   83.420
  456.500    3.358    0.203    0.427   80.688
  456.750    2.983    0.219    0.436   80.137
  457.000    2.631    0.249    0.446   83.344
  457.250    2.404    0.260    0.469   86.127
  457.500    2.201    0.251    0.497   88.121
  457.750    2.131    0.255    0.525   88.723
  458.000    2.131    0.262    0.476   90.172
  458.250    2.220    0.264    0.461   95.681
  458.500    2.554    0.249    0.480   96.343
  458.750    2.846    0.237    0.447   87.428
  459.000    3.232    0.235    0.422   80.817
  459.250    3.582    0.252    0.421   80.873
  459.500    3.918    0.258    0.423   83.838
  459.750    4.105    0.244    0.422   85.347
  460.000    4.135    0.238    0.434   82.797
  460.250    4.080    0.235    0.445   82.609
  460.500    3.966    0.245    0.444   83.331
  460.750    3.869    0.254    0.421   82.478
  461.000    3.994    0.261    0.404   78.594
  461.250    4.476    0.252    0.403   74.346
  461.500    5.121    0.229    0.405   69.917
  461.750    5.508    0.091    0.371   65.367
  462.000    5.924    0.006    0.343   62.755
  462.250    6.024   -0.005    0.329   66.811
  462.500    5.910    0.134    0.354   71.046
  462.750    5.628    0.209    0.378   73.283
  463.000    5.279    0.249    0.388   72.007
  463.250    4.860    0.252    0.395   67.577
  463.500    4.550    0.240    0.400   67.330
  463.750    4.325    0.231    0.394   76.596
  464.000    4.188    0.224    0.396   82.106
  464.250    4.117    0.216    0.404   84.344
  464.500    4.063    0.211    0.407   80.096
  464.750    3.956    0.209    0.415   79.727
  465.000    3.839    0.211    0.419   85.055
  465.250    3.574    0.219    0.427   90.018
  465.500    3.296    0.215    0.448   91.409
  465.750    2.984    0.203    0.469   92.858
  466.000    2.810    0.191    0.459   93.701
  466.250    2.696    0.188    0.449   94.423
  466.500    2.660    0.201    0.442   95.690
  466.750    2.674    0.186    0.450   97.746
  467.000    2.699    0.176    0.455   95.983
  467.250    2.759    0.174    0.469   91.251
  467.500    2.821    0.192    0.463   91.367
  467.750    2.901    0.211    0.473  101.967
  468.000    3.028    0.225    0.512  104.992
  468.250    3.149    0.237    0.479   99.290
  468.500    3.244    0.198    0.439   93.466
  468.750    3.304    0.163    0.421   88.856
  469.000    3.266    0.181    0.410   92.183
  469.250    3.035    0.215    0.441   96.541
  469.500    2.789    0.232    0.477   98.779
  469.750    2.626    0.241    0.454   99.986
  470.000    2.491    0.238    0.453  103.434
  470.250    2.445    0.228    0.477  105.612
  470.500    2.547    0.217    0.449  107.546
  470.750    2.729    0.210    0.427  101.419
  471.000    2.935    0.204    0.410   99.475
  471.250    3.271    0.206    0.416  108.742
  471.500    3.625    0.209    0.423  115.463
  471.750    4.202    0.207    0.411  117.823
  472.000    4.675    0.196    0.399  107.272
  472.250    5.200    0.188    0.387   83.752
  472.500    5.796    0.200    0.375   67.141
  472.750    6.269    0.216    0.365   61.803
  473.000    6.642    0.224    0.348   58.828
  473.250    7.037    0.231    0.353   60.520
  473.500    7.331    0.237    0.361   62.513
  473.750    7.652    0.181    0.369   63.176
  474.000    8.292    0.139    0.373   62.928
  474.250    8.704    0.039    0.375   57.711
  474.500    9.034    0.001    0.378   55.827
  474.750    8.864    0.020    0.379   64.428
  475.000    8.568    0.135    0.382   71.452
  475.250    8.313    0.179    0.383   69.326
  475.500    7.856    0.229    0.345   60.049
  475.750    7.580    0.267    0.367   56.589
  476.000    7.395    0.304    0.377   65.007
  476.250    7.491    0.298    0.378   71.850
  476.500    7.908    0.268    0.370   75.846
  476.750    8.300    0.259    0.368   66.870
  477.000    8.567    0.272    0.383   61.290
  477.250    8.678    0.292    0.391   57.346
  477.500    8.546    0.283    0.385   61.219
  477.750    7.987    0.271    0.378   66.910
  478.000    7.217    0.284    0.370   72.299
  478.250    6.484    0.281    0.372   75.323
  478.500    5.947    0.261    0.373   75.803
  478.750    5.485    0.240    0.373   75.677
  479.000    5.194    0.224    0.370   75.550
  479.250    4.927    0.225    0.365   77.242
  479.500    4.807    0.242    0.362   83.601
  479.750    4.753    0.242    0.359   87.474
  480.000    4.689    0.235    0.359   87.226
  480.250    4.636    0.232    0.362   85.645
  480.500    4.608    0.243    0.364   87.277
  480.750    4.633    0.254    0.373   90.665
  481.000    4.710    0.257    0.382   95.205
  481.250    4.817    0.252    0.383  103.321
  481.500    5.028    0.228    0.380  112.406
  481.750    5.397    0.198    0.376  118.886
  482.000    6.038    0.191    0.370  113.487
  482.250    6.844    0.205    0.364   97.240
  482.500    7.402    0.214    0.360   70.023
  482.750    7.712    0.193    0.362   58.988
  483.000    7.710    0.234    0.370   61.346
  483.250    7.355    0.265    0.372   69.520
  483.500    6.861    0.288    0.371   73.879
  483.750    6.364    0.277    0.368   78.238
