~VERSION INFORMATION
 VERS.                 2.0:   CWLS LOG ASCII STANDARD -VERSION 2.0
 WRAP.                  NO:   ONE LINE PER DEPTH STEP
~WELL INFORMATION BLOCK
#MNEM.UNIT           DATA                    DESCRIPTION OF MNEMONIC
#---------    -------------------            -------------------------------
# Generated from Intellog Unique Number	CX_WELLS/WELL/2984
WELL.         ULSTER HANDST                  : Well_name    - WELL
LOC .         00/11-25-082-11W4/0            : Location     - LOCATION
UWI .         00/11-25-082-11W400            : Uwi          - UNIQUE WELL ID
ENTR.         T                              : Entered      - ENTERED BY
SRVC.         SCHLUMBERGER                   : Scn          - SERVICE COMPANY
STRT.M        265                            : top_depth    - START DEPTH
STOP.M        487                            : bot_depth    - STOP DEPTH
STEP.M        0.25                           : increment    - STEP LENGTH
 NULL. -999.2500:NULL Value
~CURVE INFORMATION BLOCK
#MNEM UNIT       ERCB CURVE CODE    CURVE DESCRIPTION
#-----------   ------------------   ----------------------------------
DEPT.M        00 001 00 00         : DEPTH        - DEPTH
GR  .API      00 310 00 00         : GR           - GAMMA RAY
NPHI.V/V      00 330 00 00         : PHIN         - NEUTRON POROSITY (SANDSTONE)
DPHI.V/V      00 890 00 00         : PHID         - DENSITY POROSITY (SANDSTONE)
ILD .OHMM     00 120 00 00         : RESD         - DEEP RESISTIVITY (OTHER)
~PARAMETER INFORMATION
#MNEM.UNIT           DATA             DESCRIPTION OF MNEMONIC
#---------         -----------     ------------------------------
GL  .M        716                  : gl           - GROUND LEVEL ELEVATION
EREF.M        719.1                : kb           - ELEVATION OF DEPTH REFERENCE
DATM.M        719.1                : datum        - DATUM ELEVATION
TDD .M        492                  : tdd          - TOTAL DEPTH DRILLER
RUN .         ONE                  : Run          - RUN NUMBER
ENG .         BILL                 : Engineer     - RECORDING ENGINEER
WIT .         JIM                  : Witness      - WITNESSED BY
MUD .         GEL                  : Mud_type     - MUD TYPE
MATR.         SANDSTONE            : Logunit      - NEUTRON MATRIX
TMAX.C        16                   : BHT          - MAXIMUM RECORDED TEMPERATURE
BHTD.M        492                  : BHTDEP       - MAXIMUM RECORDED TEMPERATURE
MATR.         1                    : LOGUNIT      - NEUTRON MATRIX
RMT .C        20                   : MDTP         - TEMPERATURE OF MUD
NEUT.         1                    : NEUTRON      - NEUTRON TYPE
RESI.         6.3                  : RESIST       - RESISTIVITY TYPE
RMC .OHMM     7.17                 : RMC          - RESISTIVITY OF MUD CAKE
RMF .OHMM     7.17                 : RMF          - RESISTIVITY OF MUD FILTRATE
SUFT.C        4                    : SUFT         - SURFACE TEMPERATURE
~A  DEPTH       GR     PHIN     PHID     RESD
  265.000  119.357    0.456    0.262    4.212
  265.250  116.858    0.466    0.258    4.377
  265.500  114.984    0.462    0.257    4.723
  265.750  113.110    0.454    0.261    4.907
  266.000  108.736    0.447    0.271    5.196
  266.250  104.987    0.441    0.292    5.824
  266.500  101.239    0.440    0.290    6.779
  266.750  103.739    0.444    0.282    7.892
  267.000  106.239    0.449    0.283    8.846
  267.250  111.239    0.449    0.326    9.727
  267.500  104.991    0.443    0.358   10.697
  267.750   61.873    0.416    0.370   11.988
  268.000   59.375    0.394    0.373   13.436
  268.250   60.000    0.383    0.382   15.641
  268.500   63.751    0.383    0.375   16.876
  268.750   68.750    0.394    0.379   19.280
  269.000   71.251    0.417    0.384   20.030
  269.250   72.501    0.431    0.383   21.210
  269.500   74.377    0.428    0.374   22.041
  269.750   79.377    0.417    0.368   22.049
  270.000   81.877    0.402    0.364   22.060
  270.250   84.377    0.395    0.358   20.462
  270.500   86.253    0.394    0.344   18.279
  270.750   83.754    0.401    0.336   17.941
  271.000   83.130    0.399    0.331   16.024
  271.250   84.380    0.394    0.333   14.046
  271.500   86.881    0.391    0.335   13.528
  271.750   88.131    0.390    0.336   13.034
  272.000   90.632    0.394    0.332   13.290
  272.250   92.507    0.396    0.322   13.809
  272.500   91.883    0.397    0.315   14.351
  272.750   88.759    0.394    0.315   14.908
  273.000   85.010    0.390    0.322   15.492
  273.250   79.387    0.392    0.344   16.718
  273.500   76.263    0.405    0.381   17.368
  273.750   71.265    0.512    0.441   18.392
  274.000   64.391    0.566    0.476   19.849
  274.250   68.142    0.589    0.476   21.018
  274.500   75.016    0.558    0.439   22.256
  274.750   75.642    0.443    0.383   23.126
  275.000   80.642    0.392    0.374   23.579
  275.250   96.265    0.392    0.370   23.153
  275.500  102.515    0.401    0.368   22.725
  275.750  107.515    0.413    0.371   20.296
  276.000  101.266    0.427    0.368   16.491
  276.250   88.769    0.429    0.344   13.918
  276.500   78.771    0.418    0.326   14.192
  276.750   72.523    0.399    0.336   14.468
  277.000   71.274    0.380    0.344   14.751
  277.250   72.525    0.373    0.349   14.758
  277.500   75.650    0.378    0.344   13.691
  277.750   76.900    0.384    0.336   12.461
  278.000   80.651    0.386    0.311   10.515
  278.250   83.776    0.389    0.286    9.570
  278.500   91.275    0.407    0.279    9.396
  278.750   99.400    0.423    0.271    9.579
  279.000  106.900    0.423    0.290   10.339
  279.250   96.277    0.415    0.312   10.743
  279.500   81.905    0.407    0.327   11.376
  279.750   86.280    0.398    0.316   11.819
  280.000   90.655    0.386    0.322   12.515
  280.250   87.531    0.385    0.329   13.004
  280.500   84.408    0.381    0.322   13.772
  280.750   83.158    0.384    0.318   14.583
  281.000   82.534    0.398    0.327   15.442
  281.250   80.660    0.396    0.337   16.353
  281.500   81.286    0.389    0.352   16.990
  281.750   84.411    0.379    0.360   17.656
  282.000   91.286    0.371    0.356   18.698
  282.250   96.910    0.365    0.339   19.426
  282.500  101.285    0.379    0.332   20.185
  282.750   97.537    0.403    0.344   20.973
  283.000   89.414    0.429    0.356   21.384
  283.250   86.290    0.416    0.364   22.219
  283.500   91.915    0.401    0.371   22.657
  283.750   97.540    0.392    0.372   22.665
  284.000   94.416    0.395    0.370   23.112
  284.250   85.668    0.400    0.370   23.562
  284.500   80.669    0.407    0.374   23.576
  284.750   80.046    0.413    0.379   23.587
  285.000   82.546    0.407    0.381   23.599
  285.250   85.046    0.404    0.376   23.610
  285.500   86.921    0.402    0.375   23.621
  285.750   88.172    0.397    0.372   23.638
  286.000   90.673    0.390    0.371   23.644
  286.250   93.798    0.393    0.370   23.212
  286.500   95.048    0.402    0.369   22.788
  286.750   94.424    0.411    0.366   22.372
  287.000   89.425    0.411    0.364   21.551
  287.250   85.677    0.403    0.360   20.374
  287.500   89.427    0.391    0.355   19.625
  287.750   95.052    0.395    0.353   17.532
  288.000   95.677    0.398    0.349   15.957
  288.250   98.178    0.403    0.340   14.801
  288.500  106.927    0.408    0.318   13.729
  288.750  114.427    0.411    0.304   13.226
  289.000  122.551    0.406    0.308   12.036
  289.250  122.552    0.391    0.309   10.551
  289.500  118.803    0.386    0.304   10.162
  289.750  115.679    0.385    0.295    9.605
  290.000  110.056    0.382    0.285    8.746
  290.250  104.433    0.381    0.270    8.424
  290.500  112.557    0.381    0.259    8.114
  290.750  123.181    0.378    0.241    7.670
  291.000  130.056    0.382    0.228    7.390
  291.250  135.681    0.396    0.208    6.986
  291.500  136.306    0.419    0.169    6.857
  291.750  123.184    0.430    0.139    6.483
  292.000  135.058    0.433    0.134    6.245
  292.250  136.934    0.439    0.167    5.902
  292.500  134.435    0.442    0.255    5.686
  292.750  132.561    0.459    0.250    5.479
  293.000  134.436    0.457    0.243    5.379
  293.250  136.311    0.457    0.252    5.696
  293.500  135.687    0.463    0.266    6.504
  293.750  135.063    0.472    0.280    8.976
  294.000  133.814    0.457    0.292   11.484
  294.250  130.690    0.418    0.304   14.150
  294.500  126.317    0.407    0.319   15.862
  294.750  119.443    0.398    0.335   16.169
  295.000  111.945    0.388    0.333   16.804
  295.250  107.572    0.381    0.307   17.129
  295.500  107.573    0.375    0.298   17.467
  295.750  108.823    0.377    0.299   17.150
  296.000  109.449    0.378    0.304   16.832
  296.250  109.450    0.379    0.313   16.215
  296.500  109.450    0.379    0.319   15.330
  296.750  106.952    0.379    0.325   14.221
  297.000  105.702    0.381    0.321   13.193
  297.250  102.578    0.386    0.292   12.706
  297.500  111.953    0.389    0.271   11.787
  297.750  119.452    0.393    0.257   11.142
  298.000  127.577    0.394    0.229   10.732
  298.250  131.952    0.393    0.234   10.536
  298.500  132.578    0.389    0.262   10.542
  298.750  130.079    0.382    0.279   10.953
  299.000  120.081    0.379    0.320   11.819
  299.250  116.957    0.381    0.303   14.023
  299.500  118.833    0.386    0.292   15.420
  299.750  115.709    0.393    0.300   16.022
  300.000   95.712    0.403    0.315   16.650
  300.250   84.465    0.398    0.331   16.660
  300.500   85.091    0.392    0.347   16.354
  300.750   88.216    0.389    0.357   16.053
  301.000   95.716    0.389    0.340   15.468
  301.250  100.715    0.389    0.326   15.184
  301.500  106.340    0.389    0.323   14.908
  301.750  110.715    0.389    0.329   14.913
  302.000  107.592    0.392    0.336   15.206
  302.250  104.468    0.398    0.303   15.800
  302.500   92.595    0.403    0.302   16.732
  302.750   88.847    0.410    0.295   17.388
  303.000   83.848    0.415    0.266   17.724
  303.250   78.225    0.415    0.247   17.076
  303.500   76.351    0.411    0.248   16.450
  303.750   77.601    0.410    0.260   15.260
  304.000   80.102    0.405    0.284   14.425
  304.250   85.102    0.404    0.319   13.636
  304.500   92.601    0.401    0.315   12.890
  304.750   99.476    0.393    0.292   12.186
  305.000  106.351    0.392    0.284   11.302
  305.250  111.350    0.398    0.278   10.483
  305.500  115.101    0.404    0.276    9.543
  305.750  120.100    0.404    0.269    9.191
  306.000  120.101    0.411    0.262    8.688
  306.250  122.601    0.419    0.253    9.204
  306.500  121.977    0.425    0.253    9.382
  306.750  123.228    0.430    0.258    9.747
  307.000  121.979    0.432    0.282   10.720
  307.250  117.605    0.433    0.289   11.788
  307.500  111.357    0.432    0.310   13.723
  307.750  105.734    0.431    0.327   14.259
  308.000   97.611    0.428    0.336   13.738
  308.250   93.237    0.425    0.343   13.232
