~VERSION INFORMATION
 VERS.                 2.0:   CWLS LOG ASCII STANDARD -VERSION 2.0
 WRAP.                  NO:   ONE LINE PER DEPTH STEP
~WELL INFORMATION BLOCK
#MNEM.UNIT           DATA                    DESCRIPTION OF MNEMONIC
#---------    -------------------            -------------------------------
# Generated from Intellog Unique Number	CC_80_83/WELL/2331
NULL.         -999.25                        : NULL_VALUE
WELL.         GULF PONY                      : Well_name    - WELL              
LOC .         10-03-081-09W4                 : Location     - LOCATION          
UWI .         00/10-03-081-09W400            : Uwi          - UNIQUE WELL ID    
ENTR.         DW                             : Entered      - ENTERED BY        
SRVC.         SCHLUMBERGER                   : Scn          - SERVICE COMPANY   
DATE.         01 FEB 75                      : Date         - LOG DATE
STRT.M        259.08                         : top_depth    - START DEPTH       
STOP.M        496.831                        : bot_depth    - STOP DEPTH        
STEP.M        0.305                          : increment    - STEP LENGTH       
~CURVE INFORMATION BLOCK
#MNEM UNIT       ERCB CURVE CODE    CURVE DESCRIPTION
#-----------   ------------------   ----------------------------------
DEPT.M        00 001 00 00         : DEPTH        - DEPTH                       
GR  .API      00 310 00 00         : GR           - GAMMA RAY                   
NPHI.V/V      00 330 00 00         : PHIN         - NEUTRON POROSITY (LIMESTONE)
DPHI.V/V      00 890 00 00         : PHID         - DENSITY POROSITY (LIMESTONE)
~PARAMETER INFORMATION       
#MNEM.UNIT           DATA             DESCRIPTION OF MNEMONIC
#---------         -----------     ------------------------------
GL  .M        702.259              : gl           - GROUND LEVEL ELEVATION      
EREF.M        706.039              : kb           - ELEVATION OF DEPTH REFERENCE
DATM.M        706.039              : datum        - DATUM ELEVATION             
TDD .M        499.872              : tdd          - TOTAL DEPTH DRILLER         
RUN .         ONE                  : Run          - RUN NUMBER                  
ENG .         BILL                 : Engineer     - RECORDING ENGINEER          
WIT .         JIM                  : Witness      - WITNESSED BY                
MUD .         GEL                  : Mud_type     - MUD TYPE                    
MATR.         LIMESTONE            : Logunit      - NEUTRON MATRIX              
TMAX.C        22.2222              : BHT          - MAXIMUM RECORDED TEMPERATURE
BHTD.M        499.872              : BHTDEP       - MAXIMUM RECORDED TEMPERATURE
MATR.         1                    : LOGUNIT      - NEUTRON MATRIX              
RMT .C        25                   : MDTP         - TEMPERATURE OF MUD          
NEUT.         1                    : NEUTRON      - NEUTRON TYPE                
RESI.         0                    : RESIST       - RESISTIVITY TYPE            
RMC .OHMM     0.25                 : RMC          - RESISTIVITY OF MUD CAKE     
RMF .OHMM     0.25                 : RMF          - RESISTIVITY OF MUD FILTRATE 
SUFT.C        4                    : SUFT         - SURFACE TEMPERATURE         
~A  DEPTH       GR     PHIN     PHID
# ...
  457.511  102.573    0.468    0.194
  457.816  102.563    0.456    0.192
  458.121   99.515    0.470    0.185
  458.425   95.247    0.462    0.183
  458.730   94.022    0.457    0.195
  459.035   97.661    0.471    0.215
  459.340   93.394    0.462    0.202
  459.645   87.909    0.435    0.204
  459.949   86.683    0.448    0.201
  460.254   87.284    0.438    0.209
  460.559   88.491    0.432    0.198
  460.864   90.914    0.432    0.210
  461.169   87.861    0.458    0.209
  461.474   86.636    0.450    0.173
  461.778   87.843    0.440    0.160
  462.083   89.658    0.448    0.216
  462.388   89.649    0.449    0.199
  462.693   90.247    0.438    0.175
  462.998   93.279    0.426    0.153
  463.302   96.309    0.441    0.209
  463.607   96.301    0.476    0.214
  463.912   95.683    0.496    0.183
  464.217   92.633    0.473    0.191
  464.522   91.408    0.439    0.199
  464.826   95.047    0.438    0.200
  465.131   97.472    0.479    0.186
  465.436   96.854    0.475    0.191
  465.741   94.411    0.471    0.194
  466.046   95.010    0.473    0.186
  466.350  102.299    0.468    0.168
  466.655  100.466    0.470    0.185
  466.960   94.374    0.510    0.161
  467.265   91.322    0.473    0.203
  467.570   93.138    0.434    0.224
  467.875  125.973    0.401    0.267
  468.179  123.530    0.388    0.249
  468.484  113.180    0.417    0.227
  468.789  102.831    0.453    0.228
  469.094   96.132    0.461    0.219
  469.399   77.875    0.480    0.209
  469.703   58.403    0.461    0.267
  470.008   46.227    0.446    0.300
  470.313   49.868    0.440    0.310
  470.618   62.023    0.431    0.308
  470.923   83.303    0.416    0.305
  471.227   83.901    0.425    0.295
  471.532   73.552    0.465    0.270
  471.837   66.852    0.450    0.289
  472.142   66.842    0.449    0.299
  472.447   68.049    0.450    0.271
  472.751   63.782    0.454    0.274
  473.056   57.690    0.465    0.310
  473.361   70.454    0.467    0.299
  473.666   83.825    0.444    0.286
  473.971   80.774    0.477    0.228
  474.276   74.682    0.462    0.257
  474.580   62.509    0.487    0.243
  474.885   50.943    0.505    0.297
  475.190   60.056    0.481    0.330
  475.495   57.006    0.496    0.336
  475.800   52.737    0.458    0.341
  476.104   50.296    0.432    0.352
  476.409   49.069    0.444    0.344
  476.714   52.709    0.471    0.322
  477.019   53.918    0.496    0.336
  477.324   49.650    0.490    0.339
  477.628   50.857    0.459    0.349
  477.933   59.364    0.438    0.325
  478.238   68.477    0.406    0.300
  478.543   67.250    0.421    0.262
  478.848   65.415    0.442    0.313
  479.152   65.407    0.427    0.321
  479.457   69.656    0.446    0.324
  479.762   89.718    0.458    0.317
  480.067   86.058    0.465    0.288
  480.372   69.627    0.462    0.315
  480.677   61.102    0.443    0.300
  480.981   64.134    0.431    0.298
  481.286   71.423    0.436    0.283
  481.591   76.888    0.467    0.288
  481.896   77.487    0.446    0.258
  482.201   74.436    0.442    0.254
  482.505   73.817    0.444    0.258
  482.810   73.198    0.442    0.251
  483.115   70.757    0.449    0.240
  483.420   68.313    0.451    0.229
  483.725   70.130    0.450    0.248
  484.029   73.162    0.441    0.256
  484.334   70.109    0.442    0.233
  484.639   68.278    0.444    0.246
  484.944   64.011    0.434    0.270
  485.249   59.136    0.446    0.275
  485.553   53.650    0.450    0.307
  485.858   53.640    0.457    0.320
  486.163   49.983    0.457    0.314
  486.468   46.324    0.450    0.330
  486.773   43.883    0.443    0.336
  487.078   42.044    0.437    0.331
  487.382   42.035    0.432    0.331
  487.687   42.638    0.432    0.336
  487.992   45.669    0.440    0.346
  488.297   49.309    0.447    0.347
  488.602   49.299    0.445    0.349
  488.906   39.558    0.438    0.341
  489.211   42.590    0.426    0.329
  489.516   61.435    0.422    0.297
  489.821   74.807    0.422    0.206
  490.126  102.775    0.415    0.000
  490.430  114.323    0.526    0.082
  490.735  117.963    0.530    0.176
  491.040  114.304    0.529    0.167
  491.345  108.820    0.525    0.162
  491.650  103.945    0.514    0.154
  491.954   97.853    0.507    0.158
  492.259   85.679    0.544    0.215
  492.564   64.990    0.610    0.217
  492.869   50.383    0.556    0.061
  493.174   43.075    0.447    0.000
  493.479   41.238    0.195    0.054
  493.783   41.839    0.192    0.040
  494.088   42.434    0.181    0.008
  494.393   43.033    0.179    0.008
  494.698   43.633    0.162    0.013
  495.003   44.231    0.138    0.000
  495.307   44.223    0.157    0.037
  495.612   43.605    0.336    0.054
  495.917   43.595    0.439    0.048
  496.222   43.588    0.452    0.038
  496.527   44.187    0.456    0.039
  496.831   44.175    0.458    0.050
