~VERSION INFORMATION
 VERS.                 2.0:   CWLS LOG ASCII STANDARD -VERSION 2.0
 WRAP.                  NO:   ONE LINE PER DEPTH STEP
~WELL INFORMATION BLOCK
#MNEM.UNIT           DATA                    DESCRIPTION OF MNEMONIC
#---------    -------------------            -------------------------------
# Generated from Intellog Unique Number	CW_79_81/WELL/2902
WELL.         11-18-079-03W5                 : Well_name    - WELL
LOC .         00/11-18-079-03W5/0M           : Location     - LOCATION
UWI .         00/11-18-079-03W5/0            : Uwi          - UNIQUE WELL ID
ENTR.         JJ                             : Entered      - ENTERED BY
SRVC.         SCHLUMBERGER                   : Scn          - SERVICE COMPANY
DATE.         4 MAR 68                       : Date         - LOG DATE
STRT.M        484.632                        : top_depth    - START DEPTH
STOP.M        612.632                        : bot_depth    - STOP DEPTH
STEP.M        0.25                           : increment    - STEP LENGTH
 NULL. -999.2500:NULL Value
~CURVE INFORMATION BLOCK
#MNEM UNIT       ERCB CURVE CODE    CURVE DESCRIPTION
#-----------   ------------------   ----------------------------------
DEPT.M        00 001 00 00         : DEPTH        - DEPTH
DELT.US/F     00 520 00 00         : DELT         - SONIC TRAVEL TIME
GR  .API      00 310 00 00         : GR           - GAMMA RAY
ILD .OHMM     00 120 00 00         : RESD         - DEEP RESISTIVITY (DIL)
~PARAMETER INFORMATION
#MNEM.UNIT           DATA             DESCRIPTION OF MNEMONIC
#---------         -----------     ------------------------------
GL  .M        654                  : gl           - GROUND LEVEL ELEVATION
EREF.M        657.454              : kb           - ELEVATION OF DEPTH REFERENCE
DATM.M        657.454              : datum        - DATUM ELEVATION
TDD .M        620.268              : tdd          - TOTAL DEPTH DRILLER
RUN .         ONE                  : Run          - RUN NUMBER
ENG .         EDGSON               : Engineer     - RECORDING ENGINEER
WIT .         DONALD & SANDERSON   : Witness      - WITNESSED BY
BASE.         EDMONTON             : Branch       - HOME BASE OF LOGGING UNIT
MUD .         GEL                  : Mud_type     - MUD TYPE
MATR.         SANDSTONE            : Logunit      - NEUTRON MATRIX
TMAX.C        27.7778              : BHT          - MAXIMUM RECORDED TEMPERATURE
BHTD.M        620.268              : BHTDEP       - MAXIMUM RECORDED TEMPERATURE
RMT .C        18.8889              : MDTP         - TEMPERATURE OF MUD
MUDD.KG/M     1236                 : MWT          - MUD DENSITY
NEUT.         1                    : NEUTRON      - NEUTRON TYPE
RESI.         0                    : RESIST       - RESISTIVITY TYPE
RM  .OHMM     5.6                  : RM           - RESISTIVITY OF MUD
RMC .OHMM     3.39                 : RMC          - RESISTIVITY OF MUD CAKE
RMF .OHMM     5.35                 : RMF          - RESISTIVITY OF MUD FILTRATE
SUFT.C        5                    : SUFT         - SURFACE TEMPERATURE
~A  DEPTH     DELT       GR     RESD
  484.632  242.530   59.522    5.799
  484.882  319.323   55.741   10.410
  485.132  368.960   58.665   11.694
  485.382  388.478   61.389   11.377
  485.632  390.720   61.467   10.153
  485.882  393.235   62.105    8.128
  486.132  394.406   65.233    7.070
  486.382  397.124   67.852    6.546
  486.632  398.832   68.798    6.103
  486.882  396.103   70.450    5.744
  487.132  395.322   69.617    5.466
  487.382  397.033   71.120    5.251
  487.632  392.083   74.345    5.302
  487.882  388.483   74.583    5.312
  488.132  389.784   74.608    5.178
  488.382  391.151   74.178    5.003
  488.632  391.047   70.398    4.850
  488.882  389.732   69.665    4.799
  489.132  388.212   72.183    4.809
  489.382  389.178   72.723    4.879
  489.632  385.846   70.312    4.889
  489.882  386.544   71.964    4.900
  490.132  388.861   73.416    4.848
  490.382  385.862   70.451    4.796
  490.632  381.988   68.547    4.869
  490.882  380.132   73.199    5.084
  491.132  376.934   75.768    5.279
  491.382  379.916   74.477    5.701
  491.632  384.046   76.789    5.526
  491.882  387.096   74.993    5.290
  492.132  388.737   73.753    5.074
  492.382  387.489   75.965    4.983
  492.632  384.826   79.496    4.888
  492.882  385.256   82.979    4.775
  493.132  383.400   80.113    4.703
  493.382  379.260   78.161    4.733
  493.632  376.601   82.718    5.134
  493.882  382.476   84.567    6.193
  494.132  383.714   78.096    7.497
  494.382  364.382   70.864    9.234
  494.632  306.396   64.852   10.868
  494.882  275.771   60.715   12.768
  495.132  306.250   57.035   12.389
  495.382  354.877   59.501   10.877
  495.632  372.583   68.778    9.326
  495.882  379.530   74.340    7.610
  496.132  381.376   73.709    6.407
  496.382  377.972   71.350    5.597
  496.632  375.780   72.800    5.276
  496.882  379.577   73.286    5.308
  497.132  378.589   72.403    5.379
  497.382  375.261   76.852    5.368
  497.632  373.540   77.234    5.605
  497.882  372.690   71.119    5.965
  498.132  369.828   67.187    6.304
  498.382  362.866   67.772    6.499
  498.632  353.075   67.853    6.488
  498.882  361.709   70.624    6.396
  499.132  369.128   72.583    6.282
  499.382  379.168   75.866    6.108
  499.632  383.772   73.254    5.811
  499.882  386.283   75.361    5.450
  500.132  383.747   80.370    5.336
  500.382  381.700   80.905    5.349
  500.632  382.603   82.558    5.356
  500.882  386.394   80.049    5.428
  501.132  387.027   82.566    5.417
  501.382  389.201   82.089    5.388
  501.632  393.937   79.224    5.314
  501.882  394.907   78.133    5.201
  502.132  393.924   80.246    5.150
  502.382  394.558   83.676    5.098
  502.632  395.721   85.890    5.129
  502.882  396.958   81.908    5.139
  503.132  397.664   81.277    5.046
  503.382  395.067   80.644    4.873
  503.632  390.794   77.271    4.882
  503.882  387.726   77.147    4.954
  504.132  387.218   85.708    4.986
  504.382  388.720   87.415    5.057
  504.632  390.764   85.309    5.172
  504.882  393.416   85.694    5.220
  505.132  396.128   89.181    5.211
  505.382  397.770   89.362    5.179
  505.632  397.262   88.474    5.171
  505.882  389.826   83.931    5.139
  506.132  376.410   82.489    5.148
  506.382  371.798   85.262    5.241
  506.632  379.221   83.966    5.395
  506.882  379.447   75.211    5.796
  507.132  373.897   69.094    6.505
  507.382  367.334   67.345    7.377
  507.632  347.601   67.579    8.682
  507.882  350.452   69.284    9.967
  508.132  355.384   70.532   10.040
  508.382  318.978   68.736    9.453
  508.632  314.568   67.295    8.661
  508.882  323.268   65.896    7.808
  509.132  341.243   63.994    6.936
  509.382  363.856   68.191    6.246
  509.632  377.120   71.621    5.415
  509.882  380.578   75.661    5.012
  510.132  382.221   79.046    4.653
  510.382  382.313   80.138    4.439
  510.632  375.688   82.554    4.366
  510.882  378.133   83.598    4.293
  511.132  380.582   84.239    4.386
  511.382  380.539   83.658    4.415
  511.632  368.735   82.772    4.570
  511.882  359.960   81.632    4.992
  512.132  344.324   78.361    5.598
  512.382  319.480   72.093    6.594
  512.632  219.817   64.147    8.763
  512.882  210.164   56.151   11.937
  513.132  244.005   50.492   14.991
  513.382  277.706   56.365   15.370
  513.632  303.281   61.776   14.989
  513.882  315.744   66.376   14.423
  514.132  293.385   70.009   13.673
  514.382  266.861   72.424   12.882
  514.632  299.422   72.765   12.399
  514.882  335.344   75.585   12.758
  515.132  339.067   78.555   13.036
  515.382  346.287   75.843   11.237
  515.632  356.870   76.279    9.460
  515.882  369.464   78.746    8.545
  516.132  371.438   75.169    7.734
  516.382  368.983   71.392    7.331
  516.632  370.150   70.303    6.952
  516.882  369.369   72.973    6.735
  517.132  365.838   74.524    6.561
  517.382  362.299   76.278    6.592
  517.632  361.858   81.895    6.562
  517.882  365.180   85.630    6.551
  518.132  364.265   80.174    6.498
  518.382  357.436   76.345    6.407
  518.632  351.072   73.991    6.315
  518.882  354.197   78.184    6.303
  519.132  360.268   78.768    6.253
  519.382  362.786   76.359    6.160
  519.632  364.559   77.404    6.108
  519.882  365.330   80.125    6.055
  520.132  364.340   85.536    5.964
  520.382  361.752   82.263    5.933
  520.632  360.095   81.683    5.901
  520.882  359.993   81.155    5.892
  521.132  360.891   79.967    5.881
  521.382  357.894   79.944    5.974
  521.632  361.553   79.666    6.025
  521.882  365.275   77.359    6.035
  522.132  369.269   78.359    6.044
  522.382  361.363   80.415    6.013
  522.632  352.856   81.208    5.942
  522.882  350.931   79.002    5.870
  523.132  355.194   81.367    5.755
  523.382  356.027   83.122    5.789
  523.632  354.308   84.724    5.901
  523.882  349.092   82.264    6.199
  524.132  338.835   77.217    6.599
  524.382  342.889   80.645    6.959
  524.632  349.712   83.774    7.133
  524.882  354.713   84.158    6.999
  525.132  350.034   82.409    6.885
  525.382  342.465   77.766    6.937
  525.632  337.989   77.595    7.092
  525.882  336.531   79.553    7.287
  526.132  337.503   82.577    7.296
  526.382  344.118   85.601    6.875
  526.632  364.581   84.157    6.371
  526.882  372.541   85.659    5.662
  527.132  369.473   90.665    5.158
  527.382  352.631   89.734    4.820
  527.632  325.098   85.138    4.891
  527.882  297.429   81.104    6.011
  528.132  263.981   76.565    8.180
  528.382  233.356   72.073   10.470
  528.632  222.021   68.396   14.117
  528.882  216.331   65.425   16.944
  529.132  214.002   67.236   19.503
  529.382  213.430   66.347   22.390
  529.632  214.197   62.416   23.345
  529.882  226.326   58.080   23.212
  530.132  241.744   54.909   22.627
  530.382  235.858   50.364   22.658
  530.632  213.970   49.276   23.447
  530.882  210.233   49.663   24.917
  531.132  230.896   47.558   27.558
  531.382  249.947   43.069   30.898
  531.632  225.372   46.446   33.396
  531.882  208.188   48.052   35.317
  532.132  216.283   46.709   36.210
  532.382  238.491   48.209   35.851
  532.632  251.156   51.186   34.031
  532.882  275.853   54.568   29.602
  533.132  294.769   59.013   24.556
  533.382  314.428   63.206   19.675
  533.632  336.637   65.779   16.828
  533.882  335.251   66.363   14.598
  534.132  332.321   66.854   12.204
  534.382  332.143   65.505   11.412
  534.632  333.920   66.398   11.319
  534.882  338.988   70.138   10.919
  535.132  344.529   72.094   10.415
  535.382  349.463   71.919    9.726
  535.632  351.977   69.106    9.040
  535.882  353.817   71.016    8.576
  536.132  354.047   73.738    7.969
  536.382  354.879   76.253    7.445
  536.632  358.533   78.520    7.003
  536.882  356.544   80.371    6.745
  537.132  354.757   83.047    6.468
  537.382  353.040   78.045    6.293
  537.632  358.645   74.212    6.138
  537.882  354.978   75.104    6.129
  538.132  353.258   77.525    6.201
  538.382  353.953   79.023    6.293
  538.632  353.444   78.953    6.653
