~VERSION INFORMATION
 VERS.                 2.0:   CWLS LOG ASCII STANDARD -VERSION 2.0
 WRAP.                  NO:   ONE LINE PER DEPTH STEP
~WELL INFORMATION BLOCK
#MNEM.UNIT           DATA                    DESCRIPTION OF MNEMONIC
#---------    -------------------            -------------------------------
# Generated from Intellog Unique Number	CX_WELLS/WELL/2500
WELL.         PCI NEWBY                      : Well_name    - WELL
LOC .         00/10-32-084-04W4/0            : Location     - LOCATION
UWI .         00/10-32-084-04W4/0            : Uwi          - UNIQUE WELL ID
ENTR.         T                              : Entered      - ENTERED BY
SRVC.         SCHLUMBERGER                   : Scn          - SERVICE COMPANY
STRT.M        75                             : top_depth    - START DEPTH
STOP.M        215                            : bot_depth    - STOP DEPTH
STEP.M        0.25                           : increment    - STEP LENGTH
 NULL. -999.2500:NULL Value
~CURVE INFORMATION BLOCK
#MNEM UNIT       ERCB CURVE CODE    CURVE DESCRIPTION
#-----------   ------------------   ----------------------------------
DEPT.M        00 001 00 00         : DEPTH        - DEPTH
GR  .API      00 310 00 00         : GR           - GAMMA RAY
NPHI.V/V      00 330 00 00         : PHIN         - NEUTRON POROSITY (SANDSTONE)
DPHI.V/V      00 890 00 00         : PHID         - DENSITY POROSITY (SANDSTONE)
ILD .OHMM     00 120 00 00         : RESD         - DEEP RESISTIVITY (DIL)
~PARAMETER INFORMATION
#MNEM.UNIT           DATA             DESCRIPTION OF MNEMONIC
#---------         -----------     ------------------------------
GL  .M        458                  : gl           - GROUND LEVEL ELEVATION
EREF.M        563                  : kb           - ELEVATION OF DEPTH REFERENCE
DATM.M        563                  : datum        - DATUM ELEVATION
TDD .M        231                  : tdd          - TOTAL DEPTH DRILLER
RUN .         ONE                  : Run          - RUN NUMBER
ENG .         BILL                 : Engineer     - RECORDING ENGINEER
WIT .         JIM                  : Witness      - WITNESSED BY
MUD .         GEL                  : Mud_type     - MUD TYPE
MATR.         SANDSTONE            : Logunit      - NEUTRON MATRIX
TMAX.C        11                   : BHT          - MAXIMUM RECORDED TEMPERATURE
BHTD.M        232                  : BHTDEP       - MAXIMUM RECORDED TEMPERATURE
MATR.         1                    : LOGUNIT      - NEUTRON MATRIX
RMT .C        11                   : MDTP         - TEMPERATURE OF MUD
NEUT.         1                    : NEUTRON      - NEUTRON TYPE
RESI.         2.7                  : RESIST       - RESISTIVITY TYPE
RMC .OHMM     3                    : RMC          - RESISTIVITY OF MUD CAKE
RMF .OHMM     2                    : RMF          - RESISTIVITY OF MUD FILTRATE
SUFT.C        4                    : SUFT         - SURFACE TEMPERATURE
~A  DEPTH       GR     PHIN     PHID     RESD
# ...
  162.000   71.731    0.362    0.263    6.938
  162.250   69.248    0.349    0.271    7.203
  162.500   66.143    0.333    0.279    7.767
  162.750   65.521    0.321    0.293    9.036
  163.000   64.278    0.298    0.305   10.711
  163.250   60.553    0.247    0.323   12.227
  163.500   49.384    0.213    0.339   14.496
  163.750   46.900    0.148    0.364   17.187
  164.000   45.657    0.120    0.374   18.887
  164.250   37.590    0.089    0.365   16.212
  164.500   38.828    0.105    0.359   15.604
  164.750   41.927    0.128    0.346   14.456
  165.000   41.305    0.162    0.346   13.911
  165.250   36.339    0.154    0.344   13.640
  165.500   35.716    0.188    0.333   13.896
  165.750   40.676    0.228    0.333   14.702
  166.000   43.156    0.233    0.346   17.428
  166.250   44.394    0.217    0.362   19.521
  166.500   41.910    0.198    0.356   23.584
  166.750   38.186    0.164    0.351   25.918
  167.000   34.461    0.139    0.357   30.150
  167.250   31.977    0.125    0.371   33.137
  167.500   31.355    0.109    0.369   37.113
  167.750   31.352    0.103    0.367   40.012
  168.000   31.349    0.091    0.363   43.150
  168.250   31.346    0.091    0.358   43.121
  168.500   31.965    0.092    0.361   37.733
  168.750   33.824    0.104    0.365   31.798
  169.000   37.544    0.125    0.369   25.794
  169.250   42.503    0.161    0.362   20.531
  169.500   43.742    0.180    0.352   17.299
  169.750   46.840    0.208    0.358   16.331
  170.000   46.839    0.170    0.376   20.113
  170.250   41.874    0.124    0.425   28.828
  170.500   36.288    0.091    0.439   29.927
  170.750   36.286    0.074    0.439   17.916
  171.000   36.903    0.085    0.430   15.982
  171.250   38.142    0.124    0.418   12.964
  171.500   43.102    0.161    0.390   10.717
  171.750   47.442    0.193    0.361    9.743
  172.000   49.300    0.217    0.341    8.690
  172.250   49.298    0.240    0.330    7.751
  172.500   48.676    0.250    0.335    7.045
  172.750   48.052    0.269    0.335    6.908
  173.000   47.430    0.253    0.328    6.647
  173.250   47.427    0.239    0.328    6.158
  173.500   47.425    0.238    0.331    5.598
  173.750   47.423    0.228    0.334    4.628
  174.000   47.420    0.229    0.339    3.755
  174.250   46.798    0.239    0.333    2.989
  174.500   46.175    0.289    0.320    2.378
  174.750   44.311    0.347    0.311    1.966
  175.000   41.207    0.349    0.312    1.856
  175.250   39.964    0.333    0.314    1.855
  175.500   43.063    0.335    0.312    1.855
  175.750   46.783    0.341    0.309    1.854
  176.000   48.020    0.341    0.304    1.853
  176.250   47.398    0.340    0.295    1.887
  176.500   46.155    0.343    0.299    1.886
  176.750   44.912    0.347    0.299    1.921
  177.000   44.288    0.345    0.283    1.920
  177.250   43.667    0.348    0.266    1.956
  177.500   44.285    0.368    0.271    1.992
  177.750   51.727    0.352    0.289    2.029
  178.000   55.446    0.350    0.300    2.028
  178.250   49.860    0.350    0.299    2.027
  178.500   45.515    0.344    0.289    1.988
  178.750   44.272    0.335    0.292    1.949
  179.000   41.168    0.335    0.303    1.912
  179.250   39.925    0.335    0.303    1.911
  179.500   42.404    0.335    0.298    1.910
  179.750   46.124    0.337    0.289    1.908
  180.000   48.603    0.341    0.283    1.908
  180.250   50.461    0.345    0.286    1.907
  180.500   49.837    0.352    0.292    1.905
  180.750   49.836    0.361    0.298    1.905
  181.000   49.834    0.371    0.306    1.867
  181.250   47.970    0.367    0.313    1.797
  181.500   46.106    0.359    0.318    1.762
  181.750   43.001    0.354    0.313    1.762
  182.000   44.240    0.354    0.306    1.761
  182.250   47.959    0.350    0.302    1.760
  182.500   44.235    0.346    0.309    1.759
  182.750   42.371    0.348    0.319    1.758
  183.000   40.509    0.353    0.330    1.757
  183.250   38.025    0.348    0.337    1.723
  183.500   38.643    0.343    0.334    1.690
  183.750   42.982    0.348    0.322    1.689
  184.000   46.703    0.355    0.311    1.656
  184.250   49.802    0.360    0.316    1.624
  184.500   44.837    0.364    0.331    1.623
  184.750   38.010    0.359    0.341    1.622
  185.000   35.526    0.352    0.342    1.591
  185.250   34.903    0.355    0.342    1.590
  185.500   35.521    0.358    0.341    1.589
  185.750   35.519    0.365    0.339    1.558
  186.000   35.516    0.363    0.338    1.558
  186.250   35.514    0.357    0.335    1.528
  186.500   35.511    0.352    0.331    1.527
  186.750   35.509    0.349    0.330    1.526
  187.000   35.507    0.354    0.330    1.525
  187.250   35.504    0.358    0.331    1.553
  187.500   35.502    0.364    0.332    1.582
  187.750   34.879    0.366    0.332    1.642
  188.000   37.357    0.359    0.332    1.705
  188.250   38.595    0.353    0.331    1.737
  188.500   40.455    0.350    0.325    1.803
  188.750   42.934    0.347    0.315    1.837
  189.000   46.033    0.347    0.304    1.870
  189.250   49.752    0.346    0.293    1.870
  189.500   52.231    0.346    0.284    1.869
  189.750   49.128    0.353    0.281    1.832
  190.000   41.680    0.356    0.292    1.832
  190.250   41.679    0.351    0.297    1.797
  190.500   42.295    0.347    0.298    1.762
  190.750   42.294    0.346    0.307    1.761
  191.000   42.291    0.345    0.313    1.863
  191.250   41.668    0.343    0.315    1.897
  191.500   40.425    0.340    0.318    2.046
  191.750   41.043    0.340    0.313    2.124
  192.000   46.624    0.340    0.297    2.247
  192.250   51.585    0.340    0.269    2.333
  192.500   56.545    0.343    0.245    2.422
  192.750   62.125    0.345    0.233    2.243
  193.000   63.984    0.344    0.231    2.001
  193.250   64.603    0.343    0.232    1.854
  193.500   63.980    0.344    0.233    1.750
  193.750   61.496    0.349    0.253    1.653
  194.000   56.530    0.352    0.278    1.621
  194.250   51.565    0.352    0.299    1.589
  194.500   45.359    0.349    0.315    1.588
  194.750   39.773    0.347    0.327    1.588
  195.000   36.669    0.343    0.333    1.617
  195.250   34.806    0.346    0.332    1.616
  195.500   36.044    0.354    0.328    1.646
  195.750   41.004    0.360    0.327    1.709
  196.000   49.687    0.364    0.318    1.741
  196.250   53.407    0.364    0.314    1.773
  196.500   54.023    0.358    0.301    1.841
  196.750   54.643    0.347    0.283    1.875
  197.000   56.501    0.353    0.274    1.874
  197.250   57.739    0.357    0.278    1.909
  197.500   57.116    0.356    0.275    1.908
  197.750   56.494    0.348    0.274    1.907
  198.000   54.630    0.346    0.278    1.870
  198.250   54.626    0.347    0.287    1.869
  198.500   54.625    0.350    0.290    1.833
  198.750   54.002    0.352    0.288    1.797
  199.000   52.138    0.350    0.271    1.763
  199.250   49.034    0.351    0.278    1.729
  199.500   47.792    0.355    0.303    1.663
  199.750   45.308    0.360    0.323    1.663
  200.000   44.065    0.365    0.315    1.600
  200.250   41.580    0.362    0.312    1.539
  200.500   38.477    0.351    0.314    1.509
  200.750   34.752    0.331    0.317    1.509
  201.000   32.888    0.324    0.319    1.508
  201.250   34.125    0.323    0.323    1.565
  201.500   35.364    0.324    0.327    1.625
  201.750   36.603    0.325    0.323    1.719
  202.000   37.841    0.325    0.312    1.751
  202.250   40.320    0.324    0.302    1.853
  202.500   45.281    0.324    0.286    1.924
  202.750   50.241    0.332    0.272    1.997
  203.000   55.202    0.340    0.261    2.034
  203.250   58.301    0.342    0.254    2.033
  203.500   55.817    0.337    0.252    2.032
  203.750   52.713    0.333    0.264    1.955
  204.000   49.609    0.328    0.271    1.881
  204.250   46.505    0.321    0.273    1.845
  204.500   42.159    0.312    0.275    1.775
  204.750   38.434    0.308    0.279    1.774
  205.000   35.950    0.308    0.279    1.740
  205.250   33.467    0.308    0.280    1.706
