~VERSION INFORMATION
 VERS.                 2.0:   CWLS LOG ASCII STANDARD -VERSION 2.0
 WRAP.                  NO:   ONE LINE PER DEPTH STEP
~WELL INFORMATION BLOCK
#MNEM.UNIT           DATA                    DESCRIPTION OF MNEMONIC
#---------    -------------------            -------------------------------
# Generated from Intellog Unique Number	CW_73_75/WELL/2747
WELL.         GAO ET AL AMADO4 11-31         : Well_name    - WELL
LOC .         00/11-31-073-19W4/0            : Location     - LOCATION
UWI .         00/11-31-073-19W4/0            : Uwi          - UNIQUE WELL ID
ENTR.         JAYE                           : Entered      - ENTERED BY
SRVC.         SCHLUMBERGER                   : Scn          - SERVICE COMPANY
DATE.         10 JAN 74                      : Date         - LOG DATE
STRT.M        353.568                        : top_depth    - START DEPTH
STOP.M        594.318                        : bot_depth    - STOP DEPTH
STEP.M        0.25                           : increment    - STEP LENGTH
 NULL. -999.2500:NULL Value
~CURVE INFORMATION BLOCK
#MNEM UNIT       ERCB CURVE CODE    CURVE DESCRIPTION
#-----------   ------------------   ----------------------------------
DEPT.M        00 001 00 00         : DEPTH        - DEPTH
ILD .OHMM     00 120 00 00         : RESD         - DEEP RESISTIVITY (DIL)
NPHI.V/V      00 330 00 00         : PHIN         - NEUTRON POROSITY (SANDSTONE)
DPHI.V/V      00 890 00 00         : PHID         - DENSITY POROSITY (SANDSTONE)
GR  .API      00 310 00 00         : GR           - GAMMA RAY
CALI.MM       00 280 01 00         : CAL          - CALIPER
~PARAMETER INFORMATION
#MNEM.UNIT           DATA             DESCRIPTION OF MNEMONIC
#---------         -----------     ------------------------------
GL  .M        671.779              : gl           - GROUND LEVEL ELEVATION
EREF.M        674.827              : kb           - ELEVATION OF DEPTH REFERENCE
DATM.M        671.779              : datum        - DATUM ELEVATION
TDD .M        600.456              : tdd          - TOTAL DEPTH DRILLER
RUN .         ONE                  : Run          - RUN NUMBER
BASE.         EDM                  : Branch       - HOME BASE OF LOGGING UNIT
MATR.         SANDSTONE            : Logunit      - NEUTRON MATRIX
TMAX.C        29.4444              : BHT          - MAXIMUM RECORDED TEMPERATURE
BHTD.M        603.504              : BHTDEP       - MAXIMUM RECORDED TEMPERATURE
RMT .C        13.3333              : MDTP         - TEMPERATURE OF MUD
MUDD.KG/M     0                    : MWT          - MUD DENSITY
NEUT.         1                    : NEUTRON      - NEUTRON TYPE
RESI.         0                    : RESIST       - RESISTIVITY TYPE
RM  .OHMM     0.843                : RM           - RESISTIVITY OF MUD
RMC .OHMM     0                    : RMC          - RESISTIVITY OF MUD CAKE
RMF .OHMM     1.17                 : RMF          - RESISTIVITY OF MUD FILTRATE
SUFT.C        -17.7778             : SUFT         - SURFACE TEMPERATURE
~A  DEPTH     RESD     PHIN     PHID       GR      CAL
# ...
  426.568    6.085    0.229    0.315   29.741  148.273
  426.818    6.377    0.167    0.082   28.605  151.206
  427.068    7.035    0.142    0.054   28.048  154.476
  427.318    8.094    0.159    0.030   27.953  152.435
  427.568    9.211    0.204    0.013   27.729  150.946
  427.818   11.298    0.160    0.013   27.306  150.456
  428.068   13.024    0.123    0.001   27.407  150.507
  428.318   14.444    0.117   -0.009   27.183  150.787
  428.568   14.918    0.113    0.004   26.430  151.068
  428.818   14.961    0.113    0.020   25.288  151.239
  429.068   15.170    0.114    0.022   25.198  151.310
  429.318   15.158    0.115    0.017   25.364  150.928
  429.568   14.927    0.118    0.009   25.659  150.761
  429.818   14.671    0.123    0.015   26.673  150.928
  430.068   14.473    0.133    0.036   27.555  150.770
  430.318   14.174    0.151    0.054   29.488  150.494
  430.568   13.553    0.180    0.080   32.199  150.219
  430.818   12.427    0.256    0.117   36.743  147.515
  431.068   10.823    0.359    0.242   38.802  144.695
  431.318    9.154    0.430    0.313   37.661  141.993
  431.568    8.151    0.463    0.346   35.605  140.290
  431.818    7.100    0.473    0.349   37.996  139.789
  432.068    6.309    0.465    0.353   39.857  139.402
  432.318    5.732    0.453    0.346   40.939  139.361
  432.568    5.382    0.462    0.335   40.647  139.195
  432.818    5.338    0.487    0.336   40.746  139.258
  433.068    5.344    0.490    0.353   41.633  139.318
  433.318    5.399    0.479    0.358   43.171  139.264
  433.568    5.454    0.475    0.351   43.729  139.001
  433.818    5.460    0.484    0.347   44.087  138.282
  434.068    5.496    0.462    0.342   45.104  137.120
  434.318    5.543    0.451    0.345   46.836  135.960
  434.568    5.650    0.440    0.338   46.677  135.913
  434.818    5.698    0.447    0.328   46.257  136.080
  435.068    5.756    0.453    0.337   47.142  137.364
  435.318    5.774    0.458    0.342   48.155  138.744
  435.568    5.769    0.446    0.346   50.017  139.911
  435.818    5.722    0.461    0.340   52.664  140.964
  436.068    5.729    0.469    0.343   50.871  141.575
  436.318    5.714    0.480    0.343   49.665  142.302
  436.568    5.740    0.491    0.345   54.732  142.475
  436.818    5.747    0.477    0.341   56.270  142.640
  437.068    5.763    0.457    0.341   56.172  143.030
  437.318    5.737    0.443    0.338   55.230  143.198
  437.568    5.681    0.461    0.337   55.264  143.479
  437.818    5.625    0.483    0.329   55.951  143.540
  438.068    5.560    0.478    0.324   60.037  143.599
  438.318    5.495    0.472    0.324   59.225  143.666
  438.568    5.419    0.476    0.318   60.045  143.730
  438.818    5.406    0.480    0.322   64.585  144.113
  439.068    5.382    0.475    0.335   69.781  144.393
  439.318    5.320    0.441    0.325   76.479  144.908
  439.568    5.210    0.437    0.309   84.028  145.514
  439.818    5.027    0.456    0.285   91.835  145.900
  440.068    4.860    0.474    0.268   91.283  146.078
  440.318    4.768    0.505    0.241   87.922  146.347
  440.568    4.729    0.535    0.225   87.237  146.851
  440.818    4.770    0.499    0.231   84.792  147.577
  441.068    5.073    0.445    0.252   82.215  148.185
  441.318    6.503    0.397    0.228   68.856  149.137
  441.568    8.709    0.327    0.130   65.820  149.747
  441.818    9.076    0.308    0.056   75.459  150.473
  442.068    8.871    0.396    0.114   82.746  151.202
  442.318    8.210    0.452    0.164   86.831  151.582
  442.568    6.818    0.468    0.221   90.328  152.083
  442.818    5.863    0.447    0.241   94.351  153.149
  443.068    5.424    0.440    0.237   96.800  153.980
  443.318    5.245    0.457    0.227  100.628  154.696
  443.568    5.098    0.470    0.211  103.990  155.202
  443.818    4.984    0.489    0.190  105.007  156.257
  444.068    4.854    0.482    0.200  103.411  157.309
  444.318    4.668    0.466    0.214  101.421  158.146
  444.568    4.521    0.473    0.232  102.043  159.423
  444.818    4.387    0.477    0.206  104.235  160.584
  445.068    4.280    0.476    0.201  107.729  161.643
  445.318    4.246    0.478    0.193  110.514  162.581
  445.568    4.204    0.489    0.212  109.172  162.429
  445.818    4.216    0.492    0.214  103.459  162.709
  446.068    4.314    0.465    0.211  103.038  162.761
  446.318    4.423    0.443    0.204  103.332  162.489
  446.568    4.371    0.455    0.209  104.739  162.225
  446.818    4.242    0.486    0.216  106.867  161.612
  447.068    4.373    0.484    0.236  102.850  161.121
  447.318    4.369    0.453    0.245  102.559  162.735
  447.568    4.080    0.450    0.234  102.727  166.215
  447.818    3.502    0.534    0.217  100.869  171.697
  448.068    2.946    0.546    0.243  102.599  176.184
  448.318    2.756    0.531    0.239  100.938  171.379
  448.568    2.862    0.499    0.251   93.524  163.362
  448.818    3.117    0.482    0.250   87.483  155.232
  449.068    3.527    0.471    0.244   79.746  146.997
  449.318    4.217    0.456    0.297   72.987  142.083
  449.568    4.694    0.430    0.336   66.946  139.596
  449.818    4.974    0.421    0.333   64.825  138.657
  450.068    5.044    0.425    0.338   65.188  137.945
  450.318    5.003    0.441    0.326   65.748  137.118
  450.568    4.990    0.449    0.307   66.240  136.411
  450.818    4.968    0.446    0.297   64.773  136.353
  451.068    4.955    0.458    0.321   67.950  136.420
  451.318    4.942    0.471    0.324   68.766  136.812
  451.568    4.911    0.441    0.336   68.273  137.196
  451.818    4.863    0.428    0.347   68.180  137.583
  452.068    4.832    0.415    0.345   68.352  138.313
  452.318    4.802    0.421    0.338   67.535  138.830
  452.568    4.798    0.434    0.334   65.213  139.009
  452.818    4.830    0.442    0.331   61.919  138.939
  453.068    4.871    0.452    0.322   63.457  138.883
  453.318    4.920    0.449    0.305   64.208  139.049
  453.568    4.953    0.435    0.323   63.527  139.454
  453.818    4.967    0.431    0.324   63.566  139.629
  454.068    5.000    0.429    0.330   63.987  139.909
  454.318    5.042    0.438    0.346   64.809  140.190
  454.568    5.094    0.450    0.344   65.299  140.469
  454.818    5.137    0.457    0.336   66.315  140.510
  455.068    5.152    0.465    0.328   67.726  140.476
  455.318    5.157    0.481    0.328   68.934  140.188
  455.568    5.153    0.474    0.322   66.290  139.922
  455.818    5.140    0.454    0.337   67.773  139.545
  456.068    5.117    0.437    0.350   69.040  139.260
  456.318    5.094    0.453    0.348   69.660  139.212
  456.568    5.063    0.451    0.340   68.715  139.157
  456.818    5.031    0.467    0.334   65.876  139.449
  457.068    4.972    0.472    0.337   66.372  139.842
  457.318    4.959    0.470    0.337   67.581  140.015
  457.568    4.955    0.469    0.336   68.073  140.412
  457.818    4.952    0.463    0.337   66.934  140.562
  458.068    4.947    0.454    0.336   66.248  140.846
  458.318    4.935    0.453    0.334   65.960  141.018
  458.568    4.904    0.460    0.328   66.580  141.311
  458.818    4.891    0.475    0.314   69.165  141.379
  459.068    4.879    0.469    0.312   72.203  141.419
  459.318    4.857    0.464    0.319   71.000  141.482
  459.568    4.854    0.477    0.329   69.008  141.547
  459.818    4.850    0.460    0.328   67.606  141.716
  460.068    4.846    0.462    0.315   66.796  141.883
  460.318    4.869    0.453    0.314   66.631  141.937
  460.568    4.883    0.434    0.325   66.475  142.001
  460.818    5.015    0.450    0.315   68.791  141.945
  461.068    5.304    0.455    0.302   66.998  141.894
  461.318    5.538    0.445    0.283   62.919  141.731
  461.568    5.836    0.401    0.269   57.270  142.343
  461.818    6.356    0.349    0.245   52.209  143.616
  462.068    7.246    0.296    0.185   49.176  145.895
  462.318    8.245    0.247    0.144   50.190  146.615
  462.568    8.593    0.273    0.127   51.922  142.252
  462.818    8.523    0.317    0.171   55.551  138.878
