~VERSION INFORMATION
 VERS.                 2.0:   CWLS LOG ASCII STANDARD -VERSION 2.0
 WRAP.                  NO:   ONE LINE PER DEPTH STEP
~WELL INFORMATION BLOCK
#MNEM.UNIT           DATA                    DESCRIPTION OF MNEMONIC
#---------    -------------------            -------------------------------
# Generated from Intellog Unique Number	CW_79_81/WELL/702
WELL.         ATCOR ET AL PELICAN            : Well_name    - WELL
LOC .         00/10-06-079-24W4/0            : Location     - LOCATION
UWI .         00/10-06-079-24W4/0            : Uwi          - UNIQUE WELL ID
ENTR.         MAX                            : Entered      - ENTERED BY
SRVC.         COMPUTALOG                     : Scn          - SERVICE COMPANY
STRT.M        275                            : top_depth    - START DEPTH
STOP.M        515                            : bot_depth    - STOP DEPTH
STEP.M        0.25                           : increment    - STEP LENGTH
 NULL. -999.2500:NULL Value
~CURVE INFORMATION BLOCK
#MNEM UNIT       ERCB CURVE CODE    CURVE DESCRIPTION
#-----------   ------------------   ----------------------------------
DEPT.M        00 001 00 00         : DEPTH        - DEPTH
ILD .OHMM     00 120 00 00         : RESD         - DEEP RESISTIVITY (DIL)
NPHI.V/V      00 330 00 00         : PHIN         - NEUTRON POROSITY (SANDSTONE)
DPHI.V/V      00 890 00 00         : PHID         - DENSITY POROSITY (SANDSTONE)
CALI.MM       00 280 01 00         : CAL          - CALIPER
GR  .API      00 310 00 00         : GR           - GAMMA RAY
~PARAMETER INFORMATION
#MNEM.UNIT           DATA             DESCRIPTION OF MNEMONIC
#---------         -----------     ------------------------------
GL  .M        594.9                : gl           - GROUND LEVEL ELEVATION
EREF.M        598.6                : kb           - ELEVATION OF DEPTH REFERENCE
DATM.M        594.9                : datum        - DATUM ELEVATION
TDD .M        520                  : tdd          - TOTAL DEPTH DRILLER
RUN .         ONE                  : Run          - RUN NUMBER
ENG .         BILL                 : Engineer     - RECORDING ENGINEER
WIT .         JIM                  : Witness      - WITNESSED BY
MUD .         GEL                  : Mud_type     - MUD TYPE
MATR.         SANDSTONE            : Logunit      - NEUTRON MATRIX
TMAX.C        32                   : BHT          - MAXIMUM RECORDED TEMPERATURE
BHTD.M        520                  : BHTDEP       - MAXIMUM RECORDED TEMPERATURE
RMT .C        16.7                 : MDTP         - TEMPERATURE OF MUD
MUDD.KG/M     1150                 : MWT          - MUD DENSITY
NEUT.         1                    : NEUTRON      - NEUTRON TYPE
RESI.         0                    : RESIST       - RESISTIVITY TYPE
RM  .OHMM     5.1                  : RM           - RESISTIVITY OF MUD
RMC .OHMM     0                    : RMC          - RESISTIVITY OF MUD CAKE
RMF .OHMM     4.7                  : RMF          - RESISTIVITY OF MUD FILTRATE
SUFT.C        -20                  : SUFT         - SURFACE TEMPERATURE
~A  DEPTH     RESD     PHIN     PHID      CAL       GR
# ...
  311.500   22.959    0.381    0.339  199.259   53.689
  311.750   24.078    0.375    0.332  200.832   53.709
  312.000   24.117    0.376    0.330  200.872   53.443
  312.250   22.641    0.378    0.335  199.915   53.775
  312.500   21.449    0.384    0.339  199.961   54.407
  312.750   20.713    0.385    0.341  200.007   54.742
  313.000   20.552    0.383    0.342  200.554   54.462
  313.250   20.575    0.389    0.342  200.092   53.881
  313.500   20.575    0.401    0.346  199.124   53.905
  313.750   20.638    0.416    0.351  197.660   53.936
  314.000   20.668    0.402    0.347  196.185   54.575
  314.250   20.323    0.392    0.345  194.704   56.121
  314.500   20.188    0.384    0.343  195.775   57.673
  314.750   20.013    0.387    0.341  198.345   57.399
  315.000   19.672    0.399    0.339  202.453   56.815
  315.250   19.516    0.399    0.334  203.507   58.367
  315.500   19.365    0.401    0.324  203.558   57.478
  315.750   19.365    0.406    0.316  203.610   57.202
  316.000   19.246    0.424    0.316  203.650   58.453
  316.250   19.097    0.438    0.319  203.707   59.085
  316.500   19.131    0.437    0.317  203.747   57.595
  316.750   19.333    0.427    0.314  203.799   56.098
  317.000   19.333    0.421    0.315  203.839   54.605
  317.250   19.393    0.415    0.316  203.885   55.856
  317.500   19.393    0.401    0.309  203.930   59.223
  317.750   19.111    0.400    0.292  204.483   57.739
  318.000   19.121    0.397    0.288  204.529   54.410
  318.250   19.149    0.397    0.293  204.068   55.658
  318.500   19.004    0.415    0.302  201.584   59.948
  318.750   18.680    0.415    0.312  198.087   58.461
  319.000   18.535    0.404    0.315  198.639   57.873
  319.250   18.398    0.392    0.317  201.226   58.817
  319.500   18.398    0.393    0.318  204.308   58.236
  319.750   18.285    0.405    0.318  206.382   58.561
  320.000   17.639    0.417    0.318  204.913   61.333
  320.250   17.185    0.400    0.316  203.426   59.535
  320.500   16.743    0.394    0.318  203.483   56.521
  320.750   16.312    0.400    0.325  204.030   55.639
  321.000   16.312    0.412    0.325  204.076   56.572
  321.250   16.064    0.413    0.320  204.122   58.121
  321.500   15.645    0.413    0.320  204.173   60.886
  321.750   15.521    0.424    0.321  203.712   62.441
  322.000   15.546    0.447    0.325  203.752   62.165
  322.250   15.710    0.449    0.330  203.291   62.493
  322.500   16.183    0.446    0.330  202.835   62.223
  322.750   16.503    0.429    0.327  202.380   60.723
  323.000   16.227    0.415    0.321  201.406   61.362
  323.250   15.804    0.409    0.322  198.410   61.998
  323.500   15.804    0.412    0.332  194.918   62.026
  323.750   15.431    0.421    0.336  196.479   61.444
  324.000   15.442    0.411    0.335  200.575   60.867
  324.250   15.750    0.404    0.332  203.168   61.807
  324.500   16.218    0.405    0.327  202.706   61.835
  324.750   16.245    0.399    0.324  202.239   60.040
  325.000   16.266    0.393    0.324  202.792   59.148
  325.250   15.994    0.390    0.328  202.792   59.179
  325.500   15.155    0.397    0.333  203.397   59.511
  325.750   13.967    0.410    0.331  203.437   60.451
  326.000   13.112    0.427    0.324  203.488   61.695
  326.250   12.308    0.450    0.318  204.047   63.859
  326.500   11.664    0.453    0.314  204.605   66.016
  326.750   11.051    0.452    0.310  204.651   67.565
  327.000   10.666    0.450    0.306  205.192   66.379
  327.250   10.392    0.420    0.302  205.238   66.399
  327.500   10.313    0.423    0.299  204.788   69.469
  327.750   10.230    0.426    0.302  203.313   71.937
  328.000   10.245    0.417    0.310  199.297   73.486
  328.250   10.259    0.422    0.313  192.757   75.643
  328.500    9.997    0.432    0.314  189.767   75.362
  328.750    9.647    0.433    0.305  187.779   72.047
  329.000    9.226    0.430    0.290  187.819   70.553
  329.250    8.663    0.428    0.281  190.907   72.102
  329.500    8.209    0.419    0.262  198.057   74.563
  329.750    8.209    0.406    0.249  204.187   75.503
  330.000    8.011    0.408    0.245  206.272   78.877
  330.250    7.588    0.423    0.250  206.312   81.950
  330.500    7.256    0.434    0.245  205.851   82.285
  330.750    7.067    0.440    0.246  205.401   85.047
  331.000    6.821    0.448    0.249  205.475   86.596
  331.250    6.706    0.455    0.251  205.498   83.889
  331.500    6.593    0.457    0.250  205.533   80.262
  331.750    6.422    0.456    0.249  205.106   79.377
  332.000    6.735    0.442    0.251  205.117   81.538
  332.250    6.683    0.417    0.256  205.157   84.607
  332.500    6.756    0.428    0.260  205.220   81.897
  332.750    6.957    0.430    0.260  205.773   79.190
  333.000    7.039    0.441    0.261  205.819   81.955
  333.250    7.108    0.461    0.256  205.346   84.116
  333.500    7.384    0.464    0.253  204.891   82.311
  333.750    7.818    0.459    0.253  203.923   77.478
  334.000    8.198    0.457    0.256  203.963   77.198
  334.250    8.924    0.447    0.258  204.020   80.572
  334.500    9.444    0.433    0.265  203.559   79.686
  334.750   10.184    0.422    0.278  203.599   70.898
  335.000   10.781    0.423    0.287  203.645   68.793
  335.250   10.895    0.429    0.294  201.155   66.383
  335.500   10.911    0.420    0.291  199.179   63.064
  335.750   11.132    0.430    0.278  197.196   60.361
  336.000   11.132    0.450    0.275  195.721   59.773
  336.250   11.376    0.428    0.280  193.739   61.322
  336.500   11.817    0.397    0.282  190.754   62.262
  336.750   12.508    0.392    0.262  190.281   63.513
  337.000   13.367    0.381    0.244  191.347   65.366
  337.250   14.414    0.357    0.214  192.908   63.564
  337.500   15.111    0.344    0.193  195.495   60.553
  337.750   16.447    0.327    0.169  199.602   58.448
  338.000   18.066    0.258    0.132  202.189   56.954
  338.250   19.655    0.200    0.096  203.756   54.855
  338.500   21.791    0.176    0.025  203.289   52.148
  338.750   23.937    0.158    0.010  202.828   50.347
  339.000   24.868    0.154    0.000  202.879   48.245
  339.250   25.845    0.155   -0.003  203.426   46.752
  339.500   26.365    0.156   -0.004  203.985   45.569
  339.750   26.161    0.153   -0.005  203.022   44.981
  340.000   24.787    0.152   -0.005  200.522   41.970
  340.250   22.845    0.153   -0.002  195.509   41.690
  340.500   20.480    0.163    0.003  197.582   43.854
  340.750   17.211    0.172    0.006  199.656   46.616
  341.000   13.309    0.187    0.022  199.691   49.077
  341.250   11.822    0.236    0.082  196.199   52.755
  341.500   10.895    0.311    0.143  192.194   57.041
  341.750   10.624    0.385    0.265  189.699   62.856
  342.000   10.149    0.405    0.271  187.210   64.100
  342.250    9.707    0.401    0.258  184.213   64.432
  342.500    9.721    0.394    0.257  186.287   67.498
  342.750    9.646    0.391    0.263  190.383   67.532
  343.000    9.485    0.411    0.273  197.533   67.560
  343.250    9.412    0.434    0.296  199.100   67.892
  343.500    9.168    0.448    0.302  198.645   67.919
  343.750    8.769    0.445    0.302  198.189   67.646
  344.000    8.460    0.437    0.303  198.189   68.278
  344.250    7.872    0.436    0.303  197.762   71.953
  344.500    7.389    0.455    0.296  198.834   73.809
  344.750    6.937    0.458    0.298  197.865   70.494
  345.000    6.937    0.440    0.293  197.404   69.913
  345.250    6.710    0.418    0.276  197.957   71.762
  345.500    6.653    0.423    0.270  198.504   76.965
  345.750    6.913    0.438    0.264  199.063   77.601
  346.000    6.913    0.454    0.260  199.616   71.236
  346.250    7.195    0.456    0.260  200.168   67.309
  346.500    8.051    0.437    0.265  199.707   66.430
  346.750    8.601    0.436    0.287  196.204   67.063
  347.000    9.362    0.433    0.300  192.706   68.615
  347.250    9.908    0.429    0.318  191.237   70.160
  347.500   10.485    0.422    0.318  190.764   68.666
  347.750   11.205    0.413    0.322  191.829   64.442
