~VERSION INFORMATION
 VERS.                 2.0:   CWLS LOG ASCII STANDARD -VERSION 2.0
 WRAP.                  NO:   ONE LINE PER DEPTH STEP
~WELL INFORMATION BLOCK
#MNEM.UNIT           DATA                    DESCRIPTION OF MNEMONIC
#---------    -------------------            -------------------------------
# Generated from Intellog Unique Number	CW_79_81/WELL/2484
WELL.         11-12-081-25W4                 : Well_name    - WELL
LOC .         00/11-12-081-25W4/0            : Location     - LOCATION
UWI .         00/11-12-081-25W4/0            : Uwi          - UNIQUE WELL ID
ENTR.         MAX                            : Entered      - ENTERED BY
SRVC.         SCHLUMBERGER                   : Scn          - SERVICE COMPANY
STRT.M        250                            : top_depth    - START DEPTH
STOP.M        464.75                         : bot_depth    - STOP DEPTH
STEP.M        0.25                           : increment    - STEP LENGTH
 NULL. -999.2500:NULL Value
~CURVE INFORMATION BLOCK
#MNEM UNIT       ERCB CURVE CODE    CURVE DESCRIPTION
#-----------   ------------------   ----------------------------------
DEPT.M        00 001 00 00         : DEPTH        - DEPTH
ILD .OHMM     00 120 00 00         : RESD         - DEEP RESISTIVITY (DIL)
NPHI.V/V      00 330 00 00         : PHIN         - NEUTRON POROSITY (SANDSTONE)
DPHI.V/V      00 890 00 00         : PHID         - DENSITY POROSITY (SANDSTONE)
GR  .API      00 310 00 00         : GR           - GAMMA RAY
CALI.MM       00 280 01 00         : CAL          - CALIPER
~PARAMETER INFORMATION
#MNEM.UNIT           DATA             DESCRIPTION OF MNEMONIC
#---------         -----------     ------------------------------
GL  .M        605.55               : gl           - GROUND LEVEL ELEVATION
EREF.M        609.55               : kb           - ELEVATION OF DEPTH REFERENCE
DATM.M        605.55               : datum        - DATUM ELEVATION
TDD .M        511                  : tdd          - TOTAL DEPTH DRILLER
RUN .         ONE                  : Run          - RUN NUMBER
ENG .         BILL                 : Engineer     - RECORDING ENGINEER
WIT .         JIM                  : Witness      - WITNESSED BY
MUD .         GEL                  : Mud_type     - MUD TYPE
MATR.         SANDSTONE            : Logunit      - NEUTRON MATRIX
TMAX.C        34.2                 : BHT          - MAXIMUM RECORDED TEMPERATURE
BHTD.M        511                  : BHTDEP       - MAXIMUM RECORDED TEMPERATURE
MATR.         1                    : LOGUNIT      - NEUTRON MATRIX
RMT .C        13.3                 : MDTP         - TEMPERATURE OF MUD
NEUT.         1                    : NEUTRON      - NEUTRON TYPE
RESI.         0                    : RESIST       - RESISTIVITY TYPE
RMC .OHMM     7                    : RMC          - RESISTIVITY OF MUD CAKE
RMF .OHMM     6.8                  : RMF          - RESISTIVITY OF MUD FILTRATE
SUFT.C        -20                  : SUFT         - SURFACE TEMPERATURE
~A  DEPTH     RESD     PHIN     PHID       GR      CAL
# ...
  286.500    4.327    0.498    0.332   51.570  210.163
  286.750    4.071    0.494    0.325   52.485  209.931
  287.000    4.041    0.500    0.322   53.517  209.898
  287.250    4.425    0.509    0.326   50.621  209.852
  287.500    5.256    0.494    0.340   43.272  209.816
  287.750    6.119    0.484    0.345   43.249  209.383
  288.000    6.701    0.486    0.340   44.809  209.245
  288.250    7.411    0.494    0.338   47.246  209.209
  288.500    8.369    0.498    0.340   49.564  209.172
  288.750    8.664    0.493    0.334   50.473  209.039
  289.000    7.970    0.488    0.327   50.449  208.588
  289.250    7.344    0.491    0.320   51.363  208.553
  289.500    6.927    0.496    0.314   52.631  209.391
  289.750    6.530    0.502    0.310   54.718  210.721
  290.000    6.149    0.508    0.306   57.505  212.349
  290.250    5.812    0.516    0.294   60.778  214.665
  290.500    5.469    0.524    0.287   63.192  216.659
  290.750    5.272    0.523    0.293   63.640  217.010
  291.000    5.110    0.526    0.290   63.032  217.655
  291.250    4.982    0.525    0.292   61.603  217.812
  291.500    4.919    0.519    0.304   59.354  217.479
  291.750    5.097    0.505    0.318   55.558  216.697
  292.000    5.683    0.496    0.320   53.093  213.000
  292.250    6.569    0.483    0.324   51.193  210.224
  292.500    7.761    0.471    0.332   49.824  208.034
  292.750    9.027    0.469    0.338   49.100  206.828
  293.000    9.927    0.474    0.341   48.962  206.308
  293.250   10.078    0.472    0.345   49.021  205.474
  293.500   10.079    0.475    0.348   48.265  205.442
  293.750   10.082    0.474    0.350   48.005  205.403
  294.000   10.140    0.477    0.351   48.274  205.364
  294.250   10.218    0.485    0.352   47.893  205.712
  294.500   10.315    0.496    0.353   47.219  206.352
  294.750   10.455    0.504    0.355   48.144  206.700
  295.000   10.377    0.507    0.355   48.117  206.659
  295.250   10.304    0.507    0.356   48.096  206.624
  295.500   10.174    0.506    0.356   48.075  206.590
  295.750   10.027    0.503    0.354   48.053  206.748
  296.000    9.864    0.497    0.352   48.088  207.100
  296.250    9.576    0.488    0.356   48.291  207.444
  296.500    9.219    0.487    0.357   48.265  207.403
  296.750    9.086    0.496    0.351   48.244  208.142
  297.000    8.905    0.490    0.350   48.223  208.590
  297.250    8.712    0.479    0.352   48.318  209.139
  297.500    8.540    0.474    0.356   48.528  209.787
  297.750    8.405    0.491    0.358   48.730  210.129
  298.000    8.342    0.497    0.357   48.708  210.081
  298.250    8.283    0.500    0.356   48.685  209.659
  298.500    8.178    0.507    0.351   48.664  209.528
  298.750    8.060    0.514    0.349   48.642  209.684
  299.000    7.959    0.516    0.351   48.677  209.937
  299.250    7.903    0.504    0.357   48.884  209.892
  299.500    7.905    0.496    0.360   48.862  209.844
  299.750    8.024    0.487    0.360   48.604  209.809
  300.000    8.190    0.478    0.359   48.519  209.774
  300.250    8.314    0.473    0.355   48.261  209.737
  300.500    8.362    0.476    0.350   47.711  209.698
  300.750    8.377    0.493    0.349   46.881  209.648
  301.000    8.445    0.496    0.351   46.371  209.612
  301.250    8.572    0.495    0.352   45.879  209.963
  301.500    8.893    0.496    0.354   45.391  210.315
  301.750    9.164    0.497    0.356   45.019  210.472
  302.000    9.268    0.493    0.358   44.644  210.336
  302.250    9.285    0.478    0.360   43.669  209.822
  302.500    9.359    0.472    0.360   42.422  209.375
  302.750    9.570    0.478    0.361   41.698  208.945
  303.000    9.733    0.483    0.360   42.027  208.516
  303.250    9.880    0.489    0.361   43.175  208.474
  303.500    9.993    0.495    0.363   44.382  208.820
  303.750    9.886    0.500    0.365   44.109  209.327
  304.000    9.373    0.503    0.361   42.862  210.104
  304.250    9.238    0.503    0.362   42.136  210.854
  304.500    9.513    0.493    0.360   41.763  211.306
  304.750    9.875    0.480    0.357   42.445  211.458
  305.000   10.137    0.471    0.354   43.946  211.415
  305.250   10.399    0.473    0.346   45.331  211.372
  305.500   10.980    0.489    0.340   46.527  211.332
  305.750   11.476    0.490    0.340   49.082  211.297
  306.000   11.803    0.494    0.334   53.041  210.960
  306.250   12.113    0.507    0.325   55.596  210.529
  306.500   12.457    0.524    0.317   55.810  210.200
  306.750   12.798    0.525    0.318   53.978  210.151
  307.000   13.100    0.511    0.325   50.778  210.118
  307.250   13.495    0.505    0.333   46.540  209.693
  307.500   13.599    0.498    0.340   40.364  209.262
  307.750   13.602    0.483    0.347   35.536  208.831
  308.000   13.630    0.465    0.351   33.172  208.403
  308.250   13.757    0.457    0.350   32.253  207.969
  308.500   13.866    0.457    0.344   32.476  207.924
  308.750   13.972    0.471    0.351   33.392  207.495
  309.000   14.001    0.481    0.352   33.778  207.359
  309.250   13.952    0.485    0.347   33.871  207.125
  309.500   13.879    0.483    0.341   34.026  206.794
  309.750   13.905    0.476    0.343   34.846  206.833
  310.000   14.015    0.482    0.339   35.549  207.199
  310.250   14.122    0.480    0.341   35.765  207.164
  310.500   14.073    0.475    0.344   35.798  207.417
  310.750   13.921    0.474    0.347   35.775  207.573
  311.000   13.721    0.478    0.354   35.756  207.635
  311.250   13.482    0.484    0.370   35.730  207.978
  311.500   13.281    0.488    0.374   35.706  207.934
  311.750   13.089    0.490    0.369   35.682  208.676
  312.000   12.972    0.493    0.370   36.536  208.835
  312.250   12.880    0.496    0.367   37.566  208.797
  312.500   12.812    0.498    0.361   38.303  208.756
  312.750   12.815    0.492    0.364   38.554  208.714
  313.000   12.819    0.481    0.373   38.779  208.678
  313.250   12.822    0.475    0.369   39.225  208.639
  313.500   12.895    0.473    0.367   39.322  208.893
  313.750   12.851    0.473    0.367   39.183  209.048
  314.000   12.472    0.471    0.367   39.275  209.104
  314.250   11.095    0.470    0.366   40.808  209.449
  314.500    9.127    0.466    0.371   42.734  209.412
  314.750    7.737    0.479    0.362   43.648  209.756
  315.000    7.373    0.516    0.354   43.687  209.819
  315.250    7.428    0.540    0.346   43.898  209.784
  315.500    7.707    0.538    0.340   44.927  209.844
  315.750    8.231    0.514    0.338   47.598  210.272
  316.000    8.491    0.493    0.329   50.505  210.635
  316.250    8.245    0.499    0.318   53.291  210.987
  316.500    7.872    0.504    0.305   55.200  211.338
  316.750    7.392    0.512    0.299   55.997  211.690
  317.000    6.897    0.518    0.303   56.150  212.043
  317.250    6.487    0.515    0.308   57.071  212.473
  317.500    6.389    0.542    0.304   58.267  212.843
  317.750    6.438    0.553    0.303   59.887  213.195
  318.000    6.595    0.526    0.299   60.446  213.254
  318.250    6.891    0.495    0.285   59.250  213.606
  318.500    7.339    0.477    0.263   57.003  214.152
  318.750    7.991    0.472    0.244   55.999  214.182
  319.000    8.438    0.458    0.246   56.951  214.544
  319.250    8.564    0.472    0.278   58.102  215.290
  319.500    8.409    0.483    0.283   59.428  216.329
  319.750    7.825    0.487    0.280   61.280  218.048
  320.000    7.084    0.487    0.277   63.775  219.764
  320.250    6.535    0.488    0.273   66.740  219.722
  320.500    6.291    0.497    0.270   66.467  219.686
  320.750    6.246    0.505    0.269   66.217  220.038
  321.000    6.271    0.496    0.265   67.891  220.097
  321.250    6.411    0.487    0.262   69.626  219.666
  321.500    6.557    0.483    0.264   70.954  219.039
  321.750    6.335    0.475    0.269   73.043  219.402
  322.000    5.962    0.468    0.263   74.241  221.392
  322.250    5.619    0.478    0.259   74.452  222.915
  322.500    5.571    0.483    0.263   73.961  223.566
  322.750    5.756    0.479    0.271   72.766  221.381
