~VERSION INFORMATION
 VERS.                 2.0:   CWLS LOG ASCII STANDARD -VERSION 2.0
 WRAP.                  NO:   ONE LINE PER DEPTH STEP
~WELL INFORMATION BLOCK
#MNEM.UNIT           DATA                    DESCRIPTION OF MNEMONIC
#---------    -------------------            -------------------------------
# Generated from Intellog Unique Number	CW_76_78/WELL/2779
WELL.         ASHLAND ET AL PELICAN          : Well_name    - WELL
LOC .         00/10-28-077-20W4/0            : Location     - LOCATION
UWI .         00/10-28-077-20W4/0            : Uwi          - UNIQUE WELL ID
ENTR.         JOE                            : Entered      - ENTERED BY
SRVC.         SCHLUMBERGER                   : Scn          - SERVICE COMPANY
STRT.M        228.6                          : top_depth    - START DEPTH
STOP.M        466.35                         : bot_depth    - STOP DEPTH
STEP.M        0.25                           : increment    - STEP LENGTH
 NULL. -999.2500:NULL Value
~CURVE INFORMATION BLOCK
#MNEM UNIT       ERCB CURVE CODE    CURVE DESCRIPTION
#-----------   ------------------   ----------------------------------
DEPT.M        00 001 00 00         : DEPTH        - DEPTH
ILD .OHMM     00 120 00 00         : RESD         - DEEP RESISTIVITY (DIL)
DPHI.V/V      00 890 00 00         : PHID         - DENSITY POROSITY (SANDSTONE)
NPHI.V/V      00 330 00 00         : PHIN         - NEUTRON POROSITY (SANDSTONE)
GR  .API      00 310 00 00         : GR           - GAMMA RAY
CALI.MM       00 280 01 00         : CAL          - CALIPER
~PARAMETER INFORMATION
#MNEM.UNIT           DATA             DESCRIPTION OF MNEMONIC
#---------         -----------     ------------------------------
GL  .M        571.195              : gl           - GROUND LEVEL ELEVATION
EREF.M        574.853              : kb           - ELEVATION OF DEPTH REFERENCE
DATM.M        574.853              : datum        - DATUM ELEVATION
TDD .M        499.872              : tdd          - TOTAL DEPTH DRILLER
RUN .         ONE                  : Run          - RUN NUMBER
ENG .         McNAUGHTON           : Engineer     - RECORDING ENGINEER
WIT .         LINKE                : Witness      - WITNESSED BY
MUD .         GEL                  : Mud_type     - MUD TYPE
MATR.         SANDSTONE            : Logunit      - NEUTRON MATRIX
TMAX.C        22.7778              : BHT          - MAXIMUM RECORDED TEMPERATURE
BHTD.M        499.872              : BHTDEP       - MAXIMUM RECORDED TEMPERATURE
RMT .C        16.1111              : MDTP         - TEMPERATURE OF MUD
MUDD.KG/M     61000                : MWT          - MUD DENSITY
NEUT.         1                    : NEUTRON      - NEUTRON TYPE
RESI.         0                    : RESIST       - RESISTIVITY TYPE
RM  .OHMM     1.1                  : RM           - RESISTIVITY OF MUD
RMC .OHMM     1.34                 : RMC          - RESISTIVITY OF MUD CAKE
RMF .OHMM     2.87                 : RMF          - RESISTIVITY OF MUD FILTRATE
SUFT.C        -12.2222             : SUFT         - SURFACE TEMPERATURE
~A  DEPTH     RESD     PHID     PHIN       GR      CAL
# ...
  338.100    6.432    0.180    0.480   93.935  167.838
  338.350    6.329    0.177    0.465   94.506  167.813
  338.600    6.325    0.189    0.451   93.035  168.281
  338.850    6.321    0.192    0.487   94.189  168.262
  339.100    6.317    0.187    0.484   96.210  168.727
  339.350    6.313    0.186    0.473   92.998  168.711
  339.600    6.307    0.186    0.456   88.910  169.179
  339.850    6.304    0.176    0.435   88.605  169.646
  340.100    6.792    0.162    0.433   88.595  170.117
  340.350    7.577    0.176    0.449   85.089  170.095
  340.600    9.149    0.189    0.433   80.131  169.580
  340.850   12.297    0.177    0.372   73.718  169.069
  341.100   15.150    0.132    0.317   63.522  168.056
  341.350   15.736    0.010    0.259   58.562  167.539
  341.600   14.057   -0.007    0.208   66.114  167.519
  341.850   10.310    0.070    0.325   74.246  167.005
  342.100    8.926    0.120    0.354   81.797  166.490
  342.350    8.331    0.156    0.387   85.275  166.465
  342.600    7.933    0.177    0.431   86.424  164.966
  342.850    7.633    0.199    0.435   83.209  164.946
  343.100    7.333    0.236    0.430   83.198  164.432
  343.350    7.132    0.229    0.426   83.765  164.404
  343.600    6.930    0.232    0.421   85.498  164.382
  343.850    6.828    0.226    0.416   87.519  164.853
  344.100    6.725    0.219    0.416   89.253  165.326
  344.350    6.721    0.205    0.425   90.695  165.797
  344.600    6.816    0.196    0.448   91.262  166.265
  344.850    6.909    0.195    0.491   91.540  166.735
  345.100    7.003    0.200    0.498   91.816  166.711
  345.350    6.999    0.223    0.489   92.096  166.686
  345.600    7.094    0.214    0.477   92.372  166.667
  345.850    7.189    0.204    0.431   94.105  166.642
  346.100    7.184    0.207    0.422   94.381  166.623
  346.350    7.179    0.217    0.423   92.913  166.623
  346.600    7.176    0.231    0.446   91.155  166.083
  346.850    7.073    0.229    0.463   89.106  165.569
  347.100    6.971    0.212    0.457   87.056  165.544
  347.350    6.670    0.192    0.416   85.296  165.522
  347.600    6.568    0.167    0.376   88.485  165.522
  347.850    6.465    0.169    0.436   93.126  165.478
  348.100    6.363    0.225    0.480   96.604  164.963
  348.350    6.456    0.223    0.499   98.041  164.449
  348.600    6.551    0.207    0.490   99.195  163.931
  348.850    6.645    0.207    0.485  101.218  164.405
  349.100    6.739    0.220    0.480  101.496  165.357
  349.350    6.833    0.219    0.474   97.992  165.340
  349.600    6.927    0.212    0.462  100.887  165.811
  349.850    6.923    0.204    0.447  100.583  165.792
  350.100    7.018    0.226    0.433   97.661  166.260
  350.350    7.113    0.228    0.443   94.739  166.730
  350.600    7.108    0.222    0.453   94.071  170.263
  350.850    7.202    0.201    0.423   92.600  170.322
  351.100    7.297    0.211    0.425   89.638  169.357
  351.350    7.293    0.231    0.414   90.559  167.877
  351.600    7.289    0.236    0.416   93.594  164.367
  351.850    7.383    0.232    0.423   94.531  162.385
  352.100    7.674    0.225    0.442   92.763  160.918
  352.350    8.064    0.207    0.458   91.295  160.468
  352.600    8.552    0.194    0.463   91.026  160.520
  352.850    8.646    0.201    0.399   89.547  160.573
  353.100    8.642    0.198    0.402   85.672  160.619
  353.350    8.639    0.171    0.403   81.796  161.194
  353.600    8.339    0.164    0.354   76.719  162.270
  353.850    7.940    0.115    0.317   74.346  164.352
  354.100    7.640    0.106    0.335   77.086  165.924
  354.350    7.440    0.183    0.375   85.230  165.990
  354.600    7.237    0.211    0.454   93.077  165.038
  354.850    7.233    0.194    0.477   96.714  164.060
  355.100    7.131    0.195    0.480   99.758  163.604
  355.350    7.028    0.190    0.465  100.987  163.656
  355.600    7.025    0.189    0.453  101.619  164.224
  355.850    7.020    0.202    0.459  101.951  164.277
  356.100    7.016    0.219    0.434  103.488  164.838
  356.350    7.110    0.208    0.414  104.128  164.891
  356.600    7.205    0.214    0.411  101.146  165.452
  356.850    7.397    0.192    0.418   98.773  167.547
  357.100    7.590    0.207    0.424   95.800  169.119
  357.350    7.684    0.214    0.432   99.737  169.694
  357.600    7.779    0.218    0.436   99.472  169.238
  357.850    7.577    0.207    0.432   94.695  169.284
  358.100    7.475    0.200    0.422   92.322  167.816
  358.350    7.175    0.191    0.426   92.954  167.360
  358.600    6.777    0.184    0.421   95.994  167.413
  358.850    6.378    0.200    0.419   99.334  167.465
  359.100    6.079    0.206    0.432  102.671  170.069
  359.350    6.173    0.202    0.446  107.209  173.696
  359.600    6.562    0.213    0.463  106.338  175.771
  359.850    6.952    0.209    0.435  102.463  176.848
  360.100    7.146    0.196    0.402   99.790  172.327
  360.350    7.338    0.197    0.356   96.820  168.303
  360.600    7.137    0.208    0.347   95.048  164.285
  360.850    6.936    0.157    0.351   94.178  160.260
  361.100    6.735    0.153    0.363   94.505  159.302
  361.350    6.730    0.156    0.397   97.846  160.881
  361.600    6.825    0.183    0.418  102.985  162.982
  361.850    8.495    0.199    0.430  106.025  164.046
  362.100   12.136    0.192    0.439  103.051  165.116
  362.350   16.762    0.187    0.423   95.266  165.677
  362.600   24.343    0.188    0.352   89.287  165.221
  362.850   27.787    0.142    0.280   81.205  163.245
  363.100   24.335    0.092    0.234   68.916  163.304
  363.350   14.184    0.061    0.196   56.026  164.870
  363.600   10.929    0.020    0.171   48.846  165.432
  363.850    8.363    0.020    0.177   49.778  165.497
  364.100    6.980    0.033    0.204   53.118  165.048
  364.350    6.187    0.078    0.226   58.558  164.578
  364.600    5.592    0.107    0.263   61.301  164.631
  364.850    5.391    0.157    0.294   66.437  164.690
  365.100    5.486    0.178    0.339   68.876  164.743
  365.350    5.777    0.270    0.427   72.216  165.813
  365.600    6.067    0.276    0.472   73.441  166.381
  365.850    6.772    0.252    0.473   72.871  166.427
  366.100    6.670    0.249    0.457   71.103  165.977
  366.350    6.372    0.268    0.417   71.135  165.012
  366.600    6.271    0.267    0.399   69.667  164.060
  366.850    6.167    0.253    0.404   70.596  163.591
  367.100    6.160    0.250    0.439   72.433  163.650
  367.350    6.156    0.248    0.458   73.971  164.212
  367.600    6.149    0.242    0.450   74.599  164.773
  367.850    6.047    0.251    0.433   75.231  165.341
  368.100    5.944    0.263    0.420   75.867  165.387
  368.350    5.936    0.269    0.430   75.297  165.446
  368.600    5.835    0.259    0.454   73.830  164.983
  368.850    5.828    0.275    0.496   72.659  165.056
  369.100    5.823    0.290    0.535   70.286  165.095
  369.350    6.010    0.290    0.491   68.213  165.161
  369.600    6.391    0.261    0.431   68.541  165.207
  369.850    6.674    0.236    0.404   68.272  165.273
  370.100    6.958    0.223    0.380   63.495  164.294
  370.350    7.050    0.170    0.321   60.529  163.329
  370.600    7.042    0.156    0.334   61.458  163.389
  370.850    6.845    0.212    0.358   65.399  163.435
  371.100    6.741    0.277    0.474   70.538  164.009
  371.350    6.929    0.274    0.459   77.180  164.055
  371.600    7.020    0.249    0.432   74.507  164.114
  371.850    7.013    0.238    0.405   70.034  163.671
  372.100    6.909    0.232    0.399   68.563  163.704
  372.350    6.808    0.253    0.419   69.796  163.763
  372.600    6.705    0.265    0.458   72.235  164.331
  372.850    6.699    0.267    0.463   73.468  164.377
  373.100    6.692    0.261    0.410   72.297  163.921
  373.350    6.685    0.252    0.416   73.233  163.471
  373.600    6.681    0.256    0.430   73.565  163.524
  373.850    6.674    0.255    0.425   73.596  163.583
  374.100    6.667    0.257    0.421   71.828  163.642
  374.350    6.662    0.249    0.421   70.657  163.682
