~VERSION INFORMATION
 VERS.                 2.0:   CWLS LOG ASCII STANDARD -VERSION 2.0
 WRAP.                  NO:   ONE LINE PER DEPTH STEP
~WELL INFORMATION BLOCK
#MNEM.UNIT           DATA                    DESCRIPTION OF MNEMONIC
#---------    -------------------            -------------------------------
# Generated from Intellog Unique Number	CS_69_70/WELL/857
NULL.         -999.25                        : NULL_VALUE
WELL.         BVX HART LAKE                  : Well_name    - WELL              
LOC .         00/10-02-070-11W4/0            : Location     - LOCATION          
UWI .         00/10-02-070-11W4/0            : Uwi          - UNIQUE WELL ID    
ENTR.         SP                             : Entered      - ENTERED BY        
SRVC.         SCHLUMBERGER                   : Scn          - SERVICE COMPANY   
STRT.M        275                            : top_depth    - START DEPTH       
STOP.M        480                            : bot_depth    - STOP DEPTH        
STEP.M        0.25                           : increment    - STEP LENGTH       
~CURVE INFORMATION BLOCK
#MNEM UNIT       ERCB CURVE CODE    CURVE DESCRIPTION
#-----------   ------------------   ----------------------------------
DEPT.M        00 001 00 00         : DEPTH        - DEPTH                       
ILD .OHMM     00 120 00 00         : RESD         - DEEP RESISTIVITY (DIL)      
GR  .API      00 310 00 00         : GR           - GAMMA RAY                   
NPHI.V/V      00 330 00 00         : PHIN         - NEUTRON POROSITY (LIMESTONE)
DPHI.V/V      00 890 00 00         : PHID         - DENSITY POROSITY (LIMESTONE)
~PARAMETER INFORMATION       
#MNEM.UNIT           DATA             DESCRIPTION OF MNEMONIC
#---------         -----------     ------------------------------
GL  .M        604.1                : gl           - GROUND LEVEL ELEVATION      
EREF.M        606.85               : kb           - ELEVATION OF DEPTH REFERENCE
DATM.M        604.1                : datum        - DATUM ELEVATION             
TDD .M        481.2                : tdd          - TOTAL DEPTH DRILLER         
RUN .         ONE                  : Run          - RUN NUMBER                  
ENG .         BILL                 : Engineer     - RECORDING ENGINEER          
WIT .         JIM                  : Witness      - WITNESSED BY                
MUD .         GEL                  : Mud_type     - MUD TYPE                    
MATR.         LIMESTONE            : Logunit      - NEUTRON MATRIX              
TMAX.C        21                   : BHT          - MAXIMUM RECORDED TEMPERATURE
BHTD.M        481.2                : BHTDEP       - MAXIMUM RECORDED TEMPERATURE
MATR.         1                    : LOGUNIT      - NEUTRON MATRIX              
RMT .C        25                   : MDTP         - TEMPERATURE OF MUD          
NEUT.         1                    : NEUTRON      - NEUTRON TYPE                
RESI.         0                    : RESIST       - RESISTIVITY TYPE            
RMC .OHMM     0.25                 : RMC          - RESISTIVITY OF MUD CAKE     
RMF .OHMM     0.25                 : RMF          - RESISTIVITY OF MUD FILTRATE 
SUFT.C        15                   : SUFT         - SURFACE TEMPERATURE         
~A  DEPTH     RESD       GR     PHIN     PHID
# ...
  405.500    2.979   93.514    0.494    0.240
  405.750    2.848   93.823    0.518    0.245
  406.000    2.689   93.528    0.535    0.249
  406.250    2.492   93.836    0.535    0.248
  406.500    2.266   94.390    0.531    0.247
  406.750    2.062   94.940    0.528    0.246
  407.000    1.935   95.188    0.527    0.244
  407.250    1.824   95.260    0.560    0.250
  407.500    1.844   94.841    0.588    0.265
  407.750    1.924   92.612    0.611    0.276
  408.000    2.022   89.719    0.606    0.257
  408.250    2.114   89.485    0.566    0.264
  408.500    2.276   89.132    0.539    0.242
  408.750    2.322   88.594    0.533    0.225
  409.000    2.446   87.875    0.545    0.231
  409.250    2.600   84.560    0.547    0.236
  409.500    2.784   82.151    0.509    0.243
  409.750    2.986   81.675    0.491    0.241
  410.000    3.042   83.557    0.484    0.244
  410.250    3.024   84.167    0.477    0.263
  410.500    2.850   84.597    0.464    0.249
  410.750    2.781   83.879    0.461    0.250
  411.000    2.776   81.409    0.463    0.256
  411.250    2.801   83.047    0.466    0.245
  411.500    2.832   84.808    0.461    0.263
  411.750    2.884   84.814    0.449    0.254
  412.000    3.021   81.378    0.462    0.241
  412.250    3.105   79.633    0.470    0.242
  412.500    3.234   78.314    0.456    0.248
  412.750    3.349   78.017    0.444    0.251
  413.000    3.488   78.870    0.446    0.242
  413.250    3.639   80.629    0.440    0.229
  413.500    3.783   82.691    0.432    0.219
  413.750    3.854   84.088    0.442    0.209
  414.000    3.874   84.578    0.456    0.212
  414.250    3.802   83.860    0.452    0.200
  414.500    3.663   83.627    0.454    0.223
  414.750    3.609   83.512    0.468    0.232
  415.000    3.582   83.701    0.480    0.225
  415.250    3.542   84.374    0.465    0.221
  415.500    3.476   85.167    0.454    0.224
  415.750    3.443   85.476    0.459    0.226
  416.000    3.443   85.784    0.450    0.220
  416.250    3.429   86.395    0.458    0.218
  416.500    3.429   87.310    0.466    0.218
  416.750    3.434   88.222    0.468    0.205
  417.000    3.434   89.197    0.477    0.197
  417.250    3.421   89.748    0.465    0.204
  417.500    3.401   90.240    0.461    0.214
  417.750    3.400   90.429    0.463    0.227
  418.000    3.412   90.433    0.461    0.231
  418.250    3.425   90.203    0.447    0.228
  418.500    3.449   90.147    0.442    0.221
  418.750    3.455   89.489    0.445    0.214
  419.000    3.480   85.932    0.459    0.221
  419.250    3.493   85.215    0.480    0.219
  419.500    3.505   85.041    0.478    0.221
  419.750    3.504   85.047    0.489    0.232
  420.000    3.478   84.873    0.484    0.237
  420.250    3.433   84.941    0.452    0.236
  420.500    3.363   86.459    0.434    0.228
  420.750    3.276   88.219    0.447    0.219
  421.000    3.215   90.038    0.455    0.222
  421.250    3.173   91.555    0.455    0.237
  421.500    3.126   92.710    0.457    0.232
  421.750    2.984   92.778    0.451    0.225
  422.000    2.961   89.281    0.440    0.225
  422.250    2.983   86.751    0.425    0.222
  422.500    3.044   87.424    0.415    0.216
  422.750    3.100   89.001    0.409    0.204
  423.000    3.009   90.639    0.410    0.194
  423.250    2.657   91.190    0.420    0.201
  423.500    2.316   89.204    0.442    0.219
  423.750    2.170   87.519    0.458    0.230
  424.000    2.030   84.992    0.474    0.222
  424.250    1.938   84.151    0.490    0.232
  424.500    1.881   83.494    0.525    0.254
  424.750    1.859   83.200    0.538    0.269
  425.000    1.873   83.389    0.525    0.263
  425.250    1.954   84.725    0.523    0.254
  425.500    2.136   86.121    0.544    0.245
  425.750    2.387   87.457    0.561    0.233
  426.000    2.504   90.185    0.546    0.236
  426.250    2.574   85.237    0.511    0.243
  426.500    2.696   83.310    0.484    0.246
  426.750    2.850   82.473    0.464    0.246
  427.000    2.995   81.876    0.470    0.246
  427.250    3.085   81.581    0.477    0.254
  427.500    3.136   81.046    0.463    0.250
  427.750    3.055   80.752    0.452    0.244
  428.000    2.949   80.515    0.445    0.242
  428.250    2.847   80.101    0.447    0.241
  428.500    2.753   79.684    0.462    0.250
  428.750    2.652   80.114    0.471    0.245
  429.000    2.732   81.208    0.464    0.237
  429.250    2.706   80.611    0.456    0.237
  429.500    2.741   79.531    0.454    0.244
  429.750    2.849   81.050    0.459    0.236
  430.000    2.984   82.991    0.469    0.228
  430.250    3.084   84.810    0.472    0.219
  430.500    3.113   86.206    0.465    0.208
  430.750    3.089   88.450    0.467    0.217
  431.000    3.060   90.571    0.461    0.208
  431.250    2.992   92.330    0.459    0.184
  431.500    2.910   93.545    0.472    0.166
  431.750    2.829   94.581    0.471    0.198
  432.000    2.685   94.950    0.476    0.215
  432.250    2.660   94.714    0.494    0.228
  432.500    2.592   94.178    0.503    0.219
  432.750    2.534   92.977    0.492    0.205
  433.000    2.473   95.341    0.487    0.195
  433.250    2.450   97.281    0.502    0.199
  433.500    2.441   98.618    0.510    0.201
  433.750    2.509   94.154    0.496    0.193
  434.000    2.472   93.859    0.495    0.191
  434.250    2.453   95.861    0.505    0.221
  434.500    2.426   97.983    0.505    0.224
  434.750    2.398   99.201    0.502    0.209
  435.000    2.403   99.147    0.499    0.209
  435.250    2.452   98.609    0.515    0.216
  435.500    2.488   98.858    0.530    0.213
  435.750    2.529   99.348    0.533    0.203
  436.000    2.548  100.503    0.520    0.209
  436.250    2.510   98.335    0.508    0.213
  436.500    2.454  100.397    0.498    0.208
  436.750    2.334  102.156    0.524    0.215
  437.000    2.261  102.404    0.553    0.225
  437.250    2.219  102.109    0.557    0.241
  437.500    2.256  103.507    0.546    0.232
  437.750    2.420  103.815    0.525    0.222
  438.000    2.695  102.010    0.500    0.211
  438.250    3.000   94.165    0.476    0.208
  438.500    3.309   87.647    0.452    0.209
  438.750    3.691   79.256    0.434    0.228
  439.000    3.866   77.573    0.420    0.212
  439.250    4.201   77.823    0.435    0.199
  439.500    4.303   74.506    0.452    0.208
  439.750    4.540   68.472    0.433    0.226
  440.000    4.746   64.492    0.407    0.256
  440.250    5.100   61.599    0.399    0.257
  440.500    5.401   60.942    0.401    0.247
  440.750    5.827   61.192    0.403    0.240
  441.000    6.114   61.561    0.404    0.235
  441.250    6.332   61.750    0.406    0.242
  441.500    6.437   61.819    0.408    0.246
  441.750    6.412   61.526    0.420    0.252
  442.000    6.224   61.348    0.425    0.236
  442.250    6.074   60.631    0.421    0.223
  442.500    6.073   60.034    0.414    0.231
  442.750    6.812   60.826    0.395    0.233
  443.000    7.528   63.371    0.390    0.203
  443.250    7.987   64.103    0.394    0.193
  443.500    7.131   59.217    0.402    0.095
  443.750    5.990   59.889    0.382    0.050
  444.000    5.438   63.400    0.319    0.034
  444.250    4.892   70.416    0.338    0.144
  444.500    4.584   78.278    0.376    0.183
  444.750    4.408   84.689    0.389    0.204
  445.000    4.351   88.863    0.394    0.214
  445.250    4.302   92.254    0.396    0.227
  445.500    4.309   95.100    0.404    0.208
  445.750    4.356   97.343    0.417    0.227
  446.000    4.413   97.168    0.424    0.237
  446.250    4.536   86.423    0.414    0.245
  446.500    4.681   73.864    0.397    0.257
  446.750    4.785   66.319    0.379    0.258
  447.000    4.983   69.891    0.360    0.258
  447.250    5.114   74.672    0.384    0.260
  447.500    5.218   81.084    0.403    0.279
  447.750    5.305   84.775    0.412    0.284
  448.000    5.383   89.133    0.412    0.246
  448.250    5.284   91.435    0.413    0.218
  448.500    5.043   91.805    0.411    0.218
  448.750    4.914   91.268    0.403    0.216
