~VERSION INFORMATION
 VERS.                 2.0:   CWLS LOG ASCII STANDARD -VERSION 2.0
 WRAP.                  NO:   ONE LINE PER DEPTH STEP
~WELL INFORMATION BLOCK
#MNEM.UNIT           DATA                    DESCRIPTION OF MNEMONIC
#---------    -------------------            -------------------------------
# Generated from Intellog Unique Number	CN_91_93/WELL/2795
WELL.         PARAMOUNT RESOURCES LTD.       : Well_name    - WELL
LOC .         00/15-35-093-21W4/0            : Location     - LOCATION
UWI .         00/15-35-093-21W4/0            : Uwi          - UNIQUE WELL ID
ENTR.         JOETTE                         : Entered      - ENTERED BY
SRVC.         COMPUTALOG                     : Scn          - SERVICE COMPANY
DATE.         03/24/92                       : Date         - LOG DATE
STRT.M        190                            : top_depth    - START DEPTH
STOP.M        358                            : bot_depth    - STOP DEPTH
STEP.M        0.25                           : increment    - STEP LENGTH
 NULL. -999.2500:NULL Value
~CURVE INFORMATION BLOCK
#MNEM UNIT       ERCB CURVE CODE    CURVE DESCRIPTION
#-----------   ------------------   ----------------------------------
DEPT.M        00 001 00 00         : DEPTH        - DEPTH
CALI.MM       00 280 01 00         : CAL          - CALIPER
GR  .API      00 310 00 00         : GR           - GAMMA RAY
NPHI.V/V      00 330 00 00         : PHIN         - NEUTRON POROSITY (SANDSTONE)
DPHI.V/V      00 890 00 00         : PHID         - DENSITY POROSITY (SANDSTONE)
ILD .OHMM     00 120 00 00         : RESD         - DEEP RESISTIVITY (DIL)
~PARAMETER INFORMATION
#MNEM.UNIT           DATA             DESCRIPTION OF MNEMONIC
#---------         -----------     ------------------------------
GL  .M        665.6                : gl           - GROUND LEVEL ELEVATION
EREF.M        669                  : kb           - ELEVATION OF DEPTH REFERENCE
DATM.M        669                  : datum        - DATUM ELEVATION
TDD .M        356.5                : tdd          - TOTAL DEPTH DRILLER
RUN .         ONE                  : Run          - RUN NUMBER
ENG .         BILL                 : Engineer     - RECORDING ENGINEER
WIT .         JIM                  : Witness      - WITNESSED BY
MUD .         GEL                  : Mud_type     - MUD TYPE
MATR.         SANDSTONE            : Logunit      - NEUTRON MATRIX
TMAX.C        27                   : BHT          - MAXIMUM RECORDED TEMPERATURE
BHTD.M        356.5                : BHTDEP       - MAXIMUM RECORDED TEMPERATURE
RMT .C        13                   : MDTP         - TEMPERATURE OF MUD
MUDD.KG/M     1100                 : MWT          - MUD DENSITY
NEUT.         1                    : NEUTRON      - NEUTRON TYPE
RESI.         0                    : RESIST       - RESISTIVITY TYPE
RM  .OHMM     1.5                  : RM           - RESISTIVITY OF MUD
RMC .OHMM     1.5                  : RMC          - RESISTIVITY OF MUD CAKE
RMF .OHMM     1.5                  : RMF          - RESISTIVITY OF MUD FILTRATE
SUFT.C        4                    : SUFT         - SURFACE TEMPERATURE
~A  DEPTH      CAL       GR     PHIN     PHID     RESD
# ...
  226.500  167.285  114.606    0.461    0.223    4.416
  226.750  165.292  117.204    0.465    0.209    4.598
  227.000  163.298  111.582    0.469    0.170    4.887
  227.250  160.251   97.721    0.461    0.136    5.846
  227.500  161.420   92.731    0.444    0.171    6.333
  227.750  165.751  101.670    0.426    0.244    7.429
  228.000  169.085  108.063    0.415    0.244    8.053
  228.250  169.200  111.293    0.407    0.237    8.560
  228.500  168.232  106.936    0.407    0.239    8.923
  228.750  167.293  103.843    0.412    0.252    9.126
  229.000  168.490  105.211    0.417    0.266    8.626
  229.250  168.576  105.878    0.418    0.263    8.822
  229.500  169.774  107.211    0.414    0.257    9.191
  229.750  170.942  106.015    0.401    0.244    9.770
  230.000  168.949  101.657    0.392    0.238   10.800
  230.250  164.819   97.317    0.386    0.253   12.430
  230.500  160.718   95.489    0.385    0.265   12.698
  230.750  159.779   95.575    0.387    0.261   13.228
  231.000  162.031   95.609    0.389    0.257   13.522
  231.250  163.171   96.310    0.395    0.266   13.041
  231.500  165.393   96.379    0.405    0.272   12.326
  231.750  166.562   95.183    0.406    0.261   11.424
  232.000  163.544   93.372    0.405    0.258   10.798
  232.250  162.604   93.441    0.406    0.259    9.814
  232.500  163.773   90.963    0.401    0.234    9.091
  232.750  165.967   91.665    0.391    0.200    7.640
  233.000  168.190   96.810    0.393    0.191    6.544
  233.250  167.251  101.305    0.406    0.217    5.609
  233.500  164.232  107.066    0.402    0.227    4.716
  233.750  163.293  110.929    0.407    0.228    4.287
  234.000  164.462  114.177    0.442    0.228    3.975
  234.250  167.739  114.246    0.447    0.229    3.905
  234.500  171.015  112.417    0.459    0.230    3.836
  234.750  172.213  109.940    0.455    0.235    3.921
  235.000  172.356  104.949    0.442    0.241    4.251
  235.250  171.360   98.694    0.437    0.249    4.795
  235.500  169.395   93.704    0.439    0.255    5.194
  235.750  165.266   88.714    0.443    0.247    6.213
  236.000  162.218   84.339    0.445    0.242    7.147
  236.250  160.225   83.143    0.439    0.267    8.057
  236.500  161.423   87.041    0.429    0.281    8.728
  236.750  162.592   90.254    0.404    0.287    9.660
  237.000  161.652   94.767    0.397    0.270    9.880
  237.250  160.684   94.204    0.388    0.205    9.706
  237.500  158.691   89.829    0.388    0.142    8.816
  237.750  159.860   80.429    0.393    0.115    7.405
  238.000  160.004   88.069    0.402    0.208    6.472
  238.250  162.198   98.273    0.412    0.238    5.656
  238.500  166.528   97.095    0.428    0.249    4.943
  238.750  173.024   97.164    0.450    0.240    4.321
  239.000  173.139  100.394    0.460    0.235    4.247
  239.250  173.254  102.976    0.460    0.234    4.257
  239.500  170.235  102.429    0.470    0.236    4.437
  239.750  167.131  101.216    0.463    0.237    4.813
  240.000  165.167   98.123    0.450    0.237    5.014
  240.250  167.389   95.030    0.427    0.248    5.662
  240.500  169.612   93.834    0.411    0.262    5.891
  240.750  169.727   89.476    0.406    0.268    6.645
  241.000  166.680   87.033    0.399    0.264    7.639
  241.250  164.658   88.349    0.393    0.258    8.782
  241.500  161.668   85.906    0.392    0.251    9.708
  241.750  160.700   83.445    0.396    0.244   10.119
  242.000  160.786   84.779    0.402    0.240    9.570
  242.250  161.955   87.360    0.412    0.250    8.698
  242.500  163.124   91.856    0.418    0.257    8.216
  242.750  165.375   92.574    0.411    0.225    8.404
  243.000  170.731   86.934    0.387    0.214    9.295
  243.250  175.062   85.756    0.394    0.248    9.880
  243.500  172.015   89.602    0.407    0.268    9.904
  243.750  167.942   95.362    0.415    0.270    9.546
  244.000  166.974  100.507    0.415    0.271    9.028
  244.250  168.143  103.738    0.412    0.280    8.697
  244.500  173.585  105.089    0.412    0.275    8.065
  244.750  174.783  101.346    0.409    0.260    7.918
  245.000  171.678   93.826    0.398    0.257    7.783
  245.250  167.606   91.349    0.380    0.262    7.965
  245.500  165.641   94.614    0.389    0.255    7.979
  245.750  164.645   95.298    0.398    0.235    7.993
  246.000  164.760   93.469    0.406    0.261    7.559
  246.250  160.659   88.497    0.401    0.285    6.870
  246.500  158.665   91.095    0.431    0.285    6.001
  246.750  158.780   94.326    0.453    0.276    5.451
  247.000  162.057   96.924    0.463    0.267    4.764
  247.250  168.495   99.523    0.475    0.262    4.246
  247.500  172.855   98.309    0.473    0.257    3.859
  247.750  175.078   96.481    0.466    0.252    3.648
  248.000  174.110   95.285    0.459    0.259    3.877
  248.250  173.171   90.295    0.452    0.270    4.286
  248.500  170.152   85.937    0.445    0.251    4.930
  248.750  167.076   83.477    0.437    0.181    5.668
  249.000  164.058   75.325    0.424    0.135    6.144
  249.250  163.090   67.788    0.396    0.122    6.284
  249.500  163.262   64.062    0.396    0.160    6.057
  249.750  164.374   69.190    0.420    0.205    5.398
  250.000  167.679   76.865    0.440    0.272    4.903
  250.250  168.848   84.522    0.460    0.283    4.459
  250.500  167.966   95.359    0.447    0.271    4.296
  250.750  166.969   95.428    0.446    0.249    4.140
  251.000  168.196  104.350    0.465    0.235    4.070
  251.250  168.253  108.863    0.477    0.242    4.000
  251.500  171.587  108.932    0.482    0.244    3.934
  251.750  173.752  109.001    0.475    0.245    4.019
  252.000  176.033  105.258    0.469    0.245    4.189
  252.250  177.144   99.020    0.471    0.241    4.369
  252.500  177.316   96.559    0.473    0.234    4.552
  252.750  177.402   94.082    0.464    0.222    4.842
  253.000  177.488   93.535    0.440    0.211    5.044
  253.250  177.603   96.766    0.423    0.219    5.368
  253.500  178.858  100.629    0.419    0.227    5.484
  253.750  179.969  103.245    0.423    0.229    5.500
  254.000  182.221  105.211    0.435    0.229    5.403
  254.250  182.335  105.912    0.461    0.236    5.207
  254.500  182.422  105.981    0.478    0.241    5.022
  254.750  178.320  104.768    0.474    0.227    4.841
  255.000  173.194  102.940    0.461    0.218    4.752
  255.250  173.280  105.573    0.451    0.216    4.674
  255.500  176.557  107.504    0.443    0.217    4.685
  255.750  178.780  109.470    0.440    0.208    4.792
  256.000  178.923  112.718    0.439    0.198    4.803
  256.250  179.009  117.863    0.440    0.205    4.817
  256.500  177.016  119.180    0.454    0.202    4.826
  256.750  177.160  114.207    0.454    0.202    4.834
  257.000  178.357  114.908    0.446    0.210    4.760
  257.250  179.497  117.489    0.443    0.210    4.763
  257.500  180.637  120.088    0.450    0.209    4.774
  257.750  181.835  118.909    0.453    0.209    4.692
  258.000  181.949  114.534    0.451    0.202    4.703
  258.250  180.982  111.458    0.447    0.163    4.623
  258.500  175.855  112.775    0.443    0.183    4.544
  258.750  168.564  116.005    0.435    0.201    4.469
  259.000  169.761  119.869    0.425    0.212    4.393
  259.250  171.955  124.381    0.428    0.212    4.401
  259.500  173.124  125.083    0.452    0.210    4.325
  259.750  174.293  123.254    0.470    0.207    4.336
  260.000  175.519  120.161    0.502    0.203    4.348
  260.250  176.659  117.683    0.512    0.203    4.359
  260.500  177.828  117.769    0.514    0.208    4.366
  260.750  180.079  117.838    0.514    0.209    4.299
  261.000  180.194  119.804    0.509    0.209    4.307
  261.250  178.229  121.138    0.499    0.214    4.231
  261.500  176.207  119.344    0.469    0.231    4.238
  261.750  175.240  116.217    0.463    0.238    4.171
  262.000  174.329  110.594    0.454    0.246    4.176
  262.250  174.415  106.236    0.449    0.254    4.271
  262.500  174.530  103.758    0.449    0.249    4.365
  262.750  175.727  100.050    0.453    0.249    4.646
