~VERSION INFORMATION
 VERS.                 2.0:   CWLS LOG ASCII STANDARD -VERSION 2.0
 WRAP.                  NO:   ONE LINE PER DEPTH STEP
~WELL INFORMATION BLOCK
#MNEM.UNIT           DATA                    DESCRIPTION OF MNEMONIC
#---------    -------------------            -------------------------------
# Generated from Intellog Unique Number	CW_79_81/WELL/2472
WELL.         10-23-081-20W4                 : Well_name    - WELL
LOC .         00/10-23-081-20W4/0            : Location     - LOCATION
UWI .         00/10-23-081-20W4/0            : Uwi          - UNIQUE WELL ID
ENTR.         MAX                            : Entered      - ENTERED BY
SRVC.         SCHLUMBERGER                   : Scn          - SERVICE COMPANY
STRT.M        182.88                         : top_depth    - START DEPTH
STOP.M        405.13                         : bot_depth    - STOP DEPTH
STEP.M        0.25                           : increment    - STEP LENGTH
 NULL. -999.2500:NULL Value
~CURVE INFORMATION BLOCK
#MNEM UNIT       ERCB CURVE CODE    CURVE DESCRIPTION
#-----------   ------------------   ----------------------------------
DEPT.M        00 001 00 00         : DEPTH        - DEPTH
ILD .OHMM     00 120 00 00         : RESD         - DEEP RESISTIVITY (DIL)
NPHI.V/V      00 330 00 00         : PHIN         - NEUTRON POROSITY (SANDSTONE)
DPHI.V/V      00 890 00 00         : PHID         - DENSITY POROSITY (SANDSTONE)
GR  .API      00 310 00 00         : GR           - GAMMA RAY
CALI.MM       00 280 01 00         : CAL          - CALIPER
~PARAMETER INFORMATION
#MNEM.UNIT           DATA             DESCRIPTION OF MNEMONIC
#---------         -----------     ------------------------------
GL  .M        582.778              : gl           - GROUND LEVEL ELEVATION
EREF.M        586.13               : kb           - ELEVATION OF DEPTH REFERENCE
DATM.M        582.778              : datum        - DATUM ELEVATION
TDD .M        414.223              : tdd          - TOTAL DEPTH DRILLER
RUN .         ONE                  : Run          - RUN NUMBER
ENG .         BILL                 : Engineer     - RECORDING ENGINEER
WIT .         JIM                  : Witness      - WITNESSED BY
MUD .         GEL                  : Mud_type     - MUD TYPE
MATR.         SANDSTONE            : Logunit      - NEUTRON MATRIX
TMAX.C        25.5556              : BHT          - MAXIMUM RECORDED TEMPERATURE
BHTD.M        414.223              : BHTDEP       - MAXIMUM RECORDED TEMPERATURE
MATR.         1                    : LOGUNIT      - NEUTRON MATRIX
RMT .C        11.6667              : MDTP         - TEMPERATURE OF MUD
NEUT.         1                    : NEUTRON      - NEUTRON TYPE
RESI.         0                    : RESIST       - RESISTIVITY TYPE
RMC .OHMM     3.8                  : RMC          - RESISTIVITY OF MUD CAKE
RMF .OHMM     2.57                 : RMF          - RESISTIVITY OF MUD FILTRATE
SUFT.C        -20                  : SUFT         - SURFACE TEMPERATURE
~A  DEPTH     RESD     PHIN     PHID       GR      CAL
# ...
  365.380    8.526    0.410    0.228   56.797  165.774
  365.630    9.747    0.416    0.258   49.172  165.822
  365.880   11.586    0.423    0.275   42.599  165.864
  366.130   16.889    0.417    0.280   38.162  165.900
  366.380   22.122    0.415    0.280   34.960  165.941
  366.630   26.002    0.411    0.283   33.813  165.981
  366.880   28.617    0.398    0.290   34.369  165.721
  367.130   31.237    0.376    0.291   35.245  164.499
  367.380   33.404    0.370    0.294   36.000  164.126
  367.630   34.636    0.382    0.293   36.962  163.773
  367.880   35.578    0.383    0.292   38.276  163.708
  368.130   36.354    0.385    0.292   39.945  163.744
  368.380   37.068    0.389    0.294   41.673  163.784
  368.630   37.814    0.389    0.300   43.258  163.833
  368.880   37.969    0.383    0.303   45.240  163.878
  369.130   37.900    0.399    0.297   46.904  163.914
  369.380   37.667    0.413    0.295   48.744  164.251
  369.630   37.206    0.412    0.296   50.645  164.688
  369.880   36.656    0.400    0.297   52.722  165.126
  370.130   36.361    0.395    0.294   56.017  165.576
  370.380   36.486    0.402    0.288   59.459  165.621
  370.630   36.511    0.406    0.283   64.414  166.054
  370.880   12.920    0.416    0.278   68.483  166.490
  371.130    8.087    0.425    0.264   72.730  166.925
  371.380    6.688    0.430    0.246   77.505  167.956
  371.630    5.459    0.426    0.233   84.071  172.606
  371.880    4.517    0.420    0.215   92.161  181.754
  372.130    4.029    0.421    0.202   95.472  194.113
  372.380    3.597    0.428    0.190   94.907  187.398
  372.630    3.255    0.460    0.180   94.108  181.278
  372.880    3.015    0.495    0.186   95.130  186.583
  373.130    2.877    0.468    0.231   98.200  202.236
  373.380    2.837    0.443    0.212   97.000  186.968
  373.630    2.894    0.419    0.200   88.812  175.492
  373.880    3.167    0.391    0.182   82.561  171.158
  374.130    3.639    0.364    0.155   83.055  169.805
  374.380    4.298    0.346    0.121   90.059  169.053
  374.630    5.112    0.363    0.087   99.371  168.390
  374.880    5.335    0.416    0.097  104.774  168.845
  375.130    4.718    0.427    0.143  107.845  169.687
  375.380    4.049    0.445    0.168  111.974  170.520
  375.630    3.476    0.476    0.185  113.876  170.761
  375.880    3.037    0.514    0.201  112.903  170.208
  376.130    2.731    0.544    0.215  110.274  169.135
  376.380    2.757    0.527    0.202  106.384  169.590
  376.630    2.995    0.487    0.199   88.108  171.219
  376.880    3.502    0.445    0.193   80.390  171.656
  377.130    4.186    0.397    0.192   77.716  170.504
  377.380    4.940    0.358    0.197   77.391  168.557
  377.630    6.017    0.356    0.208   79.773  167.977
  377.880    7.324    0.371    0.198   81.022  168.850
  378.130    8.167    0.369    0.189   77.052  170.876
  378.380    8.856    0.362    0.183   70.624  170.221
  378.630    8.689    0.369    0.201   66.543  168.471
  378.880    7.702    0.388    0.236   67.331  166.721
  379.130    6.442    0.400    0.247   74.445  165.830
  379.380    5.800    0.421    0.240   80.579  167.113
  379.630    4.918    0.461    0.226   87.876  169.135
  379.880    4.285    0.472    0.227   91.654  171.758
  380.130    3.670    0.476    0.233   94.143  173.189
  380.380    3.121    0.484    0.235   96.337  172.531
  380.630    2.672    0.504    0.230   97.859  169.967
  380.880    2.442    0.535    0.217   97.150  170.832
  381.130    2.498    0.548    0.212   95.294  173.661
  381.380    2.686    0.548    0.201   92.737  175.881
  381.630    3.022    0.528    0.196   90.884  176.713
  381.880    3.507    0.483    0.197   90.497  175.961
  382.130    4.098    0.407    0.197   92.434  174.019
  382.380    4.354    0.388    0.192   96.124  174.065
  382.630    4.594    0.391    0.186   99.197  174.105
  382.880    4.946    0.395    0.190  100.511  174.142
  383.130    5.401    0.399    0.199  101.121  174.577
  383.380    5.885    0.404    0.208  101.790  175.312
  383.630    6.213    0.411    0.219  103.287  175.679
  383.880    6.305    0.408    0.220  104.778  175.307
  384.130    6.329    0.395    0.217  106.443  174.949
  384.380    6.378    0.388    0.201  107.579  175.188
  384.630    6.465    0.388    0.187  105.490  175.825
  384.880    6.591    0.389    0.185   98.594  176.660
  385.130    6.771    0.378    0.196   86.228  177.164
  385.380    6.928    0.367    0.207   85.275  175.550
  385.630    7.108    0.373    0.196   82.950  175.193
  385.880    7.334    0.369    0.206   78.694  176.030
  386.130    7.547    0.362    0.221   76.136  177.067
  386.380    7.722    0.357    0.230   75.865  177.903
  386.630    7.890    0.357    0.232   75.425  178.741
  386.880    7.980    0.361    0.226   75.451  178.778
  387.130    8.006    0.358    0.212   75.473  179.215
  387.380    8.031    0.356    0.204   76.025  179.652
  387.630    8.040    0.358    0.197   77.574  180.290
  387.880    8.033    0.363    0.196   79.943  181.128
  388.130    7.986    0.360    0.210   82.365  181.890
  388.380    7.785    0.353    0.215   82.636  181.509
  388.630    7.621    0.347    0.199   83.126  180.362
  388.880    7.482    0.362    0.194   86.609  184.275
  389.130    7.319    0.392    0.196   94.139  191.861
  389.380    7.109    0.419    0.199  102.846  199.748
  389.630    6.826    0.413    0.195  106.070  199.846
  389.880    6.690    0.402    0.180  106.828  186.232
  390.130    6.495    0.394    0.160  108.259  174.749
  390.380    6.277    0.394    0.156  110.045  169.526
  390.630    6.149    0.407    0.158  111.945  168.374
  390.880    6.119    0.421    0.160  114.253  169.703
  391.130    6.111    0.415    0.162  119.562  172.040
  391.380    6.104    0.405    0.160  128.384  169.603
  391.630    6.067    0.422    0.168  125.358  170.032
  391.880    5.934    0.392    0.187  117.933  168.385
  392.130    5.835    0.376    0.197  114.907  166.837
  392.380    5.813    0.394    0.194  117.980  166.480
  392.630    5.862    0.434    0.199  121.421  167.404
  392.880    5.985    0.453    0.224  119.740  167.855
  393.130    6.165    0.456    0.254  118.116  167.498
  393.380    6.413    0.475    0.249  115.265  166.842
  393.630    6.746    0.509    0.231  109.072  166.090
  393.880    7.149    0.537    0.219   98.008  165.537
  394.130    7.732    0.522    0.227   79.384  165.585
  394.380    8.757    0.500    0.229   70.612  165.626
  394.630    9.693    0.464    0.220   61.486  165.273
  394.880   10.540    0.433    0.203   55.881  165.214
  395.130   11.319    0.409    0.181   53.793  165.053
  395.380   12.042    0.394    0.154   53.991  164.693
  395.630   12.620    0.390    0.111   53.728  164.344
  395.880   12.386    0.388    0.089   52.284  164.390
  396.130   12.160    0.381    0.089   50.433  164.831
  396.380   12.711    0.370    0.082   49.107  164.968
  396.630   13.345    0.363    0.074   48.542  165.004
  396.880   13.776    0.362    0.073   48.860  165.041
  397.130   14.429    0.356    0.088   50.307  165.172
  397.380   15.078    0.350    0.109   51.551  165.632
  397.630   15.567    0.349    0.109   51.577  165.667
  397.880   16.105    0.354    0.105   50.720  165.706
  398.130   16.690    0.357    0.099   48.396  165.748
  398.380   17.311    0.355    0.092   45.664  165.792
  398.630   18.028    0.354    0.078   45.469  165.927
  398.880   18.512    0.363    0.071   46.716  166.382
  399.130   18.785    0.368    0.076   46.502  167.208
  399.380   18.301    0.354    0.067   45.589  167.444
  399.630   17.593    0.332    0.047   45.260  167.486
  399.880   16.886    0.322    0.037   46.631  167.627
  400.130   16.063    0.359    0.079   51.674  168.400
  400.380   15.700    0.426    0.088   56.835  170.101
  400.630   15.880    0.397    0.107   56.151  171.730
  400.880   16.153    0.392    0.120   57.406  170.377
  401.130   16.623    0.393    0.115   57.195  168.428
  401.380   17.218    0.389    0.091   54.167  167.177
  401.630   17.799    0.369    0.063   49.133  166.745
