~VERSION INFORMATION
 VERS.                 2.0:   CWLS LOG ASCII STANDARD -VERSION 2.0
 WRAP.                  NO:   ONE LINE PER DEPTH STEP
~WELL INFORMATION BLOCK
#MNEM.UNIT           DATA                    DESCRIPTION OF MNEMONIC
#---------    -------------------            -------------------------------
# Generated from Intellog Unique Number	CS_67_68/WELL/2199
WELL.         10-30-067-18W4                 : Well_name    - WELL
LOC .         00/10-30-067-18W4/0            : Location     - LOCATION
UWI .         00/10-30-067-18W4/0            : Uwi          - UNIQUE WELL ID
ENTR.         JHS                            : Entered      - ENTERED BY
SRVC.         SCHLUMBERGER                   : Scn          - SERVICE COMPANY
STRT.M        350.52                         : top_depth    - START DEPTH
STOP.M        554.52                         : bot_depth    - STOP DEPTH
STEP.M        0.25                           : increment    - STEP LENGTH
 NULL. -999.2500:NULL Value
~CURVE INFORMATION BLOCK
#MNEM UNIT       ERCB CURVE CODE    CURVE DESCRIPTION
#-----------   ------------------   ----------------------------------
DEPT.M        00 001 00 00         : DEPTH        - DEPTH
CALI.MM       00 280 01 00         : CAL          - CALIPER
GR  .API      00 310 00 00         : GR           - GAMMA RAY
DPHI.V/V      00 890 00 00         : PHID         - DENSITY POROSITY (SANDSTONE)
NPHI.V/V      00 330 00 00         : PHIN         - NEUTRON POROSITY (SANDSTONE)
ILD .OHMM     00 120 00 00         : RESD         - DEEP RESISTIVITY (DIL)
~PARAMETER INFORMATION
#MNEM.UNIT           DATA             DESCRIPTION OF MNEMONIC
#---------         -----------     ------------------------------
GL  .M        578                  : gl           - GROUND LEVEL ELEVATION
EREF.M        578                  : kb           - ELEVATION OF DEPTH REFERENCE
DATM.M        578                  : datum        - DATUM ELEVATION
TDD .M        556                  : tdd          - TOTAL DEPTH DRILLER
RUN .         ONE                  : Run          - RUN NUMBER
ENG .         BILL                 : Engineer     - RECORDING ENGINEER
WIT .         JIM                  : Witness      - WITNESSED BY
MUD .         GEL                  : Mud_type     - MUD TYPE
MATR.         SANDSTONE            : Logunit      - NEUTRON MATRIX
TMAX.C        22.7778              : BHT          - MAXIMUM RECORDED TEMPERATURE
BHTD.M        558.698              : BHTDEP       - MAXIMUM RECORDED TEMPERATURE
BTZC.MM       0                    : BITZC        - BIT SIZE CONSTANT
MATR.         1                    : LOGUNIT      - NEUTRON MATRIX
RMT .C        25                   : MDTP         - TEMPERATURE OF MUD
NEUT.         1                    : NEUTRON      - NEUTRON TYPE
RESI.         0                    : RESIST       - RESISTIVITY TYPE
RMC .OHMM     0.25                 : RMC          - RESISTIVITY OF MUD CAKE
RMF .OHMM     0.6                  : RMF          - RESISTIVITY OF MUD FILTRATE
SUFT.C        13                   : SUFT         - SURFACE TEMPERATURE
~A  DEPTH      CAL       GR     PHID     PHIN     RESD
# ...
  460.020  156.521   63.572    0.037    0.211    8.094
  460.270  155.301   72.082    0.026    0.290    6.789
  460.520  153.345   79.540    0.097    0.329    5.601
  460.770  151.355   85.007    0.143    0.366    4.802
  461.020  149.917   84.681    0.170    0.388    5.242
  461.270  150.527   79.104    0.142    0.414    6.356
  461.520  152.334   73.736    0.144    0.276    7.555
  461.770  153.927   69.154    0.107    0.246    8.325
  462.020  155.434   70.515    0.060    0.282    9.068
  462.270  155.853   79.711    0.089    0.330    8.794
  462.520  154.959   85.649    0.139    0.369    7.258
  462.770  152.949   89.091    0.161    0.396    6.263
  463.020  151.614   85.921    0.176    0.423    5.842
  463.270  150.790   83.338    0.160    0.399    5.394
  463.520  150.185   84.678    0.143    0.373    5.080
  463.770  151.937   87.827    0.155    0.390    4.698
  464.020  154.630   91.994    0.176    0.412    4.374
  464.270  155.857   94.721    0.191    0.431    4.140
  464.520  156.730   96.603    0.200    0.429    3.956
  464.770  156.767   95.238    0.196    0.423    3.850
  465.020  154.177   93.508    0.181    0.425    3.888
  465.270  151.492   92.553    0.190    0.438    4.136
  465.520  148.954   92.384    0.193    0.446    4.345
  465.770  148.065   88.844    0.181    0.436    4.721
  466.020  149.105   83.513    0.168    0.428    4.990
  466.270  151.002   80.628    0.163    0.409    5.168
  466.520  153.413   79.058    0.141    0.386    5.070
  466.770  154.878   85.847    0.142    0.386    4.857
  467.020  157.565   92.924    0.158    0.403    4.661
  467.270  159.225   96.270    0.156    0.420    4.492
  467.520  158.012   96.789    0.158    0.432    4.376
  467.770  154.914   95.893    0.164    0.445    4.316
  468.020  153.541   96.698    0.179    0.457    4.275
  468.270  153.870   97.823    0.184    0.473    4.312
  468.520  155.783   97.493    0.190    0.462    4.395
  468.770  158.475   96.735    0.162    0.447    4.437
  469.020  159.304   96.168    0.177    0.434    4.485
  469.270  157.541   96.854    0.176    0.443    4.488
  469.520  155.317   98.999    0.186    0.453    4.454
  469.770  154.137   99.075    0.192    0.440    4.371
  470.020  152.995   96.708    0.178    0.438    4.326
  470.270  151.997   94.667    0.174    0.433    4.324
  470.520  152.104   94.002    0.165    0.437    4.374
  470.770  153.849   98.043    0.155    0.437    4.409
  471.020  156.039  100.131    0.155    0.425    4.511
  471.270  158.596   96.695    0.169    0.416    4.636
  471.520  159.829   93.445    0.164    0.419    4.748
  471.770  157.750   90.044    0.166    0.436    4.864
  472.020  156.061   94.904    0.159    0.429    4.863
  472.270  155.957  100.920    0.151    0.416    4.730
  472.520  158.566  103.746    0.147    0.426    4.567
  472.770  160.373  104.243    0.156    0.448    4.507
  473.020  159.333  104.200    0.163    0.464    4.486
  473.270  157.414  103.944    0.170    0.470    4.514
  473.520  156.904  103.833    0.166    0.459    4.600
  473.770  157.253  103.890    0.160    0.459    4.652
  474.020  158.392  101.205    0.167    0.472    4.636
  474.270  159.076   98.212    0.178    0.462    4.314
  474.520  159.937   96.330    0.204    0.451    3.800
  474.770  160.817   99.839    0.194    0.441    3.468
  475.020  162.020  103.513    0.176    0.443    3.242
  475.270  163.814  107.186    0.171    0.473    3.049
  475.520  167.345  107.079    0.186    0.505    2.873
  475.770  171.287  106.986    0.227    0.553    2.809
  476.020  173.772  108.928    0.235    0.554    2.787
  476.270  174.947  108.039    0.236    0.540    2.807
  476.520  174.651  107.180    0.211    0.563    2.790
  476.770  174.257  110.165    0.207    0.586    2.779
  477.020  175.378  112.482    0.207    0.571    2.739
  477.270  177.648  112.735    0.225    0.544    2.685
  477.520  179.618  111.045    0.213    0.525    2.657
  477.770  179.522  108.999    0.219    0.527    2.716
  478.020  177.325  107.648    0.207    0.542    2.867
  478.270  174.594  105.854    0.200    0.553    3.116
  478.520  170.045   97.770    0.193    0.548    3.391
  478.770  164.055   92.571    0.150    0.488    3.600
  479.020  159.468   96.639    0.104    0.451    3.729
  479.270  158.443  102.136    0.072    0.434    3.772
  479.520  159.846  103.159    0.091    0.435    3.772
  479.770  162.700  105.769    0.107    0.451    3.743
  480.020  166.022  108.286    0.114    0.466    3.615
  480.270  168.637  109.811    0.157    0.480    3.495
  480.520  171.517  110.335    0.177    0.494    3.388
  480.770  171.613  110.282    0.179    0.499    3.333
  481.020  165.386  109.941    0.185    0.482    3.343
  481.270  159.993  109.926    0.202    0.449    3.408
  481.520  160.976  109.732    0.181    0.434    3.579
  481.770  164.935  109.146    0.194    0.438    3.731
  482.020  167.391  108.689    0.209    0.442    3.859
  482.270  165.603  105.416    0.177    0.448    3.983
  482.520  160.832  101.401    0.151    0.464    4.053
  482.770  156.504   98.819    0.159    0.469    4.106
  483.020  154.209   96.816    0.144    0.452    4.137
  483.270  152.954   95.813    0.154    0.455    4.207
  483.520  153.097   93.315    0.187    0.454    4.396
  483.770  153.528   89.749    0.207    0.448    4.507
  484.020  153.406   87.455    0.192    0.451    4.697
  484.270  152.894   85.944    0.167    0.452    5.003
  484.520  152.125   85.087    0.184    0.443    5.371
  484.770  151.204   84.245    0.194    0.432    5.858
  485.020  150.350   81.696    0.161    0.422    6.508
  485.270  149.900   77.890    0.143    0.388    6.993
  485.520  149.797   75.658    0.140    0.387    7.529
  485.770  150.391   74.630    0.145    0.383    8.157
  486.020  151.672   76.158    0.115    0.349    9.184
  486.270  153.117   75.482    0.094    0.307   10.417
  486.520  155.465   67.595    0.061    0.252   11.743
  486.770  157.502   64.200    0.040    0.232   13.003
  487.020  159.465   66.078    0.042    0.248    8.747
  487.270  161.247   81.546    0.061    0.318    6.423
  487.520  159.979   95.572    0.084    0.380    4.954
  487.770  156.682  101.906    0.110    0.412    4.106
  488.020  155.276  104.886    0.121    0.435    3.467
  488.270  154.477  107.277    0.143    0.451    4.000
  488.520  154.233  106.238    0.137    0.424    4.382
  488.770  155.196  102.259    0.130    0.391    4.672
  489.020  156.436   97.409    0.106    0.374    4.827
  489.270  156.634   95.829    0.130    0.368    4.676
  489.520  157.110  103.213    0.160    0.388    4.491
  489.770  158.906  106.562    0.159    0.405    4.337
  490.020  159.424  106.611    0.180    0.416    4.188
  490.270  157.664  104.857    0.170    0.427    4.096
  490.520  155.155  105.834    0.167    0.439    4.029
  490.770  154.086  107.791    0.176    0.447    4.031
  491.020  155.156  108.785    0.174    0.435    4.105
  491.270  156.272  108.407    0.176    0.421    4.179
  491.520  156.967  106.272    0.168    0.415    4.232
  491.770  156.949  103.130    0.160    0.425    4.256
  492.020  156.910  101.393    0.159    0.433    4.308
  492.270  156.743   99.811    0.161    0.435    4.352
  492.520  156.928  100.940    0.171    0.431    4.397
  492.770  157.316  105.207    0.181    0.423    4.473
  493.020  157.796  108.021    0.169    0.424    4.560
  493.270  157.724  109.839    0.162    0.440    4.719
  493.520  157.647  110.299    0.153    0.443    4.822
  493.770  157.108  111.958    0.137    0.418    4.841
  494.020  156.884  113.744    0.140    0.405    4.738
  494.270  156.679  115.389    0.159    0.395    4.672
  494.520  156.518  116.488    0.173    0.404    4.759
  494.770  156.426  112.031    0.173    0.416    4.916
  495.020  155.929  101.344    0.154    0.429    5.205
  495.270  155.188   89.296    0.137    0.443    5.529
  495.520  154.501   85.663    0.139    0.437    5.953
  495.770  154.261   87.099    0.129    0.423    6.402
  496.020  154.168   88.198    0.161    0.414    6.715
  496.270  154.370   89.288    0.190    0.434    6.567
