~VERSION INFORMATION
 VERS.                 2.0:   CWLS LOG ASCII STANDARD -VERSION 2.0
 WRAP.                  NO:   ONE LINE PER DEPTH STEP
~WELL INFORMATION BLOCK
#MNEM.UNIT           DATA                    DESCRIPTION OF MNEMONIC
#---------    -------------------            -------------------------------
# Generated from Intellog Unique Number	CS_73_76/WELL/3249
WELL.         10-30-076-04W4                 : Well_name    - WELL
LOC .         00/10-30-076-04W4/0            : Location     - LOCATION
UWI .         00/10-30-076-04W4/0            : Uwi          - UNIQUE WELL ID
ENTR.         SP                             : Entered      - ENTERED BY
SRVC.         SCHLUMBERGER                   : Scn          - SERVICE COMPANY
STRT.M        150                            : top_depth    - START DEPTH
STOP.M        415                            : bot_depth    - STOP DEPTH
STEP.M        0.25                           : increment    - STEP LENGTH
 NULL. -999.2500:NULL Value
~CURVE INFORMATION BLOCK
#MNEM UNIT       ERCB CURVE CODE    CURVE DESCRIPTION
#-----------   ------------------   ----------------------------------
DEPT.M        00 001 00 00         : DEPTH        - DEPTH
NPHI.V/V      00 330 00 00         : PHIN         - NEUTRON POROSITY (LIMESTONE)
DPHI.V/V      00 890 00 00         : PHID         - DENSITY POROSITY (LIMESTONE)
GR  .API      00 310 00 00         : GR           - GAMMA RAY
ILD .OHMM     00 120 00 00         : RESD         - DEEP RESISTIVITY (DIL)
~PARAMETER INFORMATION
#MNEM.UNIT           DATA             DESCRIPTION OF MNEMONIC
#---------         -----------     ------------------------------
GL  .M        586                  : gl           - GROUND LEVEL ELEVATION
EREF.M        589.3                : kb           - ELEVATION OF DEPTH REFERENCE
DATM.M        586                  : datum        - DATUM ELEVATION
TDD .M        430                  : tdd          - TOTAL DEPTH DRILLER
RUN .         ONE                  : Run          - RUN NUMBER
ENG .         BILL                 : Engineer     - RECORDING ENGINEER
WIT .         JIM                  : Witness      - WITNESSED BY
MUD .         GEL                  : Mud_type     - MUD TYPE
MATR.         LIMESTONE            : Logunit      - NEUTRON MATRIX
TMAX.C        18.9                 : BHT          - MAXIMUM RECORDED TEMPERATURE
BHTD.M        430                  : BHTDEP       - MAXIMUM RECORDED TEMPERATURE
MATR.         1                    : LOGUNIT      - NEUTRON MATRIX
RMT .C        25                   : MDTP         - TEMPERATURE OF MUD
NEUT.         1                    : NEUTRON      - NEUTRON TYPE
RESI.         0                    : RESIST       - RESISTIVITY TYPE
RMC .OHMM     0.25                 : RMC          - RESISTIVITY OF MUD CAKE
RMF .OHMM     0.25                 : RMF          - RESISTIVITY OF MUD FILTRATE
SUFT.C        15                   : SUFT         - SURFACE TEMPERATURE
~A  DEPTH     PHIN     PHID       GR     RESD
# ...
  237.000    0.425    0.288   77.122   20.168
  237.250    0.434    0.293   74.078   18.387
  237.500    0.447    0.290   71.645   16.760
  237.750    0.429    0.274   75.919   16.152
  238.000    0.424    0.254   84.464   15.000
  238.250    0.418    0.242   86.299   14.191
  238.500    0.409    0.242   85.087   12.699
  238.750    0.403    0.234   85.092   12.238
  239.000    0.406    0.233   85.706   11.578
  239.250    0.423    0.241   88.762   11.368
  239.500    0.423    0.243   82.669   11.372
  239.750    0.409    0.244   76.579   11.374
  240.000    0.400    0.254   73.535   11.376
  240.250    0.396    0.235   72.322   11.172
  240.500    0.414    0.210   78.426   11.383
  240.750    0.432    0.223   79.651   11.386
  241.000    0.435    0.235   74.779   11.602
  241.250    0.426    0.254   71.737   11.604
  241.500    0.440    0.255   69.913   12.737
  241.750    0.458    0.307   71.138   14.242
  242.000    0.476    0.328   66.268   16.223
  242.250    0.454    0.340   63.224   18.140
  242.500    0.445    0.342   59.571   19.183
  242.750    0.472    0.353   57.138   20.288
  243.000    0.494    0.377   54.705   20.672
  243.250    0.516    0.387   52.882   21.067
  243.500    0.539    0.393   51.669   21.071
  243.750    0.490    0.370   52.284   21.078
  244.000    0.461    0.345   52.291   21.084
  244.250    0.447    0.331   52.907   20.700
  244.500    0.443    0.338   54.743   20.707
  244.750    0.460    0.326   55.967   20.712
  245.000    0.477    0.323   57.194   20.716
  245.250    0.469    0.335   55.371   21.110
  245.500    0.455    0.337   53.550   21.512
  245.750    0.452    0.332   53.554   21.919
  246.000    0.454    0.319   52.950   22.338
  246.250    0.436    0.330   52.957   22.342
  246.500    0.426    0.343   52.961   22.768
  246.750    0.425    0.337   53.578   22.771
  247.000    0.436    0.323   53.584   22.777
  247.250    0.449    0.336   51.151   22.785
  247.500    0.448    0.325   50.546   22.788
  247.750    0.443    0.307   52.382   22.796
  248.000    0.435    0.309   52.998   22.802
  248.250    0.432    0.318   54.225   22.387
  248.500    0.434    0.324   54.842   22.395
  248.750    0.432    0.314   56.676   21.986
  249.000    0.435    0.318   58.510   21.993
  249.250    0.426    0.320   55.469   21.997
  249.500    0.430    0.327   53.035   22.003
  249.750    0.437    0.322   51.210   22.009
  250.000    0.446    0.338   50.609   22.016
  250.250    0.436    0.328   53.666   22.019
  250.500    0.436    0.319   54.280   21.622
  250.750    0.443    0.310   54.285   21.626
  251.000    0.446    0.313   52.462   21.634
  251.250    0.446    0.319   52.467   21.638
  251.500    0.441    0.319   53.694   21.645
  251.750    0.425    0.322   55.530   21.249
  252.000    0.422    0.333   56.145   20.865
  252.250    0.426    0.332   57.370   20.872
  252.500    0.437    0.331   57.986   21.268
  252.750    0.448    0.331   58.602   20.882
  253.000    0.454    0.336   60.437   20.887
  253.250    0.468    0.338   62.273   20.893
  253.500    0.475    0.332   62.889   20.898
  253.750    0.463    0.336   64.115   20.900
  254.000    0.455    0.330   64.729   22.518
  254.250    0.454    0.317   62.906   26.131
  254.500    0.453    0.311   59.863   31.473
  254.750    0.318    0.302   56.211   33.283
  255.000    0.293    0.207   52.558   33.916
  255.250    0.357    0.224   53.174   33.924
  255.500    0.424    0.336   57.449   28.711
  255.750    0.446    0.326   59.893   26.172
  256.000    0.437    0.303   58.071   24.305
  256.250    0.428    0.292   56.247   22.156
  256.500    0.432    0.320   55.643   21.353
  256.750    0.437    0.328   56.871   20.965
  257.000    0.441    0.331   58.705   20.584
  257.250    0.436    0.326   62.370   19.841
  257.500    0.459    0.320   67.255   19.479
  257.750    0.488    0.314   72.140   19.127
  258.000    0.499    0.310   73.363   19.130
  258.250    0.504    0.299   70.931   18.787
  258.500    0.501    0.320   68.499   18.791
  258.750    0.500    0.306   65.455   18.449
  259.000    0.489    0.298   63.022   18.453
  259.250    0.478    0.305   63.029   18.457
  259.500    0.466    0.312   65.476   18.462
  259.750    0.478    0.318   66.700   18.465
  260.000    0.492    0.311   67.315   18.132
  260.250    0.491    0.312   66.103   18.136
  260.500    0.476    0.310   64.887   18.140
  260.750    0.469    0.312   64.286   17.483
  261.000    0.463    0.302   64.291   15.644
  261.250    0.458    0.296   65.516   13.740
  261.500    0.462    0.298   71.621   10.796
  261.750    0.472    0.302   76.505    7.312
  262.000    0.482    0.295   78.949    5.536
  262.250    0.480    0.272   82.614    4.862
  262.500    0.476    0.267   81.400    4.600
  262.750    0.474    0.266   80.797    4.433
  263.000    0.485    0.260   82.022    4.434
  263.250    0.504    0.226   84.469    4.519
  263.500    0.487    0.215   86.304    4.605
  263.750    0.466    0.220   88.748    4.780
  264.000    0.463    0.221   92.414    4.962
  264.250    0.468    0.220   93.639    5.151
  264.500    0.453    0.221   92.426    5.347
  264.750    0.459    0.226   89.385    5.552
  265.000    0.465    0.249   88.169    5.553
  265.250    0.457    0.242   83.906    5.658
  265.500    0.457    0.232   85.743    5.555
  265.750    0.460    0.227   90.019    5.159
  266.000    0.457    0.229   91.852    4.881
  266.250    0.472    0.234   89.419    4.533
  266.500    0.532    0.243   90.034    4.450
  266.750    0.554    0.234   91.871    4.289
  267.000    0.545    0.237   92.487    4.290
  267.250    0.520    0.254   92.491    4.372
  267.500    0.498    0.248   90.060    4.455
  267.750    0.527    0.229   87.018    4.890
  268.000    0.545    0.258   85.803    5.367
  268.250    0.540    0.260   83.980    6.113
  268.500    0.499    0.277   82.156    7.094
  268.750    0.464    0.295   79.114    8.232
  269.000    0.451    0.314   75.462    9.377
  269.250    0.446    0.312   73.638   10.882
  269.500    0.445    0.305   71.814   11.944
  269.750    0.448    0.296   69.382   12.171
  270.000    0.443    0.298   69.997   12.403
  270.250    0.442    0.298   70.613   12.405
  270.500    0.459    0.273   72.448   12.410
  270.750    0.465    0.275   68.799   12.644
  271.000    0.463    0.279   68.802   12.647
  271.250    0.453    0.295   70.638   12.418
  271.500    0.456    0.285   73.084   10.509
  271.750    0.458    0.275   74.919    8.105
  272.000    0.485    0.272   77.363    5.913
  272.250    0.539    0.239   82.249    4.646
  272.500    0.551    0.263   86.523    4.005
  272.750    0.562    0.275   90.187    3.651
  273.000    0.575    0.281   91.412    3.585
  273.250    0.569    0.275   90.809    3.862
  273.500    0.563    0.295   91.425    4.319
  273.750    0.544    0.309   88.992    5.012
  274.000    0.496    0.287   82.900    6.382
  274.250    0.450    0.290   76.808    7.977
  274.500    0.434    0.304   71.326   10.739
  274.750    0.427    0.315   65.235   13.931
  275.000    0.435    0.326   60.362   15.870
  275.250    0.450    0.318   55.490   17.097
  275.500    0.437    0.314   53.057   18.081
  275.750    0.436    0.303   53.675   18.425
  276.000    0.440    0.316   54.291   18.776
  276.250    0.447    0.329   53.685   18.781
  276.500    0.451    0.320   52.476   18.784
  276.750    0.437    0.312   51.872   18.790
  277.000    0.430    0.313   51.266   18.448
  277.250    0.433    0.333   51.270   18.454
  277.500    0.448    0.348   51.886   18.458
  277.750    0.450    0.349   51.284   18.462
  278.000    0.429    0.327   51.288   18.469
  278.250    0.418    0.324   50.689   18.472
  278.500    0.429    0.332   50.084   18.479
  278.750    0.439    0.336   50.698   18.143
  279.000    0.441    0.339   50.703   18.146
  279.250    0.446    0.331   52.541   18.150
  279.500    0.454    0.327   53.155   18.155
  279.750    0.464    0.325   54.383   18.160
  280.000    0.456    0.317   54.998   18.164
  280.250    0.442    0.325   55.614   18.169
