~VERSION INFORMATION
 VERS.                 2.0:   CWLS LOG ASCII STANDARD -VERSION 2.0
 WRAP.                  NO:   ONE LINE PER DEPTH STEP
~WELL INFORMATION BLOCK
#MNEM.UNIT           DATA                    DESCRIPTION OF MNEMONIC
#---------    -------------------            -------------------------------
# Generated from Intellog Unique Number	CS_71_72/WELL/862
WELL.         HB PITLOCHRIE                  : Well_name    - WELL
LOC .         00/10-20-071-12W4/0            : Location     - LOCATION
UWI .         00/10-20-071-12W4/0            : Uwi          - UNIQUE WELL ID
ENTR.         SP                             : Entered      - ENTERED BY
SRVC.         SCHLUMBERGER                   : Scn          - SERVICE COMPANY
STRT.M        262.128                        : top_depth    - START DEPTH
STOP.M        490.378                        : bot_depth    - STOP DEPTH
STEP.M        0.25                           : increment    - STEP LENGTH
 NULL. -999.2500:NULL Value
~CURVE INFORMATION BLOCK
#MNEM UNIT       ERCB CURVE CODE    CURVE DESCRIPTION
#-----------   ------------------   ----------------------------------
DEPT.M        00 001 00 00         : DEPTH        - DEPTH
GR  .API      00 310 00 00         : GR           - GAMMA RAY
DPHI.V/V      00 890 00 00         : PHID         - DENSITY POROSITY (SANDSTONE)
NPHI.V/V      00 330 00 00         : PHIN         - NEUTRON POROSITY (SANDSTONE)
ILD .OHMM     00 120 00 00         : RESD         - DEEP RESISTIVITY (DIL)
~PARAMETER INFORMATION
#MNEM.UNIT           DATA             DESCRIPTION OF MNEMONIC
#---------         -----------     ------------------------------
GL  .M        592.836              : gl           - GROUND LEVEL ELEVATION
EREF.M        595.884              : kb           - ELEVATION OF DEPTH REFERENCE
DATM.M        592.836              : datum        - DATUM ELEVATION
TDD .M        492.252              : tdd          - TOTAL DEPTH DRILLER
RUN .         ONE                  : Run          - RUN NUMBER
ENG .         BILL                 : Engineer     - RECORDING ENGINEER
WIT .         JIM                  : Witness      - WITNESSED BY
MUD .         GEL                  : Mud_type     - MUD TYPE
MATR.         SANDSTONE            : Logunit      - NEUTRON MATRIX
TMAX.C        16.1111              : BHT          - MAXIMUM RECORDED TEMPERATURE
BHTD.M        492.252              : BHTDEP       - MAXIMUM RECORDED TEMPERATURE
MATR.         1                    : LOGUNIT      - NEUTRON MATRIX
RMT .C        25                   : MDTP         - TEMPERATURE OF MUD
NEUT.         1                    : NEUTRON      - NEUTRON TYPE
RESI.         0                    : RESIST       - RESISTIVITY TYPE
RMC .OHMM     0.25                 : RMC          - RESISTIVITY OF MUD CAKE
RMF .OHMM     0.25                 : RMF          - RESISTIVITY OF MUD FILTRATE
SUFT.C        15                   : SUFT         - SURFACE TEMPERATURE
~A  DEPTH       GR     PHID     PHIN     RESD
# ...
  349.128   70.247    0.350    0.448    7.148
  349.378   71.090    0.342    0.450    7.098
  349.628   71.817    0.334    0.468    7.063
  349.878   71.351    0.328    0.472    7.055
  350.128   69.446    0.319    0.464    7.111
  350.378   66.753    0.314    0.457    7.114
  350.628   66.263    0.315    0.463    7.037
  350.878   69.568    0.325    0.469    6.697
  351.128   75.874    0.321    0.462    5.992
  351.378   79.996    0.312    0.476    5.734
  351.628   83.299    0.303    0.526    5.509
  351.878   84.365    0.289    0.532    5.299
  352.128   82.958    0.299    0.527    5.124
  352.378   83.010    0.311    0.521    5.059
  352.628   82.583    0.329    0.533    5.126
  352.878   81.593    0.330    0.535    5.326
  353.128   82.117    0.311    0.490    5.632
  353.378   81.321    0.304    0.474    5.756
  353.628   77.618    0.304    0.493    5.896
  353.878   74.771    0.308    0.507    5.989
  354.128   77.161    0.286    0.491    6.083
  354.378   81.691    0.264    0.487    6.170
  354.628   82.861    0.278    0.493    6.239
  354.878   83.389    0.303    0.499    6.277
  355.128   84.725    0.303    0.505    6.255
  355.378   86.504    0.310    0.492    6.215
  355.628   87.989    0.322    0.476    6.172
  355.878   90.292    0.314    0.464    6.147
  356.128   91.717    0.284    0.469    6.058
  356.378   91.404    0.249    0.458    6.254
  356.628   88.685    0.214    0.405    6.510
  356.878   84.990    0.167    0.366    6.853
  357.128   82.243    0.115    0.369    6.986
  357.378   86.427    0.283    0.441    6.987
  357.628   89.604    0.293    0.451    6.935
  357.878   92.726    0.288    0.462    6.707
  358.128   93.772    0.287    0.490    6.461
  358.378   93.695    0.298    0.499    6.165
  358.628   88.059    0.311    0.495    6.059
  358.878   84.692    0.325    0.498    6.103
  359.128   85.128    0.317    0.507    6.104
  359.378   90.025    0.293    0.506    6.062
  359.628   92.731    0.267    0.496    5.944
  359.878   94.396    0.249    0.489    5.827
  360.128   94.510    0.234    0.482    5.704
  360.378   94.689    0.224    0.474    5.695
  360.628   94.627    0.221    0.457    5.968
  360.878   93.079    0.216    0.446    6.186
  361.128   92.218    0.225    0.441    6.360
  361.378   92.471    0.236    0.449    6.530
  361.628   92.556    0.229    0.456    6.630
  361.878   92.869    0.218    0.466    6.627
  362.128   94.483    0.220    0.466    6.575
  362.378   97.038    0.225    0.463    6.498
  362.628   95.356    0.239    0.464    6.397
  362.878   93.495    0.239    0.466    6.399
  363.128   92.014    0.224    0.473    6.501
  363.378   91.486    0.211    0.464    6.635
  363.628   90.970    0.203    0.457    6.791
  363.878   91.248    0.213    0.451    6.930
  364.128   91.802    0.219    0.449    7.019
  364.378   93.044    0.218    0.447    7.066
  364.628   94.492    0.229    0.444    7.029
  364.878   96.723    0.248    0.443    6.916
  365.128   98.743    0.264    0.443    6.548
  365.378  100.334    0.290    0.451    6.230
  365.628  100.221    0.306    0.459    5.866
  365.878   99.183    0.279    0.465    5.550
  366.128  100.441    0.249    0.485    5.233
  366.378  101.477    0.232    0.499    5.455
  366.628  102.655    0.219    0.504    5.344
  366.878  103.453    0.213    0.509    5.276
  367.128  102.577    0.233    0.489    5.360
  367.378  101.300    0.229    0.473    5.580
  367.628  100.466    0.218    0.456    5.743
  367.878  100.361    0.221    0.447    6.031
  368.128  101.292    0.228    0.449    6.182
  368.378  101.965    0.221    0.462    6.212
  368.628  101.094    0.219    0.472    6.168
  368.878  101.212    0.222    0.480    6.034
  369.128  103.413    0.233    0.493    5.844
  369.378  105.272    0.230    0.500    5.649
  369.628  106.229    0.209    0.490    5.482
  369.878  106.093    0.202    0.485    5.378
  370.128  104.339    0.216    0.494    5.305
  370.378  103.265    0.227    0.499    5.254
  370.628  101.858    0.215    0.495    5.213
  370.878  100.992    0.209    0.498    5.098
  371.128  101.613    0.202    0.506    4.873
  371.378  102.658    0.212    0.505    4.713
  371.628  103.377    0.220    0.502    4.665
  371.878  102.166    0.213    0.505    4.735
  372.128   98.567    0.231    0.510    4.826
  372.378   97.504    0.242    0.493    4.979
  372.628   99.246    0.235    0.478    5.107
  372.878  100.504    0.235    0.474    5.155
  373.128   99.901    0.241    0.472    5.159
  373.378   97.871    0.246    0.476    5.167
  373.628  100.563    0.243    0.497    5.115
  373.878  103.845    0.228    0.512    5.071
  374.128  105.919    0.223    0.505    4.952
  374.378  106.068    0.225    0.506    4.806
  374.628  105.256    0.217    0.497    4.785
  374.878  105.410    0.213    0.491    4.876
  375.128  106.435    0.213    0.493    4.715
  375.378  107.621    0.227    0.503    4.118
  375.628  108.165    0.238    0.494    3.340
  375.878  110.513    0.254    0.510    2.856
  376.128  115.441    0.261    0.550    2.302
  376.378  117.651    0.272    0.601    1.936
  376.628  116.220    0.283    0.603    1.626
  376.878  113.830    0.277    0.592    1.460
  377.128  112.526    0.257    0.579    1.403
  377.378  110.798    0.264    0.555    1.693
  377.628  110.639    0.257    0.529    1.949
  377.878  110.348    0.257    0.498    2.420
  378.128  108.688    0.247    0.480    3.043
  378.378  106.704    0.235    0.465    3.605
  378.628  106.562    0.246    0.456    4.034
  378.878  107.234    0.243    0.453    4.323
  379.128  107.552    0.239    0.464    4.432
  379.378  107.687    0.250    0.494    4.407
  379.628  106.765    0.243    0.516    4.323
  379.878  105.029    0.236    0.529    4.260
  380.128  102.791    0.245    0.517    4.207
  380.378  100.993    0.276    0.501    4.237
  380.628   98.723    0.284    0.485    4.318
  380.878   96.656    0.264    0.478    4.429
  381.128   94.653    0.251    0.488    4.504
  381.378   93.115    0.254    0.494    4.515
  381.628   93.450    0.279    0.488    4.399
  381.878   94.259    0.302    0.495    4.240
  382.128   94.392    0.294    0.504    4.148
  382.378   93.142    0.286    0.503    4.063
  382.628   91.975    0.301    0.490    4.066
  382.878   86.620    0.314    0.488    4.084
  383.128   76.631    0.310    0.468    4.151
  383.378   71.047    0.312    0.453    4.169
  383.628   68.528    0.314    0.442    4.282
  383.878   71.129    0.307    0.438    4.310
  384.128   74.527    0.300    0.434    4.305
  384.378   75.581    0.294    0.430    4.250
  384.628   76.163    0.298    0.448    4.195
  384.878   78.632    0.317    0.463    4.188
  385.128   83.349    0.323    0.468    4.240
  385.378   88.157    0.292    0.457    4.359
  385.628   92.298    0.270    0.448    4.456
  385.878   94.847    0.261    0.457    4.521
  386.128   96.085    0.257    0.465    4.540
  386.378   93.755    0.270    0.458    4.488
  386.628   90.665    0.268    0.448    4.381
  386.878   86.079    0.259    0.464    4.202
  387.128   85.779    0.260    0.475    4.056
  387.378   87.600    0.263    0.478    3.985
  387.628   88.435    0.219    0.471    4.168
  387.878   83.797    0.142    0.461    4.625
  388.128   72.704    0.081    0.307    5.003
  388.378   70.744    0.061    0.259    5.537
  388.628   77.190    0.052    0.242    5.900
  388.878   86.759    0.126    0.329    6.288
  389.128   94.739    0.218    0.443    6.250
  389.378   99.070    0.240    0.474    5.519
  389.628  101.838    0.243    0.482    4.716
  389.878  100.711    0.230    0.486    4.224
  390.128   99.396    0.223    0.494    4.068
  390.378   98.842    0.221    0.490    4.023
  390.628  101.396    0.233    0.479    4.009
  390.878  105.627    0.223    0.468    4.058
  391.128  109.598    0.236    0.464    4.108
  391.378  107.101    0.235    0.465    4.156
  391.628  107.201    0.230    0.479    4.170
  391.878  108.756    0.230    0.482    4.199
  392.128  105.293    0.229    0.480    4.229
  392.378  102.994    0.231    0.481    4.228
