~VERSION INFORMATION
 VERS.                 2.0:   CWLS LOG ASCII STANDARD -VERSION 2.0
 WRAP.                  NO:   ONE LINE PER DEPTH STEP
~WELL INFORMATION BLOCK
#MNEM.UNIT           DATA                    DESCRIPTION OF MNEMONIC
#---------    -------------------            -------------------------------
# Generated from Intellog Unique Number	CS_77_79/WELL/1015
WELL.         H. B. LEISMER                  : Well_name    - WELL
LOC .         00/12-30-078-11W4/0            : Location     - LOCATION
UWI .         00/12-30-078-11W4/0            : Uwi          - UNIQUE WELL ID
ENTR.         JHS                            : Entered      - ENTERED BY
SRVC.         SCHLUMBERGER                   : Scn          - SERVICE COMPANY
STRT.M        245                            : top_depth    - START DEPTH
STOP.M        485                            : bot_depth    - STOP DEPTH
STEP.M        0.25                           : increment    - STEP LENGTH
 NULL. -999.2500:NULL Value
~CURVE INFORMATION BLOCK
#MNEM UNIT       ERCB CURVE CODE    CURVE DESCRIPTION
#-----------   ------------------   ----------------------------------
DEPT.M        00 001 00 00         : DEPTH        - DEPTH
DPHI.V/V      00 890 00 00         : PHID         - DENSITY POROSITY (LIMESTONE)
NPHI.V/V      00 330 00 00         : PHIN         - NEUTRON POROSITY (LIMESTONE)
GR  .API      00 310 00 00         : GR           - GAMMA RAY
ILD .OHMM     00 120 00 00         : RESD         - DEEP RESISTIVITY (DIL)
RHOB.KG/M3    00 350 00 00         : DENS         - BULK DENSITY
~PARAMETER INFORMATION
#MNEM.UNIT           DATA             DESCRIPTION OF MNEMONIC
#---------         -----------     ------------------------------
GL  .M        683                  : gl           - GROUND LEVEL ELEVATION
EREF.M        687.9                : kb           - ELEVATION OF DEPTH REFERENCE
DATM.M        687.9                : datum        - DATUM ELEVATION
TDD .M        488                  : tdd          - TOTAL DEPTH DRILLER
RUN .         ONE                  : Run          - RUN NUMBER
ENG .         BILL                 : Engineer     - RECORDING ENGINEER
WIT .         JIM                  : Witness      - WITNESSED BY
MUD .         GEL                  : Mud_type     - MUD TYPE
MATR.         LIMESTONE            : Logunit      - NEUTRON MATRIX
TMAX.C        27.8                 : BHT          - MAXIMUM RECORDED TEMPERATURE
BHTD.M        488                  : BHTDEP       - MAXIMUM RECORDED TEMPERATURE
MATR.         1                    : LOGUNIT      - NEUTRON MATRIX
RMT .C        25                   : MDTP         - TEMPERATURE OF MUD
NEUT.         1                    : NEUTRON      - NEUTRON TYPE
RESI.         0                    : RESIST       - RESISTIVITY TYPE
RMC .OHMM     0.25                 : RMC          - RESISTIVITY OF MUD CAKE
RMF .OHMM     0.25                 : RMF          - RESISTIVITY OF MUD FILTRATE
SUFT.C        15                   : SUFT         - SURFACE TEMPERATURE
~A  DEPTH     PHID     PHIN       GR     RESD     DENS
# ...
  281.500    0.267    0.398   66.994   21.443    0.000
  281.750    0.256    0.383   61.453   21.441    0.000
  282.000    0.269    0.416   69.493   21.037    0.000
  282.250    0.280    0.444   76.301   19.498    0.000
  282.500    0.271    0.444   76.930   15.824    0.000
  282.750    0.268    0.421   73.860   13.594    0.000
  283.000    0.284    0.405   73.877   11.032    0.000
  283.250    0.278    0.412   77.593    9.659    0.000
  283.500    0.258    0.460   81.313    8.784    0.000
  283.750    0.240    0.487   81.948    8.298    0.000
  284.000    0.214    0.504   85.047    7.838    0.000
  284.250    0.185    0.493   85.678    7.404    0.000
  284.500    0.153    0.486   86.312    7.128    0.000
  284.750    0.187    0.497   91.265    6.862    0.000
  285.000    0.204    0.506   95.600    6.606    0.000
  285.250    0.206    0.512  100.555    6.481    0.000
  285.500    0.198    0.503  103.656    6.239    0.000
  285.750    0.211    0.504  104.285    6.007    0.000
  286.000    0.183    0.488  105.536    5.783    0.000
  286.250    0.206    0.512  105.550    5.360    0.000
  286.500    0.227    0.531  102.483    4.874    0.000
  286.750    0.223    0.537  101.262    4.604    0.000
  287.000    0.208    0.535  102.510    4.108    0.000
  287.250    0.195    0.552  106.229    3.808    0.000
  287.500    0.203    0.574  107.481    3.529    0.000
  287.750    0.229    0.568  109.348    3.398    0.000
  288.000    0.221    0.567  110.594    3.397    0.000
  288.250    0.247    0.571  108.760    3.596    0.000
  288.500    0.254    0.567  109.391    4.516    0.000
  288.750    0.267    0.519  108.169    5.356    0.000
  289.000    0.282    0.485  103.862    7.256    0.000
  289.250    0.298    0.461   95.236   10.210    0.000
  289.500    0.315    0.452   88.459   12.580    0.000
  289.750    0.305    0.456   86.006   13.571    0.000
  290.000    0.303    0.450   84.168   13.570    0.000
  290.250    0.293    0.436   86.037   13.829    0.000
  290.500    0.283    0.437   86.671   14.363    0.000
  290.750    0.294    0.431   84.215   13.312    0.000
  291.000    0.313    0.436   82.997   11.879    0.000
  291.250    0.309    0.430   84.243    9.459    0.000
  291.500    0.273    0.438   89.813    7.391    0.000
  291.750    0.242    0.494   98.471    6.113    0.000
  292.000    0.208    0.543  102.809    5.559    0.000
  292.250    0.165    0.518  101.592    5.665    0.000
  292.500    0.139    0.505  101.602    6.594    0.000
  292.750    0.191    0.497  105.938    7.821    0.000
  293.000    0.239    0.489  104.101    9.277    0.000
  293.250    0.272    0.463   96.711   11.005    0.000
  293.500    0.285    0.433   94.870   11.872    0.000
  293.750    0.274    0.434   94.889   12.807    0.000
  294.000    0.267    0.452   91.814   13.816    0.000
  294.250    0.285    0.452   87.508   13.816    0.000
  294.500    0.303    0.447   84.436   13.300    0.000
  294.750    0.301    0.437   81.369   12.804    0.000
  295.000    0.291    0.448   83.232   11.867    0.000
  295.250    0.273    0.438   89.419   11.210    0.000
  295.500    0.259    0.482   91.906   10.792    0.000
  295.750    0.274    0.467   95.624   10.791    0.000
  296.000    0.281    0.453   92.554   11.423    0.000
  296.250    0.280    0.451   85.775   12.323    0.000
  296.500    0.292    0.442   75.915   13.548    0.000
  296.750    0.311    0.434   67.903   14.072    0.000
  297.000    0.315    0.450   66.684   14.615    0.000
  297.250    0.311    0.472   71.639   14.614    0.000
  297.500    0.297    0.493   73.504   14.069    0.000
  297.750    0.279    0.504   73.518   13.804    0.000
  298.000    0.265    0.493   73.535   13.289    0.000
  298.250    0.254    0.483   73.551   12.793    0.000
  298.500    0.274    0.504   74.184   12.316    0.000
  298.750    0.290    0.492   76.666   12.084    0.000
  299.000    0.291    0.477   79.148   12.083    0.000
  299.250    0.300    0.502   78.547   12.082    0.000
  299.500    0.285    0.506   78.561   12.549    0.000
  299.750    0.269    0.488   81.046   12.789    0.000
  300.000    0.260    0.473   78.591   12.788    0.000
  300.250    0.292    0.487   79.846   12.546    0.000
  300.500    0.286    0.493   81.090   12.310    0.000
  300.750    0.280    0.494   82.961   12.078    0.000
  301.000    0.275    0.503   84.826   11.850    0.000
  301.250    0.285    0.494   82.371   11.849    0.000
  301.500    0.283    0.482   80.534   11.848    0.000
  301.750    0.289    0.490   78.078   12.075    0.000
  302.000    0.293    0.500   76.858   12.305    0.000
  302.250    0.282    0.496   80.579   12.305    0.000
  302.500    0.289    0.505   82.443   12.304    0.000
  302.750    0.293    0.489   76.288   12.539    0.000
  303.000    0.290    0.475   75.071   12.302    0.000
  303.250    0.304    0.491   75.697   11.844    0.000
  303.500    0.289    0.494   78.800   10.977    0.000
  303.750    0.279    0.479   81.284    9.983    0.000
  304.000    0.278    0.491   84.388    9.078    0.000
  304.250    0.295    0.485   87.487    8.740    0.000
  304.500    0.276    0.466   90.594    8.907    0.000
  304.750    0.301    0.452   93.076    9.251    0.000
  305.000    0.300    0.453   94.322    9.980    0.000
  305.250    0.312    0.458   85.694   10.972    0.000
  305.500    0.325    0.447   77.683   11.396    0.000
  305.750    0.312    0.460   77.084   11.836    0.000
  306.000    0.305    0.487   76.482   12.062    0.000
  306.250    0.318    0.484   72.791   12.768    0.000
  306.500    0.312    0.461   71.571   14.307    0.000
  306.750    0.296    0.485   70.968   16.032    0.000
  307.000    0.299    0.507   66.665   17.964    0.000
  307.250    0.327    0.504   59.888   21.308    0.000
  307.500    0.358    0.491   52.493   24.334    0.000
  307.750    0.359    0.502   50.659   27.790    0.000
  308.000    0.356    0.488   50.673   30.554    0.000
  308.250    0.355    0.460   50.070   34.236    0.000
  308.500    0.356    0.448   50.703   39.098    0.000
  308.750    0.355    0.441   51.335   44.650    0.000
  309.000    0.348    0.470   53.202   41.383    0.000
  309.250    0.350    0.494   55.069   27.779    0.000
  309.500    0.371    0.482   55.085   25.263    0.000
  309.750    0.370    0.510   57.568   26.741    0.000
  310.000    0.355    0.523   57.580   24.785    0.000
  310.250    0.350    0.479   53.892   24.318    0.000
  310.500    0.344    0.455   47.117   27.249    0.000
  310.750    0.334    0.444   39.109   31.714    0.000
  311.000    0.338    0.455   40.360   36.912    0.000
  311.250    0.347    0.442   41.605   39.071    0.000
  311.500    0.356    0.432   39.769   38.335    0.000
  311.750    0.351    0.430   36.701   36.905    0.000
  312.000    0.352    0.440   36.098   36.903    0.000
  312.250    0.352    0.453   36.730   38.327    0.000
  312.500    0.351    0.464   38.597   39.060    0.000
  312.750    0.352    0.470   40.465   42.137    0.000
  313.000    0.346    0.466   41.092   46.328    0.000
  313.250    0.350    0.456   42.345   49.040    0.000
  313.500    0.346    0.452   42.978   53.917    0.000
  313.750    0.345    0.453   43.609   53.914    0.000
  314.000    0.355    0.467   44.242   52.897    0.000
  314.250    0.356    0.465   44.255   49.967    0.000
  314.500    0.356    0.444   41.800   47.199    0.000
  314.750    0.357    0.439   37.496   43.745    0.000
  315.000    0.359    0.439   39.979   42.115    0.000
  315.250    0.357    0.439   42.461   39.781    0.000
  315.500    0.352    0.439   41.241   38.297    0.000
  315.750    0.356    0.441   40.028   36.868    0.000
  316.000    0.362    0.436   43.123   35.493    0.000
  316.250    0.364    0.463   46.227   34.169    0.000
  316.500    0.370    0.463   45.006   33.525    0.000
  316.750    0.363    0.443   43.168   32.275    0.000
  317.000    0.360    0.437   43.183   31.071    0.000
  317.250    0.354    0.432   43.203   30.484    0.000
  317.500    0.348    0.435   43.215   29.910    0.000
  317.750    0.352    0.434   45.700   29.345    0.000
