~VERSION INFORMATION
 VERS.                 2.0:   CWLS LOG ASCII STANDARD -VERSION 2.0
 WRAP.                  NO:   ONE LINE PER DEPTH STEP
~WELL INFORMATION BLOCK
#MNEM.UNIT           DATA                    DESCRIPTION OF MNEMONIC
#---------    -------------------            -------------------------------
# Generated from Intellog Unique Number	CN_91_93/WELL/3077
WELL.         CANADIAN SUPERIOR OIL LTD.     : Well_name    - WELL
LOC .         00/11-36-092-21W4/0            : Location     - LOCATION
UWI .         00/11-36-092-21W4/0            : Uwi          - UNIQUE WELL ID
ENTR.         JOETTE                         : Entered      - ENTERED BY
SRVC.         SCHLUMBERGER                   : Scn          - SERVICE COMPANY
DATE.         04/10/92                       : Date         - LOG DATE
STRT.M        50                             : top_depth    - START DEPTH
STOP.M        235                            : bot_depth    - STOP DEPTH
STEP.M        0.25                           : increment    - STEP LENGTH
 NULL. -999.2500:NULL Value
~CURVE INFORMATION BLOCK
#MNEM UNIT       ERCB CURVE CODE    CURVE DESCRIPTION
#-----------   ------------------   ----------------------------------
DEPT.M        00 001 00 00         : DEPTH        - DEPTH
CALI.MM       00 280 01 00         : CAL          - CALIPER
GR  .API      00 310 00 00         : GR           - GAMMA RAY
NPHI.V/V      00 330 00 00         : PHIN         - NEUTRON POROSITY (SANDSTONE)
ILD .OHMM     00 120 00 00         : RESD         - DEEP RESISTIVITY (DIL)
DPHI.V/V      00 890 00 00         : PHID         - DENSITY POROSITY (SANDSTONE)
~PARAMETER INFORMATION
#MNEM.UNIT           DATA             DESCRIPTION OF MNEMONIC
#---------         -----------     ------------------------------
GL  .M        535.4                : gl           - GROUND LEVEL ELEVATION
EREF.M        539.2                : kb           - ELEVATION OF DEPTH REFERENCE
DATM.M        539.2                : datum        - DATUM ELEVATION
TDD .M        238.8                : tdd          - TOTAL DEPTH DRILLER
RUN .         ONE                  : Run          - RUN NUMBER
ENG .         BILL                 : Engineer     - RECORDING ENGINEER
WIT .         JIM                  : Witness      - WITNESSED BY
MUD .         GEL                  : Mud_type     - MUD TYPE
MATR.         SANDSTONE            : Logunit      - NEUTRON MATRIX
TMAX.C        20                   : BHT          - MAXIMUM RECORDED TEMPERATURE
BHTD.M        238.8                : BHTDEP       - MAXIMUM RECORDED TEMPERATURE
RMT .C        15                   : MDTP         - TEMPERATURE OF MUD
MUDD.KG/M     1100                 : MWT          - MUD DENSITY
NEUT.         1                    : NEUTRON      - NEUTRON TYPE
RESI.         0                    : RESIST       - RESISTIVITY TYPE
RM  .OHMM     5.68                 : RM           - RESISTIVITY OF MUD
RMC .OHMM     5.68                 : RMC          - RESISTIVITY OF MUD CAKE
RMF .OHMM     5.29                 : RMF          - RESISTIVITY OF MUD FILTRATE
SUFT.C        4                    : SUFT         - SURFACE TEMPERATURE
~A  DEPTH      CAL       GR     PHIN     RESD     PHID
# ...
  159.500  255.919   98.586    0.539    5.663    0.150
  159.750  255.951   97.339    0.560    5.658    0.146
  160.000  254.965   96.701    0.539    5.654    0.124
  160.250  254.990   96.678    0.510    5.647    0.077
  160.500  255.039   96.669    0.494    5.643    0.098
  160.750  255.055   97.265    0.521    5.639    0.131
  161.000  255.103   94.170    0.533    5.635    0.206
  161.250  255.120   89.851    0.466    5.420    0.209
  161.500  255.168   86.151    0.420    5.215    0.223
  161.750  254.166   80.604    0.405    5.310    0.270
  162.000  254.223   74.438    0.407    6.053    0.277
  162.250  254.247   70.124    0.411    7.162    0.277
  162.500  254.264   66.415    0.420    8.635    0.270
  162.750  254.312   63.324    0.425    9.841    0.251
  163.000  254.329   60.234    0.370   11.426    0.205
  163.250  254.369   55.911    0.318   12.310    0.120
  163.500  255.436   54.049    0.299   13.013    0.076
  163.750  256.504   54.645    0.326   13.002    0.116
  164.000  256.528   57.698    0.360   12.991    0.183
  164.250  255.542   60.755    0.384   12.980    0.265
  164.500  255.566   62.580    0.388   12.963    0.266
  164.750  254.588   65.018    0.404   12.714    0.251
  165.000  254.613   68.066    0.438   12.467    0.279
  165.250  254.645   69.276    0.436   12.456    0.287
  165.500  255.712   70.486    0.425   12.211    0.268
  165.750  256.763   71.696    0.412   11.979    0.216
  166.000  257.830   77.825    0.413   11.741    0.188
  166.250  257.855   84.564    0.432   11.508    0.193
  166.500  257.904   90.074    0.453   11.505    0.208
  166.750  257.928   90.670    0.483   11.282    0.212
  167.000  257.969   87.566    0.462   10.652    0.202
  167.250  257.993   85.094    0.438   10.062    0.207
  167.500  257.015   83.233    0.425    8.979    0.215
  167.750  257.047   86.286    0.425    8.322    0.219
  168.000  257.064   88.115    0.439    7.859    0.214
  168.250  257.104   89.934    0.452    7.706    0.224
  168.500  257.137   89.916    0.462    7.556    0.230
  168.750  258.196   88.673    0.463    7.550    0.208
  169.000  260.281   86.188    0.443    7.543    0.187
  169.250  260.314   84.945    0.427    8.126    0.168
  169.500  259.328   81.236    0.409    9.086    0.185
  169.750  257.307   78.765    0.406    9.607    0.231
  170.000  256.321   73.823    0.412   10.348    0.251
  170.250  255.327   71.971    0.424   11.790    0.251
  170.500  255.351   68.266    0.433   12.703    0.231
  170.750  257.445   64.557    0.413   13.680    0.162
  171.000  259.539   62.700    0.386   14.739    0.117
  171.250  260.590   61.453    0.395   15.580    0.174
  171.500  260.647   62.049    0.419   15.856    0.251
  171.750  260.655   66.330    0.404   15.550    0.226
  172.000  260.696   73.069    0.389   15.251    0.177
  172.250  260.720   82.264    0.473   14.132    0.153
  172.500  259.742   88.384    0.522   12.854    0.201
  172.750  258.740   90.828    0.544   11.050    0.239
  173.000  258.772   90.809    0.541    9.149    0.245
  173.250  258.805   89.562    0.522    7.296    0.241
  173.500  257.819   88.300    0.497    6.041    0.234
  173.750  257.859   87.672    0.474    5.000    0.219
  174.000  256.857   87.653    0.449    5.091    0.190
  174.250  255.871   87.020    0.431    5.803    0.172
  174.500  254.877   86.388    0.434    7.542    0.164
  174.750  253.891   86.369    0.426    7.974    0.159
  175.000  253.907   86.350    0.418    9.256    0.156
  175.250  253.964   86.336    0.419   10.161    0.165
  175.500  253.980   86.927    0.426   10.947    0.178
  175.750  254.021   86.909    0.434   12.471    0.195
  176.000  254.045   85.662    0.428   13.688    0.187
  176.250  255.104   82.576    0.413   14.744    0.085
  176.500  256.171   77.029    0.387   15.589    0.045
  176.750  257.239   74.548    0.351   15.868    0.096
  177.000  256.236   75.763    0.363   16.159    0.147
  177.250  255.250   81.273    0.379   16.142    0.202
  177.500  255.291   84.931    0.402   15.828    0.194
  177.750  255.332   83.069    0.407   15.235    0.138
  178.000  255.356   80.598    0.392   14.381    0.116
  178.250  255.380   79.346    0.397   14.107    0.146
  178.500  255.421   79.328    0.412   13.827    0.207
  178.750  256.488   78.085    0.436   13.561    0.234
  179.000  256.512   67.009    0.441   13.553    0.255
  179.250  256.553   61.462    0.416   13.289    0.242
  179.500  256.577   68.815    0.398   12.780    0.134
  179.750  256.610   74.939    0.397   12.537    0.143
  180.000  256.650   81.059    0.402   12.061    0.196
  180.250  256.675   84.112    0.405   11.607    0.234
  180.500  255.697   83.474    0.406   11.169    0.234
  180.750  255.721   82.850    0.407   10.548    0.234
  181.000  255.754   80.361    0.412    9.594    0.233
  181.250  254.768   79.737    0.416    8.893    0.230
  181.500  254.792   80.328    0.424    8.089    0.230
  181.750  253.822   81.538    0.442    7.084    0.229
  182.000  253.847   84.595    0.495    6.443    0.229
  182.250  253.871   90.101    0.495    5.972    0.232
  182.500  253.920   91.925    0.495    5.330    0.233
  182.750  253.936   93.135    0.499    5.034    0.236
  183.000  252.950   92.497    0.509    4.754    0.238
  183.250  252.982   90.031    0.534    4.661    0.231
  183.500  251.988   84.484    0.498    4.836    0.214
  183.750  252.029   76.479    0.427    5.209    0.179
  184.000  253.088   71.541    0.400    5.717    0.180
  184.250  253.120   75.827    0.424    6.894    0.224
  184.500  254.179   73.957    0.413    8.005    0.259
  184.750  255.255   73.938    0.414    9.470    0.266
  185.000  255.279   76.381    0.433   10.203    0.218
  185.250  256.330   74.515    0.428   10.388    0.198
  185.500  257.397   71.425    0.425    9.804    0.179
  185.750  258.464   73.868    0.415    9.438    0.183
  186.000  259.532   78.145    0.412    8.913    0.192
  186.250  259.548   81.202    0.417    8.574    0.196
  186.500  259.580   80.560    0.422    8.897    0.201
  186.750  258.586   79.322    0.432    9.765    0.214
  187.000  257.608   76.227    0.430   11.131    0.219
  187.250  256.606   72.523    0.416   13.935    0.206
  187.500  256.639   68.209    0.344   16.801    0.173
  187.750  257.706   58.971    0.325   21.840    0.106
  188.000  257.738   56.495    0.299   27.341    0.034
  188.250  258.797   62.005    0.277   27.312    0.027
  188.500  258.838   69.358    0.321   26.787    0.132
  188.750  258.870   73.021    0.359   23.910    0.166
  189.000  256.858   74.231    0.408   21.338    0.194
  189.250  256.882   76.055    0.403   18.344    0.152
  189.500  256.915   78.494    0.384   17.327    0.065
  189.750  257.982   80.937    0.390   16.360    0.099
  190.000  258.006   85.218    0.398   15.159    0.162
  190.250  258.055   88.881    0.408   14.316    0.175
  190.500  257.044   88.867    0.417   13.520    0.190
  190.750  257.077   88.234    0.428   12.768    0.200
  191.000  257.126   87.601    0.443   12.058    0.211
  191.250  257.150   86.354    0.438   11.175    0.214
  191.500  258.209   86.330    0.428   10.960    0.206
  191.750  258.242   86.312    0.442   10.158    0.180
  192.000  259.301   81.988    0.452    8.896    0.172
  192.250  258.307   76.446    0.425    8.721    0.160
  192.500  258.347   67.827    0.353    9.219    0.140
  192.750  258.380   54.908    0.331   10.121    0.105
  193.000  258.428   51.818    0.321   11.320    0.063
  193.250  259.471   58.557    0.331   12.424    0.101
  193.500  260.530   65.295    0.358   11.515    0.131
  193.750  261.605   74.491    0.386   10.672    0.164
  194.000  261.630   81.844    0.396    9.891    0.190
  194.250  260.644   86.126    0.393    9.518    0.192
  194.500  259.642   87.950    0.390   10.059    0.188
  194.750  258.647   91.617    0.383   11.041    0.196
  195.000  258.696   95.284    0.375   12.583    0.197
  195.250  258.729   95.265    0.373   12.810    0.206
  195.500  258.753   94.018    0.381   13.045    0.211
  195.750  258.794   92.152    0.390   13.026    0.210
