~VERSION INFORMATION
 VERS.                 2.0:   CWLS LOG ASCII STANDARD -VERSION 2.0
 WRAP.                  NO:   ONE LINE PER DEPTH STEP
~WELL INFORMATION BLOCK
#MNEM.UNIT           DATA                    DESCRIPTION OF MNEMONIC
#---------    -------------------            -------------------------------
# Generated from Intellog Unique Number	CS_77_79/WELL/1012
WELL.         ICGR CHARD                     : Well_name    - WELL
LOC .         00/11-36-078-06W4/0            : Location     - LOCATION
UWI .         00/11-36-078-06W4/0            : Uwi          - UNIQUE WELL ID
ENTR.         JHS                            : Entered      - ENTERED BY
SRVC.         SCHLUMBERGER                   : Scn          - SERVICE COMPANY
STRT.M        100                            : top_depth    - START DEPTH
STOP.M        375                            : bot_depth    - STOP DEPTH
STEP.M        0.25                           : increment    - STEP LENGTH
 NULL. -999.2500:NULL Value
~CURVE INFORMATION BLOCK
#MNEM UNIT       ERCB CURVE CODE    CURVE DESCRIPTION
#-----------   ------------------   ----------------------------------
DEPT.M        00 001 00 00         : DEPTH        - DEPTH
DPHI.V/V      00 890 00 00         : PHID         - DENSITY POROSITY (LIMESTONE)
NPHI.V/V      00 330 00 00         : PHIN         - NEUTRON POROSITY (LIMESTONE)
GR  .API      00 310 00 00         : GR           - GAMMA RAY
ILD .OHMM     00 120 00 00         : RESD         - DEEP RESISTIVITY (DIL)
~PARAMETER INFORMATION
#MNEM.UNIT           DATA             DESCRIPTION OF MNEMONIC
#---------         -----------     ------------------------------
GL  .M        533.73               : gl           - GROUND LEVEL ELEVATION
EREF.M        537.26               : kb           - ELEVATION OF DEPTH REFERENCE
DATM.M        537.26               : datum        - DATUM ELEVATION
TDD .M        381                  : tdd          - TOTAL DEPTH DRILLER
RUN .         ONE                  : Run          - RUN NUMBER
ENG .         BILL                 : Engineer     - RECORDING ENGINEER
WIT .         JIM                  : Witness      - WITNESSED BY
MUD .         GEL                  : Mud_type     - MUD TYPE
MATR.         LIMESTONE            : Logunit      - NEUTRON MATRIX
TMAX.C        20                   : BHT          - MAXIMUM RECORDED TEMPERATURE
BHTD.M        381                  : BHTDEP       - MAXIMUM RECORDED TEMPERATURE
MATR.         1                    : LOGUNIT      - NEUTRON MATRIX
RMT .C        25                   : MDTP         - TEMPERATURE OF MUD
NEUT.         1                    : NEUTRON      - NEUTRON TYPE
RESI.         0                    : RESIST       - RESISTIVITY TYPE
RMC .OHMM     0.25                 : RMC          - RESISTIVITY OF MUD CAKE
RMF .OHMM     0.25                 : RMF          - RESISTIVITY OF MUD FILTRATE
SUFT.C        15                   : SUFT         - SURFACE TEMPERATURE
~A  DEPTH     PHID     PHIN       GR     RESD
# ...
  317.500    0.182    0.322   96.459    9.399
  317.750    0.164    0.318   97.053    9.395
  318.000    0.169    0.329   99.497    9.389
  318.250    0.193    0.347  101.320    9.211
  318.500    0.201    0.347   96.388    9.208
  318.750    0.187    0.337   90.836    8.860
  319.000    0.184    0.365   97.578    8.690
  319.250    0.211    0.405  100.018    8.523
  319.500    0.220    0.429   97.537    8.202
  319.750    0.221    0.428   95.678    7.893
  320.000    0.231    0.416   98.736    7.889
  320.250    0.253    0.436   99.947    7.888
  320.500    0.283    0.456   92.551    7.884
  320.750    0.258    0.452   82.701    8.031
  321.000    0.199    0.431   80.837    8.029
  321.250    0.180    0.411   89.423    8.179
  321.500    0.195    0.408   88.785    8.175
  321.750    0.217    0.392   90.616    8.171
  322.000    0.237    0.374   94.287    8.169
  322.250    0.236    0.395   92.422    8.166
  322.500    0.224    0.384   86.870    8.319
  322.750    0.218    0.357   91.773    8.314
  323.000    0.210    0.340   96.672    8.310
  323.250    0.196    0.345   95.424    8.151
  323.500    0.173    0.391  100.934    8.148
  323.750    0.154    0.420   99.691    7.992
  324.000    0.156    0.434   79.389    7.404
  324.250    0.248    0.410   51.094    6.991
  324.500    0.297    0.378   46.160    6.729
  324.750    0.311    0.376   43.681    6.117
  325.000    0.314    0.390   41.204    5.776
  325.250    0.321    0.391   38.726    5.454
  325.500    0.321    0.390   42.395    5.249
  325.750    0.319    0.393   47.295    5.051
  326.000    0.317    0.395   48.508    4.954
  326.250    0.327    0.385   41.112    4.953
  326.500    0.347    0.373   36.787    5.045
  326.750    0.337    0.360   39.228    5.238
  327.000    0.306    0.347   42.288    5.648
  327.250    0.283    0.363   50.874    5.865
  327.500    0.264    0.369   62.536    6.089
  327.750    0.264    0.328   76.038    5.972
  328.000    0.279    0.316   70.487    5.747
  328.250    0.306    0.352   58.178    5.531
  328.500    0.325    0.373   42.177    5.223
  328.750    0.309    0.349   40.931    4.932
  329.000    0.290    0.337   74.719    4.837
  329.250    0.272    0.333  104.819    5.022
  329.500    0.266    0.340  112.790    5.314
  329.750    0.285    0.378  105.395    5.517
  330.000    0.298    0.389   89.397    5.620
  330.250    0.284    0.348   80.771    5.513
  330.500    0.273    0.340   78.297    5.305
  330.750    0.288    0.362   66.599    5.009
  331.000    0.313    0.378   45.068    4.730
  331.250    0.337    0.386   39.517    4.467
  331.500    0.354    0.400   35.195    4.139
  331.750    0.365    0.405   32.718    3.908
  332.000    0.361    0.385   32.700    3.981
  332.250    0.341    0.366   38.830    4.459
  332.500    0.308    0.346   59.094    4.995
  332.750    0.272    0.330   79.974    5.186
  333.000    0.285    0.369   84.260    5.183
  333.250    0.312    0.390   71.331    4.989
  333.500    0.348    0.366   57.792    4.449
  333.750    0.361    0.368   46.096    4.122
  334.000    0.368    0.384   34.397    4.044
  334.250    0.343    0.384   41.141    4.042
  334.500    0.322    0.364   47.268    4.197
  334.750    0.323    0.364   44.788    4.440
  335.000    0.323    0.369   42.930    4.698
  335.250    0.311    0.359   50.285    4.787
  335.500    0.307    0.362   53.341    4.785
  335.750    0.320    0.373   52.094    4.605
  336.000    0.332    0.389   49.002    4.516
  336.250    0.343    0.379   45.297    4.430
  336.500    0.343    0.370   43.432    4.428
  336.750    0.332    0.362   47.105    4.343
  337.000    0.330    0.361   50.774    4.340
  337.250    0.338    0.367   45.223    4.339
  337.500    0.352    0.384   38.440    4.338
  337.750    0.353    0.394   40.880    4.254
  338.000    0.345    0.404   43.939    4.172
  338.250    0.341    0.416   45.144    4.171
  338.500    0.345    0.399   42.673    4.169
  338.750    0.351    0.391   38.350    4.166
  339.000    0.352    0.388   34.643    4.087
  339.250    0.346    0.389   33.397    4.086
  339.500    0.341    0.386   33.379    4.007
  339.750    0.346    0.380   31.514    3.930
  340.000    0.360    0.376   29.651    3.929
  340.250    0.371    0.381   27.176    3.926
  340.500    0.381    0.399   25.315    3.925
  340.750    0.387    0.445   29.596    3.923
  341.000    0.381    0.434   33.267    3.997
  341.250    0.367    0.412   34.481    4.072
  341.500    0.365    0.384   35.073    4.148
  341.750    0.365    0.380   33.209    4.307
  342.000    0.343    0.392   33.195    4.305
  342.250    0.331    0.377   38.090    4.385
  342.500    0.331    0.380   41.148    4.468
  342.750    0.347    0.415   39.900    4.466
  343.000    0.337    0.426   38.655    4.549
  343.250    0.336    0.409   40.478    4.548
  343.500    0.338    0.397   43.533    4.546
  343.750    0.328    0.396   44.745    4.631
  344.000    0.326    0.383   42.882    4.629
  344.250    0.327    0.368   47.166    4.627
  344.500    0.338    0.407   45.917    4.538
  344.750    0.352    0.424   42.207    4.367
  345.000    0.316    0.411   42.810    4.366
  345.250    0.303    0.405   47.707    4.281
  345.500    0.306    0.410   47.077    4.280
  345.750    0.340    0.400   43.370    4.198
  346.000    0.353    0.397   41.506    4.276
  346.250    0.352    0.423   44.563    4.275
  346.500    0.341    0.435   47.610    4.438
  346.750    0.329    0.423   48.213    4.521
  347.000    0.314    0.409   52.496    4.520
  347.250    0.307    0.399   55.550    4.518
  347.500    0.331    0.408   50.615    4.516
  347.750    0.359    0.430   46.297    4.601
  348.000    0.308    0.418   56.112    4.686
  348.250    0.293    0.402   70.845    4.685
  348.500    0.312    0.466   65.910    4.508
  348.750    0.300    0.414   56.056    4.256
  349.000    0.300    0.377   67.717    4.096
  349.250    0.329    0.388   62.782    4.095
  349.500    0.379    0.418   46.782    4.016
  349.750    0.381    0.410   38.160    4.015
  350.000    0.365    0.407   31.995    4.013
  350.250    0.355    0.413   33.820    4.088
  350.500    0.343    0.397   43.635    4.087
  350.750    0.325    0.380   52.222    4.085
  351.000    0.323    0.383   53.431    4.083
  351.250    0.357    0.423   41.737    4.081
  351.500    0.368    0.407   29.426    4.080
  351.750    0.359    0.418   29.406    4.156
  352.000    0.337    0.425   31.233    4.154
  352.250    0.326    0.401   31.212    4.153
  352.500    0.316    0.415   39.186    4.151
  352.750    0.333    0.411   37.938    4.149
  353.000    0.358    0.379   27.471    4.069
  353.250    0.356    0.366   28.680    4.068
  353.500    0.355    0.366   36.039    3.914
  353.750    0.362    0.379   32.943    3.913
  354.000    0.362    0.377   31.699    3.911
  354.250    0.358    0.377   31.063    3.984
  354.500    0.357    0.387   27.360    3.983
  354.750    0.368    0.394   23.034    4.135
  355.000    0.365    0.389   21.172    4.294
  355.250    0.359    0.362   21.159    4.719
  355.500    0.343    0.335   29.132    5.186
  355.750    0.290    0.315   48.782    5.593
  356.000    0.244    0.325   80.111    6.264
  356.250    0.324    0.408  107.138    6.756
  356.500    0.423    0.456  100.357    7.150
  356.750    0.491    0.488   83.745    7.422
  357.000    0.393    0.604   96.633    7.280
  357.250    0.202    0.469  108.908    7.006
  357.500    0.180    0.424  115.037    6.743
  357.750    0.173    0.410  116.858    6.613
  358.000    0.178    0.450  122.988    6.610
  358.250    0.173    0.457  127.273    6.733
  358.500    0.174    0.442  123.564    6.992
  358.750    0.170    0.431  113.717    7.684
  359.000    0.165    0.386   94.644    8.446
  359.250    0.172    0.358   87.862    8.937
  359.500    0.167    0.335   89.073    9.103
  359.750    0.102    0.322   96.433    8.595
  360.000    0.068    0.325  108.705    8.273
  360.250    0.080    0.370  116.679    7.665
  360.500    0.141    0.395  122.808    7.237
  360.750    0.166    0.417  122.172    7.235
