~VERSION INFORMATION
 VERS.                 2.0:   CWLS LOG ASCII STANDARD -VERSION 2.0
 WRAP.                  NO:   ONE LINE PER DEPTH STEP
~WELL INFORMATION BLOCK
#MNEM.UNIT           DATA                    DESCRIPTION OF MNEMONIC
#---------    -------------------            -------------------------------
# Generated from Intellog Unique Number	CW_76_78/WELL/1031
WELL.         CHIEFCO PR ETAL PELICAN 11-34  : Well_name    - WELL
LOC .         00/11-34-077-22W4/0            : Location     - LOCATION
UWI .         00/11-34-077-22W4/0            : Uwi          - UNIQUE WELL ID
ENTR.         jj                             : Entered      - ENTERED BY
SRVC.         SCHLUMBERGER                   : Scn          - SERVICE COMPANY
DATE.         3 MAR 73                       : Date         - LOG DATE
STRT.M        277.368                        : top_depth    - START DEPTH
STOP.M        530.368                        : bot_depth    - STOP DEPTH
STEP.M        0.25                           : increment    - STEP LENGTH
 NULL. -999.2500:NULL Value
~CURVE INFORMATION BLOCK
#MNEM UNIT       ERCB CURVE CODE    CURVE DESCRIPTION
#-----------   ------------------   ----------------------------------
DEPT.M        00 001 00 00         : DEPTH        - DEPTH
DPHI.V/V      00 890 00 00         : PHID         - DENSITY POROSITY (SANDSTONE)
NPHI.V/V      00 330 00 00         : PHIN         - NEUTRON POROSITY (SANDSTONE)
GR  .API      00 310 00 00         : GR           - GAMMA RAY
CALI.MM       00 280 01 00         : CAL          - CALIPER
ILD .OHMM     00 120 00 00         : RESD         - DEEP RESISTIVITY (DIL)
~PARAMETER INFORMATION
#MNEM.UNIT           DATA             DESCRIPTION OF MNEMONIC
#---------         -----------     ------------------------------
GL  .M        606.095              : gl           - GROUND LEVEL ELEVATION
EREF.M        608.381              : kb           - ELEVATION OF DEPTH REFERENCE
DATM.M        606.095              : datum        - DATUM ELEVATION
TDD .M        534.01               : tdd          - TOTAL DEPTH DRILLER
RUN .         ONE                  : Run          - RUN NUMBER
MUD .         GEL CHEM             : Mud_type     - MUD TYPE
MATR.         SANDSTONE            : Logunit      - NEUTRON MATRIX
TMAX.C        24.4444              : BHT          - MAXIMUM RECORDED TEMPERATURE
BHTD.M        534.01               : BHTDEP       - MAXIMUM RECORDED TEMPERATURE
RMT .C        17.2222              : MDTP         - TEMPERATURE OF MUD
MUDD.KG/M     1080                 : MWT          - MUD DENSITY
NEUT.         1                    : NEUTRON      - NEUTRON TYPE
RESI.         0                    : RESIST       - RESISTIVITY TYPE
RM  .OHMM     3.07                 : RM           - RESISTIVITY OF MUD
RMC .OHMM     0                    : RMC          - RESISTIVITY OF MUD CAKE
RMF .OHMM     2.17                 : RMF          - RESISTIVITY OF MUD FILTRATE
SUFT.C        4.5                  : SUFT         - SURFACE TEMPERATURE
~A  DEPTH     PHID     PHIN       GR      CAL     RESD
  277.368    0.193    0.585  102.316  157.663    2.833
  277.618    0.209    0.591  101.129  159.086    2.846
  277.868    0.199    0.596   99.308  161.470    2.813
  278.118    0.186    0.590   97.108  161.924    2.801
  278.368    0.178    0.593   94.149  162.057    2.836
  278.618    0.190    0.594   90.999  161.762    2.941
  278.868    0.182    0.578   87.595  160.931    3.357
  279.118    0.171    0.540   82.988  159.134    4.080
  279.368    0.156    0.483   77.938  155.196    4.850
  279.618    0.132    0.437   74.409  152.327    5.415
  279.868    0.103    0.449   74.867  149.351    6.079
  280.118    0.187    0.457   85.140  147.339    6.564
  280.368    0.195    0.446   87.752  145.114    7.115
  280.618    0.210    0.427   87.642  141.924    7.503
  280.868    0.239    0.417   86.516  141.416    7.896
  281.118    0.251    0.412   86.850  149.696    8.067
  281.368    0.234    0.416   88.636  151.546    7.958
  281.618    0.224    0.426   98.656  152.969    7.737
  281.868    0.201    0.427   99.748  154.923    7.181
  282.118    0.175    0.439   99.826  160.416    6.330
  282.368    0.135    0.491  102.945  160.442    5.498
  282.618    0.108    0.515  106.063  158.967    4.946
  282.868    0.132    0.501  107.789  161.245    4.466
  283.118    0.158    0.507  108.753  161.273    4.009
  283.368    0.175    0.548  108.707  160.441    3.667
  283.618    0.172    0.578  106.568  164.863    3.429
  283.868    0.198    0.574  101.202  167.141    3.189
  284.118    0.256    0.565   94.254  162.449    2.879
  284.368    0.245    0.581   91.293  161.620    2.728
  284.618    0.218    0.593   87.003  161.752    2.574
  284.868    0.223    0.597   85.310  162.103    2.457
  285.118    0.219    0.595   85.262  161.913    2.327
  285.368    0.218    0.593   85.594  162.047    2.271
  285.618    0.228    0.593   85.357  161.751    2.342
  285.868    0.239    0.585   84.423  161.669    2.809
  286.118    0.259    0.511   81.716  158.375    3.669
  286.368    0.275    0.466   76.728  156.898    4.697
  286.618    0.261    0.478   74.909  156.606    6.022
  286.868    0.243    0.506   73.405  156.414    7.594
  287.118    0.237    0.517   71.077  155.692    9.128
  287.368    0.246    0.514   65.837  154.539   10.381
  287.618    0.256    0.505   59.268  150.703   11.211
  287.868    0.270    0.507   56.941  148.480   11.777
  288.118    0.287    0.508   53.917  147.541   12.011
  288.368    0.298    0.500   51.275  146.923   11.483
  288.618    0.291    0.478   50.656  146.200   10.898
  288.868    0.274    0.462   50.991  145.368   10.477
  289.118    0.258    0.475   52.587  145.931    9.671
  289.368    0.256    0.481   59.123  147.030    9.011
  289.618    0.265    0.484   64.331  148.236    8.379
  289.868    0.258    0.480   70.362  148.153    7.678
  290.118    0.256    0.481   71.834  146.893    6.475
  290.368    0.249    0.483   70.267  146.599    5.793
  290.618    0.253    0.491   67.496  147.698    5.068
  290.868    0.241    0.504   73.211  151.047    4.104
  291.118    0.198    0.539   97.031  154.506    3.651
  291.368    0.173    0.576  103.505  157.103    3.377
  291.618    0.176    0.578  103.331  157.988    3.674
  291.868    0.192    0.571   97.522  158.015    4.178
  292.118    0.187    0.495   86.902  157.294    4.725
  292.368    0.207    0.485   80.206  156.140    5.334
  292.618    0.258    0.499   69.774  153.484    5.966
  292.868    0.281    0.491   63.838  152.008    6.599
  293.118    0.281    0.475   62.903  152.679    7.088
  293.368    0.264    0.528   64.123  153.778    7.486
  293.618    0.243    0.526   64.581  153.483    7.821
  293.868    0.262    0.493   58.898  152.115    8.400
  294.118    0.262    0.488   47.074  150.638   10.133
  294.368    0.247    0.490   45.949  149.164   10.605
  294.618    0.283    0.452   46.346  149.191   10.658
  294.868    0.305    0.447   46.867  149.434   10.515
  295.118    0.289    0.442   47.579  149.353   10.644
  295.368    0.269    0.455   49.304  150.023   11.223
  295.618    0.266    0.470   49.511  150.368   11.616
  295.868    0.261    0.471   51.361  150.396   11.631
  296.118    0.281    0.470   52.580  149.779   11.368
  296.368    0.296    0.488   51.709  149.163   11.154
  296.618    0.292    0.506   51.282  148.865   10.743
  296.868    0.280    0.512   56.868  148.572   10.027
  297.118    0.264    0.476   60.114  149.027    9.324
  297.368    0.248    0.475   61.206  150.446    9.216
  297.618    0.235    0.496   60.018  151.653    9.330
  297.868    0.243    0.496   55.476  152.107    9.534
  298.118    0.249    0.484   53.084  151.813    9.795
  298.368    0.273    0.495   52.720  151.303   10.063
  298.618    0.264    0.473   53.369  150.901   10.340
  298.868    0.255    0.466   54.018  150.713   10.624
  299.118    0.268    0.483   54.796  150.310   10.955
  299.368    0.272    0.455   55.380  150.120   11.030
  299.618    0.280    0.448   55.205  150.469   10.982
  299.868    0.284    0.446   55.219  150.496   10.423
  300.118    0.263    0.435   59.099  150.845    9.256
  300.368    0.237    0.443   65.634  151.191    8.280
  300.618    0.211    0.490   72.931  152.613    7.285
  300.868    0.206    0.513   80.164  157.892    6.813
  301.118    0.208    0.472   84.042  159.205    6.758
  301.368    0.216    0.440   84.817  153.120    6.970
  301.618    0.219    0.424   84.706  152.182    7.513
  301.868    0.219    0.441   83.772  153.279    8.310
  302.118    0.207    0.446   82.838  156.416    8.925
  302.368    0.213    0.431   80.702  157.837    9.550
  302.618    0.205    0.416   77.171  155.718   10.295
  302.868    0.202    0.423   68.322  153.493   11.283
  303.118    0.206    0.428   60.170  151.696   12.879
  303.368    0.223    0.408   52.146  149.366   14.379
  303.618    0.296    0.404   41.904  148.211   15.273
  303.868    0.300    0.394   36.096  148.132   15.955
  304.118    0.302    0.384   33.769  148.264   16.484
  304.368    0.307    0.401   33.087  149.469   16.626
  304.618    0.309    0.396   34.178  151.320   16.524
  304.868    0.301    0.390   34.892  152.203   16.392
  305.118    0.282    0.393   34.463  152.017   15.964
  305.368    0.275    0.393   34.859  151.934   15.376
  305.618    0.278    0.383   37.470  151.745   14.974
  305.868    0.283    0.378   45.779  152.522   14.638
  306.118    0.263    0.402   53.203  152.765   14.046
  306.368    0.211    0.435   57.208  152.574   13.159
  306.618    0.222    0.402   55.260  151.636   12.170
  306.868    0.279    0.363   46.981  151.129   11.089
  307.118    0.273    0.360   54.531  151.156    9.543
  307.368    0.241    0.450   83.736  151.715    8.397
  307.618    0.199    0.511   94.451  152.279    7.003
  307.868    0.169    0.516   97.885  152.197    6.276
  308.118    0.183    0.489   97.965  151.474    6.023
  308.368    0.170    0.464   93.929  150.750    5.705
  308.618    0.180    0.469   88.942  150.242    5.209
  308.868    0.206    0.496   85.856  150.479    4.712
  309.118    0.231    0.559   90.999  151.149    4.238
  309.368    0.210    0.588  105.640  152.462    3.614
  309.618    0.176    0.600  105.338  156.136    3.239
  309.868    0.165    0.595  104.722  157.125    3.085
  310.118    0.161    0.597  105.053  156.508    2.960
  310.368    0.146    0.596  107.601  155.143    2.889
  310.618    0.134    0.593  110.530  155.167    2.844
  310.868    0.133    0.592  111.811  156.480    2.806
  311.118    0.149    0.594  112.270  158.115    2.733
  311.368    0.165    0.596  112.857  158.249    2.666
  311.618    0.136    0.594  112.999  158.275    2.660
  311.868    0.139    0.589  113.394  160.876    2.708
  312.118    0.163    0.590  113.855  161.868    2.871
  312.368    0.188    0.572  113.934  161.035    3.265
  312.618    0.200    0.537  113.314  160.954    3.768
  312.868    0.210    0.505  111.430  160.447    4.840
  313.118    0.199    0.486  108.090  160.041    5.256
  313.368    0.195    0.468  103.356  160.606    5.195
  313.618    0.188    0.484  102.550  160.845    5.154
