~VERSION INFORMATION
 VERS.                 2.0:   CWLS LOG ASCII STANDARD -VERSION 2.0
 WRAP.                  NO:   ONE LINE PER DEPTH STEP
~WELL INFORMATION BLOCK
#MNEM.UNIT           DATA                    DESCRIPTION OF MNEMONIC
#---------    -------------------            -------------------------------
# Generated from Intellog Unique Number	CW_82_90/WELL/3078
WELL.         11-24-087-23W4                 : Well_name    - WELL
LOC .         00/11-24-087-23W4/0            : Location     - LOCATION
UWI .         00/11-24-087-23W4/0            : Uwi          - UNIQUE WELL ID
ENTR.         MAX                            : Entered      - ENTERED BY
SRVC.         WESTERN ATLAS                  : Scn          - SERVICE COMPANY
STRT.M        121.92                         : top_depth    - START DEPTH
STOP.M        345.67                         : bot_depth    - STOP DEPTH
STEP.M        0.25                           : increment    - STEP LENGTH
 NULL. -999.2500:NULL Value
~CURVE INFORMATION BLOCK
#MNEM UNIT       ERCB CURVE CODE    CURVE DESCRIPTION
#-----------   ------------------   ----------------------------------
DEPT.M        00 001 00 00         : DEPTH        - DEPTH
ILD .OHMM     00 120 00 00         : RESD         - DEEP RESISTIVITY (DIL)
NPHI.V/V      00 330 00 00         : PHIN         - NEUTRON POROSITY (SANDSTONE)
DPHI.V/V      00 890 00 00         : PHID         - DENSITY POROSITY (SANDSTONE)
CALI.MM       00 280 01 00         : CAL          - CALIPER
GR  .API      00 310 00 00         : GR           - GAMMA RAY
~PARAMETER INFORMATION
#MNEM.UNIT           DATA             DESCRIPTION OF MNEMONIC
#---------         -----------     ------------------------------
GL  .M        539.496              : gl           - GROUND LEVEL ELEVATION
EREF.M        542.239              : kb           - ELEVATION OF DEPTH REFERENCE
DATM.M        539.496              : datum        - DATUM ELEVATION
TDD .M        319.126              : tdd          - TOTAL DEPTH DRILLER
RUN .         ONE                  : Run          - RUN NUMBER
ENG .         BILL                 : Engineer     - RECORDING ENGINEER
WIT .         JIM                  : Witness      - WITNESSED BY
MUD .         GEL                  : Mud_type     - MUD TYPE
MATR.         SANDSTONE            : Logunit      - NEUTRON MATRIX
TMAX.C        21.6667              : BHT          - MAXIMUM RECORDED TEMPERATURE
BHTD.M        319.126              : BHTDEP       - MAXIMUM RECORDED TEMPERATURE
MATR.         1                    : LOGUNIT      - NEUTRON MATRIX
RMT .C        20                   : MDTP         - TEMPERATURE OF MUD
NEUT.         1                    : NEUTRON      - NEUTRON TYPE
RESI.         0                    : RESIST       - RESISTIVITY TYPE
RMC .OHMM     5.2                  : RMC          - RESISTIVITY OF MUD CAKE
RMF .OHMM     5                    : RMF          - RESISTIVITY OF MUD FILTRATE
SUFT.C        -18.3333             : SUFT         - SURFACE TEMPERATURE
~A  DEPTH     RESD     PHIN     PHID      CAL       GR
# ...
  158.420    4.593    0.379    0.349  189.275   69.930
  158.670    4.228    0.370    0.370  196.874   82.476
  158.920    4.226    0.392    0.113  200.405  106.394
  159.170    4.383    0.431    0.222  200.364  108.465
  159.420    4.504    0.435    0.242  200.332  106.948
  159.670    4.935    0.442    0.256  200.800  106.628
  159.920    5.509    0.440    0.274  202.295  106.009
  160.170    6.801    0.430    0.287  205.313   99.403
  160.420    9.121    0.421    0.290  207.812   93.996
  160.670   12.924    0.413    0.285  207.776   90.382
  160.920   20.259    0.405    0.287  206.216   90.367
  161.170   27.417    0.411    0.296  202.107   83.162
  161.420   29.768    0.404    0.323  197.999   73.268
  161.670   30.035    0.383    0.329  203.052   64.869
  161.920   29.480    0.364    0.317  208.102   57.363
  162.170   28.669    0.364    0.314  207.556   57.639
  162.420   26.388    0.367    0.335  203.956   57.623
  162.670   16.367    0.362    0.342  201.879   59.398
  162.920   13.370    0.377    0.327  202.869   59.975
  163.170    9.174    0.390    0.318  205.878   59.351
  163.420    7.703    0.402    0.308  207.373   60.831
  163.670    6.409    0.402    0.279  207.845   62.606
  163.920    5.531    0.401    0.223  207.804   66.774
  164.170    5.380    0.389    0.154  208.786   76.926
  164.420    5.478    0.400    0.217  209.772   85.882
  164.670    5.840    0.436    0.282  210.244   99.026
  164.920    6.283    0.437    0.282  211.226  104.989
  165.170    6.948    0.439    0.275  216.279  108.257
  165.420    7.407    0.437    0.267  216.752  110.932
  165.670    7.968    0.431    0.277  215.188  108.218
  165.920    8.114    0.406    0.297  215.142  104.906
  166.170    7.891    0.418    0.294  215.110  102.788
  166.420    7.604    0.401    0.278  215.074  102.171
  166.670    7.328    0.399    0.261  215.037  102.746
  166.920    6.997    0.409    0.251  213.469  108.111
  167.170    6.868    0.425    0.249  212.918  111.681
  167.420    6.679    0.414    0.261  212.373  109.566
  167.670    6.555    0.400    0.261  211.836  110.742
  167.920    6.375    0.412    0.262  211.286  115.209
  168.170    6.373    0.431    0.271  212.268  113.390
  168.420    6.490    0.440    0.278  213.758  112.173
  168.670    6.792    0.436    0.271  213.212  113.052
  168.920    7.375    0.427    0.272  213.176  111.533
  169.170    7.934    0.440    0.262  212.117  111.215
  169.420    8.774    0.443    0.252  210.553  109.392
  169.670    9.184    0.433    0.249  210.012  106.381
  169.920   10.251    0.443    0.257  209.452  104.269
  170.170   11.335    0.428    0.267  208.911  101.854
  170.420   11.974    0.415    0.270  208.875   99.437
  170.670   11.329    0.424    0.263  209.852   99.416
  170.920    9.779    0.433    0.250  210.333   96.703
  171.170    7.560    0.404    0.213  210.297   92.194
  171.420    5.431    0.403    0.177  209.237   87.984
  171.670    4.276    0.408    0.195  205.642   86.766
  171.920    3.900    0.427    0.326  203.565   93.627
  172.170    4.119    0.443    0.323  203.528  109.764
  172.420    4.514    0.444    0.303  203.487  124.105
  172.670    5.085    0.445    0.313  203.450  121.690
  172.920    5.834    0.445    0.306  205.963  118.376
  173.170    6.943    0.446    0.288  212.544  113.570
  173.420    7.402    0.446    0.262  216.580  106.967
  173.670    7.067    0.447    0.263  216.034  106.043
  173.920    6.213    0.438    0.263  208.871  106.020
  174.170    5.314    0.422    0.256  208.830  104.206
  174.420    4.341    0.429    0.250  209.807  103.288
  174.670    4.107    0.436    0.262  207.230  108.955
  174.920    4.378    0.444    0.331  205.661  111.926
  175.170    4.931    0.444    0.309  208.679  115.196
  175.420    6.145    0.445    0.284  210.170  116.370
  175.670    7.728    0.446    0.268  208.606  114.853
  175.920    9.629    0.447    0.258  208.060  114.832
  176.170   11.999    0.447    0.255  208.024  110.323
  176.420   16.240    0.435    0.257  209.005  103.421
  176.670   23.011    0.425    0.263  209.468   94.124
  176.920   30.019    0.408    0.286  208.423   82.731
  177.170   32.002    0.381    0.302  208.386   65.954
  177.420   31.991    0.403    0.332  212.422   55.160
  177.670   31.982    0.427    0.350  211.876   54.837
  177.920   31.392    0.434    0.349  211.331   56.611
  178.170   30.526    0.426    0.348  210.780   58.685
  178.420   29.963    0.425    0.345  210.235   59.263
  178.670   29.409    0.423    0.328  208.666   59.242
  178.920   29.399    0.401    0.336  207.612   59.221
  179.170   29.659    0.383    0.350  207.071   59.499
  179.420   29.927    0.373    0.351  206.520   59.479
  179.670   30.193    0.409    0.350  205.466   57.064
  179.920   30.462    0.419    0.344  203.897   54.946
  180.170   30.733    0.409    0.346  203.352   55.227
  180.420   31.007    0.406    0.347  203.320   55.805
  180.670   31.283    0.398    0.343  203.788   54.587
  180.920   31.274    0.410    0.338  205.787   54.265
  181.170   31.265    0.417    0.332  208.300   55.740
  181.420   31.254    0.405    0.333  208.773   56.617
  181.670   31.246    0.398    0.325  207.714   56.593
  181.920   31.235    0.403    0.319  209.204   57.173
  182.170   31.225    0.385    0.318  209.172   58.646
  182.420   31.217    0.382    0.329  209.135   58.329
  182.670   31.495    0.382    0.339  208.072   58.308
  182.920   32.069    0.408    0.341  208.040   58.586
  183.170   32.058    0.394    0.335  207.494   59.762
  183.420   32.047    0.384    0.329  206.948   57.944
  183.670   32.038    0.373    0.326  206.912   57.923
  183.920   32.029    0.368    0.324  206.870   58.199
  184.170   32.020    0.381    0.330  206.325   58.477
  184.420   32.009    0.400    0.335  205.784   58.753
  184.670   32.294    0.406    0.336  204.715   59.036
  184.920   32.581    0.403    0.341  201.120   59.611
  185.170   32.572    0.388    0.351  196.507   58.693
  185.420   32.861    0.404    0.353  195.452   57.775
  185.670   32.552    0.387    0.353  194.897   55.657
  185.920   32.243    0.381    0.357  194.870   54.738
  186.170   32.235    0.397    0.356  195.851   54.715
  186.420   31.930    0.372    0.358  201.409   54.697
  186.670   31.919    0.367    0.349  204.936   54.078
  186.920   31.618    0.370    0.339  205.908   55.254
  187.170   31.608    0.373    0.339  204.858   57.028
  187.420   31.308    0.377    0.333  204.822   58.204
  187.670   30.730    0.364    0.330  205.294   59.682
  187.920   30.439    0.368    0.328  205.771   61.753
  188.170   30.154    0.394    0.318  204.716   63.829
  188.420   29.597    0.392    0.316  204.166   65.005
  188.670   28.783    0.386    0.317  203.107   64.683
  188.920   28.249    0.374    0.337  203.070   67.355
  189.170   27.727    0.361    0.325  203.029   67.630
  189.420   27.214    0.371    0.310  203.502   65.219
  189.670   26.958    0.386    0.312  204.492   60.108
  189.920   27.701    0.400    0.318  203.942   59.788
  190.170   27.950    0.385    0.334  201.356   60.069
  190.420   27.181    0.389    0.301  201.324   60.049
  190.670   25.482    0.388    0.344  202.310   60.621
  190.920   21.994    0.385    0.330  203.796   61.800
  191.170   16.242    0.392    0.322  204.268   65.669
  191.420   12.104    0.387    0.326  204.740   69.834
  191.670   10.641    0.375    0.337  204.699   72.210
  191.920    9.616    0.373    0.345  204.663   72.787
  192.170    8.149    0.380    0.357  204.631   72.467
  192.420    6.300    0.381    0.347  204.589   78.730
  192.670    4.652    0.384    0.278  204.557   90.079
  192.920    3.531    0.383    0.242  205.030   93.347
  193.170    3.162    0.391    0.276  207.525  101.407
  193.420    3.075    0.398    0.298  208.511  109.468
  193.670    3.189    0.409    0.226  209.492  121.714
  193.920    3.337    0.430    0.254  210.983  136.355
  194.170    3.461    0.440    0.252  212.478  134.239
  194.420    3.557    0.444    0.252  213.968  130.927
  194.670    3.689    0.448    0.252  214.436  126.715
