~VERSION INFORMATION
 VERS.                 2.0:   CWLS LOG ASCII STANDARD -VERSION 2.0
 WRAP.                  NO:   ONE LINE PER DEPTH STEP
~WELL INFORMATION BLOCK
#MNEM.UNIT           DATA                    DESCRIPTION OF MNEMONIC
#---------    -------------------            -------------------------------
# Generated from Intellog Unique Number	CW_73_75/WELL/1035
WELL.         ANADARKO ER AL FRANCIS 11-08   : Well_name    - WELL
LOC .         00/11-08-074-21W4/0            : Location     - LOCATION
UWI .         00/11-08-074-21W4/0            : Uwi          - UNIQUE WELL ID
ENTR.         JAYE                           : Entered      - ENTERED BY
SRVC.         SCHLUMBERGER                   : Scn          - SERVICE COMPANY
DATE.         9 FEB 79                       : Date         - LOG DATE
STRT.M        380                            : top_depth    - START DEPTH
STOP.M        595                            : bot_depth    - STOP DEPTH
STEP.M        0.25                           : increment    - STEP LENGTH
 NULL. -999.2500:NULL Value
~CURVE INFORMATION BLOCK
#MNEM UNIT       ERCB CURVE CODE    CURVE DESCRIPTION
#-----------   ------------------   ----------------------------------
DEPT.M        00 001 00 00         : DEPTH        - DEPTH
DPHI.V/V      00 890 00 00         : PHID         - DENSITY POROSITY (SANDSTONE)
NPHI.V/V      00 330 00 00         : PHIN         - NEUTRON POROSITY (SANDSTONE)
GR  .API      00 310 00 00         : GR           - GAMMA RAY
CALI.MM       00 280 01 00         : CAL          - CALIPER
ILD .OHMM     00 120 00 00         : RESD         - DEEP RESISTIVITY (DIL)
~PARAMETER INFORMATION
#MNEM.UNIT           DATA             DESCRIPTION OF MNEMONIC
#---------         -----------     ------------------------------
GL  .M        689                  : gl           - GROUND LEVEL ELEVATION
EREF.M        692.8                : kb           - ELEVATION OF DEPTH REFERENCE
DATM.M        689                  : datum        - DATUM ELEVATION
TDD .M        633                  : tdd          - TOTAL DEPTH DRILLER
RUN .         ONE                  : Run          - RUN NUMBER
ENG .         GRSY                 : Engineer     - RECORDING ENGINEER
WIT .         ROGERS               : Witness      - WITNESSED BY
BASE.         EDMONTON             : Branch       - HOME BASE OF LOGGING UNIT
MUD .         GEL CHEM             : Mud_type     - MUD TYPE
MATR.         SANDSTONE            : Logunit      - NEUTRON MATRIX
TMAX.C        32                   : BHT          - MAXIMUM RECORDED TEMPERATURE
BHTD.M        632                  : BHTDEP       - MAXIMUM RECORDED TEMPERATURE
RMT .C        16.11                : MDTP         - TEMPERATURE OF MUD
MUDD.KG/M     1090                 : MWT          - MUD DENSITY
NEUT.         1                    : NEUTRON      - NEUTRON TYPE
RESI.         0                    : RESIST       - RESISTIVITY TYPE
RM  .OHMM     4.11                 : RM           - RESISTIVITY OF MUD
RMC .OHMM     0                    : RMC          - RESISTIVITY OF MUD CAKE
RMF .OHMM     3.86                 : RMF          - RESISTIVITY OF MUD FILTRATE
SUFT.C        0                    : SUFT         - SURFACE TEMPERATURE
~A  DEPTH     PHID     PHIN       GR      CAL     RESD
  380.000    0.217    0.527   95.795  176.709    2.862
  380.250    0.202    0.516   96.158  175.256    2.884
  380.500    0.212    0.519   95.968  174.627    2.949
  380.750    0.201    0.523   95.899  175.440    3.124
  381.000    0.204    0.528   95.645  176.460    3.441
  381.250    0.202    0.535   95.269  177.171    3.985
  381.500    0.252    0.485   91.678  176.439    4.659
  381.750    0.244    0.419   86.541  175.296    5.888
  382.000    0.181    0.387   68.489  171.576    7.171
  382.250    0.205    0.364   67.926  167.858    8.152
  382.500    0.226    0.375   73.853  165.375    8.152
  382.750    0.211    0.400   83.735  164.953    7.697
  383.000    0.209    0.415   89.909  168.650    7.014
  383.250    0.191    0.419   86.194  171.936    6.114
  383.500    0.168    0.423   83.531  174.912    5.211
  383.750    0.189    0.429   80.681  173.975    4.812
  384.000    0.215    0.440   85.064  172.316    4.662
  384.250    0.213    0.480   92.782  173.026    4.628
  384.500    0.197    0.469  105.384  174.870    4.715
  384.750    0.191    0.441  101.855  174.860    5.023
  385.000    0.192    0.403   97.398  170.111    5.564
  385.250    0.206    0.424   90.779  165.878    6.456
  385.500    0.200    0.394   83.233  161.334    7.617
  385.750    0.103    0.369   77.603  158.130    8.251
  386.000    0.225    0.397   71.540  156.369    8.376
  386.250    0.269    0.403   79.753  157.286    8.439
  386.500    0.227    0.393   79.685  159.644    8.056
  386.750    0.231    0.395   84.252  160.046    7.821
  387.000    0.210    0.394   88.016  159.727    7.466
  387.250    0.205    0.392   89.863  159.613    6.971
  387.500    0.221    0.404   90.043  160.529    6.424
  387.750    0.195    0.433   94.672  162.167    5.998
  388.000    0.198    0.451   97.632  168.028    5.705
  388.250    0.197    0.446  102.817  171.107    5.695
  388.500    0.196    0.437  104.603  172.951    5.900
  388.750    0.226    0.440   93.658  173.455    6.571
  389.000    0.250    0.380   82.774  172.928    7.225
  389.250    0.255    0.374   73.250  169.520    7.870
  389.500    0.229    0.371   72.687  163.124    8.276
  389.750    0.250    0.364   76.451  161.567    8.590
  390.000    0.257    0.356   75.147  162.483    8.370
  390.250    0.163    0.375   77.674  164.740    7.515
  390.500    0.183    0.423   83.972  165.553    6.773
  390.750    0.204    0.444   94.163  166.468    6.093
  391.000    0.205    0.457   95.269  167.077    5.699
  391.250    0.219    0.471   94.274  167.376    5.678
  391.500    0.247    0.465   90.560  169.425    5.796
  391.750    0.218    0.444   84.621  169.827    5.994
  392.000    0.189    0.429   78.557  168.168    6.232
  392.250    0.225    0.415   83.743  164.140    6.578
  392.500    0.224    0.401   86.764  163.717    6.981
  392.750    0.216    0.392   88.550  165.870    7.341
  393.000    0.194    0.386   90.151  166.374    7.563
  393.250    0.186    0.406   92.926  164.922    7.438
  393.500    0.204    0.403   91.931  164.293    7.343
  393.750    0.223    0.394   84.570  164.489    7.523
  394.000    0.237    0.401   83.636  163.861    7.984
  394.250    0.234    0.406   82.518  163.952    8.489
  394.500    0.228    0.381   80.595  165.178    9.179
  394.750    0.233    0.332   76.634  165.580   10.168
  395.000    0.275    0.300   67.728  165.055   11.137
  395.250    0.293    0.263   59.316  163.705   12.405
  395.500    0.311    0.248   52.264  162.767   13.947
  395.750    0.327    0.258   48.488  162.447   14.885
  396.000    0.329    0.298   46.442  162.437   14.914
  396.250    0.262    0.338   44.520  162.220   14.317
  396.500    0.277    0.375   43.957  162.108   13.771
  396.750    0.280    0.400   45.990  161.787   13.343
  397.000    0.281    0.420   46.849  161.468   13.074
  397.250    0.281    0.406   47.151  161.149   12.835
  397.500    0.298    0.393   47.455  161.035   12.859
  397.750    0.262    0.406   47.634  161.025   12.254
  398.000    0.295    0.391   44.784  161.013   11.590
  398.250    0.286    0.382   42.739  161.004   10.801
  398.500    0.267    0.411   46.997  160.889    9.972
  398.750    0.286    0.432   53.418  160.880    9.038
  399.000    0.301    0.435   57.800  160.663    8.344
  399.250    0.263    0.423   62.985  160.446    7.690
  399.500    0.248    0.413   69.406  160.230    7.127
  399.750    0.258    0.405   74.159  159.601    6.816
  400.000    0.237    0.408   79.591  158.972    6.617
  400.250    0.199    0.409   85.950  158.756    6.520
  400.500    0.208    0.392   89.096  158.745    6.496
  400.750    0.219    0.413   91.376  158.528    6.485
  401.000    0.201    0.428   93.966  158.312    6.354
  401.250    0.196    0.429   93.713  158.714    5.758
  401.500    0.203    0.420   91.172  159.734    5.228
  401.750    0.180    0.424   92.958  161.165    4.747
  402.000    0.172    0.467   99.132  163.833    4.069
  402.250    0.184    0.532  110.436  170.003    3.501
  402.500    0.207    0.589  112.036  175.451    3.149
  402.750    0.210    0.566  110.423  177.295    2.962
  403.000    0.197    0.574  110.973  176.460    2.913
  403.250    0.170    0.584  111.955  175.831    2.919
  403.500    0.174    0.546  110.713  175.923    2.946
  403.750    0.159    0.522  109.656  174.780    3.019
  404.000    0.194    0.541  114.533  175.491    3.234
  404.250    0.233    0.556  117.369  176.408    3.496
  404.500    0.208    0.489  115.880  177.633    3.766
  404.750    0.202    0.466  110.929  179.270    4.227
  405.000    0.204    0.481  104.310  180.805    5.052
  405.250    0.195    0.475  104.736  182.134    5.776
  405.500    0.211    0.485  107.016  179.342    5.961
  405.750    0.203    0.470  107.381  178.610    5.755
  406.000    0.187    0.434  106.818  180.556    5.353
  406.250    0.190    0.451  113.239  180.959    5.255
  406.500    0.205    0.466  112.801  181.359    5.265
  406.750    0.181    0.481  110.693  181.040    5.364
  407.000    0.170    0.490  107.225  179.897    5.588
  407.250    0.195    0.460  100.236  175.663    5.931
  407.500    0.208    0.445   89.105  171.944    6.295
  407.750    0.192    0.451   85.019  166.269    6.522
  408.000    0.237    0.456   84.951  163.168    6.534
  408.250    0.243    0.445   86.737  161.303    6.391
  408.500    0.249    0.459   81.230  159.850    6.192
  408.750    0.241    0.446   81.162  159.428    6.181
  409.000    0.212    0.436   82.392  160.653    6.356
  409.250    0.203    0.455   83.436  165.073    6.672
  409.500    0.243    0.473   82.874  167.431    6.899
  409.750    0.269    0.466   78.912  164.535    6.823
  410.000    0.279    0.446   74.765  161.641    6.587
  410.250    0.289    0.457   80.259  158.952    6.359
  410.500    0.252    0.466   84.764  159.767    6.162
  410.750    0.245    0.472   86.303  161.197    6.037
  411.000    0.250    0.471   83.021  160.570    6.072
  411.250    0.267    0.456   80.419  157.056    6.220
  411.500    0.267    0.443   80.907  155.706    6.420
  411.750    0.272    0.443   82.879  155.593    6.578
  412.000    0.242    0.470   84.850  155.171    6.677
  412.250    0.259    0.488   82.495  154.954    6.740
  412.500    0.279    0.475   78.843  155.665    6.740
  412.750    0.273    0.452   84.708  156.375    6.555
  413.000    0.255    0.437   94.095  157.807    6.328
  413.250    0.230    0.427  105.090  160.269    6.087
  413.500    0.235    0.432  113.117  164.893    5.779
  413.750    0.200    0.448  110.949  172.814    5.315
  414.000    0.204    0.452  105.936  175.688    5.122
  414.250    0.214    0.460   96.659  176.913    5.151
  414.500    0.229    0.487   87.877  179.066    5.238
  414.750    0.257    0.511   78.230  177.716    5.367
  415.000    0.264    0.459   68.211  173.070    5.417
  415.250    0.245    0.458   63.755  163.069    5.337
  415.500    0.232    0.489   68.446  163.985    5.124
  415.750    0.252    0.503   72.580  167.992    4.956
  416.000    0.221    0.492   75.479  168.394    4.784
  416.250    0.214    0.477   79.242  171.576    4.740
