~VERSION INFORMATION
 VERS.                 2.0:   CWLS LOG ASCII STANDARD -VERSION 2.0
 WRAP.                  NO:   ONE LINE PER DEPTH STEP
~WELL INFORMATION BLOCK
#MNEM.UNIT           DATA                    DESCRIPTION OF MNEMONIC
#---------    -------------------            -------------------------------
# Generated from Intellog Unique Number	CW_82_90/WELL/3452
WELL.         COSEKA RES.                    : Well_name    - WELL
LOC .         00/11-22-090-20W4/0            : Location     - LOCATION
UWI .         00/11-22-090-20W4/0            : Uwi          - UNIQUE WELL ID
ENTR.         MAX                            : Entered      - ENTERED BY
SRVC.         SCHLUMBERGER                   : Scn          - SERVICE COMPANY
STRT.M        100                            : top_depth    - START DEPTH
STOP.M        240                            : bot_depth    - STOP DEPTH
STEP.M        0.25                           : increment    - STEP LENGTH
 NULL. -999.2500:NULL Value
~CURVE INFORMATION BLOCK
#MNEM UNIT       ERCB CURVE CODE    CURVE DESCRIPTION
#-----------   ------------------   ----------------------------------
DEPT.M        00 001 00 00         : DEPTH        - DEPTH
ILD .OHMM     00 120 00 00         : RESD         - DEEP RESISTIVITY (DIL)
NPHI.V/V      00 330 00 00         : PHIN         - NEUTRON POROSITY (SANDSTONE)
DPHI.V/V      00 890 00 00         : PHID         - DENSITY POROSITY (SANDSTONE)
CALI.MM       00 280 01 00         : CAL          - CALIPER
GR  .API      00 310 00 00         : GR           - GAMMA RAY
~PARAMETER INFORMATION
#MNEM.UNIT           DATA             DESCRIPTION OF MNEMONIC
#---------         -----------     ------------------------------
GL  .M        517.8                : gl           - GROUND LEVEL ELEVATION
EREF.M        520.7                : kb           - ELEVATION OF DEPTH REFERENCE
DATM.M        517.8                : datum        - DATUM ELEVATION
TDD .M        243                  : tdd          - TOTAL DEPTH DRILLER
RUN .         ONE                  : Run          - RUN NUMBER
ENG .         BILL                 : Engineer     - RECORDING ENGINEER
WIT .         JIM                  : Witness      - WITNESSED BY
MUD .         GEL                  : Mud_type     - MUD TYPE
MATR.         SANDSTONE            : Logunit      - NEUTRON MATRIX
TMAX.C        23.1                 : BHT          - MAXIMUM RECORDED TEMPERATURE
BHTD.M        243                  : BHTDEP       - MAXIMUM RECORDED TEMPERATURE
MATR.         1                    : LOGUNIT      - NEUTRON MATRIX
RMT .C        20                   : MDTP         - TEMPERATURE OF MUD
NEUT.         1                    : NEUTRON      - NEUTRON TYPE
RESI.         0                    : RESIST       - RESISTIVITY TYPE
RMC .OHMM     3.22                 : RMC          - RESISTIVITY OF MUD CAKE
RMF .OHMM     3.22                 : RMF          - RESISTIVITY OF MUD FILTRATE
SUFT.C        -10                  : SUFT         - SURFACE TEMPERATURE
~A  DEPTH     RESD     PHIN     PHID      CAL       GR
# ...
  209.500   13.396    0.417    0.094  166.243   99.415
  209.750   12.102    0.417    0.134  166.166  100.254
  210.000   11.668    0.414    0.156  165.571  101.688
  210.250   12.009    0.424    0.151  165.494   99.832
  210.500   12.476    0.412    0.132  165.395   97.109
  210.750   13.331    0.399    0.104  165.802   91.414
  211.000   13.981    0.399    0.089  165.714   90.456
  211.250   14.253    0.405    0.088  165.108   91.897
  211.500   14.005    0.411    0.130  165.031   97.195
  211.750   13.132    0.407    0.186  165.449  100.710
  212.000   13.020    0.410    0.167  165.361  103.035
  212.250   13.781    0.418    0.170  165.262  103.577
  212.500   14.453    0.408    0.164  165.174   99.368
  212.750   15.154    0.391    0.160  164.579   96.924
  213.000   15.743    0.382    0.171  165.008   97.769
  213.250   16.666    0.381    0.182  165.415  100.385
  213.500   17.312    0.389    0.173  165.316   99.150
  213.750   17.822    0.373    0.143  165.217   97.894
  214.000   18.174    0.353    0.096  165.140   98.152
  214.250   17.688    0.335    0.081  165.536   97.795
  214.500   17.053    0.324    0.112  164.446   99.830
  214.750   15.120    0.369    0.167  164.369  108.102
  215.000   14.177    0.395    0.175  164.787  110.130
  215.250   13.418    0.406    0.169  164.699  109.178
  215.500   12.938    0.416    0.170  164.104  111.207
  215.750   12.019    0.407    0.176  163.520  113.248
  216.000   11.374    0.401    0.179  163.421  113.188
  216.250   10.085    0.406    0.181  163.355  112.534
  216.500    9.280    0.419    0.178  163.255  113.677
  216.750    8.702    0.435    0.176  163.167  114.503
  217.000    8.313    0.454    0.177  163.079  115.051
  217.250    8.964    0.465    0.175  163.475  115.302
  217.500   10.223    0.446    0.169  163.387  106.925
  217.750   12.216    0.410    0.106  163.805   98.237
  218.000   12.690    0.358    0.073  163.706   98.785
  218.250   12.124    0.354    0.079  164.113  104.678
  218.500   10.950    0.372    0.145  164.036  107.889
  218.750    9.619    0.414    0.173  163.926  109.911
  219.000    9.103    0.444    0.178  163.838  111.053
  219.250    8.617    0.454    0.180  163.760  111.602
  219.500    8.544    0.452    0.180  163.661  113.623
  219.750    8.632    0.446    0.178  163.100  114.760
  220.000    8.639    0.430    0.173  162.494  113.227
  220.250    8.810    0.416    0.150  161.426  106.627
  220.500    9.153    0.397    0.063  160.842  102.107
  220.750    8.908    0.390    0.103  160.732  104.142
  221.000    8.590    0.423    0.150  161.645  107.360
  221.250    8.840    0.430    0.168  162.053  110.280
  221.500   10.176    0.425    0.177  162.471  107.254
  221.750   11.390    0.415    0.179  162.878   98.870
  222.000   12.401    0.406    0.153  162.295   95.844
  222.250   13.249    0.404    0.105  161.182   89.845
  222.500   13.893    0.428    0.109  161.127   89.785
  222.750   14.166    0.429    0.139  161.523   98.658
  223.000   13.659    0.407    0.148  161.931  109.308
  223.250   13.672    0.392    0.129  161.336  111.937
  223.500   14.339    0.397    0.137  160.763  116.641
  223.750   15.318    0.401    0.162  160.675  115.102
  224.000   16.365    0.399    0.172  160.080  100.177
  224.250   19.016    0.392    0.173  159.507   93.280
  224.500   20.891    0.382    0.170  158.428   81.328
  224.750   25.669    0.381    0.204  158.340   71.464
  225.000   37.309    0.394    0.239  158.725   49.695
  225.250   50.795    0.414    0.271  159.132   37.446
  225.500   66.013    0.430    0.285  159.562   38.285
  225.750   72.535    0.430    0.280  159.441   41.495
  226.000   75.365    0.417    0.266  159.374   46.800
  226.250   75.431    0.413    0.258  159.275   48.822
  226.500   74.086    0.421    0.254  160.178   52.039
  226.750   72.796    0.425    0.261  160.585   57.351
  227.000   73.526    0.428    0.273  160.992   72.467
  227.250   74.288    0.436    0.287  161.400   75.982
  227.500   74.352    0.443    0.281  161.311   72.362
  227.750   71.685    0.445    0.250  161.708   72.302
  228.000   67.844    0.448    0.237  161.631   71.654
  228.250   57.411    0.456    0.210  161.553   69.216
  228.500   41.850    0.441    0.025  160.959   67.082
  228.750   31.081    0.332    0.061  160.375   63.462
  229.000   23.958    0.376    0.110  159.791   66.091
  229.250   18.128    0.394    0.168  159.692   71.687
  229.500   14.780    0.403    0.163  159.615   78.181
  229.750    9.543    0.429    0.178  159.515   85.858
  230.000    7.852    0.458    0.182  159.427   92.644
  230.250    7.501    0.442    0.178  159.350   94.672
  230.500    7.723    0.418    0.174  158.755   90.153
  230.750    7.947    0.383    0.165  158.678   93.377
  231.000    8.104    0.414    0.166  158.579  102.547
  231.250    8.499    0.435    0.161  158.986  110.818
  231.500    9.250    0.430    0.179  159.393  113.745
  231.750   11.156    0.407    0.176  159.790  108.037
  232.000   14.364    0.390    0.151  159.701   97.572
  232.250   17.323    0.378    0.163  159.624   93.350
  232.500   20.128    0.367    0.176  159.525   88.837
  232.750   25.200    0.344    0.189  159.437   84.325
  233.000   29.554    0.253    0.212  159.348   79.812
  233.250   36.319    0.229    0.232  159.260   71.428
  233.500   39.161    0.234    0.234  158.677   63.341
  233.750   44.251    0.273    0.236  158.599   62.694
  234.000   43.471    0.311    0.247  158.500   64.425
  234.250   39.640    0.352    0.259  158.412   65.264
  234.500   37.867    0.396    0.244  158.819   64.610
  234.750   37.549    0.411    0.223  159.722   66.050
  235.000   37.229    0.419    0.230  159.623   66.287
  235.250   37.614    0.427    0.239  159.545   65.349
  235.500   37.651    0.420    0.240  159.435   64.404
  235.750   38.029    0.411    0.246  159.358   64.629
  236.000   39.146    0.419    0.251  159.270   65.475
  236.250   40.664    0.416    0.259  159.193   66.016
  236.500   42.251    0.410    0.254  159.578   65.065
  236.750   43.487    0.409    0.247  160.007   64.728
  237.000   43.933    0.412    0.249  159.897   65.857
  237.250   43.976    0.422    0.252  159.820   66.994
  237.500   44.014    0.425    0.250  159.225   67.238
  237.750   44.047    0.422    0.251  158.663   64.516
  238.000   43.276    0.419    0.254  158.057   64.159
  238.250   41.341    0.427    0.237  157.958   66.485
  238.500   37.689    0.435    0.223  157.870   68.810
  238.750   32.494    0.429    0.192  157.308   69.946
  239.000   24.817    0.413    0.192  157.209   70.495
  239.250   20.042    0.409    0.216  157.121   72.219
  239.500   16.339    0.410    0.204  157.033   72.463
  239.750   18.461    0.419    0.191  156.449   71.525
  240.000   19.183    0.424    0.197  156.361   70.574
