~VERSION INFORMATION
 VERS.                 2.0:   CWLS LOG ASCII STANDARD -VERSION 2.0
 WRAP.                  NO:   ONE LINE PER DEPTH STEP
~WELL INFORMATION BLOCK
#MNEM.UNIT           DATA                    DESCRIPTION OF MNEMONIC
#---------    -------------------            -------------------------------
# Generated from Intellog Unique Number	CW_73_75/WELL/903
WELL.         CDN SUP ET AL FRANCIS 10-01    : Well_name    - WELL
LOC .         00/10-01-074-21W4/0            : Location     - LOCATION
UWI .         00/10-01-074-21W4/0            : Uwi          - UNIQUE WELL ID
ENTR.         JAYE                           : Entered      - ENTERED BY
SRVC.         SCHLUMBERGER                   : Scn          - SERVICE COMPANY
DATE.         16 FEB 75                      : Date         - LOG DATE
STRT.M        396.24                         : top_depth    - START DEPTH
STOP.M        636.99                         : bot_depth    - STOP DEPTH
STEP.M        0.25                           : increment    - STEP LENGTH
 NULL. -999.2500:NULL Value
~CURVE INFORMATION BLOCK
#MNEM UNIT       ERCB CURVE CODE    CURVE DESCRIPTION
#-----------   ------------------   ----------------------------------
DEPT.M        00 001 00 00         : DEPTH        - DEPTH
DPHI.V/V      00 890 00 00         : PHID         - DENSITY POROSITY (SANDSTONE)
NPHI.V/V      00 330 00 00         : PHIN         - NEUTRON POROSITY (SANDSTONE)
GR  .API      00 310 00 00         : GR           - GAMMA RAY
CALI.MM       00 280 01 00         : CAL          - CALIPER
ILD .OHMM     00 120 00 00         : RESD         - DEEP RESISTIVITY (DIL)
~PARAMETER INFORMATION
#MNEM.UNIT           DATA             DESCRIPTION OF MNEMONIC
#---------         -----------     ------------------------------
GL  .M        708.05               : gl           - GROUND LEVEL ELEVATION
EREF.M        710.489              : kb           - ELEVATION OF DEPTH REFERENCE
DATM.M        708.05               : datum        - DATUM ELEVATION
TDD .M        694.944              : tdd          - TOTAL DEPTH DRILLER
RUN .         ONE                  : Run          - RUN NUMBER
ENG .         LLOYD                : Engineer     - RECORDING ENGINEER
WIT .         NESSIER              : Witness      - WITNESSED BY
BASE.         EDMONTON             : Branch       - HOME BASE OF LOGGING UNIT
MUD .         GEL                  : Mud_type     - MUD TYPE
MATR.         SANDSTONE            : Logunit      - NEUTRON MATRIX
TMAX.C        26.1111              : BHT          - MAXIMUM RECORDED TEMPERATURE
BHTD.M        695.249              : BHTDEP       - MAXIMUM RECORDED TEMPERATURE
RMT .C        4.44444              : MDTP         - TEMPERATURE OF MUD
MUDD.KG/M     1104                 : MWT          - MUD DENSITY
NEUT.         1                    : NEUTRON      - NEUTRON TYPE
RESI.         0                    : RESIST       - RESISTIVITY TYPE
RM  .OHMM     5.12                 : RM           - RESISTIVITY OF MUD
RMC .OHMM     0                    : RMC          - RESISTIVITY OF MUD CAKE
RMF .OHMM     3.6                  : RMF          - RESISTIVITY OF MUD FILTRATE
SUFT.C        -17.7778             : SUFT         - SURFACE TEMPERATURE
~A  DEPTH     PHID     PHIN       GR      CAL     RESD
# ...
  578.740    0.156    0.314  134.832  163.095    7.489
  578.990    0.170    0.300  130.901  160.852    8.242
  579.240    0.191    0.213  118.424  161.174    8.631
  579.490    0.182    0.217   54.854  163.995    9.118
  579.740    0.179    0.223   58.302  165.067    9.268
  579.990    0.177    0.224   60.893  165.207    9.333
  580.240    0.183    0.224   62.870  163.800    9.330
  580.490    0.195    0.225   64.175  162.700    9.208
  580.740    0.185    0.230   66.153  162.216    9.088
  580.990    0.191    0.236   69.417  161.432    9.101
  581.240    0.196    0.247   73.292  161.776    9.132
  581.490    0.208    0.257   75.941  162.126    9.096
  581.740    0.201    0.268   79.692  162.479    9.010
  581.990    0.205    0.267   83.077  163.139    8.957
  582.240    0.192    0.248   84.322  163.693    8.775
  582.490    0.177    0.261   85.811  164.556    8.660
  582.740    0.200    0.260   76.177  166.048    8.453
  582.990    0.195    0.256   74.060  167.121    8.296
  583.240    0.187    0.257   72.861  167.263    8.203
  583.490    0.197    0.257   67.382  166.988    8.170
  583.740    0.221    0.256   65.266  166.612    8.198
  583.990    0.240    0.255   66.144  166.447    8.316
  584.240    0.249    0.246   67.082  164.829    8.391
  584.490    0.254    0.253   63.622  163.001    8.576
  584.740    0.237    0.241   59.061  161.491    8.895
  584.990    0.250    0.249   54.437  160.602    9.191
  585.240    0.256    0.261   53.359  160.116    9.429
  585.490    0.245    0.251   57.846  160.366    9.618
  585.740    0.250    0.250   64.469  160.817    9.812
  585.990    0.242    0.252   75.922  161.370    9.882
  586.240    0.207    0.265   88.231  162.857    9.860
  586.490    0.159    0.265   89.355  164.763    9.767
  586.740    0.176    0.261   93.413  165.213    9.675
  586.990    0.191    0.273   96.979  165.044    9.672
  587.240    0.208    0.289  100.730  164.667    9.705
  587.490    0.204    0.285  108.639  165.638    9.756
  587.740    0.195    0.272  120.580  166.714    9.522
  587.990    0.207    0.261  174.149  166.442    9.209
  588.240    0.207    0.275  242.694  166.168    8.874
  588.490    0.197    0.306  267.779  165.897    9.002
  588.740    0.222    0.396  244.085  166.348    9.218
  588.990    0.242    0.443  193.678  166.699   10.011
  589.240    0.212    0.449  158.615  166.322   11.617
  589.490    0.210    0.438  145.801  164.291   14.245
  589.740    0.243    0.359  136.349  160.293   13.501
  589.990    0.266    0.323  129.771  159.089   11.166
  590.240    0.262    0.318  118.181  158.919    8.852
  590.490    0.276    0.335  129.817  161.031    7.939
  590.740    0.229    0.330  136.930  162.414    7.054
  590.990    0.210    0.348  134.752  163.590    6.637
  591.240    0.196    0.344  120.839  164.458    6.502
  591.490    0.197    0.324  109.370  164.289    6.548
  591.740    0.174    0.322  100.223  164.432    6.692
  591.990    0.166    0.325   84.903  164.262    6.827
  592.240    0.169    0.313   75.207  164.925    6.977
  592.490    0.195    0.321   75.842  164.236    7.317
  592.740    0.235    0.348   77.331  162.828    8.034
  592.990    0.269    0.357   71.546  158.516    9.070
  593.240    0.299    0.370   67.903  155.868   10.899
  593.490    0.325    0.375   68.841  156.834   14.361
  593.740    0.330    0.367   68.130  159.359   18.610
  593.990    0.329    0.356   63.202  160.646   20.398
  594.240    0.309    0.351   62.797  160.675   20.056
  594.490    0.294    0.345   64.042  160.508   18.800
  594.740    0.268    0.349   59.848  160.450   17.491
  594.990    0.250    0.356   56.080  160.687   16.608
  595.240    0.243    0.343   51.396  160.936   15.654
  595.490    0.244    0.334   46.040  161.280   14.917
  595.740    0.220    0.327   42.029  161.528   14.534
  595.990    0.208    0.321   40.951  161.467   14.159
  596.240    0.235    0.323   43.480  160.672   13.846
  596.490    0.267    0.335   48.271  160.710   13.317
  596.740    0.312    0.338   53.795  160.852   12.668
  596.990    0.299    0.328   58.220  160.891   12.229
  597.240    0.254    0.348   60.870  161.141   12.157
  597.490    0.284    0.371   56.124  161.489   12.334
  597.740    0.308    0.370   47.589  161.736   12.699
  597.990    0.328    0.361   48.592  162.082   13.465
  598.240    0.338    0.365   52.586  162.637   14.543
  598.490    0.316    0.367   55.913  163.088   16.417
  598.740    0.309    0.372   52.448  163.647   18.327
  598.990    0.328    0.390   48.130  164.305   19.941
  599.240    0.345    0.378   43.997  164.552   20.874
  599.490    0.353    0.359   40.535  164.281   21.059
  599.740    0.335    0.342   38.847  163.500   20.899
  599.990    0.305    0.374   37.342  162.911   20.362
  600.240    0.254    0.428   33.208  162.326   19.620
  600.490    0.223    0.438   28.584  161.643   19.506
  600.740    0.222    0.396   28.486  160.958   19.537
  600.990    0.250    0.363   31.014  160.681   19.209
  601.240    0.244    0.354   34.093  160.411   18.923
  601.490    0.235    0.339   35.705  160.760   18.607
  601.740    0.231    0.338   33.101  161.002   18.704
  601.990    0.205    0.360   30.191  161.664   19.363
  602.240    0.203    0.369   29.172  163.459   20.494
  602.490    0.243    0.360   32.129  164.430   22.755
  602.740    0.278    0.374   36.858  164.781   24.758
  602.990    0.342    0.402   40.549  165.128   25.396
  603.240    0.369    0.402   42.833  164.961   24.879
  603.490    0.349    0.392   44.262  164.065   22.979
  603.740    0.318    0.378   45.262  162.552   19.394
  603.990    0.291    0.378   46.997  161.560   15.546
  604.240    0.250    0.373   48.303  161.389   13.120
  604.490    0.229    0.360   55.355  161.845   11.032
  604.740    0.199    0.346   59.535  162.293    9.768
  604.990    0.197    0.328   51.917  162.747    8.988
  605.240    0.205    0.297   52.919  163.822    8.645
  605.490    0.218    0.317   58.319  164.479    8.345
  605.740    0.232    0.351   60.970  165.449    8.056
  605.990    0.208    0.322   62.643  165.903    7.705
  606.240    0.195    0.306   73.791  166.251    7.263
  606.490    0.180    0.313   94.352  167.115    6.525
  606.740    0.177    0.335  105.744  168.091    5.895
  606.990    0.151    0.327  109.741  169.055    5.536
  607.240    0.136    0.312  102.122  170.131    5.374
  607.490    0.147    0.297   95.848  170.997    5.245
  607.740    0.137    0.271  105.101  171.759    5.138
  607.990    0.162    0.297  115.273  172.215    5.071
  608.240    0.191    0.334  119.267  172.355    5.004
  608.490    0.187    0.351  110.429  172.600    4.975
  608.740    0.151    0.360  102.503  172.949    4.992
  608.990    0.151    0.333   93.907  172.781    4.972
  609.240    0.125    0.290   93.135  170.956    4.944
  609.490    0.146    0.302   99.945  170.167    4.924
  609.740    0.163    0.302   95.687  170.828    4.886
  609.990    0.147    0.290   93.388  171.692    4.831
  610.240    0.141    0.308   90.903  173.076    4.839
  610.490    0.171    0.306   86.463  174.875    4.873
  610.740    0.153    0.301   86.915  176.050    4.962
  610.990    0.144    0.303   87.181  174.123    5.071
  611.240    0.138    0.287   77.852  169.090    5.417
  611.490    0.111    0.269   68.829  164.368    6.014
  611.740    0.127    0.251   63.044  163.065    6.653
  611.990    0.127    0.242   61.844  163.517    7.225
  612.240    0.121    0.236   67.495  164.284    7.494
  612.490    0.112    0.238   72.221  165.045    7.369
  612.740    0.122    0.245   76.460  165.704    7.139
  612.990    0.134    0.251   79.172  166.256    6.892
  613.240    0.134    0.256   79.871  167.019    6.604
  613.490    0.144    0.261   80.135  167.470    6.458
  613.740    0.146    0.267   79.608  167.407    6.374
  613.990    0.143    0.283   77.309  167.134    6.359
  614.240    0.147    0.302   74.154  166.240    6.381
  614.490    0.147    0.321   70.264  164.417    6.486
  614.740    0.169    0.343   66.006  162.799    6.666
  614.990    0.195    0.325   64.076  161.905    6.888
