~VERSION INFORMATION
 VERS.                 2.0:   CWLS LOG ASCII STANDARD -VERSION 2.0
 WRAP.                  NO:   ONE LINE PER DEPTH STEP
~WELL INFORMATION BLOCK
#MNEM.UNIT           DATA                    DESCRIPTION OF MNEMONIC
#---------    -------------------            -------------------------------
# Generated from Intellog Unique Number	CS_67_68/WELL/804
WELL.         DOME PETROLEUM LIMITED         : Well_name    - WELL
LOC .         00/10-08-068-02W4/0            : Location     - LOCATION
UWI .         00/10-08-068-02W4/0            : Uwi          - UNIQUE WELL ID
ENTR.         SP                             : Entered      - ENTERED BY
SRVC.         SCHLUMBERGER                   : Scn          - SERVICE COMPANY
STRT.M        410                            : top_depth    - START DEPTH
STOP.M        665                            : bot_depth    - STOP DEPTH
STEP.M        0.25                           : increment    - STEP LENGTH
 NULL. -999.2500:NULL Value
~CURVE INFORMATION BLOCK
#MNEM UNIT       ERCB CURVE CODE    CURVE DESCRIPTION
#-----------   ------------------   ----------------------------------
DEPT.M        00 001 00 00         : DEPTH        - DEPTH
ILD .OHMM     00 120 00 00         : RESD         - DEEP RESISTIVITY (DIL)
DPHI.V/V      00 890 00 00         : PHID         - DENSITY POROSITY (LIMESTONE)
NPHI.V/V      00 330 00 00         : PHIN         - NEUTRON POROSITY (LIMESTONE)
GR  .API      00 310 00 00         : GR           - GAMMA RAY
~PARAMETER INFORMATION
#MNEM.UNIT           DATA             DESCRIPTION OF MNEMONIC
#---------         -----------     ------------------------------
GL  .M        743.94               : gl           - GROUND LEVEL ELEVATION
EREF.M        746.86               : kb           - ELEVATION OF DEPTH REFERENCE
DATM.M        743.94               : datum        - DATUM ELEVATION
TDD .M        667                  : tdd          - TOTAL DEPTH DRILLER
RUN .         ONE                  : Run          - RUN NUMBER
ENG .         BILL                 : Engineer     - RECORDING ENGINEER
WIT .         JIM                  : Witness      - WITNESSED BY
MUD .         GEL                  : Mud_type     - MUD TYPE
MATR.         LIMESTONE            : Logunit      - NEUTRON MATRIX
TMAX.C        31                   : BHT          - MAXIMUM RECORDED TEMPERATURE
BHTD.M        667                  : BHTDEP       - MAXIMUM RECORDED TEMPERATURE
MATR.         1                    : LOGUNIT      - NEUTRON MATRIX
RMT .C        25                   : MDTP         - TEMPERATURE OF MUD
NEUT.         1                    : NEUTRON      - NEUTRON TYPE
RESI.         0                    : RESIST       - RESISTIVITY TYPE
RMC .OHMM     0.25                 : RMC          - RESISTIVITY OF MUD CAKE
RMF .OHMM     0.25                 : RMF          - RESISTIVITY OF MUD FILTRATE
SUFT.C        15                   : SUFT         - SURFACE TEMPERATURE
~A  DEPTH     RESD     PHID     PHIN       GR
# ...
  497.000    7.771    0.352    0.414   55.637
  497.250    8.108    0.346    0.412   55.586
  497.500    8.305    0.329    0.415   55.778
  497.750    8.365    0.283    0.369   58.279
  498.000    8.085    0.262    0.344   62.784
  498.250    7.700    0.248    0.323   68.870
  498.500    7.265    0.257    0.362   74.165
  498.750    6.958    0.280    0.413   74.964
  499.000    6.738    0.291    0.423   73.455
  499.250    6.735    0.302    0.426   70.002
  499.500    6.733    0.309    0.420   65.639
  499.750    6.807    0.320    0.414   63.581
  500.000    6.881    0.335    0.404   62.317
  500.250    6.930    0.345    0.410   62.508
  500.500    6.915    0.346    0.418   63.185
  500.750    6.874    0.342    0.417   63.438
  501.000    6.884    0.340    0.408   63.084
  501.250    6.882    0.340    0.403   62.668
  501.500    6.866    0.338    0.402   62.922
  501.750    6.877    0.333    0.402   65.724
  502.000    6.925    0.326    0.401   66.708
  502.250    6.948    0.322    0.410   65.198
  502.500    6.986    0.328    0.416   62.781
  502.750    7.010    0.332    0.421   61.877
  503.000    6.981    0.333    0.415   61.704
  503.250    6.991    0.332    0.406   61.594
  503.500    6.989    0.330    0.398   61.480
  503.750    6.974    0.326    0.397   61.551
  504.000    6.984    0.330    0.398   61.681
  504.250    6.982    0.346    0.400   60.417
  504.500    6.966    0.349    0.403   59.818
  504.750    6.951    0.345    0.404   63.656
  505.000    6.883    0.339    0.408   64.029
  505.250    6.593    0.334    0.395   62.884
  505.500    6.566    0.328    0.386   62.894
  505.750    6.662    0.322    0.405   63.268
  506.000    6.848    0.340    0.417   63.401
  506.250    7.001    0.345    0.425   63.835
  506.500    7.130    0.338    0.431   64.573
  506.750    7.262    0.334    0.419   64.461
  507.000    7.341    0.330    0.410   62.527
  507.250    7.463    0.333    0.398   59.257
  507.500    7.658    0.339    0.401   59.448
  507.750    7.669    0.336    0.415   60.128
  508.000    7.667    0.334    0.423   60.987
  508.250    7.621    0.332    0.427   63.123
  508.500    7.548    0.331    0.424   64.590
  508.750    7.503    0.330    0.412   62.049
  509.000    7.500    0.331    0.404   59.812
  509.250    7.456    0.335    0.399   59.517
  509.500    7.426    0.340    0.405   59.649
  509.750    7.437    0.343    0.409   60.022
  510.000    7.631    0.344    0.410   60.579
  510.250    8.035    0.343    0.412   60.409
  510.500    8.094    0.341    0.410   59.869
  510.750    8.167    0.339    0.406   58.605
  511.000    8.241    0.341    0.410   56.548
  511.250    8.253    0.343    0.401   55.040
  511.500    8.113    0.343    0.374   55.049
  511.750    7.843    0.335    0.361   56.698
  512.000    7.168    0.330    0.375   60.900
  512.250    6.852    0.321    0.405   66.379
  512.500    6.736    0.315    0.421   71.068
  512.750    6.708    0.310    0.422   73.140
  513.000    6.731    0.308    0.423   73.333
  513.250    6.778    0.309    0.426   73.220
  513.500    6.348    0.316    0.432   72.927
  513.750    6.394    0.326    0.433   72.207
  514.000    6.476    0.327    0.430   67.538
  514.250    6.582    0.307    0.420   69.736
  514.500    6.642    0.291    0.418   73.391
  514.750    6.727    0.297    0.434   75.344
  515.000    6.851    0.311    0.445   75.721
  515.250    7.030    0.318    0.454   75.000
  515.500    7.200    0.327    0.418   73.368
  515.750    7.471    0.332    0.410   71.252
  516.000    8.017    0.318    0.414   68.224
  516.250    9.550    0.292    0.414   64.406
  516.500   12.303    0.126    0.336   60.104
  516.750   15.412    0.078    0.216   56.529
  517.000   16.819    0.057    0.180   52.102
  517.250   15.604    0.045    0.154   47.617
  517.500   13.740    0.190    0.213   49.024
  517.750   10.899    0.231    0.292   55.839
  518.000    8.908    0.268    0.393   61.801
  518.250    7.472    0.316    0.403   71.897
  518.500    6.920    0.334    0.403   68.566
  518.750    6.603    0.341    0.395   65.963
  519.000    6.637    0.335    0.401   68.219
  519.250    6.696    0.336    0.420   65.252
  519.500    6.732    0.347    0.400   61.677
  519.750    6.792    0.334    0.392   66.245
  520.000    6.802    0.323    0.407   69.473
  520.250    6.750    0.316    0.423   71.306
  520.500    6.661    0.311    0.432   72.227
  520.750    6.462    0.310    0.420   72.541
  521.000    6.247    0.309    0.416   71.639
  521.250    6.233    0.310    0.435   69.826
  521.500    6.348    0.309    0.443   69.775
  521.750    6.514    0.323    0.430   70.393
  522.000    6.646    0.327    0.415   72.895
  522.250    6.794    0.315    0.416   73.389
  522.500    6.894    0.304    0.412   72.305
  522.750    6.969    0.299    0.403   71.343
  523.000    7.032    0.308    0.395   71.109
  523.250    7.122    0.316    0.402   71.969
  523.500    7.585    0.312    0.413   72.344
  523.750    8.020    0.294    0.388   70.166
  524.000    8.541    0.269    0.357   63.191
  524.250    8.781    0.251    0.338   60.769
  524.500    8.778    0.263    0.357   58.166
  524.750    8.083    0.296    0.398   63.036
  525.000    7.626    0.350    0.424   68.334
  525.250    7.441    0.351    0.429   70.711
  525.500    7.439    0.349    0.423   69.809
  525.750    7.490    0.350    0.420   64.351
  526.000    7.503    0.352    0.421   65.213
  526.250    7.556    0.353    0.427   66.436
  526.500    7.596    0.354    0.418   67.115
  526.750    7.288    0.355    0.412   66.699
  527.000    6.600    0.355    0.414   67.681
  527.250    6.169    0.346    0.428   68.480
  527.500    6.179    0.333    0.428   67.701
  527.750    6.340    0.323    0.417   69.350
  528.000    6.591    0.322    0.430   74.099
  528.250    6.916    0.325    0.439   81.157
  528.500    7.243    0.308    0.446   85.297
  528.750    7.363    0.284    0.448   89.195
  529.000    7.105    0.267    0.440   92.485
  529.250    6.678    0.254    0.443   94.985
  529.500    6.540    0.270    0.446   94.388
  529.750    6.587    0.290    0.442   86.135
  530.000    6.733    0.307    0.434   80.799
  530.250    7.079    0.314    0.429   76.374
  530.500    7.400    0.328    0.424   73.284
  530.750    7.664    0.336    0.422   71.411
  531.000    7.719    0.336    0.423   72.151
  531.250    7.687    0.336    0.418   74.896
  531.500    7.671    0.338    0.429   76.058
  531.750    7.625    0.341    0.440   75.824
  532.000    7.357    0.342    0.447   80.151
  532.250    7.045    0.329    0.437   82.894
  532.500    6.798    0.305    0.437   84.967
  532.750    6.783    0.282    0.446   87.163
  533.000    7.076    0.286    0.444   86.019
  533.250    7.101    0.302    0.425   81.290
  533.500    7.099    0.314    0.430   77.047
  533.750    6.786    0.320    0.440   75.537
  534.000    5.714    0.310    0.433   80.772
  534.250    4.902    0.301    0.433   86.311
  534.500    4.357    0.293    0.482   92.639
  534.750    3.997    0.289    0.493   97.205
  535.000    3.786    0.285    0.490   97.092
  535.250    3.791    0.283    0.489   95.037
  535.500    3.861    0.292    0.488   94.864
  535.750    3.925    0.297    0.482   97.123
  536.000    3.909    0.286    0.476  100.169
  536.250    3.807    0.279    0.479  104.007
  536.500    3.585    0.270    0.492  107.905
  536.750    3.333    0.264    0.490  110.769
  537.000    3.132    0.257    0.481  113.087
  537.250    3.068    0.251    0.477  114.677
  537.500    3.061    0.257    0.476  115.537
  537.750    3.089    0.259    0.475  115.061
  538.000    3.128    0.255    0.477  115.982
  538.250    3.174    0.250    0.487  117.753
  538.500    3.227    0.247    0.493  119.405
  538.750    3.437    0.251    0.485  118.381
  539.000    4.354    0.273    0.460  110.371
  539.250    5.557    0.302    0.435   99.932
  539.500    7.756    0.330    0.439   86.333
  539.750   13.366    0.342    0.463   78.505
  540.000   16.964    0.347    0.474   73.959
  540.250   18.827    0.345    0.474   70.809
