~VERSION INFORMATION
 VERS.                 2.0:   CWLS LOG ASCII STANDARD -VERSION 2.0
 WRAP.                  NO:   ONE LINE PER DEPTH STEP
~WELL INFORMATION BLOCK
#MNEM.UNIT           DATA                    DESCRIPTION OF MNEMONIC
#---------    -------------------            -------------------------------
# Generated from Intellog Unique Number	CS_73_76/WELL/3234
WELL.         10-11-076-08W4                 : Well_name    - WELL
LOC .         00/10-11-076-08W4/0            : Location     - LOCATION
UWI .         00/10-11-076-08W4/0            : Uwi          - UNIQUE WELL ID
ENTR.         SP                             : Entered      - ENTERED BY
SRVC.         SCHLUMBERGER                   : Scn          - SERVICE COMPANY
STRT.M        228.6                          : top_depth    - START DEPTH
STOP.M        460.1                          : bot_depth    - STOP DEPTH
STEP.M        0.25                           : increment    - STEP LENGTH
 NULL. -999.2500:NULL Value
~CURVE INFORMATION BLOCK
#MNEM UNIT       ERCB CURVE CODE    CURVE DESCRIPTION
#-----------   ------------------   ----------------------------------
DEPT.M        00 001 00 00         : DEPTH        - DEPTH
GR  .API      00 310 00 00         : GR           - GAMMA RAY
DPHI.V/V      00 890 00 00         : PHID         - DENSITY POROSITY (SANDSTONE)
NPHI.V/V      00 330 00 00         : PHIN         - NEUTRON POROSITY (SANDSTONE)
ILD .OHMM     00 120 00 00         : RESD         - DEEP RESISTIVITY (DIL)
~PARAMETER INFORMATION
#MNEM.UNIT           DATA             DESCRIPTION OF MNEMONIC
#---------         -----------     ------------------------------
GL  .M        637.794              : gl           - GROUND LEVEL ELEVATION
EREF.M        640.232              : kb           - ELEVATION OF DEPTH REFERENCE
DATM.M        637.794              : datum        - DATUM ELEVATION
TDD .M        466.344              : tdd          - TOTAL DEPTH DRILLER
RUN .         ONE                  : Run          - RUN NUMBER
ENG .         BILL                 : Engineer     - RECORDING ENGINEER
WIT .         JIM                  : Witness      - WITNESSED BY
MUD .         GEL                  : Mud_type     - MUD TYPE
MATR.         SANDSTONE            : Logunit      - NEUTRON MATRIX
TMAX.C        15.5556              : BHT          - MAXIMUM RECORDED TEMPERATURE
BHTD.M        466.344              : BHTDEP       - MAXIMUM RECORDED TEMPERATURE
MATR.         1                    : LOGUNIT      - NEUTRON MATRIX
RMT .C        25                   : MDTP         - TEMPERATURE OF MUD
NEUT.         1                    : NEUTRON      - NEUTRON TYPE
RESI.         0                    : RESIST       - RESISTIVITY TYPE
RMC .OHMM     0.25                 : RMC          - RESISTIVITY OF MUD CAKE
RMF .OHMM     0.25                 : RMF          - RESISTIVITY OF MUD FILTRATE
SUFT.C        15                   : SUFT         - SURFACE TEMPERATURE
~A  DEPTH       GR     PHID     PHIN     RESD
# ...
  402.600   89.198    0.182    0.559    4.088
  402.850   89.382    0.219    0.573    4.186
  403.100   91.905    0.228    0.565    4.481
  403.350   93.948    0.221    0.552    5.010
  403.600   94.949    0.216    0.555    5.870
  403.850   93.227    0.233    0.536    7.895
  404.100   91.835    0.254    0.527   10.508
  404.350   85.663    0.283    0.505   13.727
  404.600   80.632    0.304    0.480   19.473
  404.850   77.630    0.289    0.458   22.496
  405.100   81.053    0.257    0.460   17.524
  405.350   84.074    0.257    0.462   15.130
  405.600   85.373    0.258    0.440   13.350
  405.850   89.503    0.245    0.428   12.070
  406.100  102.606    0.236    0.426   11.565
  406.350  111.272    0.232    0.440   12.480
  406.600  114.384    0.249    0.455   13.207
  406.850  111.746    0.266    0.479   15.238
  407.100   81.274    0.290    0.445   19.689
  407.350   57.638    0.285    0.406   22.785
  407.600   51.901    0.277    0.392   22.886
  407.850   55.842    0.262    0.385   20.890
  408.100   61.100    0.236    0.387   19.442
  408.350   62.394    0.224    0.389   17.543
  408.600   62.782    0.233    0.385   16.172
  408.850   67.075    0.219    0.381   14.976
  409.100   72.085    0.223    0.377   13.892
  409.350   76.169    0.185    0.376   13.269
  409.600   80.733    0.170    0.383   13.300
  409.850   84.036    0.228    0.403   13.468
  410.100   82.620    0.247    0.418   16.370
  410.350   77.080    0.261    0.417   19.337
  410.600   74.800    0.269    0.398   20.486
  410.850   75.953    0.261    0.386   17.854
  411.100   79.212    0.233    0.378   14.665
  411.350   85.912    0.200    0.369   12.949
  411.600   91.637    0.179    0.365   11.816
  411.850   98.034    0.163    0.375   11.449
  412.100  103.310    0.167    0.391   11.691
  412.350   99.975    0.189    0.410   12.060
  412.600   88.571    0.212    0.417   12.051
  412.850   83.539    0.240    0.421   11.912
  413.100   82.124    0.252    0.425   11.200
  413.350   83.205    0.259    0.429   10.785
  413.600   84.792    0.230    0.422   10.304
  413.850   82.162    0.221    0.406    9.995
  414.100   85.293    0.211    0.399    9.945
  414.350   92.680    0.203    0.396   10.090
  414.600   97.260    0.189    0.400   10.760
  414.850   94.252    0.187    0.412   11.551
  415.100   92.328    0.214    0.417   14.025
  415.350   91.017    0.227    0.418   19.091
  415.600   86.463    0.268    0.423   27.149
  415.850   70.949    0.278    0.440   40.856
  416.100   57.114    0.317    0.450   54.722
  416.350   42.480    0.322    0.460   64.128
  416.600   36.625    0.319    0.439   69.697
  416.850   36.272    0.327    0.433   69.174
  417.100   35.651    0.328    0.439   65.983
  417.350   36.319    0.320    0.450   58.535
  417.600   36.953    0.305    0.458   44.997
  417.850   38.066    0.311    0.438   38.636
  418.100   43.461    0.302    0.417   33.347
  418.350   49.425    0.307    0.406   28.136
  418.600   54.192    0.296    0.402   25.465
  418.850   59.036    0.291    0.418   23.057
  419.100   60.989    0.274    0.431   22.268
  419.350   62.344    0.281    0.426   21.614
  419.600   71.761    0.281    0.416   20.994
  419.850   76.689    0.267    0.425   20.342
  420.100   77.825    0.233    0.439   19.962
  420.350   78.866    0.210    0.437   19.110
  420.600   77.349    0.211    0.445   17.727
  420.850   76.200    0.238    0.449   15.209
  421.100   80.152    0.280    0.449   11.808
  421.350   83.633    0.263    0.445   10.157
  421.600   86.947    0.255    0.443    9.097
  421.850   91.702    0.242    0.444    8.598
  422.100   98.734    0.226    0.445    8.793
  422.350  106.648    0.210    0.435    8.555
  422.600  111.819    0.223    0.428    8.605
  422.850  116.101    0.218    0.440    8.607
  423.100  120.429    0.206    0.447    8.615
  423.350  121.848    0.195    0.454    9.186
  423.600  121.189    0.193    0.455   10.267
  423.850  111.795    0.199    0.435   12.625
  424.100  104.996    0.215    0.419   15.383
  424.350   96.788    0.207    0.410   18.463
  424.600   88.349    0.210    0.428   20.776
  424.850   74.892    0.263    0.450   21.740
  425.100   56.374    0.271    0.451   22.080
  425.350   56.822    0.282    0.426   19.691
  425.600   62.693    0.271    0.404   19.777
  425.850   67.224    0.263    0.409   17.745
  426.100   67.540    0.267    0.395   16.203
  426.350   65.594    0.260    0.391   14.789
  426.600   59.110    0.282    0.402   13.532
  426.850   65.958    0.258    0.380   12.745
  427.100   76.371    0.216    0.378   12.367
  427.350   83.173    0.193    0.372   11.758
  427.600   87.707    0.201    0.374   11.783
  427.850   90.817    0.190    0.409   11.763
  428.100   90.132    0.201    0.429   12.000
  428.350   86.604    0.208    0.416   11.992
  428.600   84.227    0.219    0.411   11.958
  428.850   82.198    0.230    0.406   11.578
  429.100   79.461    0.209    0.400   11.480
  429.350   77.461    0.200    0.385   11.176
  429.600   75.937    0.188    0.372   11.536
  429.850   76.121    0.192    0.366   12.232
  430.100   77.999    0.206    0.373   12.979
  430.350   79.172    0.243    0.381   14.179
  430.600   76.395    0.250    0.391   16.076
  430.850   70.125    0.252    0.405   19.525
  431.100   66.431    0.268    0.418   23.873
  431.350   59.312    0.281    0.419   29.269
  431.600   50.638    0.292    0.419   34.131
  431.850   39.440    0.302    0.408   37.216
  432.100   36.597    0.308    0.404   39.355
  432.350   36.217    0.300    0.406   41.054
  432.600   36.906    0.295    0.409   42.276
  432.850   36.789    0.296    0.414   43.650
  433.100   35.611    0.295    0.409   45.637
  433.350   37.906    0.306    0.408   47.979
  433.600   41.190    0.305    0.416   50.457
  433.850   39.082    0.294    0.421   52.954
  434.100   38.134    0.310    0.420   53.122
  434.350   39.885    0.312    0.423   53.136
  434.600   41.314    0.304    0.432   54.971
  434.850   41.363    0.312    0.440   59.259
  435.100   39.321    0.310    0.441   70.817
  435.350   34.434    0.307    0.438   80.483
  435.600   32.894    0.304    0.439   95.657
  435.850   31.921    0.301    0.437  114.866
  436.100   28.967    0.312    0.428  138.551
  436.350   26.034    0.317    0.414  155.093
  436.600   25.098    0.322    0.409  165.056
  436.850   24.148    0.317    0.403  168.659
  437.100   21.714    0.308    0.417  171.905
  437.350   18.153    0.316    0.414  171.660
  437.600   15.764    0.322    0.403  170.827
  437.850   15.611    0.317    0.395  168.712
  438.100   19.422    0.311    0.421  166.830
  438.350   22.671    0.325    0.439  166.462
  438.600   22.958    0.317    0.444  169.024
  438.850   24.956    0.312    0.441  166.606
  439.100   26.036    0.316    0.439  176.045
  439.350   24.440    0.320    0.428  162.918
  439.600   22.857    0.322    0.426  128.472
  439.850   22.942    0.318    0.420   95.829
  440.100   22.877    0.321    0.409   77.589
  440.350   23.707    0.320    0.400   58.728
  440.600   26.056    0.308    0.390   57.607
  440.850   29.527    0.310    0.401   67.754
  441.100   32.884    0.308    0.433   90.868
  441.350   35.841    0.313    0.464  118.320
  441.600   31.437    0.322    0.461  154.952
  441.850   25.982    0.330    0.450  188.945
  442.100   22.674    0.332    0.452  163.901
  442.350   22.196    0.345    0.450  123.155
  442.600   23.436    0.341    0.435   86.232
  442.850   27.214    0.310    0.423   70.221
  443.100   28.577    0.309    0.423   58.516
  443.350   30.714    0.306    0.421   49.032
  443.600   35.994    0.312    0.422   45.257
  443.850   38.553    0.324    0.442   53.391
  444.100   40.372    0.343    0.484   57.240
  444.350   38.057    0.358    0.500   62.507
  444.600   32.117    0.345    0.484   64.234
  444.850   28.932    0.333    0.466   65.102
  445.100   28.053    0.335    0.454   64.450
  445.350   26.349    0.342    0.452   65.262
  445.600   26.510    0.337    0.445   69.598
  445.850   26.653    0.331    0.434   71.644
