~VERSION INFORMATION
 VERS.                 2.0:   CWLS LOG ASCII STANDARD -VERSION 2.0
 WRAP.                  NO:   ONE LINE PER DEPTH STEP
~WELL INFORMATION BLOCK
#MNEM.UNIT           DATA                    DESCRIPTION OF MNEMONIC
#---------    -------------------            -------------------------------
# Generated from Intellog Unique Number	CC_80_83/WELL/2374
NULL.         -999.25                        : NULL_VALUE
WELL.         PEX HOUSE                      : Well_name    - WELL
LOC .         10-26-081-16W4                 : Location     - LOCATION          
UWI .         00/10-26-081-16W400            : Uwi          - UNIQUE WELL ID    
ENTR.         DW                             : Entered      - ENTERED BY        
SRVC.         SCHLUMBERGER                   : Scn          - SERVICE COMPANY   
DATE.         14 JAN 82                      : Date         - LOG DATE
STRT.M        160                            : top_depth    - START DEPTH       
STOP.M        330.098                        : bot_depth    - STOP DEPTH        
STEP.M        0.3                            : increment    - STEP LENGTH       
~CURVE INFORMATION BLOCK
#MNEM UNIT       ERCB CURVE CODE    CURVE DESCRIPTION
#-----------   ------------------   ----------------------------------
DEPT.M        00 001 00 00         : DEPTH        - DEPTH                       
DPHI.V/V      00 890 00 00         : PHID         - DENSITY POROSITY (LIMESTONE)
NPHI.V/V      00 330 00 00         : PHIN         - NEUTRON POROSITY (LIMESTONE)
GR  .API      00 310 00 00         : GR           - GAMMA RAY                   
ILD .OHMM     00 120 00 00         : RESD         - DEEP RESISTIVITY (DIL)      
~PARAMETER INFORMATION       
#MNEM.UNIT           DATA             DESCRIPTION OF MNEMONIC
#---------         -----------     ------------------------------
GL  .M        555.3                : gl           - GROUND LEVEL ELEVATION      
EREF.M        558.9                : kb           - ELEVATION OF DEPTH REFERENCE
DATM.M        558.9                : datum        - DATUM ELEVATION             
TDD .M        332                  : tdd          - TOTAL DEPTH DRILLER         
RUN .         ONE                  : Run          - RUN NUMBER                  
ENG .         BILL                 : Engineer     - RECORDING ENGINEER          
WIT .         JIM                  : Witness      - WITNESSED BY                
MUD .         GEL                  : Mud_type     - MUD TYPE                    
MATR.         LIMESTONE            : Logunit      - NEUTRON MATRIX              
TMAX.C        26                   : BHT          - MAXIMUM RECORDED TEMPERATURE
BHTD.M        332                  : BHTDEP       - MAXIMUM RECORDED TEMPERATURE
MATR.         1                    : LOGUNIT      - NEUTRON MATRIX              
RMT .C        25                   : MDTP         - TEMPERATURE OF MUD          
NEUT.         1                    : NEUTRON      - NEUTRON TYPE                
RESI.         0                    : RESIST       - RESISTIVITY TYPE            
RMC .OHMM     0.25                 : RMC          - RESISTIVITY OF MUD CAKE     
RMF .OHMM     0.25                 : RMF          - RESISTIVITY OF MUD FILTRATE 
SUFT.C        15                   : SUFT         - SURFACE TEMPERATURE         
~A  DEPTH     PHID     PHIN       GR     RESD
# ...
  264.401    0.278    0.435  102.117    5.705
  264.701    0.269    0.462  103.986    6.517
  265.001    0.223    0.463  103.379    7.304
  265.301    0.230    0.471  100.294    7.586
  265.601    0.238    0.487   98.442    7.443
  265.901    0.206    0.467   97.838    7.163
  266.201    0.190    0.467   97.845    7.027
  266.501    0.212    0.473  100.339    7.162
  266.801    0.228    0.471  103.449    7.298
  267.101    0.229    0.452  107.804    6.892
  267.401    0.232    0.454  109.674    6.634
  267.701    0.217    0.471  110.304    7.023
  268.000    0.205    0.466  108.456    8.494
  268.300    0.232    0.478  104.130    9.521
  268.600    0.226    0.444   97.944   11.298
  268.900    0.201    0.404   94.859   11.960
  269.200    0.175    0.388   96.108   11.295
  269.500    0.161    0.375   99.837    9.515
  269.800    0.193    0.373  102.950    8.327
  270.100    0.225    0.480   99.242    7.715
  270.400    0.232    0.522   99.254    7.014
  270.700    0.228    0.486  106.084    6.881
  271.000    0.213    0.442  110.436    7.284
  271.300    0.212    0.447  109.210    8.011
  271.600    0.197    0.471  104.260   10.258
  271.900    0.184    0.450   98.073   10.655
  272.200    0.239    0.416   91.265   11.067
  272.500    0.275    0.407   93.140   10.856
  272.800    0.287    0.426   96.871   10.650
  273.100    0.283    0.433   95.643   10.251
  273.400    0.265    0.429   90.074   10.056
  273.700    0.242    0.417   85.747   10.055
  274.000    0.216    0.430   90.718   10.054
  274.300    0.216    0.441   96.313    9.494
  274.600    0.241    0.414   96.323    8.966
  274.900    0.230    0.397   94.475    8.964
  275.200    0.246    0.449   93.865    9.136
  275.500    0.269    0.478   95.117   10.046
  275.800    0.272    0.482   83.972   10.636
  276.100    0.240    0.459   80.883   10.838
  276.400    0.154    0.366   80.896   10.235
  276.700    0.172    0.360   81.527    9.666
  277.000    0.226    0.407   85.877    9.303
  277.300    0.236    0.467   92.710    9.302
  277.600    0.238    0.450   92.104    9.480
  277.900    0.243    0.428   89.634    9.661
  278.200    0.237    0.421   87.787    9.844
  278.500    0.232    0.440   87.177    9.844
  278.800    0.237    0.425   86.573    9.656
  279.100    0.241    0.419   87.201    9.473
  279.400    0.246    0.431   89.077    9.472
  279.700    0.248    0.443   89.708    9.292
  280.000    0.252    0.436   89.097    9.651
  280.300    0.263    0.422   85.390    9.835
  280.600    0.215    0.422   79.822    9.834
  280.900    0.192    0.426   76.736   10.022
  281.200    0.231    0.443   81.707   11.668
  281.500    0.257    0.494   84.820   12.353
  281.800    0.269    0.459   81.731   11.890
  282.100    0.156    0.331   74.924   10.404
  282.400    0.124    0.304   72.456    9.640
  282.700    0.233    0.385   75.572    8.932
  283.000    0.253    0.449   77.437    8.435
  283.300    0.264    0.456   83.031    8.275
  283.600    0.270    0.431   84.903    8.433
  283.900    0.254    0.439   83.678    8.432
  284.200    0.249    0.467   83.071    8.116
  284.500    0.246    0.460   83.080    7.664
  284.800    0.245    0.462   83.708    6.968
  285.100    0.246    0.475   84.347    6.334
  285.400    0.267    0.481   83.736    5.543
  285.700    0.283    0.506   86.847    5.235
  286.000    0.257    0.513   91.818    4.759
  286.300    0.225    0.490   97.411    4.164
  286.600    0.217    0.496  101.760    4.085
  286.900    0.215    0.508  105.490    4.163
  287.200    0.208    0.489  111.082    4.847
  287.500    0.214    0.496  116.676    5.644
  287.800    0.205    0.482  117.305    7.508
  288.100    0.188    0.449  117.319    9.989
  288.400    0.190    0.425  109.270   10.777
  288.700    0.125    0.346   93.163   10.373
  289.000    0.085    0.338   86.979    9.984
  289.300    0.182    0.366   88.230    9.794
  289.600    0.216    0.423   92.581   10.368
  289.900    0.199    0.449   95.694   10.769
  290.200    0.204    0.470   95.704   10.975
  290.500    0.196    0.450   91.378   11.400
  290.800    0.157    0.382   90.151   10.972
  291.100    0.125    0.389   93.261   10.763
  291.400    0.185    0.418   96.374   10.559
  291.700    0.210    0.418   97.006   10.760
  292.000    0.205    0.405   97.017   10.759
  292.299    0.200    0.414   98.267   10.964
  292.599    0.191    0.416   99.518   10.962
  292.899    0.183    0.404  100.154   11.171
  293.199    0.180    0.390   95.203   10.959
  293.499    0.179    0.393   87.776   10.752
  293.799    0.176    0.413   87.788    9.590
  294.099    0.185    0.424   95.860    6.679
  294.399    0.194    0.442  102.690    4.924
  294.699    0.194    0.456  108.283    3.994
  294.999    0.205    0.456  114.493    3.239
  295.299    0.202    0.461  115.746    3.058
  295.599    0.252    0.494  110.177    3.494
  295.899    0.284    0.537   91.591    4.648
  296.199    0.271    0.488   74.865    6.302
  296.499    0.260    0.399   67.438    8.709
  296.799    0.259    0.400   64.351    9.761
  297.099    0.242    0.448   72.424    9.217
  297.399    0.213    0.475   74.293    8.705
  297.699    0.229    0.430   71.827    7.059
  297.999    0.245    0.395   75.556    5.835
  298.299    0.227    0.416   87.970    5.204
  298.599    0.219    0.457   94.183    4.220
  298.899    0.222    0.479   96.671    4.140
  299.199    0.212    0.505   96.682    4.383
  299.499    0.208    0.466   98.556    4.820
  299.799    0.193    0.418  101.046    4.819
  300.099    0.172    0.422  101.059    4.728
  300.399    0.184    0.439   93.633    4.381
  300.699    0.220    0.439   96.126    4.059
  300.999    0.239    0.453   99.853    3.907
  301.299    0.236    0.464  104.828    3.981
  301.599    0.223    0.460  104.837    4.296
  301.899    0.204    0.454  101.750    4.378
  302.199    0.183    0.449   97.422    4.294
  302.499    0.194    0.476   96.195    4.134
  302.799    0.215    0.471  103.024    4.055
  303.099    0.224    0.462  111.095    4.132
  303.399    0.226    0.466  116.070    4.459
  303.699    0.225    0.466  116.083    5.496
  303.999    0.215    0.464  115.474    6.776
  304.299    0.195    0.449  113.005    8.514
  304.599    0.143    0.419  104.957   10.495
  304.899    0.170    0.396   87.612   13.699
  305.199    0.268    0.407   77.083   15.064
  305.499    0.273    0.413   71.516   15.947
  305.799    0.250    0.408   66.569   15.644
  306.099    0.238    0.403   62.241   14.496
  306.399    0.238    0.403   59.154   11.316
  306.699    0.251    0.409   59.167    5.284
  306.999    0.274    0.430   61.658    3.610
  307.299    0.277    0.456   68.489    3.542
  307.599    0.263    0.495   82.759    3.749
  307.899    0.247    0.483   92.690    4.365
  308.199    0.220    0.445   98.282    5.485
  308.499    0.185    0.401   97.672    8.661
  308.799    0.236    0.385   93.346   11.968
  309.099    0.227    0.368   90.259   14.476
  309.399    0.212    0.386   96.471   17.178
  309.699    0.221    0.368  103.921   20.386
  309.999    0.245    0.400  102.073   21.996
  310.299    0.253    0.390   96.505   21.578
  310.599    0.214    0.360   90.320   19.616
  310.899    0.213    0.349   88.472   18.175
  311.199    0.213    0.371   90.341   17.495
  311.499    0.177    0.366   91.594   18.875
  311.799    0.171    0.355   90.365   19.236
  312.099    0.193    0.355   86.661   17.486
  312.399    0.225    0.394   83.574   17.820
  312.699    0.245    0.406   81.107   18.865
  312.999    0.229    0.359   80.497   19.595
  313.299    0.203    0.349   81.125   19.591
  313.599    0.194    0.353   88.579   21.139
  313.899    0.175    0.366   90.448   24.613
  314.199    0.183    0.339   82.403   29.770
  314.499    0.217    0.316   68.155   32.738
  314.799    0.230    0.320   65.070   32.115
  315.099    0.236    0.381   67.560   30.329
  315.399    0.247    0.369   75.013   27.571
  315.699    0.251    0.377   78.122   25.063
  315.999    0.226    0.391   84.955   24.588
  316.299    0.225    0.388   89.925   23.668
