~VERSION INFORMATION
 VERS.                 2.0:   CWLS LOG ASCII STANDARD -VERSION 2.0
 WRAP.                  NO:   ONE LINE PER DEPTH STEP
~WELL INFORMATION BLOCK
#MNEM.UNIT           DATA                    DESCRIPTION OF MNEMONIC
#---------    -------------------            -------------------------------
# Generated from Intellog Unique Number	CS_71_72/WELL/857
WELL.         AEC IPIATIK GRIST              : Well_name    - WELL
LOC .         00/10-17-071-06W4/0            : Location     - LOCATION
UWI .         00/10-17-071-06W4/0            : Uwi          - UNIQUE WELL ID
ENTR.         SP                             : Entered      - ENTERED BY
SRVC.         SCHLUMBERGER                   : Scn          - SERVICE COMPANY
STRT.M        300                            : top_depth    - START DEPTH
STOP.M        515                            : bot_depth    - STOP DEPTH
STEP.M        0.25                           : increment    - STEP LENGTH
 NULL. -999.2500:NULL Value
~CURVE INFORMATION BLOCK
#MNEM UNIT       ERCB CURVE CODE    CURVE DESCRIPTION
#-----------   ------------------   ----------------------------------
DEPT.M        00 001 00 00         : DEPTH        - DEPTH
ILD .OHMM     00 120 00 00         : RESD         - DEEP RESISTIVITY (DIL)
DPHI.V/V      00 890 00 00         : PHID         - DENSITY POROSITY (LIMESTONE)
NPHI.V/V      00 330 00 00         : PHIN         - NEUTRON POROSITY (LIMESTONE)
GR  .API      00 310 00 00         : GR           - GAMMA RAY
~PARAMETER INFORMATION
#MNEM.UNIT           DATA             DESCRIPTION OF MNEMONIC
#---------         -----------     ------------------------------
GL  .M        653                  : gl           - GROUND LEVEL ELEVATION
EREF.M        657.2                : kb           - ELEVATION OF DEPTH REFERENCE
DATM.M        653                  : datum        - DATUM ELEVATION
TDD .M        615                  : tdd          - TOTAL DEPTH DRILLER
RUN .         ONE                  : Run          - RUN NUMBER
ENG .         BILL                 : Engineer     - RECORDING ENGINEER
WIT .         JIM                  : Witness      - WITNESSED BY
MUD .         GEL                  : Mud_type     - MUD TYPE
MATR.         LIMESTONE            : Logunit      - NEUTRON MATRIX
TMAX.C        16                   : BHT          - MAXIMUM RECORDED TEMPERATURE
BHTD.M        615                  : BHTDEP       - MAXIMUM RECORDED TEMPERATURE
MATR.         1                    : LOGUNIT      - NEUTRON MATRIX
RMT .C        25                   : MDTP         - TEMPERATURE OF MUD
NEUT.         1                    : NEUTRON      - NEUTRON TYPE
RESI.         0                    : RESIST       - RESISTIVITY TYPE
RMC .OHMM     0.25                 : RMC          - RESISTIVITY OF MUD CAKE
RMF .OHMM     0.25                 : RMF          - RESISTIVITY OF MUD FILTRATE
SUFT.C        15                   : SUFT         - SURFACE TEMPERATURE
~A  DEPTH     RESD     PHID     PHIN       GR
# ...
  343.500    9.053    0.244    0.452   69.379
  343.750    9.095    0.259    0.436   71.468
  344.000    9.153    0.271    0.442   75.262
  344.250    9.247    0.295    0.455   72.964
  344.500    9.376    0.287    0.464   70.118
  344.750    9.580    0.280    0.456   68.307
  345.000    9.786    0.286    0.484   67.225
  345.250   10.110    0.296    0.489   66.023
  345.500   10.602    0.280    0.466   64.518
  345.750   10.933    0.242    0.427   63.376
  346.000   10.861    0.216    0.389   62.357
  346.250   10.413    0.196    0.368   62.617
  346.500   10.078    0.243    0.415   67.692
  346.750    9.863    0.270    0.449   71.365
  347.000    9.727    0.286    0.464   73.088
  347.250    9.662    0.289    0.460   74.875
  347.500    9.581    0.292    0.445   75.618
  347.750    9.553    0.300    0.427   77.402
  348.000    9.544    0.311    0.428   79.492
  348.250    9.516    0.299    0.434   81.031
  348.500    9.507    0.292    0.441   81.658
  348.750    9.497    0.284    0.447   80.271
  349.000    9.505    0.274    0.444   78.339
  349.250    9.531    0.266    0.438   77.806
  349.500    9.505    0.261    0.435   78.554
  349.750    9.442    0.262    0.440   79.667
  350.000    9.396    0.266    0.445   80.293
  350.250    9.335    0.259    0.434   79.033
  350.500    9.273    0.254    0.429   76.792
  350.750    9.216    0.255    0.426   75.590
  351.000    9.170    0.255    0.420   78.837
  351.250    9.057    0.263    0.419   81.900
  351.500    8.803    0.249    0.422   83.744
  351.750    8.708    0.244    0.427   82.969
  352.000    8.383    0.243    0.436   80.734
  352.250    8.096    0.258    0.445   80.200
  352.500    7.850    0.262    0.455   82.959
  352.750    7.713    0.244    0.461   85.656
  353.000    7.952    0.231    0.459   88.722
  353.250    8.435    0.201    0.457   89.406
  353.500    8.761    0.187    0.464   88.142
  353.750    9.242    0.215    0.469   82.189
  354.000    9.420    0.250    0.473   74.893
  354.250    9.769    0.275    0.472   67.843
  354.500   10.017    0.282    0.463   63.107
  354.750   10.138    0.286    0.469   61.051
  355.000   10.147    0.293    0.463   59.242
  355.250   10.137    0.295    0.450   59.075
  355.500   10.089    0.295    0.443   59.092
  355.750   10.080    0.289    0.450   59.782
  356.000   10.069    0.288    0.462   60.344
  356.250   10.004    0.296    0.464   61.215
  356.500    9.974    0.294    0.452   62.877
  356.750    9.929    0.291    0.441   63.562
  357.000    9.898    0.285    0.458   64.249
  357.250    9.820    0.281    0.473   64.270
  357.500    9.734    0.295    0.480   64.344
  357.750    9.617    0.305    0.459   64.605
  358.000    9.515    0.297    0.441   63.890
  358.250    9.453    0.288    0.437   61.651
  358.500    9.479    0.283    0.448   60.875
  358.750    9.666    0.293    0.456   64.308
  359.000   10.023    0.292    0.454   66.636
  359.250   10.374    0.279    0.446   68.359
  359.500   10.681    0.274    0.449   68.013
  359.750   10.726    0.285    0.455   65.834
  360.000   10.403    0.293    0.447   62.561
  360.250   10.122    0.274    0.446   62.028
  360.500    9.598    0.290    0.461   62.474
  360.750    9.358    0.309    0.475   62.793
  361.000    9.176    0.308    0.473   63.297
  361.250    9.048    0.301    0.469   64.294
  361.500    8.954    0.300    0.475   64.924
  361.750    8.846    0.311    0.485   64.932
  362.000    8.739    0.324    0.493   64.471
  362.250    8.681    0.312    0.480   63.689
  362.500    8.641    0.299    0.466   63.032
  362.750    8.680    0.297    0.453   64.145
  363.000    8.851    0.290    0.445   67.880
  363.250    9.025    0.278    0.456   71.066
  363.500    9.169    0.268    0.456   72.665
  363.750    9.350    0.303    0.463   72.072
  364.000    9.551    0.323    0.468   69.225
  364.250    9.722    0.314    0.468   65.772
  364.500    9.858    0.307    0.469   65.298
  364.750    9.885    0.311    0.466   66.045
  365.000    9.875    0.298    0.472   66.246
  365.250    9.828    0.294    0.474   65.654
  365.500    9.764    0.300    0.464   65.181
  365.750    9.772    0.305    0.457   65.626
  366.000    9.762    0.312    0.454   66.129
  366.250    9.734    0.316    0.464   65.475
  366.500    9.743    0.315    0.463   62.202
  366.750    9.732    0.307    0.454   62.708
  367.000    9.633    0.297    0.451   65.038
  367.250    9.569    0.287    0.458   66.822
  367.500    9.420    0.284    0.472   65.924
  367.750    9.269    0.288    0.481   65.088
  368.000    8.938    0.294    0.490   66.140
  368.250    8.554    0.293    0.491   67.802
  368.500    8.201    0.281    0.491   70.561
  368.750    7.864    0.276    0.489   74.661
  369.000    7.540    0.275    0.491   77.846
  369.250    7.284    0.270    0.470   80.910
  369.500    6.907    0.253    0.452   84.045
  369.750    6.709    0.237    0.439   84.722
  370.000    6.554    0.225    0.437   85.771
  370.250    6.414    0.218    0.434   86.460
  370.500    6.336    0.204    0.429   86.901
  370.750    6.271    0.190    0.422   87.957
  371.000    6.161    0.181    0.419   89.560
  371.250    6.052    0.197    0.432   90.977
  371.500    5.934    0.215    0.444   92.270
  371.750    5.819    0.201    0.435   94.548
  372.000    5.674    0.201    0.451   95.658
  372.250    5.532    0.192    0.466   96.523
  372.500    5.424    0.201    0.481   98.495
  372.750    5.319    0.193    0.483   99.483
  373.000    5.254    0.193    0.492  100.292
  373.250    5.191    0.203    0.502   99.576
  373.500    5.119    0.200    0.495  100.021
  373.750    5.038    0.192    0.488  101.072
  374.000    4.967    0.185    0.487  102.431
  374.250    4.888    0.192    0.475  102.933
  374.500    4.829    0.189    0.467  103.011
  374.750    4.762    0.191    0.469  102.846
  375.000    4.722    0.198    0.483  102.132
  375.250    4.726    0.189    0.490  101.294
  375.500    4.783    0.179    0.496  100.093
  375.750    4.833    0.186    0.494   99.133
  376.000    4.872    0.194    0.485   98.175
  376.250    4.913    0.208    0.474   97.279
  376.500    4.973    0.205    0.474   96.142
  376.750    5.052    0.205    0.485   94.885
  377.000    5.123    0.207    0.493   94.529
  377.250    5.214    0.207    0.495   93.574
  377.500    5.267    0.212    0.495   92.978
  377.750    5.321    0.222    0.492   92.263
  378.000    5.326    0.229    0.472   90.937
  378.250    5.241    0.232    0.450   87.360
  378.500    5.149    0.223    0.431   86.525
  378.750    5.039    0.212    0.438   87.515
  379.000    4.960    0.205    0.437   88.934
  379.250    4.992    0.214    0.448   89.253
  379.500    5.081    0.226    0.464   85.981
  379.750    5.210    0.219    0.472   83.742
  380.000    5.312    0.203    0.466   82.053
  380.250    5.297    0.233    0.456   80.119
  380.500    5.165    0.242    0.452   78.735
  380.750    4.925    0.245    0.461   81.007
  381.000    4.669    0.230    0.470   84.197
  381.250    4.469    0.217    0.474   85.487
  381.500    4.398    0.239    0.486   87.215
  381.750    4.612    0.261    0.502   86.251
  382.000    5.411    0.250    0.516   86.208
  382.250    5.704    0.236    0.521   88.176
  382.500    6.072    0.236    0.513   89.836
  382.750    6.320    0.244    0.483   91.260
  383.000    6.480    0.238    0.458   90.726
  383.250    6.522    0.233    0.440   88.424
  383.500    6.443    0.242    0.442   87.099
  383.750    5.929    0.243    0.436   86.080
  384.000    5.083    0.243    0.428   82.990
  384.250    4.285    0.244    0.443   84.286
  384.500    3.626    0.247    0.464   87.654
  384.750    3.109    0.240    0.494   94.318
  385.000    2.772    0.217    0.509   98.963
  385.250    2.560    0.214    0.529  102.875
  385.500    2.469    0.222    0.551  108.010
  385.750    2.476    0.227    0.565  107.237
  386.000    2.492    0.229    0.573  106.340
  386.250    2.494    0.225    0.571  107.879
  386.500    2.464    0.219    0.560  109.483
  386.750    2.429    0.224    0.556  109.982
