~VERSION INFORMATION
 VERS.                 2.0:   CWLS LOG ASCII STANDARD -VERSION 2.0
 WRAP.                  NO:   ONE LINE PER DEPTH STEP
~WELL INFORMATION BLOCK
#MNEM.UNIT           DATA                    DESCRIPTION OF MNEMONIC
#---------    -------------------            -------------------------------
# Generated from Intellog Unique Number	CS_71_72/WELL/897
WELL.         AMOCO AEC IPAITIK              : Well_name    - WELL
LOC .         00/11-15-072-04W4/0            : Location     - LOCATION
UWI .         00/11-15-072-04W4/0            : Uwi          - UNIQUE WELL ID
ENTR.         SP                             : Entered      - ENTERED BY
SRVC.         SCHLUMBERGER                   : Scn          - SERVICE COMPANY
STRT.M        305                            : top_depth    - START DEPTH
STOP.M        500                            : bot_depth    - STOP DEPTH
STEP.M        0.25                           : increment    - STEP LENGTH
 NULL. -999.2500:NULL Value
~CURVE INFORMATION BLOCK
#MNEM UNIT       ERCB CURVE CODE    CURVE DESCRIPTION
#-----------   ------------------   ----------------------------------
DEPT.M        00 001 00 00         : DEPTH        - DEPTH
DPHI.V/V      00 890 00 00         : PHID         - DENSITY POROSITY (LIMESTONE)
NPHI.V/V      00 330 00 00         : PHIN         - NEUTRON POROSITY (LIMESTONE)
GR  .API      00 310 00 00         : GR           - GAMMA RAY
ILD .OHMM     00 120 00 00         : RESD         - DEEP RESISTIVITY (DIL)
~PARAMETER INFORMATION
#MNEM.UNIT           DATA             DESCRIPTION OF MNEMONIC
#---------         -----------     ------------------------------
GL  .M        680.6                : gl           - GROUND LEVEL ELEVATION
EREF.M        685.31               : kb           - ELEVATION OF DEPTH REFERENCE
DATM.M        680.6                : datum        - DATUM ELEVATION
TDD .M        524                  : tdd          - TOTAL DEPTH DRILLER
RUN .         ONE                  : Run          - RUN NUMBER
ENG .         BILL                 : Engineer     - RECORDING ENGINEER
WIT .         JIM                  : Witness      - WITNESSED BY
MUD .         GEL                  : Mud_type     - MUD TYPE
MATR.         LIMESTONE            : Logunit      - NEUTRON MATRIX
TMAX.C        25                   : BHT          - MAXIMUM RECORDED TEMPERATURE
BHTD.M        524                  : BHTDEP       - MAXIMUM RECORDED TEMPERATURE
MATR.         1                    : LOGUNIT      - NEUTRON MATRIX
RMT .C        25                   : MDTP         - TEMPERATURE OF MUD
NEUT.         1                    : NEUTRON      - NEUTRON TYPE
RESI.         0                    : RESIST       - RESISTIVITY TYPE
RMC .OHMM     0.25                 : RMC          - RESISTIVITY OF MUD CAKE
RMF .OHMM     0.25                 : RMF          - RESISTIVITY OF MUD FILTRATE
SUFT.C        15                   : SUFT         - SURFACE TEMPERATURE
~A  DEPTH     PHID     PHIN       GR     RESD
  305.000    0.230    0.502   90.739    5.102
  305.250    0.235    0.518   92.560    4.916
  305.500    0.245    0.525   93.782    4.915
  305.750    0.256    0.529   92.585    5.195
  306.000    0.265    0.522   90.787    5.491
  306.250    0.266    0.542   89.591    5.804
  306.500    0.262    0.543   89.600    5.912
  306.750    0.261    0.515   90.218    6.134
  307.000    0.264    0.481   89.018    6.133
  307.250    0.268    0.472   86.611    6.132
  307.500    0.266    0.476   84.813    6.019
  307.750    0.254    0.485   84.829    6.018
  308.000    0.245    0.476   85.442    6.017
  308.250    0.234    0.458   86.060    6.016
  308.500    0.236    0.453   84.255    6.015
  308.750    0.248    0.503   84.266    6.015
  309.000    0.254    0.533   85.487    6.241
  309.250    0.251    0.563   86.709    6.973
  309.500    0.262    0.548   83.697    8.236
  309.750    0.307    0.517   74.034    9.911
  310.000    0.335    0.509   66.786   13.082
  310.250    0.355    0.373   58.936   16.640
  310.500    0.378    0.485   55.320   18.941
  310.750    0.361    0.526   56.540   20.394
  311.000    0.333    0.464   59.577   21.555
  311.250    0.324    0.430   57.171   21.554
  311.500    0.310    0.377   52.345   21.550
  311.750    0.291    0.363   55.382   20.765
  312.000    0.270    0.394   63.258   19.639
  312.250    0.257    0.399   69.319   17.900
  312.500    0.246    0.398   74.168   17.247
  312.750    0.239    0.397   78.415   17.244
  313.000    0.246    0.411   79.638   18.226
  313.250    0.250    0.423   76.624   19.991
  313.500    0.245    0.427   68.170   20.743
  313.750    0.270    0.421   63.344   21.522
  314.000    0.298    0.433   61.541   21.520
  314.250    0.322    0.425   60.342   21.919
  314.500    0.320    0.421   60.355   21.513
  314.750    0.280    0.433   64.606   21.116
  315.000    0.189    0.413   65.825   20.345
  315.250    0.191    0.401   66.440   19.970
  315.500    0.259    0.415   71.900   19.240
  315.750    0.280    0.433   75.539   18.885
  316.000    0.272    0.443   73.739   18.195
  316.250    0.275    0.453   69.514   17.859
  316.500    0.294    0.448   70.742   17.206
  316.750    0.309    0.437   73.171   17.205
  317.000    0.310    0.431   71.369   17.524
  317.250    0.296    0.429   68.358   17.522
  317.500    0.296    0.431   68.971   17.519
  317.750    0.322    0.422   74.432   17.194
  318.000    0.323    0.419   78.676   16.878
  318.250    0.294    0.415   79.901   16.261
  318.500    0.264    0.440   78.097   15.380
  318.750    0.245    0.464   76.897   14.547
  319.000    0.248    0.475   81.750   13.507
  319.250    0.238    0.476   87.205   12.775
  319.500    0.227    0.466   92.059   12.308
  319.750    0.209    0.451   92.071   12.081
  320.000    0.205    0.430   87.848   12.079
  320.250    0.211    0.418   85.439   12.303
  320.500    0.225    0.422   83.637   12.765
  320.750    0.222    0.432   79.420   13.244
  321.000    0.217    0.441   75.802   13.490
  321.250    0.222    0.419   73.391   13.741
  321.500    0.232    0.384   73.405   13.739
  321.750    0.265    0.384   82.493   13.993
  322.000    0.284    0.415   90.369   13.736
  322.250    0.296    0.429   97.643   13.481
  322.500    0.296    0.447  100.070   12.751
  322.750    0.287    0.456  101.293   12.060
  323.000    0.275    0.459   98.883   10.790
  323.250    0.232    0.459   94.661   10.397
  323.500    0.149    0.453   90.442    9.302
  323.750    0.166    0.464   93.481    8.478
  324.000    0.194    0.521   98.330    7.872
  324.250    0.209    0.546  103.182    7.043
  324.500    0.212    0.535  106.217    6.419
  324.750    0.207    0.524  105.624    5.960
  325.000    0.211    0.520  103.220    5.742
  325.250    0.207    0.528  102.629    5.431
  325.500    0.205    0.552  102.636    5.233
  325.750    0.211    0.576  106.281    4.949
  326.000    0.211    0.556  108.717    4.769
  326.250    0.221    0.556  109.331    4.681
  326.500    0.240    0.573  109.339    5.134
  326.750    0.254    0.562  108.144    5.844
  327.000    0.306    0.499  102.711    6.903
  327.250    0.409    0.462   79.737    8.306
  327.500    0.432    0.479   71.887    8.944
  327.750    0.269    0.511   76.738    9.810
  328.000    0.240    0.526   83.405   10.178
  328.250    0.220    0.476   86.440   10.367
  328.500    0.262    0.443   70.121   10.560
  328.750    0.306    0.451   51.989   10.558
  329.000    0.359    0.414   44.135   10.362
  329.250    0.395    0.392   38.100   10.361
  329.500    0.392    0.386   35.089    9.983
  329.750    0.382    0.353   34.494    9.798
  330.000    0.373    0.373   38.742    9.441
  330.250    0.353    0.390   52.670    8.929
  330.500    0.340    0.408   64.173    8.765
  330.750    0.317    0.398   72.655    8.445
  331.000    0.293    0.394   76.296    8.289
  331.250    0.276    0.386   76.911    7.986
  331.500    0.300    0.406   67.851    7.985
  331.750    0.324    0.412   58.788    7.694
  332.000    0.333    0.404   49.125    7.277
  332.250    0.325    0.403   47.324    6.882
  332.500    0.326    0.403   46.734    6.631
  332.750    0.323    0.400   46.741    6.509
  333.000    0.311    0.400   50.992    6.388
  333.250    0.303    0.400   55.238    6.387
  333.500    0.300    0.412   57.060    6.386
  333.750    0.292    0.406   60.098    6.386
  334.000    0.280    0.399   65.560    6.504
  334.250    0.273    0.393   68.592    6.625
  334.500    0.254    0.382   75.864    6.874
  334.750    0.220    0.371   80.715    7.132
  335.000    0.210    0.365   83.751    7.264
  335.250    0.216    0.356   76.507    7.130
  335.500    0.243    0.354   68.654    6.870
  335.750    0.287    0.356   58.383    6.619
  336.000    0.327    0.362   51.135    6.032
  336.250    0.333    0.367   48.128    5.812
  336.500    0.320    0.370   45.720    5.705
  336.750    0.315    0.370   43.310    5.704
  337.000    0.322    0.362   42.718    5.496
  337.250    0.337    0.354   42.124    5.296
  337.500    0.344    0.348   39.117    5.009
  337.750    0.327    0.385   39.130    4.737
  338.000    0.326    0.423   39.139    4.564
  338.250    0.333    0.437   39.150    4.398
  338.500    0.343    0.419   41.584    4.237
  338.750    0.328    0.406   45.227    4.159
  339.000    0.325    0.401   46.448    4.082
  339.250    0.333    0.403   45.251    4.007
  339.500    0.340    0.404   44.655    3.932
  339.750    0.338    0.406   44.676    3.932
  340.000    0.335    0.416   45.895    3.931
  340.250    0.334    0.424   47.113    4.079
  340.500    0.325    0.401   51.966    4.232
  340.750    0.303    0.392   59.236    4.392
  341.000    0.292    0.419   71.348    4.557
  341.250    0.287    0.438   78.619    4.728
  341.500    0.272    0.443   81.048    4.997
  341.750    0.252    0.449   72.592    5.185
  342.000    0.248    0.449   65.346    5.281
  342.250    0.254    0.448   65.360    5.480
  342.500    0.274    0.434   67.795    5.479
  342.750    0.286    0.428   68.408    5.478
  343.000    0.278    0.426   67.212    5.477
  343.250    0.270    0.431   64.805    5.376
  343.500    0.281    0.436   62.403    5.375
  343.750    0.289    0.429   61.202    5.276
  344.000    0.290    0.435   61.212    5.275
  344.250    0.278    0.442   63.042    5.177
  344.500    0.268    0.425   64.864    5.082
  344.750    0.258    0.414   69.113    5.081
  345.000    0.262    0.432   70.939    5.081
  345.250    0.264    0.458   72.163    4.987
  345.500    0.261    0.469   77.016    4.986
  345.750    0.251    0.474   80.050    4.894
  346.000    0.255    0.474   79.459    4.893
  346.250    0.263    0.484   75.239    4.803
  346.500    0.253    0.493   78.884    4.714
  346.750    0.236    0.501   80.708    4.627
  347.000    0.248    0.504   82.532    4.541
  347.250    0.283    0.509   86.177    4.540
  347.500    0.295    0.487   86.788    4.457
  347.750    0.290    0.468   81.359    4.456
  348.000    0.301    0.456   75.933    4.455
  348.250    0.290    0.445   75.937    4.373
