~VERSION INFORMATION
 VERS.                 2.0:   CWLS LOG ASCII STANDARD -VERSION 2.0
 WRAP.                  NO:   ONE LINE PER DEPTH STEP
~WELL INFORMATION BLOCK
#MNEM.UNIT           DATA                    DESCRIPTION OF MNEMONIC
#---------    -------------------            -------------------------------
# Generated from Intellog Unique Number	CS_69_70/WELL/867
WELL.         MAYNARD EXPLORATION            : Well_name    - WELL
LOC .         00/10-13-070-16W4/0            : Location     - LOCATION
UWI .         00/10-13-070-16W4/0            : Uwi          - UNIQUE WELL ID
ENTR.         SP                             : Entered      - ENTERED BY
SRVC.         SCHLUMBERGER                   : Scn          - SERVICE COMPANY
STRT.M        275                            : top_depth    - START DEPTH
STOP.M        500                            : bot_depth    - STOP DEPTH
STEP.M        0.25                           : increment    - STEP LENGTH
 NULL. -999.2500:NULL Value
~CURVE INFORMATION BLOCK
#MNEM UNIT       ERCB CURVE CODE    CURVE DESCRIPTION
#-----------   ------------------   ----------------------------------
DEPT.M        00 001 00 00         : DEPTH        - DEPTH
GR  .API      00 310 00 00         : GR           - GAMMA RAY
NPHI.V/V      00 330 00 00         : PHIN         - NEUTRON POROSITY (LIMESTONE)
DPHI.V/V      00 890 00 00         : PHID         - DENSITY POROSITY (LIMESTONE)
ILD .OHMM     00 120 00 00         : RESD         - DEEP RESISTIVITY (DIL)
~PARAMETER INFORMATION
#MNEM.UNIT           DATA             DESCRIPTION OF MNEMONIC
#---------         -----------     ------------------------------
GL  .M        570.5                : gl           - GROUND LEVEL ELEVATION
EREF.M        573.7                : kb           - ELEVATION OF DEPTH REFERENCE
DATM.M        570.5                : datum        - DATUM ELEVATION
TDD .M        508                  : tdd          - TOTAL DEPTH DRILLER
RUN .         ONE                  : Run          - RUN NUMBER
ENG .         BILL                 : Engineer     - RECORDING ENGINEER
WIT .         JIM                  : Witness      - WITNESSED BY
MUD .         GEL                  : Mud_type     - MUD TYPE
MATR.         LIMESTONE            : Logunit      - NEUTRON MATRIX
TMAX.C        22                   : BHT          - MAXIMUM RECORDED TEMPERATURE
BHTD.M        508                  : BHTDEP       - MAXIMUM RECORDED TEMPERATURE
MATR.         1                    : LOGUNIT      - NEUTRON MATRIX
RMT .C        25                   : MDTP         - TEMPERATURE OF MUD
NEUT.         1                    : NEUTRON      - NEUTRON TYPE
RESI.         0                    : RESIST       - RESISTIVITY TYPE
RMC .OHMM     0.25                 : RMC          - RESISTIVITY OF MUD CAKE
RMF .OHMM     0.25                 : RMF          - RESISTIVITY OF MUD FILTRATE
SUFT.C        15                   : SUFT         - SURFACE TEMPERATURE
~A  DEPTH       GR     PHIN     PHID     RESD
  275.000  108.134    0.441    0.286    2.454
  275.250  106.615    0.437    0.284    2.414
  275.500  104.001    0.430    0.282    2.382
  275.750  101.630    0.423    0.284    2.358
  276.000   99.685    0.417    0.294    2.358
  276.250   99.139    0.422    0.301    2.359
  276.500   99.324    0.436    0.301    2.311
  276.750  100.360    0.441    0.288    2.393
  277.000  100.545    0.440    0.274    2.516
  277.250  100.060    0.433    0.248    2.631
  277.500   98.176    0.430    0.227    2.779
  277.750   96.596    0.426    0.216    2.935
  278.000   95.442    0.426    0.234    3.108
  278.250   95.322    0.417    0.247    3.239
  278.500   95.933    0.414    0.265    3.322
  278.750   98.369    0.415    0.272    3.380
  279.000  100.988    0.412    0.259    3.421
  279.250  102.511    0.406    0.252    3.397
  279.500  104.034    0.403    0.245    3.341
  279.750  103.854    0.408    0.236    3.276
  280.000  101.300    0.417    0.238    3.203
  280.250   99.963    0.425    0.228    3.097
  280.500   98.627    0.431    0.223    2.942
  280.750   97.351    0.433    0.221    2.828
  281.000   96.684    0.436    0.229    2.772
  281.250   96.808    0.440    0.236    2.838
  281.500   98.696    0.451    0.242    2.879
  281.750  100.584    0.430    0.242    3.060
  282.000  103.264    0.419    0.251    3.175
  282.250  106.431    0.425    0.265    3.298
  282.500  109.171    0.430    0.272    3.340
  282.750  109.234    0.420    0.276    3.308
  283.000  106.741    0.422    0.261    3.243
  283.250  104.248    0.428    0.249    3.178
  283.500  102.486    0.425    0.238    3.122
  283.750  100.845    0.416    0.229    3.073
  284.000   99.204    0.416    0.230    3.041
  284.250   98.780    0.419    0.245    3.009
  284.500   98.965    0.423    0.253    2.977
  284.750  100.366    0.425    0.261    2.978
  285.000  101.585    0.416    0.274    3.011
  285.250  100.614    0.410    0.289    3.077
  285.500   89.967    0.412    0.299    3.217
  285.750   80.780    0.384    0.295    3.389
  286.000   73.480    0.351    0.223    3.610
  286.250   68.432    0.354    0.183    3.783
  286.500   65.999    0.357    0.203    3.857
  286.750   70.565    0.363    0.229    3.948
  287.000   75.801    0.371    0.256    3.981
  287.250   81.341    0.374    0.252    3.982
  287.500   85.967    0.376    0.249    4.007
  287.750   90.168    0.367    0.259    4.097
  288.000   93.700    0.357    0.281    4.327
  288.250   97.171    0.354    0.303    4.606
  288.500   98.694    0.357    0.330    4.713
  288.750   99.000    0.362    0.387    4.664
  289.000   96.264    0.367    0.402    4.583
  289.250   90.668    0.369    0.365    4.428
  289.500   80.385    0.365    0.330    4.159
  289.750   64.566    0.350    0.325    3.890
  290.000   52.580    0.341    0.364    3.539
  290.250   42.420    0.334    0.382    3.261
  290.500   39.501    0.329    0.394    2.943
  290.750   37.678    0.334    0.405    2.673
  291.000   37.193    0.342    0.366    2.470
  291.250   39.325    0.340    0.337    2.347
  291.500   41.214    0.334    0.358    2.234
  291.750   43.711    0.327    0.383    2.161
  292.000   45.599    0.338    0.402    2.137
  292.250   47.487    0.356    0.425    2.105
  292.500   50.593    0.368    0.451    2.089
  292.750   55.220    0.377    0.486    2.106
  293.000   64.106    0.383    0.340    2.147
  293.250   72.445    0.384    0.321    2.189
  293.500   78.107    0.382    0.314    2.222
  293.750   80.604    0.371    0.311    2.264
  294.000   78.294    0.361    0.308    2.305
  294.250   76.592    0.351    0.306    2.339
  294.500   74.829    0.345    0.298    2.380
  294.750   78.543    0.358    0.290    2.495
  295.000   87.673    0.366    0.280    2.750
  295.250   92.908    0.372    0.273    3.053
  295.500   96.136    0.375    0.267    3.274
  295.750   87.436    0.358    0.261    3.447
  296.000   81.961    0.342    0.255    3.529
  296.250   77.156    0.331    0.247    3.571
  296.500   73.264    0.321    0.235    3.571
  296.750   74.544    0.316    0.227    3.506
  297.000   79.049    0.316    0.238    3.393
  297.250   74.852    0.316    0.260    3.213
  297.500   67.248    0.330    0.270    3.018
  297.750   62.929    0.343    0.270    2.863
  298.000   61.045    0.352    0.269    2.716
  298.250   64.334    0.360    0.254    2.578
  298.500   67.439    0.366    0.235    2.562
  298.750   73.282    0.370    0.217    2.595
  299.000   81.439    0.373    0.201    2.751
  299.250   91.360    0.380    0.185    3.014
  299.500  101.037    0.391    0.199    3.252
  299.750  107.368    0.406    0.200    3.506
  300.000  109.318    0.414    0.188    3.695
  300.250  110.658    0.409    0.183    3.818
  300.500  112.729    0.409    0.185    3.933
  300.750  114.070    0.408    0.188    3.958
  301.000  114.681    0.422    0.191    3.975
  301.250  114.196    0.434    0.188    3.927
  301.500  112.981    0.427    0.195    3.895
  301.750  110.915    0.420    0.215    3.805
  302.000  108.240    0.415    0.246    3.716
  302.250  106.841    0.436    0.279    3.602
  302.500  104.349    0.447    0.309    3.513
  302.750  101.613    0.447    0.314    3.415
  303.000   99.120    0.419    0.302    3.375
  303.250   94.923    0.378    0.294    3.400
  303.500   91.213    0.369    0.284    3.499
  303.750   89.085    0.372    0.277    3.639
  304.000   90.669    0.391    0.271    3.729
  304.250   95.844    0.404    0.269    3.828
  304.500   99.497    0.413    0.258    3.902
  304.750  104.124    0.399    0.250    4.009
  305.000  104.674    0.393    0.241    4.083
  305.250   96.887    0.386    0.236    4.125
  305.500   94.637    0.390    0.239    4.150
  305.750   92.936    0.395    0.237    4.192
  306.000   91.721    0.402    0.238    4.258
  306.250   90.567    0.408    0.242    4.389
  306.500   90.386    0.408    0.238    4.496
  306.750   91.605    0.395    0.228    4.619
  307.000   90.999    0.389    0.216    4.702
  307.250   88.567    0.383    0.212    4.784
  307.500   89.299    0.393    0.217    4.801
  307.750   93.439    0.401    0.215    4.794
  308.000   97.640    0.402    0.213    4.705
  308.250  102.997    0.419    0.234    4.574
  308.500  108.902    0.438    0.263    4.468
  308.750  113.224    0.444    0.288    4.289
  309.000  115.843    0.440    0.280    4.093
  309.250  115.237    0.428    0.276    3.955
  309.500  113.839    0.418    0.279    3.964
  309.750  111.712    0.405    0.270    4.063
  310.000  108.306    0.391    0.268    4.202
  310.250  105.144    0.380    0.281    4.268
  310.500  101.556    0.373    0.293    4.367
  310.750   97.116    0.369    0.298    4.433
  311.000   93.710    0.368    0.302    4.442
  311.250   91.217    0.370    0.297    4.418
  311.500   92.679    0.374    0.292    4.444
  311.750   98.158    0.376    0.285    4.477
  312.000  100.777    0.373    0.276    4.624
  312.250   99.440    0.367    0.273    4.871
  312.500  102.363    0.362    0.266    5.092
  312.750  105.043    0.364    0.256    5.322
  313.000  102.367    0.370    0.246    5.510
  313.250   98.779    0.372    0.236    5.601
  313.500   98.660    0.369    0.229    5.577
  313.750  100.548    0.368    0.223    5.463
  314.000  101.341    0.376    0.218    5.366
  314.250  100.735    0.382    0.214    5.244
  314.500  101.224    0.385    0.228    5.130
  314.750  107.798    0.384    0.242    5.040
  315.000  112.973    0.384    0.249    4.951
  315.250  113.218    0.383    0.256    4.903
  315.500  108.352    0.382    0.263    4.895
  315.750  103.912    0.381    0.267    4.945
  316.000  104.157    0.379    0.252    5.044
  316.250  108.663    0.375    0.240    5.175
  316.500  110.247    0.368    0.233    5.372
  316.750  109.275    0.363    0.228    5.471
  317.000  108.912    0.359    0.223    5.545
  317.250  109.340    0.372    0.220    5.496
  317.500  109.646    0.382    0.220    5.391
  317.750  111.353    0.391    0.220    5.236
  318.000  112.876    0.406    0.226    5.032
  318.250  113.487    0.416    0.234    4.763
