~VERSION INFORMATION
 VERS.                 2.0:   CWLS LOG ASCII STANDARD -VERSION 2.0
 WRAP.                  NO:   ONE LINE PER DEPTH STEP
~WELL INFORMATION BLOCK
#MNEM.UNIT           DATA                    DESCRIPTION OF MNEMONIC
#---------    -------------------            -------------------------------
# Generated from Intellog Unique Number	CS_77_79/WELL/995
WELL.         HOME LEISTER                   : Well_name    - WELL
LOC .         00/11-14-078-06W4/0            : Location     - LOCATION
UWI .         00/11-14-078-06W4/0            : Uwi          - UNIQUE WELL ID
ENTR.         JHS                            : Entered      - ENTERED BY
SRVC.         SCHLUMBERGER                   : Scn          - SERVICE COMPANY
STRT.M        140                            : top_depth    - START DEPTH
STOP.M        420                            : bot_depth    - STOP DEPTH
STEP.M        0.25                           : increment    - STEP LENGTH
 NULL. -999.2500:NULL Value
~CURVE INFORMATION BLOCK
#MNEM UNIT       ERCB CURVE CODE    CURVE DESCRIPTION
#-----------   ------------------   ----------------------------------
DEPT.M        00 001 00 00         : DEPTH        - DEPTH
DPHI.V/V      00 890 00 00         : PHID         - DENSITY POROSITY (LIMESTONE)
NPHI.V/V      00 330 00 00         : PHIN         - NEUTRON POROSITY (LIMESTONE)
GR  .API      00 310 00 00         : GR           - GAMMA RAY
ILD .OHMM     00 120 00 00         : RESD         - DEEP RESISTIVITY (DIL)
RHOB.KG/M3    00 350 00 00         : DENS         - BULK DENSITY
~PARAMETER INFORMATION
#MNEM.UNIT           DATA             DESCRIPTION OF MNEMONIC
#---------         -----------     ------------------------------
GL  .M        593.32               : gl           - GROUND LEVEL ELEVATION
EREF.M        596.32               : kb           - ELEVATION OF DEPTH REFERENCE
DATM.M        596.32               : datum        - DATUM ELEVATION
TDD .M        430                  : tdd          - TOTAL DEPTH DRILLER
RUN .         ONE                  : Run          - RUN NUMBER
ENG .         BILL                 : Engineer     - RECORDING ENGINEER
WIT .         JIM                  : Witness      - WITNESSED BY
MUD .         GEL                  : Mud_type     - MUD TYPE
MATR.         LIMESTONE            : Logunit      - NEUTRON MATRIX
TMAX.C        24                   : BHT          - MAXIMUM RECORDED TEMPERATURE
BHTD.M        430                  : BHTDEP       - MAXIMUM RECORDED TEMPERATURE
MATR.         1                    : LOGUNIT      - NEUTRON MATRIX
RMT .C        25                   : MDTP         - TEMPERATURE OF MUD
NEUT.         1                    : NEUTRON      - NEUTRON TYPE
RESI.         0                    : RESIST       - RESISTIVITY TYPE
RMC .OHMM     0.25                 : RMC          - RESISTIVITY OF MUD CAKE
RMF .OHMM     0.25                 : RMF          - RESISTIVITY OF MUD FILTRATE
SUFT.C        15                   : SUFT         - SURFACE TEMPERATURE
~A  DEPTH     PHID     PHIN       GR     RESD     DENS
# ...
  213.000    0.310    0.428  169.874   21.788    0.000
  213.250    0.301    0.398  143.953   22.241    0.000
  213.500    0.307    0.350  103.835   21.858    0.000
  213.750    0.299    0.302   69.890   20.691    0.000
  214.000    0.300    0.303   63.724   19.588    0.000
  214.250    0.308    0.328   67.434   18.898    0.000
  214.500    0.303    0.378   91.516   17.896    0.000
  214.750    0.294    0.350   98.314   17.265    0.000
  215.000    0.284    0.362   91.529   16.655    0.000
  215.250    0.276    0.357   96.475   16.362    0.000
  215.500    0.275    0.377  100.803   15.496    0.000
  215.750    0.284    0.378  102.662   14.956    0.000
  216.000    0.278    0.383  106.991   14.692    0.000
  216.250    0.280    0.360  107.615   14.438    0.000
  216.500    0.264    0.371  105.151   14.464    0.000
  216.750    0.247    0.390   97.752   14.483    0.000
  217.000    0.279    0.399   92.202   15.068    0.000
  217.250    0.274    0.380   77.392   15.369    0.000
  217.500    0.266    0.336   70.609   15.694    0.000
  217.750    0.260    0.301   74.937   15.417    0.000
  218.000    0.238    0.331   88.524   13.801    0.000
  218.250    0.205    0.382  102.111   12.818    0.000
  218.500    0.213    0.377  106.440   11.476    0.000
  218.750    0.189    0.379  106.446   10.862    0.000
  219.000    0.183    0.362  107.070   10.095    0.000
  219.250    0.179    0.367  111.399    9.740    0.000
  219.500    0.212    0.366  108.320    9.570    0.000
  219.750    0.226    0.351  110.794    9.589    0.000
  220.000    0.236    0.330  115.740    9.785    0.000
  220.250    0.231    0.332  110.193    9.984    0.000
  220.500    0.242    0.336  108.963   10.585    0.000
  220.750    0.226    0.365  105.268   10.998    0.000
  221.000    0.228    0.384  100.952   11.656    0.000
  221.250    0.271    0.348   95.401   12.347    0.000
  221.500    0.261    0.329   86.150   12.838    0.000
  221.750    0.234    0.338   86.155   13.104    0.000
  222.000    0.239    0.347   86.780   12.402    0.000
  222.250    0.218    0.329   96.047   10.899    0.000
  222.500    0.200    0.345  111.485   10.315    0.000
  222.750    0.200    0.326  113.344    9.763    0.000
  223.000    0.215    0.331  112.733    8.903    0.000
  223.250    0.221    0.365  119.531    8.428    0.000
  223.500    0.218    0.375  121.392    8.131    0.000
  223.750    0.212    0.376  122.014    8.143    0.000
  224.000    0.217    0.398  122.022    8.312    0.000
  224.250    0.240    0.373  117.089    8.974    0.000
  224.500    0.226    0.308  110.305    9.686    0.000
  224.750    0.228    0.289  105.373   10.074    0.000
  225.000    0.227    0.288  102.293   10.280    0.000
  225.250    0.211    0.317  105.386   10.105    0.000
  225.500    0.205    0.370  121.444    9.572    0.000
  225.750    0.213    0.343  126.388    9.232    0.000
  226.000    0.218    0.311  132.569    8.738    0.000
  226.250    0.226    0.341  130.725    8.428    0.000
  226.500    0.228    0.397  125.793    8.439    0.000
  226.750    0.228    0.444  122.712    8.453    0.000
  227.000    0.223    0.419  122.718    8.466    0.000
  227.250    0.221    0.366  127.046    8.807    0.000
  227.500    0.235    0.343  124.584    9.508    0.000
  227.750    0.256    0.346  119.652   10.263    0.000
  228.000    0.277    0.319  110.399   11.082    0.000
  228.250    0.279    0.332  103.615   11.739    0.000
  228.500    0.279    0.356  100.537   12.437    0.000
  228.750    0.268    0.365  103.630   12.700    0.000
  229.000    0.271    0.355  109.192   12.480    0.000
  229.250    0.272    0.377  107.347   12.733    0.000
  229.500    0.262    0.446  106.118   13.748    0.000
  229.750    0.265    0.285   96.866   15.130    0.000
  230.000    0.272    0.246   80.822   16.331    0.000
  230.250    0.262    0.240   54.902   17.626    0.000
  230.500    0.262    0.304   61.082   19.032    0.000
  230.750    0.285    0.354   65.410   19.420    0.000
  231.000    0.314    0.336   56.775   18.743    0.000
  231.250    0.327    0.322   53.077   17.411    0.000
  231.500    0.315    0.355   58.022   16.794    0.000
  231.750    0.293    0.410   65.437   16.202    0.000
  232.000    0.309    0.453   65.445   16.224    0.000
  232.250    0.309    0.424   67.303   15.367    0.000
  232.500    0.290    0.378   67.311   14.010    0.000
  232.750    0.279    0.345   72.872   12.074    0.000
  233.000    0.255    0.365   85.224   10.604    0.000
  233.250    0.252    0.447   98.194    9.488    0.000
  233.500    0.116    0.459   99.436    8.491    0.000
  233.750    0.099    0.388   95.739    7.458    0.000
  234.000    0.155    0.424  101.919    6.674    0.000
  234.250    0.220    0.501  109.333    6.200    0.000
  234.500    0.237    0.455  111.192    6.096    0.000
  234.750    0.245    0.387  106.876    6.338    0.000
  235.000    0.252    0.350  100.710    6.842    0.000
  235.250    0.268    0.333  104.421    7.814    0.000
  235.500    0.279    0.337  106.280    8.925    0.000
  235.750    0.261    0.355  102.584    9.636    0.000
  236.000    0.253    0.357   95.799   10.023    0.000
  236.250    0.263    0.376   90.869    9.666    0.000
  236.500    0.258    0.405   92.109    9.150    0.000
  236.750    0.257    0.426   98.288    8.996    0.000
  237.000    0.262    0.383  100.766    9.905    0.000
  237.250    0.276    0.362   89.660   10.098    0.000
  237.500    0.289    0.349   75.469   11.110    0.000
  237.750    0.305    0.322   68.685   12.694    0.000
  238.000    0.308    0.322   64.370   13.699    0.000
  238.250    0.316    0.366   64.377   14.519    0.000
  238.500    0.316    0.391   65.001   14.816    0.000
  238.750    0.317    0.395   66.245   14.568    0.000
  239.000    0.314    0.407   66.249   14.861    0.000
  239.250    0.322    0.421   63.170   15.451    0.000
  239.500    0.334    0.413   66.880   15.773    0.000
  239.750    0.342    0.409   71.208   15.507    0.000
  240.000    0.342    0.422   67.512   15.234    0.000
  240.250    0.346    0.399   66.900   14.431    0.000
  240.500    0.345    0.366   69.376   14.187    0.000
  240.750    0.345    0.347   69.384   14.200    0.000
  241.000    0.337    0.356   66.303   14.492    0.000
  241.250    0.334    0.369   68.780   14.522    0.000
  241.500    0.337    0.399   69.405   14.822    0.000
  241.750    0.335    0.426   71.262   14.840    0.000
  242.000    0.329    0.413   70.652   14.861    0.000
  242.250    0.323    0.391   69.423   14.612    0.000
  242.500    0.309    0.388   68.813   14.362    0.000
  242.750    0.303    0.352   66.352   14.650    0.000
  243.000    0.309    0.363   64.507   14.963    0.000
  243.250    0.323    0.388   68.216   14.981    0.000
  243.500    0.340    0.437   72.545   14.448    0.000
  243.750    0.352    0.428   71.933   13.935    0.000
  244.000    0.324    0.452   68.237   12.955    0.000
  244.250    0.323    0.446   69.478   12.496    0.000
  244.500    0.336    0.396   69.484   12.510    0.000
  244.750    0.329    0.363   67.023   12.771    0.000
  245.000    0.330    0.385   67.646   13.027    0.000
  245.250    0.347    0.401   70.739   14.071    0.000
  245.500    0.349    0.418   71.980   14.906    0.000
  245.750    0.342    0.441   71.986   15.500    0.000
  246.000    0.265    0.308   73.229   16.421    0.000
  246.250    0.209    0.267   68.914   17.079    0.000
  246.500    0.243    0.283   59.661   17.424    0.000
  246.750    0.313    0.407   54.112   17.449    0.000
  247.000    0.324    0.391   62.144   17.156    0.000
  247.250    0.342    0.376   67.706   16.246    0.000
  247.500    0.336    0.414   72.652   15.962    0.000
  247.750    0.327    0.442   74.511   16.600    0.000
  248.000    0.331    0.420   71.431   17.598    0.000
  248.250    0.308    0.408   67.116   17.955    0.000
  248.500    0.249    0.391   67.741   18.316    0.000
  248.750    0.079    0.256   65.895   18.355    0.000
  249.000    0.065    0.195   62.815   18.045    0.000
  249.250    0.161    0.292   58.501   17.404    0.000
