~VERSION INFORMATION
 VERS.                 2.0:   CWLS LOG ASCII STANDARD -VERSION 2.0
 WRAP.                  NO:   ONE LINE PER DEPTH STEP
~WELL INFORMATION BLOCK
#MNEM.UNIT           DATA                    DESCRIPTION OF MNEMONIC
#---------    -------------------            -------------------------------
# Generated from Intellog Unique Number	CC_80_83/WELL/2390
NULL.         -999.25                        : NULL_VALUE
WELL.         GULF RESDELN                   : Well_name    - WELL              
LOC .         10-35-083-06W4                 : Location     - LOCATION          
UWI .         00/10-35-083-06W4/0            : Uwi          - UNIQUE WELL ID    
ENTR.         DW                             : Entered      - ENTERED BY        
SRVC.         SCHLUMBERGER                   : Scn          - SERVICE COMPANY   
DATE.         09 FEB 79                      : Date         - LOG DATE
STRT.M        135                            : top_depth    - START DEPTH       
STOP.M        374.996                        : bot_depth    - STOP DEPTH        
STEP.M        0.3                            : increment    - STEP LENGTH       
~CURVE INFORMATION BLOCK
#MNEM UNIT       ERCB CURVE CODE    CURVE DESCRIPTION
#-----------   ------------------   ----------------------------------
DEPT.M        00 001 00 00         : DEPTH        - DEPTH                       
DPHI.V/V      00 890 00 00         : PHID         - DENSITY POROSITY (LIMESTONE)
NPHI.V/V      00 330 00 00         : PHIN         - NEUTRON POROSITY (LIMESTONE)
GR  .API      00 310 00 00         : GR           - GAMMA RAY                   
ILD .OHMM     00 120 00 00         : RESD         - DEEP RESISTIVITY (DIL)      
~PARAMETER INFORMATION       
#MNEM.UNIT           DATA             DESCRIPTION OF MNEMONIC
#---------         -----------     ------------------------------
GL  .M        542.64               : gl           - GROUND LEVEL ELEVATION      
EREF.M        546.14               : kb           - ELEVATION OF DEPTH REFERENCE
DATM.M        546.14               : datum        - DATUM ELEVATION             
TDD .M        380                  : tdd          - TOTAL DEPTH DRILLER         
RUN .         ONE                  : Run          - RUN NUMBER                  
ENG .         BILL                 : Engineer     - RECORDING ENGINEER          
WIT .         JIM                  : Witness      - WITNESSED BY                
MUD .         GEL                  : Mud_type     - MUD TYPE                    
MATR.         LIMESTONE            : Logunit      - NEUTRON MATRIX              
TMAX.C        25                   : BHT          - MAXIMUM RECORDED TEMPERATURE
BHTD.M        380                  : BHTDEP       - MAXIMUM RECORDED TEMPERATURE
MATR.         1                    : LOGUNIT      - NEUTRON MATRIX              
RMT .C        25                   : MDTP         - TEMPERATURE OF MUD          
NEUT.         1                    : NEUTRON      - NEUTRON TYPE                
RESI.         0                    : RESIST       - RESISTIVITY TYPE            
RMC .OHMM     0.25                 : RMC          - RESISTIVITY OF MUD CAKE     
RMF .OHMM     0.25                 : RMF          - RESISTIVITY OF MUD FILTRATE 
SUFT.C        4                    : SUFT         - SURFACE TEMPERATURE         
~A  DEPTH     PHID     PHIN       GR     RESD
# ...
  187.201    0.118    0.431   50.513   33.109
  187.501    0.172    0.381   46.786   33.032
  187.801    0.292    0.301   47.974   31.755
  188.101    0.334    0.397   54.072   29.364
  188.401    0.351    0.426   54.026   28.757
  188.701    0.341    0.440   50.295   28.683
  189.001    0.304    0.446   49.032   28.628
  189.301    0.272    0.414   48.995   30.220
  189.601    0.291    0.402   50.179   33.155
  189.901    0.087    0.424   51.979   35.002
  190.201    0.129    0.407   52.556   33.645
  190.501    0.204    0.298   50.060   31.131
  190.801    0.270    0.338   46.338   27.203
  191.101    0.320    0.406   50.595   22.473
  191.401    0.335    0.453   51.159   20.007
  191.701    0.340    0.431   51.122   19.607
  192.001    0.342    0.432   51.085   20.302
  192.301    0.347    0.406   54.105   21.049
  192.601    0.339    0.403   57.142   22.639
  192.901    0.320    0.415   58.328   23.916
  193.201    0.315    0.420   59.510   22.125
  193.501    0.327    0.425   61.312   13.769
  193.801    0.319    0.442   65.568   10.155
  194.101    0.289    0.479   74.737    6.688
  194.401    0.278    0.511   89.428    3.445
  194.701    0.255    0.540   94.295    2.791
  195.001    0.250    0.541   98.551    2.632
  195.301    0.268    0.536  100.336    2.676
  195.601    0.276    0.551  100.315    2.772
  195.901    0.272    0.564  100.265    2.820
  196.201    0.258    0.553   97.772    2.922
  196.501    0.249    0.563   94.042    3.026
  196.801    0.258    0.557   95.237    3.077
  197.101    0.283    0.562   96.422    3.311
  197.401    0.292    0.582   88.397    3.701
  197.701    0.310    0.601   84.670    4.135
  198.001    0.322    0.539   85.248    4.709
  198.301    0.343    0.552   86.422    5.366
  198.601    0.314    0.575   83.323    6.973
  198.901    0.324    0.520   75.300   13.734
  199.201    0.332    0.487   66.666   16.868
  199.501    0.329    0.463   59.259   18.843
  199.801    0.335    0.435   52.463   19.531
  200.101    0.345    0.436   54.255   19.120
  200.401    0.346    0.436   55.446   18.015
  200.701    0.344    0.450   57.250   17.647
  201.001    0.345    0.470   59.667   17.270
  201.301    0.344    0.481   55.323   16.919
  201.601    0.333    0.468   55.280   16.877
  201.901    0.332    0.468   56.473   17.159
  202.201    0.327    0.474   57.656   17.453
  202.501    0.333    0.457   54.548   18.084
  202.801    0.348    0.453   50.826   18.385
  203.101    0.349    0.465   53.229   18.698
  203.401    0.336    0.469   55.654   18.653
  203.701    0.336    0.453   54.994   18.600
  204.001    0.341    0.447   53.109   18.557
  204.301    0.345    0.458   53.688   18.860
  204.601    0.349    0.474   56.707   18.838
  204.901    0.350    0.470   58.518   18.791
  205.201    0.342    0.467   60.316   18.749
  205.501    0.334    0.466   60.891   18.705
  205.801    0.315    0.496   60.235   19.016
  206.101    0.278    0.473   57.118   21.254
  206.401    0.228    0.436   57.077   23.764
  206.701    0.000    0.397   54.581   44.223
  207.001    0.004    0.348   49.017   52.277
  207.301    0.067    0.172   45.286   53.164
  207.601    0.155    0.261   47.703   45.618
  207.901    0.223    0.307   49.508   34.264
  208.201    0.282    0.346   53.764   28.323
  208.501    0.318    0.396   58.018   21.275
  208.801    0.324    0.430   57.979   18.595
  209.101    0.319    0.442   56.708   17.869
  209.401    0.321    0.461   57.278   17.492
  209.701    0.339    0.461   60.312   17.460
  210.001    0.347    0.449   57.193   17.758
  210.301    0.344    0.440   60.224   17.719
  210.601    0.336    0.456   62.641   17.669
  210.901    0.326    0.453   62.602   17.626
  211.201    0.332    0.455   61.940   17.925
  211.501    0.327    0.441   62.514   18.233
  211.801    0.331    0.442   64.312   18.191
  212.101    0.313    0.459   64.883   18.147
  212.401    0.301    0.446   63.624   18.103
  212.701    0.313    0.443   60.511   18.413
  213.001    0.320    0.453   62.919   18.366
  213.301    0.305    0.441   65.338   18.684
  213.601    0.324    0.455   62.835   18.640
  213.901    0.314    0.451   63.407   18.948
  214.201    0.300    0.438   65.211   18.910
  214.501    0.293    0.437   62.103   18.512
  214.801    0.292    0.455   59.602   18.464
  215.101    0.304    0.436   62.023   18.087
  215.401    0.307    0.435   67.498   17.693
  215.701    0.324    0.431   62.546   17.661
  216.001    0.321    0.419   60.049   17.616
  216.301    0.307    0.442   60.628   17.594
  216.601    0.307    0.457   64.877   17.886
  216.901    0.305    0.466   66.072   18.175
  217.201    0.305    0.453   65.415   18.129
  217.501    0.306    0.464   64.148   18.102
  217.801    0.303    0.452   65.324   17.721
  218.101    0.305    0.441   67.748   17.343
  218.401    0.302    0.440   69.544   17.320
  218.701    0.305    0.443   70.732   16.630
  219.001    0.307    0.438   73.145   16.597
  219.301    0.296    0.430   73.724   17.202
  219.601    0.244    0.437   71.829   18.163
  219.901    0.000    0.423   65.653   21.075
  220.201    0.000    0.431   60.706   24.007
  220.501    0.034    0.399   55.756   29.487
  220.801    0.108    0.223   53.256   31.718
  221.101    0.150    0.278   56.285   29.354
  221.401    0.195    0.330   63.613   24.708
  221.701    0.259    0.378   75.234   21.594
  222.001    0.304    0.450   73.352   19.242
  222.301    0.287    0.463   71.464   17.134
  222.601    0.283    0.457   71.424   16.471
  222.901    0.303    0.457   73.225   15.822
  223.201    0.308    0.456   76.868   15.194
  223.501    0.317    0.463   81.120   14.878
  223.801    0.321    0.482   77.998   15.128
  224.101    0.319    0.476   76.129   15.383
  224.401    0.318    0.463   70.567   15.940
  224.701    0.318    0.465   71.748   16.835
  225.001    0.317    0.455   74.158   17.448
  225.301    0.314    0.436   72.277   16.761
  225.601    0.322    0.446   74.678   15.509
  225.901    0.313    0.448   75.265   14.073
  226.201    0.315    0.455   74.602   13.524
  226.501    0.310    0.475   74.567   14.007
  226.801    0.324    0.473   73.295   13.984
  227.101    0.316    0.481   72.640   12.452
  227.401    0.299    0.468   75.061   11.095
  227.701    0.288    0.479   80.547    9.886
  228.001    0.289    0.494   82.963    8.165
  228.301    0.251    0.506   86.605    7.005
  228.601    0.253    0.506   91.471    5.787
  228.901    0.254    0.494   93.266    4.962
  229.201    0.254    0.493   94.460    4.504
  229.501    0.264    0.498   99.329    4.249
  229.801    0.271    0.532  102.353    3.929
  230.101    0.279    0.536  101.697    3.776
  230.401    0.276    0.531   97.362    3.768
  230.701    0.284    0.522   97.316    4.132
  231.001    0.256    0.521   98.508    4.531
  231.301    0.240    0.533   96.621    4.874
  231.601    0.262    0.516   95.972    5.052
  231.901    0.268    0.514   98.382    4.854
  232.201    0.270    0.536  104.484    4.009
  232.501    0.271    0.554  106.273    3.128
  232.801    0.274    0.584  107.470    2.685
  233.101    0.278    0.570  108.649    2.392
  233.401    0.291    0.572  106.773    2.298
  233.701    0.289    0.579  102.432    2.293
  234.001    0.273    0.583   98.703    2.331
  234.301    0.269    0.588   98.054    2.557
  234.601    0.255    0.593   96.783    2.803
  234.901    0.268    0.549   93.669    3.074
  235.201    0.258    0.555   91.790    3.567
  235.501    0.294    0.537   89.295    4.062
  235.801    0.262    0.559   87.409    4.715
  236.101    0.298    0.560   91.049    5.681
  236.401    0.282    0.517   94.693    6.718
  236.701    0.257    0.459   96.492    7.090
  237.001    0.256    0.466  100.130    6.942
  237.301    0.249    0.487  100.706    6.932
  237.601    0.264    0.504   96.983    7.048
  237.901    0.273    0.527   91.413    7.441
  238.201    0.259    0.521   89.536    7.568
  238.501    0.279    0.495   88.269    7.547
  238.801    0.290    0.479   87.601    7.390
  239.101    0.303    0.480   88.800    7.516
