~VERSION INFORMATION
 VERS.                 2.0:   CWLS LOG ASCII STANDARD -VERSION 2.0
 WRAP.                  NO:   ONE LINE PER DEPTH STEP
~WELL INFORMATION BLOCK
#MNEM.UNIT           DATA                    DESCRIPTION OF MNEMONIC
#---------    -------------------            -------------------------------
# Generated from Intellog Unique Number	CS_73_76/WELL/813
WELL.         PEX PHILLIPS AEC WIAB          : Well_name    - WELL
LOC .         00/10-11-073-08W4/0            : Location     - LOCATION
UWI .         00/10-11-073-08W4/0            : Uwi          - UNIQUE WELL ID
ENTR.         SP                             : Entered      - ENTERED BY
SRVC.         SCHLUMBERGER                   : Scn          - SERVICE COMPANY
STRT.M        335                            : top_depth    - START DEPTH
STOP.M        560                            : bot_depth    - STOP DEPTH
STEP.M        0.25                           : increment    - STEP LENGTH
 NULL. -999.2500:NULL Value
~CURVE INFORMATION BLOCK
#MNEM UNIT       ERCB CURVE CODE    CURVE DESCRIPTION
#-----------   ------------------   ----------------------------------
DEPT.M        00 001 00 00         : DEPTH        - DEPTH
GR  .API      00 310 00 00         : GR           - GAMMA RAY
NPHI.V/V      00 330 00 00         : PHIN         - NEUTRON POROSITY (LIMESTONE)
DPHI.V/V      00 890 00 00         : PHID         - DENSITY POROSITY (LIMESTONE)
ILD .OHMM     00 120 00 00         : RESD         - DEEP RESISTIVITY (DIL)
~PARAMETER INFORMATION
#MNEM.UNIT           DATA             DESCRIPTION OF MNEMONIC
#---------         -----------     ------------------------------
GL  .M        702.8                : gl           - GROUND LEVEL ELEVATION
EREF.M        706.3                : kb           - ELEVATION OF DEPTH REFERENCE
DATM.M        702.3                : datum        - DATUM ELEVATION
TDD .M        570                  : tdd          - TOTAL DEPTH DRILLER
RUN .         ONE                  : Run          - RUN NUMBER
ENG .         BILL                 : Engineer     - RECORDING ENGINEER
WIT .         JIM                  : Witness      - WITNESSED BY
MUD .         GEL                  : Mud_type     - MUD TYPE
MATR.         LIMESTONE            : Logunit      - NEUTRON MATRIX
TMAX.C        24                   : BHT          - MAXIMUM RECORDED TEMPERATURE
BHTD.M        570                  : BHTDEP       - MAXIMUM RECORDED TEMPERATURE
MATR.         1                    : LOGUNIT      - NEUTRON MATRIX
RMT .C        25                   : MDTP         - TEMPERATURE OF MUD
NEUT.         1                    : NEUTRON      - NEUTRON TYPE
RESI.         0                    : RESIST       - RESISTIVITY TYPE
RMC .OHMM     0.25                 : RMC          - RESISTIVITY OF MUD CAKE
RMF .OHMM     0.25                 : RMF          - RESISTIVITY OF MUD FILTRATE
SUFT.C        15                   : SUFT         - SURFACE TEMPERATURE
~A  DEPTH       GR     PHIN     PHID     RESD
  335.000   89.272    0.509    0.241    9.453
  335.250   86.845    0.506    0.258    9.451
  335.500   85.632    0.481    0.257    9.450
  335.750   86.242    0.462    0.245    9.808
  336.000   83.207    0.460    0.241    9.806
  336.250   81.995    0.469    0.244    9.989
  336.500   81.389    0.475    0.246   10.368
  336.750   80.177    0.446    0.235   10.367
  337.000   82.001    0.452    0.231   10.759
  337.250   84.432    0.466    0.230   10.961
  337.500   85.648    0.476    0.236   10.960
  337.750   87.472    0.492    0.262   10.957
  338.000   89.903    0.514    0.277   11.162
  338.250   89.299    0.540    0.257   10.953
  338.500   84.442    0.496    0.242   10.748
  338.750   84.445    0.469    0.237   10.547
  339.000   85.053    0.470    0.240   10.545
  339.250   86.270    0.471    0.240   10.347
  339.500   85.665    0.466    0.235   10.541
  339.750   80.809    0.464    0.219   10.738
  340.000   78.381    0.486    0.214   11.145
  340.250   75.347    0.506    0.224   11.144
  340.500   83.244    0.522    0.228   11.142
  340.750   85.067    0.488    0.231   10.730
  341.000   84.462    0.490    0.222    9.954
  341.250   80.822    0.501    0.198    8.730
  341.500   80.215    0.458    0.111    7.514
  341.750   82.039    0.452    0.214    6.590
  342.000   85.078    0.453    0.225    6.114
  342.250   83.865    0.460    0.224    5.671
  342.500   83.867    0.466    0.264    5.462
  342.750   76.581    0.488    0.477    5.669
  343.000   53.506    0.523    0.563    7.096
  343.250   43.184    0.556    0.586   10.317
  343.500   36.507    0.605    0.343   15.282
  343.750   34.686    0.578    0.315   19.857
  344.000   38.333    0.431    0.305   25.323
  344.250   36.513    0.388    0.302   29.410
  344.500   31.657    0.379    0.306   31.690
  344.750   29.837    0.360    0.312   32.890
  345.000   28.016    0.343    0.318   33.508
  345.250   28.626    0.373    0.317   32.880
  345.500   35.308    0.376    0.310   32.263
  345.750   42.598    0.348    0.307   31.070
  346.000   49.888    0.368    0.305   29.923
  346.250   53.533    0.387    0.307   29.363
  346.500   56.571    0.387    0.316   27.755
  346.750   58.395    0.387    0.332   27.236
  347.000   62.649    0.403    0.316   25.264
  347.250   65.687    0.392    0.307   24.792
  347.500   68.725    0.382    0.296   24.329
  347.750   72.371    0.392    0.283   22.994
  348.000   71.766    0.394    0.278   22.566
  348.250   75.412    0.383    0.279   20.546
  348.500   82.701    0.376    0.259   18.359
  348.750   88.169    0.384    0.235   16.716
  349.000   89.385    0.393    0.218   15.800
  349.250   94.246    0.403    0.217   14.657
  349.500   99.713    0.410    0.199   14.115
  349.750   99.715    0.419    0.204   14.380
  350.000   90.609    0.416    0.240   15.494
  350.250   86.359    0.412    0.265   16.083
  350.500   80.895    0.420    0.284   17.008
  350.750   84.541    0.428    0.261   17.327
  351.000   86.972    0.420    0.242   17.985
  351.250   85.760    0.406    0.242   18.667
  351.500   85.761    0.390    0.257   19.018
  351.750   83.335    0.403    0.265   19.738
  352.000   79.693    0.410    0.275   19.735
  352.250   80.303    0.396    0.286   17.635
  352.500   82.126    0.387    0.276   16.056
  352.750   87.593    0.411    0.254   14.894
  353.000   86.381    0.416    0.230   14.079
  353.250   88.813    0.403    0.185   14.342
  353.500   85.778    0.393    0.191   14.886
  353.750   80.314    0.410    0.213   15.166
  354.000   76.672    0.411    0.236   16.038
  354.250   71.816    0.403    0.254   16.338
  354.500   74.247    0.400    0.246   16.033
  354.750   76.678    0.399    0.196   14.597
  355.000   77.288    0.411    0.172   13.290
  355.250   76.075    0.428    0.207   12.100
  355.500   79.721    0.385    0.241   11.017
  355.750   90.654    0.384    0.197   10.414
  356.000  107.053    0.423    0.169    8.963
  356.250  107.055    0.454    0.151    8.160
  356.500  104.021    0.455    0.136    7.714
  356.750  106.452    0.477    0.155    7.156
  357.000  110.705    0.499    0.175    6.516
  357.250  116.173    0.520    0.189    5.608
  357.500  116.175    0.496    0.207    5.301
  357.750  114.962    0.477    0.188    4.737
  358.000  117.393    0.478    0.182    4.478
  358.250  119.825    0.503    0.194    4.232
  358.500  121.041    0.524    0.213    4.000
  358.750  117.399    0.532    0.227    4.475
  359.000  110.114    0.536    0.236    5.395
  359.250   94.934    0.464    0.248    7.143
  359.500   80.968    0.429    0.260    8.941
  359.750   73.075    0.399    0.267   11.617
  360.000   67.004    0.379    0.275   14.270
  360.250   68.828    0.385    0.267   15.092
  360.500   76.726    0.395    0.247   14.265
  360.750   80.371    0.377    0.222   11.827
  361.000   85.232    0.391    0.193   11.180
  361.250   87.663    0.432    0.176   10.178
  361.500   88.879    0.439    0.184    9.988
  361.750   88.881    0.442    0.197    9.619
  362.000   88.275    0.449    0.204    9.618
  362.250   87.670    0.432    0.209    9.615
  362.500   87.673    0.413    0.206    9.614
  362.750   88.282    0.402    0.200    9.794
  363.000   91.320    0.411    0.194    9.977
  363.250   94.966    0.426    0.203   10.164
  363.500   92.539    0.434    0.177   10.749
  363.750   87.682    0.440    0.161   11.801
  364.000   76.146    0.449    0.253   13.964
  364.250   67.646    0.439    0.308   16.524
  364.500   60.968    0.424    0.329   19.189
  364.750   50.646    0.415    0.342   21.871
  365.000   62.794    0.407    0.347   23.131
  365.250   70.083    0.404    0.342   24.009
  365.500   71.907    0.417    0.340   24.456
  365.750   66.445    0.426    0.344   24.000
  366.000   64.017    0.431    0.339   23.993
  366.250   60.982    0.418    0.335   23.545
  366.500   73.130    0.412    0.336   23.105
  366.750   85.885    0.400    0.341   22.672
  367.000  103.498    0.401    0.350   22.668
  367.250  116.861    0.419    0.351   22.243
  367.500  108.361    0.442    0.337   21.826
  367.750   91.966    0.446    0.324   21.419
  368.000   85.895    0.421    0.319   19.869
  368.250   87.112    0.406    0.301   17.754
  368.500   91.365    0.411    0.269   17.100
  368.750   89.545    0.429    0.258   15.862
  369.000   88.940    0.446    0.259   15.277
  369.250   88.334    0.462    0.258   15.563
  369.500   80.441    0.449    0.265   17.408
  369.750   71.941    0.452    0.274   18.759
  370.000   62.227    0.457    0.299   21.381
  370.250   47.047    0.397    0.314   22.613
  370.500   34.295    0.369    0.303   24.367
  370.750   48.873    0.364    0.266   25.291
  371.000   56.163    0.383    0.263   26.251
  371.250   57.378    0.395    0.298   25.282
  371.500   60.417    0.400    0.320   23.452
  371.750   64.671    0.392    0.330   23.014
  372.000   67.101    0.400    0.323   22.165
  372.250   66.496    0.402    0.315   20.948
  372.500   64.676    0.394    0.288   20.176
  372.750   65.893    0.386    0.205   18.715
  373.000   78.648    0.380    0.173   17.691
  373.250   82.901    0.386    0.211   16.722
  373.500   87.154    0.399    0.234   15.225
  373.750   89.585    0.399    0.242   14.664
  374.000   92.016    0.392    0.234   13.860
  374.250   93.840    0.388    0.215   13.349
  374.500   93.843    0.389    0.208   12.617
  374.750   95.059    0.389    0.220   11.925
  375.000   96.883    0.403    0.231   11.485
  375.250   99.314    0.413    0.217   11.061
  375.500   98.709    0.428    0.205   10.854
  375.750   97.496    0.436    0.207   10.651
  376.000   92.640    0.430    0.227   10.850
  376.250   84.748    0.402    0.236   11.262
  376.500   81.713    0.392    0.230   11.689
  376.750   84.751    0.394    0.233   11.908
  377.000   90.826    0.398    0.218   10.641
  377.250   99.937    0.401    0.198    9.509
  377.500  109.049    0.421    0.177    8.497
  377.750  112.087    0.432    0.181    7.882
  378.000  110.875    0.444    0.199    7.451
  378.250  109.055    0.458    0.209    7.042
