~VERSION INFORMATION
 VERS.                 2.0:   CWLS LOG ASCII STANDARD -VERSION 2.0
 WRAP.                  NO:   ONE LINE PER DEPTH STEP
~WELL INFORMATION BLOCK
#MNEM.UNIT           DATA                    DESCRIPTION OF MNEMONIC
#---------    -------------------            -------------------------------
# Generated from Intellog Unique Number	CW_82_90/WELL/993
WELL.         11-09-082-19W4                 : Well_name    - WELL
LOC .         00/11-09-082-19W4/0            : Location     - LOCATION
UWI .         00/11-09-082-19W400            : Uwi          - UNIQUE WELL ID
ENTR.         JAYE                           : Entered      - ENTERED BY
SRVC.         SCHLUMBERGER                   : Scn          - SERVICE COMPANY
DATE.         8 MAR 74                       : Date         - LOG DATE
STRT.M        173.736                        : top_depth    - START DEPTH
STOP.M        365.736                        : bot_depth    - STOP DEPTH
STEP.M        0.25                           : increment    - STEP LENGTH
 NULL. -999.2500:NULL Value
~CURVE INFORMATION BLOCK
#MNEM UNIT       ERCB CURVE CODE    CURVE DESCRIPTION
#-----------   ------------------   ----------------------------------
DEPT.M        00 001 00 00         : DEPTH        - DEPTH
CALI.MM       00 280 01 00         : CAL          - CALIPER
GR  .API      00 310 00 00         : GR           - GAMMA RAY
NPHI.V/V      00 330 00 00         : PHIN         - NEUTRON POROSITY (SANDSTONE)
DPHI.V/V      00 890 00 00         : PHID         - DENSITY POROSITY (SANDSTONE)
ILD .OHMM     00 120 00 00         : RESD         - DEEP RESISTIVITY (DIL)
~PARAMETER INFORMATION
#MNEM.UNIT           DATA             DESCRIPTION OF MNEMONIC
#---------         -----------     ------------------------------
GL  .M        584.911              : gl           - GROUND LEVEL ELEVATION
EREF.M        588.264              : kb           - ELEVATION OF DEPTH REFERENCE
DATM.M        584.911              : datum        - DATUM ELEVATION
TDD .M        387.096              : tdd          - TOTAL DEPTH DRILLER
RUN .         ONE                  : Run          - RUN NUMBER
ENG .         BOYKO                : Engineer     - RECORDING ENGINEER
BASE.         EDMONTON             : Branch       - HOME BASE OF LOGGING UNIT
MATR.         SANDSTONE            : Logunit      - NEUTRON MATRIX
TMAX.C        30                   : BHT          - MAXIMUM RECORDED TEMPERATURE
BHTD.M        387.096              : BHTDEP       - MAXIMUM RECORDED TEMPERATURE
RMT .C        21.1111              : MDTP         - TEMPERATURE OF MUD
MUDD.KG/M     9000                 : MWT          - MUD DENSITY
NEUT.         0                    : NEUTRON      - NEUTRON TYPE
RESI.         0                    : RESIST       - RESISTIVITY TYPE
RM  .OHMM     2.07                 : RM           - RESISTIVITY OF MUD
RMC .OHMM     0                    : RMC          - RESISTIVITY OF MUD CAKE
RMF .OHMM     1.65                 : RMF          - RESISTIVITY OF MUD FILTRATE
SUFT.C        4                    : SUFT         - SURFACE TEMPERATURE
~A  DEPTH      CAL       GR     PHIN     PHID     RESD
# ...
  319.736  170.802  103.460    0.514    0.167    7.839
  319.986  170.269  103.820    0.506    0.161    7.664
  320.236  169.322  103.873    0.489    0.155    7.630
  320.486  169.308  104.042    0.478    0.151    7.625
  320.736  169.605  104.042    0.471    0.142    7.605
  320.986  169.900  103.973    0.471    0.173    7.640
  321.236  170.196  101.634    0.469    0.179    7.746
  321.486  169.556  100.893    0.512    0.179    7.812
  321.736  168.610  101.376    0.501    0.172    7.906
  321.986  173.365  104.921    0.491    0.179    8.045
  322.236  176.045  109.020    0.520    0.175    8.038
  322.486  176.028  109.012    0.533    0.161    7.704
  322.736  176.013  105.388    0.498    0.156    7.183
  322.986  176.204  105.748    0.473    0.169    6.972
  323.236  176.190  108.803    0.495    0.176    6.716
  323.486  175.452  110.695    0.524    0.181    6.687
  323.736  172.221  101.313    0.483    0.173    7.306
  323.986  167.750   91.379    0.447    0.157    8.100
  324.236  168.768   94.251    0.411    0.133    8.849
  324.486  171.244  101.841    0.408    0.130    9.006
  324.736  174.649  105.877    0.494    0.187    8.835
  324.986  175.259  105.133    0.498    0.180    8.686
  325.236  178.666  105.372    0.483    0.172    7.273
  325.486  180.931  105.425    0.453    0.166    6.982
  325.736  176.351   94.692    0.421    0.158    7.003
  325.986  170.533   88.864    0.413    0.186    7.608
  326.236  165.956   90.387    0.420    0.211    8.313
  326.486  163.970   92.281    0.419    0.193    9.000
  326.736  164.265   90.496    0.421    0.179    9.691
  326.986  165.184   83.868    0.413    0.188   10.265
  327.236  166.101   78.716    0.388    0.197   10.812
  327.486  166.500   74.664    0.365    0.191   11.310
  327.736  166.696   75.391    0.347    0.179   12.111
  327.986  166.680   75.016    0.321    0.103   13.548
  328.236  165.834   75.498    0.299    0.065   15.749
  328.486  166.329   75.551    0.303    0.062   17.489
  328.736  166.942   76.891    0.320    0.085   18.764
  328.986  167.346   81.725    0.342    0.090   19.518
  329.236  167.122   89.987    0.373    0.120   15.961
  329.486  166.794   89.369    0.445    0.196   14.116
  329.736  166.981   85.804    0.444    0.196   11.950
  329.986  166.973   84.512    0.440    0.201   10.665
  330.236  166.955   81.686    0.429    0.197   10.054
  330.486  167.144   79.101    0.422    0.205    9.774
  330.736  167.238   77.075    0.409    0.209    9.643
  330.986  167.945   71.001    0.394    0.101    9.743
  331.236  168.248   64.559    0.244    0.018   10.453
  331.486  168.855   61.548    0.209    0.020   12.717
  331.736  169.150   63.439    0.215    0.029   17.930
  331.986  169.132   63.003    0.226    0.038   29.195
  332.236  169.018   66.182    0.246    0.048   32.015
  332.486  168.273   75.672    0.309    0.067   32.401
  332.736  168.362   81.485    0.351    0.143   22.043
  332.986  168.349   83.438    0.395    0.198   14.276
  333.236  168.025   83.551    0.400    0.214   12.062
  333.486  168.107   85.751    0.405    0.203   11.227
  333.736  168.097   88.621    0.397    0.177   10.740
  333.986  168.802   88.921    0.393    0.166   10.459
  334.236  168.896   86.279    0.409    0.182   10.355
  334.486  168.896   85.779    0.411    0.193   10.328
  334.736  168.896   84.364    0.444    0.180   10.265
  334.986  168.896   83.682    0.411    0.174   10.335
  335.236  169.450   85.512    0.391    0.171   10.459
  335.486  169.544   80.663    0.374    0.166   10.414
  335.736  168.898   81.697    0.401    0.153   10.406
  335.986  168.787   82.666    0.416    0.172   10.379
  336.236  170.221   82.785    0.410    0.178   10.736
  336.486  170.318   84.982    0.331    0.171   11.708
  336.736  169.265   75.109    0.304    0.137   12.156
  336.986  166.440   70.935    0.285    0.120   11.971
  337.236  166.851   72.948    0.302    0.102   11.725
  337.486  168.907   76.863    0.331    0.074   10.541
  337.736  171.689   84.942    0.389    0.138    9.373
  337.986  173.442   87.568    0.407    0.146    8.900
  338.236  176.018   90.933    0.451    0.174    8.544
  338.486  177.765   95.761    0.444    0.172    8.263
  338.736  174.847   96.555    0.431    0.161    8.077
  338.986  172.965   96.301    0.428    0.152    7.896
  339.236  175.333   94.701    0.434    0.183    7.733
  339.486  177.292   94.509    0.437    0.175    7.548
  339.736  178.935   94.683    0.450    0.154    7.180
  339.986  178.194   95.350    0.448    0.164    6.855
  340.236  176.312   95.466    0.443    0.177    6.604
  340.486  176.402   95.575    0.465    0.169    6.294
  340.736  180.637   96.614    0.482    0.156    6.075
  340.986  182.696  100.589    0.468    0.158    5.984
  341.236  183.615  105.116    0.476    0.169    5.882
  341.486  188.783  111.169    0.487    0.162    5.813
  341.736  189.701  111.718    0.474    0.152    5.808
  341.986  187.299  113.059    0.462    0.165    5.912
  342.236  183.449  109.985    0.454    0.168    6.295
  342.486  185.404  109.985    0.465    0.153    6.828
  342.736  176.681  102.003    0.438    0.155    8.025
  342.986  172.209   99.608    0.408    0.145   14.550
  343.236  169.599   84.527    0.344    0.125   18.057
  343.486  169.069   82.433    0.318    0.082   18.177
  343.736  169.153   82.365    0.339    0.033   18.031
  343.986  169.141   91.241    0.382    0.050   18.719
  344.236  169.956   97.914    0.405    0.168   19.576
  344.486  173.362  100.663    0.397    0.170   20.549
  344.736  176.874   94.097    0.358    0.144   21.025
  344.986  172.192   91.028    0.334    0.127   21.511
  345.236  171.451   88.386    0.325    0.121   22.130
  345.486  172.265   87.949    0.406    0.068   22.480
  345.736  174.116   95.840    0.429    0.087   22.505
  345.986  175.139   96.573    0.415    0.106   22.042
  346.236  170.148   96.501    0.386    0.163   21.743
  346.486  170.755   91.472    0.363    0.173   21.766
  346.736  171.672   79.146    0.343    0.174   21.833
  346.986  173.317   72.338    0.335    0.184   22.336
  347.236  167.288   60.442    0.385    0.198   22.983
  347.486  165.406   49.835    0.405    0.289   26.812
  347.736  165.391   43.148    0.412    0.292   33.461
  347.986  165.585   43.017    0.397    0.295   40.854
  348.236  166.087   42.825    0.379    0.282   46.377
  348.486  166.072   43.001    0.382    0.269   48.856
  348.736  166.369   42.871    0.388    0.260   49.448
  348.986  166.353   42.986    0.394    0.276   49.133
  349.236  166.336   43.407    0.383    0.279   48.653
  349.486  166.116   43.216    0.389    0.262   48.533
  349.736  165.169   42.901    0.433    0.277   48.316
  349.986  164.531   44.058    0.388    0.277   48.633
  350.236  164.411   45.765    0.378    0.266   48.157
  350.486  164.501   47.412    0.394    0.264   45.559
  350.736  164.692   49.426    0.400    0.269   40.811
  350.986  164.679   51.441    0.402    0.271   36.159
  351.236  164.664   56.273    0.392    0.267   32.869
  351.486  165.372   61.168    0.390    0.255   28.542
  351.736  167.330   65.388    0.397    0.240   25.106
  351.986  174.779   72.243    0.414    0.207   21.215
  352.236  179.119   74.991    0.403    0.205   17.256
  352.486  182.940   77.742    0.419    0.198   13.336
  352.736  186.138   84.413    0.409    0.182   11.026
  352.986  181.355   91.452    0.385    0.164    8.506
  353.236  170.970   89.055    0.362    0.144    7.759
  353.486  176.037   88.556    0.423    0.111    7.407
  353.736  178.407   92.716    0.452    0.128    6.446
  353.986  178.080   96.012    0.450    0.181    5.338
  354.236  176.612   95.947    0.455    0.194    5.087
  354.486  177.219   95.873    0.469    0.178    4.965
  354.736  178.658   95.503    0.422    0.156    4.881
  354.986  171.282   87.896    0.373    0.144    5.683
  355.236  165.352   84.273    0.343    0.122    6.370
  355.486  164.720   91.251    0.439    0.069    7.126
  355.736  167.400   99.025    0.443    0.098    6.668
  355.986  170.911  106.555    0.426    0.151    5.853
