~VERSION INFORMATION
 VERS.                 2.0:   CWLS LOG ASCII STANDARD -VERSION 2.0
 WRAP.                  NO:   ONE LINE PER DEPTH STEP
~WELL INFORMATION BLOCK
#MNEM.UNIT           DATA                    DESCRIPTION OF MNEMONIC
#---------    -------------------            -------------------------------
# Generated from Intellog Unique Number	CW_76_78/WELL/2581
WELL.         10-34-078-23W4                 : Well_name    - WELL
LOC .         00/10-34-078-23W4/0            : Location     - LOCATION
UWI .         00/10-34-078-23W4/0            : Uwi          - UNIQUE WELL ID
ENTR.         MAX                            : Entered      - ENTERED BY
SRVC.         SCHLUMBERGER                   : Scn          - SERVICE COMPANY
STRT.M        240.792                        : top_depth    - START DEPTH
STOP.M        488.792                        : bot_depth    - STOP DEPTH
STEP.M        0.25                           : increment    - STEP LENGTH
 NULL. -999.2500:NULL Value
~CURVE INFORMATION BLOCK
#MNEM UNIT       ERCB CURVE CODE    CURVE DESCRIPTION
#-----------   ------------------   ----------------------------------
DEPT.M        00 001 00 00         : DEPTH        - DEPTH
ILD .OHMM     00 120 00 00         : RESD         - DEEP RESISTIVITY (DIL)
NPHI.V/V      00 330 00 00         : PHIN         - NEUTRON POROSITY (SANDSTONE)
DPHI.V/V      00 890 00 00         : PHID         - DENSITY POROSITY (SANDSTONE)
CALI.MM       00 280 01 00         : CAL          - CALIPER
GR  .API      00 310 00 00         : GR           - GAMMA RAY
~PARAMETER INFORMATION
#MNEM.UNIT           DATA             DESCRIPTION OF MNEMONIC
#---------         -----------     ------------------------------
GL  .M        571.683              : gl           - GROUND LEVEL ELEVATION
EREF.M        574.731              : kb           - ELEVATION OF DEPTH REFERENCE
DATM.M        574.731              : datum        - DATUM ELEVATION
TDD .M        494.995              : tdd          - TOTAL DEPTH DRILLER
RUN .         ONE                  : Run          - RUN NUMBER
ENG .         BILL                 : Engineer     - RECORDING ENGINEER
WIT .         JIM                  : Witness      - WITNESSED BY
MUD .         GEL                  : Mud_type     - MUD TYPE
MATR.         SANDSTONE            : Logunit      - NEUTRON MATRIX
TMAX.F        79                   : BHT          - MAXIMUM RECORDED TEMPERATURE
BHTD.F        1624                 : BHTDEP       - MAXIMUM RECORDED TEMPERATURE
RMT .F        69                   : MDTP         - TEMPERATURE OF MUD
MUDD.LB/G     9.9                  : MWT          - MUD DENSITY
NEUT.         1                    : NEUTRON      - NEUTRON TYPE
RESI.         0                    : RESIST       - RESISTIVITY TYPE
RM  .OHMM     3.5                  : RM           - RESISTIVITY OF MUD
RMC .OHMM     4.1                  : RMC          - RESISTIVITY OF MUD CAKE
RMF .OHMM     2.85                 : RMF          - RESISTIVITY OF MUD FILTRATE
SUFT.F        25                   : SUFT         - SURFACE TEMPERATURE
~A  DEPTH     RESD     PHIN     PHID      CAL       GR
# ...
  423.292   16.679    0.415    0.183  197.630  104.872
  423.542   16.491    0.416    0.197  198.614  103.380
  423.792   16.158    0.419    0.201  199.598  102.480
  424.042   15.694    0.437    0.188  200.082  102.171
  424.292   15.242    0.454    0.179  200.064  102.160
  424.542   15.070    0.459    0.184  200.046  101.555
  424.792   15.445    0.454    0.198  200.028  100.656
  425.042   16.724    0.451    0.200  199.508   99.458
  425.292   18.105    0.439    0.185  199.990   99.744
  425.542   19.953    0.422    0.161  200.973  104.478
  425.792   24.963    0.468    0.126  200.955  103.281
  426.042   27.038    0.478    0.327  194.909   85.773
  426.292   32.922    0.464    0.336  193.383   66.190
  426.542   39.013    0.467    0.324  194.373   57.580
  426.792   44.187    0.457    0.303  196.861   50.154
  427.042   48.270    0.471    0.317  197.343   47.475
  427.292   49.038    0.470    0.329  197.827   45.685
  427.542   47.199    0.448    0.327  194.796   43.300
  427.792   44.201    0.421    0.306  191.266   40.324
  428.042   41.394    0.392    0.303  189.239   35.864
  428.292   39.128    0.394    0.300  188.212   33.481
  428.542   36.624    0.369    0.280  187.694   33.173
  428.792   35.269    0.354    0.281  188.678   36.722
  429.042   33.321    0.369    0.266  189.664   37.896
  429.292   31.504    0.371    0.279  189.646   36.993
  429.542   28.714    0.381    0.274  189.628   36.985
  429.792   26.157    0.381    0.271  190.108   38.158
  430.042   24.282    0.385    0.270  191.094   38.445
  430.292   22.547    0.382    0.253  191.094   38.731
  430.542   20.731    0.377    0.266  191.557   39.309
  430.792   19.596    0.369    0.272  192.044   39.596
  431.042   18.691    0.374    0.269  191.523   40.477
  431.292   17.815    0.377    0.283  191.501   42.539
  431.542   17.468    0.382    0.295  191.483   45.494
  431.792   17.111    0.384    0.304  191.465   46.669
  432.042   16.766    0.389    0.285  191.444   48.733
  432.292   16.577    0.393    0.276  191.928   50.502
  432.542   16.394    0.385    0.273  192.415   51.382
  432.792   16.364    0.385    0.265  192.379   53.149
  433.042   16.184    0.382    0.258  192.372   55.214
  433.292   15.993    0.397    0.264  192.356   57.279
  433.542   15.968    0.402    0.279  192.356   59.641
  433.792   15.788    0.400    0.275  192.317   62.298
  434.042   15.610    0.394    0.275  192.802   64.954
  434.292   15.302    0.397    0.265  193.283   67.614
  434.542   14.851    0.414    0.261  193.263   71.752
  434.792   14.694    0.418    0.267  193.752   75.300
  435.042   14.398    0.403    0.274  194.733   77.068
  435.292   14.235    0.397    0.260  194.733   76.169
  435.542   14.075    0.399    0.260  195.699   76.454
  435.792   13.425    0.375    0.258  197.692   82.671
  436.042   12.575    0.362    0.236  199.682   92.148
  436.292   11.566    0.394    0.208  201.673   97.180
  436.542   10.544    0.413    0.145  203.156   99.242
  436.792   10.052    0.442    0.169  205.147   94.192
  437.042   10.307    0.442    0.197  205.633   88.545
  437.292   11.468    0.447    0.216  206.110   82.604
  437.542   13.347    0.468    0.228  205.595   79.923
  437.792   19.650    0.464    0.291  202.562   72.795
  438.042   24.590    0.431    0.292  197.522   62.999
  438.292   34.291    0.419    0.278  193.987   69.807
  438.542   40.270    0.405    0.271  191.962   76.024
  438.792   39.825    0.377    0.238  192.442   82.240
  439.042   34.693    0.338    0.190  194.935   86.085
  439.292   26.871    0.338    0.113  198.429   96.748
  439.542   18.167    0.367    0.173  200.422  102.668
  439.792   14.067    0.385    0.189  199.902  112.443
  440.042   12.363    0.411    0.203  195.362  118.956
  440.292   12.229    0.436    0.185  193.835  112.421
  440.542   12.540    0.464    0.196  194.822  100.252
  440.792   13.212    0.428    0.219  195.303   62.283
  441.042   20.351    0.421    0.241  193.277   56.638
  441.292   29.175    0.437    0.266  191.752   54.847
  441.542   44.928    0.426    0.280  192.234   55.429
  441.792   57.265    0.429    0.267  193.218   56.901
  442.042   61.403    0.429    0.266  192.698   61.041
  442.292   59.637    0.429    0.279  192.182   64.882
  442.542   55.347    0.420    0.269  193.166   64.873
  442.792   51.859    0.422    0.264  193.134   63.973
  443.042   48.129    0.421    0.256  193.630   63.663
  443.292   45.812    0.416    0.258  194.109   66.619
  443.542   44.563    0.416    0.270  194.096   70.463
  443.792   40.975    0.433    0.267  194.075   72.823
  444.042   39.448    0.410    0.269  195.061   73.702
  444.292   37.959    0.401    0.256  195.041   76.362
  444.542   36.858    0.405    0.255  194.523   76.942
  444.792   36.114    0.403    0.252  196.009   75.450
  445.042   35.724    0.398    0.244  196.493   73.067
  445.292   35.966    0.400    0.241  196.977   72.460
  445.542   36.227    0.399    0.242  196.977   72.747
  445.792   36.135    0.395    0.231  197.434   72.439
  446.042   36.070    0.375    0.217  197.418   72.725
  446.292   34.396    0.368    0.205  197.418   74.492
  446.542   31.930    0.373    0.197  197.882   77.447
  446.792   29.358    0.391    0.185  197.866   79.805
  447.042   27.008    0.427    0.182  197.848   80.984
  447.292   24.401    0.447    0.161  197.828   84.235
  447.542   19.413    0.400    0.173  198.310   84.220
  447.792   17.221    0.355    0.187  199.293   85.694
  448.042   15.691    0.353    0.188  199.780   87.463
  448.292   14.431    0.388    0.189  200.266   91.010
  448.542   13.280    0.391    0.170  199.741   96.335
  448.792   11.776    0.393    0.169  197.210  100.774
  449.042   11.230    0.399    0.185  195.688  103.728
  449.292   10.809    0.405    0.192  194.663  102.826
  449.542   10.495    0.405    0.188  195.145  101.629
  449.792   10.291    0.397    0.180  197.642   99.246
  450.042   10.170    0.403    0.166  201.639   89.450
  450.292   10.244    0.419    0.147  198.608   83.212
  450.542   10.316    0.426    0.155  195.075   80.530
  450.792   10.289    0.445    0.168  192.542   82.298
  451.042   10.265    0.455    0.195  193.528   88.515
  451.292   10.157    0.474    0.242  195.014   94.733
  451.542   10.040    0.524    0.314  196.505   99.760
  451.792    9.837    0.608    0.394  201.004  103.901
  452.042    9.837    0.596    0.404  200.988  106.263
  452.292    9.439    0.577    0.394  196.444   98.244
  452.542    9.008    0.572    0.347  194.921   96.454
  452.792    8.675    0.567    0.308  194.906  103.562
  453.042    8.124    0.586    0.286  196.894  110.370
  453.292    7.541    0.597    0.277  200.890  111.842
  453.542    6.934    0.585    0.277  200.372  115.094
  453.792    6.612    0.558    0.239  194.824  118.641
  454.042    6.477    0.534    0.200  191.795  122.780
  454.292    6.526    0.511    0.177  194.288  122.770
  454.542    6.814    0.503    0.162  198.287  109.709
  454.792    7.308    0.498    0.166  198.771  106.437
  455.042    7.840    0.461    0.191  197.244  102.570
  455.292    8.335    0.440    0.236  196.722  100.188
  455.542    9.101    0.526    0.247  196.704  100.471
  455.792    9.591    0.517    0.240  194.677  107.283
  456.042    9.921    0.515    0.233  192.646  115.576
  456.292    9.547    0.514    0.230  191.121  109.927
  456.542    9.277    0.493    0.200  191.608  103.099
  456.792    9.594    0.457    0.242  193.096   79.957
  457.042   11.901    0.424    0.313  197.595   60.077
  457.292   15.863    0.421    0.323  198.581   56.210
  457.542   21.335    0.424    0.312  196.555   56.495
  457.792   33.170    0.443    0.310  196.555   58.261
  458.042   37.570    0.448    0.311  195.010   59.736
  458.292   40.295    0.435    0.310  193.985   61.798
  458.542   41.694    0.431    0.305  193.985   63.865
  458.792   42.346    0.426    0.304  194.444   70.673
  459.042   42.665    0.420    0.302  194.431   73.628
  459.292   41.054    0.417    0.297  194.413   78.065
  459.542   38.457    0.413    0.297  194.413   83.096
