~VERSION INFORMATION
 VERS.                 2.0:   CWLS LOG ASCII STANDARD -VERSION 2.0
 WRAP.                  NO:   ONE LINE PER DEPTH STEP
~WELL INFORMATION BLOCK
#MNEM.UNIT           DATA                    DESCRIPTION OF MNEMONIC
#---------    -------------------            -------------------------------
# Generated from Intellog Unique Number	CX_WELLS/WELL/2324
WELL.         11-36-088-18W4                 : Well_name    - WELL
LOC .         00/11-36-088-18W4/0            : Location     - LOCATION
UWI .         00/11-36-088-18W400            : Uwi          - UNIQUE WELL ID
ENTR.         DW                             : Entered      - ENTERED BY
SRVC.         SCHLUMBERGER                   : Scn          - SERVICE COMPANY
STRT.M        77                             : top_depth    - START DEPTH
STOP.M        197                            : bot_depth    - STOP DEPTH
STEP.M        0.25                           : increment    - STEP LENGTH
 NULL. -999.2500:NULL Value
~CURVE INFORMATION BLOCK
#MNEM UNIT       ERCB CURVE CODE    CURVE DESCRIPTION
#-----------   ------------------   ----------------------------------
DEPT.M        00 001 00 00         : DEPTH        - DEPTH
GR  .API      00 310 00 00         : GR           - GAMMA RAY
NPHI.V/V      00 330 00 00         : PHIN         - NEUTRON POROSITY (SANDSTONE)
DPHI.V/V      00 890 00 00         : PHID         - DENSITY POROSITY (SANDSTONE)
ILD .OHMM     00 120 00 00         : RESD         - DEEP RESISTIVITY (DIL)
~PARAMETER INFORMATION
#MNEM.UNIT           DATA             DESCRIPTION OF MNEMONIC
#---------         -----------     ------------------------------
GL  .M        484.3                : gl           - GROUND LEVEL ELEVATION
EREF.M        487.2                : kb           - ELEVATION OF DEPTH REFERENCE
DATM.M        487.2                : datum        - DATUM ELEVATION
TDD .M        196                  : tdd          - TOTAL DEPTH DRILLER
RUN .         ONE                  : Run          - RUN NUMBER
ENG .         BILL                 : Engineer     - RECORDING ENGINEER
WIT .         JIM                  : Witness      - WITNESSED BY
MUD .         GEL                  : Mud_type     - MUD TYPE
MATR.         SANDSTONE            : Logunit      - NEUTRON MATRIX
TMAX.C        25                   : BHT          - MAXIMUM RECORDED TEMPERATURE
BHTD.M        197                  : BHTDEP       - MAXIMUM RECORDED TEMPERATURE
MATR.         1                    : LOGUNIT      - NEUTRON MATRIX
RMT .C        25                   : MDTP         - TEMPERATURE OF MUD
NEUT.         1                    : NEUTRON      - NEUTRON TYPE
RESI.         0                    : RESIST       - RESISTIVITY TYPE
RMC .OHMM     0.25                 : RMC          - RESISTIVITY OF MUD CAKE
RMF .OHMM     0.25                 : RMF          - RESISTIVITY OF MUD FILTRATE
SUFT.C        15                   : SUFT         - SURFACE TEMPERATURE
~A  DEPTH       GR     PHIN     PHID     RESD
# ...
  120.500   88.674    0.386    0.134   14.139
  120.750   90.564    0.388    0.178   13.933
  121.000   90.650    0.411    0.196   13.975
  121.250   90.718    0.423    0.208   14.029
  121.500   92.001    0.439    0.213   14.312
  121.750   92.694    0.441    0.212   14.367
  122.000   92.745    0.433    0.207   14.668
  122.250   92.223    0.428    0.203   14.999
  122.500   91.060    0.427    0.202   15.314
  122.750   88.074    0.427    0.206   15.647
  123.000   82.675    0.431    0.211   16.298
  123.250   76.686    0.436    0.218   16.348
  123.500   73.093    0.446    0.223   16.704
  123.750   74.376    0.449    0.237   16.755
  124.000   75.659    0.447    0.250   17.465
  124.250   75.137    0.444    0.233   17.492
  124.500   73.383    0.387    0.202   17.886
  124.750   71.629    0.349    0.211   17.941
  125.000   70.465    0.348    0.243   17.996
  125.250   68.103    0.363    0.280   17.707
  125.500   68.779    0.408    0.293   17.436
  125.750   73.117    0.430    0.270   16.268
  126.000   75.598    0.426    0.263   15.994
  126.250   79.328    0.428    0.272   15.189
  126.500   80.003    0.445    0.272   13.902
  126.750   79.464    0.435    0.267   13.438
  127.000   77.710    0.436    0.268   13.459
  127.250   75.956    0.449    0.268   13.253
  127.500   76.024    0.449    0.268   13.303
  127.750   75.485    0.447    0.262   13.857
  128.000   76.161    0.443    0.255   14.148
  128.250   79.874    0.440    0.249   14.725
  128.500   83.587    0.434    0.236   15.315
  128.750   86.709    0.434    0.213   15.940
  129.000   87.992    0.436    0.210   15.708
  129.250   88.668    0.436    0.213   14.622
  129.500   86.948    0.436    0.217   12.897
  129.750   85.177    0.436    0.222   13.413
  130.000   84.013    0.436    0.211   14.221
  130.250   81.669    0.436    0.184   15.370
  130.500   79.915    0.436    0.173   15.717
  130.750   79.359    0.435    0.159   10.678
  131.000   78.820    0.432    0.134    7.260
  131.250   81.925    0.381    0.124    5.943
  131.500   87.460    0.366    0.187    4.684
  131.750   93.013    0.409    0.224    3.628
  132.000   97.940    0.444    0.245    3.572
  132.250   98.616    0.496    0.259    3.790
  132.500   97.487    0.543    0.247    3.942
  132.750   95.716    0.572    0.235    4.421
  133.000   91.532    0.533    0.228    5.051
  133.250   89.170    0.502    0.228    5.660
  133.500   86.809    0.493    0.228    7.636
  133.750   85.072    0.458    0.224    7.942
  134.000   83.301    0.447    0.205    8.900
  134.250   84.601    0.436    0.137    9.792
  134.500   87.082    0.425    0.157   11.404
  134.750   89.580    0.432    0.189   11.439
  135.000   92.078    0.439    0.204   11.057
  135.250   94.576    0.446    0.204   10.888
  135.500   94.661    0.453    0.204   11.125
  135.750   94.122    0.453    0.205   11.786
  136.000   93.583    0.454    0.208   12.739
  136.250   92.436    0.449    0.205   14.287
  136.500   90.075    0.442    0.199   15.418
  136.750   87.089    0.436    0.188   17.319
  137.000   83.513    0.423    0.169   18.334
  137.250   82.974    0.385    0.138   19.067
  137.500   84.274    0.383    0.162   22.224
  137.750   83.735    0.407    0.169   23.526
  138.000   80.766    0.401    0.135   26.365
  138.250   76.582    0.348    0.096   29.569
  138.500   73.596    0.321    0.080   31.935
  138.750   69.412    0.304    0.075   32.655
  139.000   62.816    0.275    0.078   31.566
  139.250   59.830    0.306    0.084   29.932
  139.500   56.253    0.322    0.090   27.395
  139.750   58.144    0.303    0.096   25.053
  140.000   63.679    0.297    0.106   24.181
  140.250   68.607    0.345    0.153   21.328
  140.500   73.552    0.401    0.201   19.491
  140.750   77.872    0.452    0.265   17.825
  141.000   80.370    0.459    0.278   15.422
  141.250   83.493    0.457    0.252   13.835
  141.500   90.243    0.451    0.237   12.203
  141.750   93.956    0.446    0.226   12.711
  142.000   97.061    0.442    0.228   12.967
  142.250   96.556    0.447    0.239   13.517
  142.500   95.983    0.456    0.224   14.080
  142.750   93.621    0.466    0.229   14.101
  143.000   90.045    0.466    0.245   16.398
  143.250   84.056    0.460    0.264   18.734
  143.500   82.892    0.449    0.264   20.626
  143.750   81.138    0.440    0.260   21.451
  144.000   79.992    0.434    0.249   22.743
  144.250   78.238    0.430    0.211   21.985
  144.500   75.876    0.382    0.140   19.036
  144.750   72.317    0.339    0.130   17.396
  145.000   73.600    0.348    0.149   15.909
  145.250   76.098    0.356    0.169   15.097
  145.500   77.989    0.385    0.166   15.143
  145.750   76.825    0.410    0.149   15.496
  146.000   75.695    0.416    0.124   15.532
  146.250   77.586    0.373    0.107   15.858
  146.500   80.067    0.376    0.109   16.203
  146.750   81.384    0.408    0.141   16.568
  147.000   79.630    0.417    0.183   16.916
  147.250   78.484    0.378    0.172   17.620
  147.500   80.357    0.363    0.149   18.017
  147.750   84.678    0.363    0.121   18.058
  148.000   87.176    0.364    0.112   17.782
  148.250   87.851    0.366    0.175   17.176
  148.500   89.742    0.373    0.195   14.872
  148.750   91.042    0.391    0.199   14.102
  149.000   91.718    0.413    0.199   13.137
  149.250   89.964    0.425    0.210   12.248
  149.500   89.425    0.435    0.200   12.060
  149.750   90.708    0.442    0.189   12.342
  150.000   92.598    0.449    0.174   12.361
  150.250   92.667    0.457    0.179   12.408
  150.500   92.128    0.464    0.210   12.427
  150.750   92.803    0.468    0.206   12.465
  151.000   94.694    0.465    0.198   12.293
  151.250   95.977    0.451    0.183   12.560
  151.500   95.455    0.443    0.157   12.579
  151.750   93.094    0.436    0.174   12.637
  152.000   90.715    0.432    0.170   12.656
  152.250   93.213    0.428    0.143   12.705
  152.500   99.980    0.428    0.111   12.734
  152.750  103.103    0.433    0.099   12.773
  153.000  100.724    0.441    0.187   12.831
  153.250   97.772    0.457    0.205   12.861
  153.500   97.823    0.451    0.206   13.141
  153.750   97.892    0.446    0.206   13.427
  154.000   97.353    0.443    0.206   13.729
  154.250   96.814    0.439    0.205   14.028
  154.500   96.274    0.437    0.205   14.060
  154.750   94.520    0.438    0.207   13.591
  155.000   93.374    0.440    0.202   13.394
  155.250   91.620    0.439    0.187   14.200
  155.500   88.043    0.431    0.166   15.056
  155.750   89.326    0.395    0.115   15.658
  156.000   93.664    0.403    0.176   16.310
  156.250   97.377    0.415    0.217   16.677
  156.500  100.499    0.422    0.218   16.122
  156.750   98.121    0.426    0.209   15.887
  157.000   94.544    0.417    0.204   15.620
  157.250   90.361    0.407    0.192   16.270
  157.500   85.552    0.399    0.165   16.611
  157.750   77.724    0.396    0.112   17.625
  158.000   83.867    0.385    0.073   18.345
  158.250   93.064    0.314    0.150   17.733
  158.500   99.206    0.335    0.177   16.828
  158.750   99.275    0.363    0.185   15.677
  159.000   98.752    0.372    0.190   14.063
  159.250   98.196    0.406    0.196   11.521
  159.500   97.674    0.423    0.200   11.327
  159.750   97.742    0.420    0.202   11.591
  160.000  100.882    0.419    0.206   12.289
  160.250  102.131    0.420    0.209   12.336
  160.500  104.629    0.424    0.210   11.689
  160.750  107.127    0.425    0.212   10.302
  161.000  109.642    0.429    0.211    9.421
  161.250  109.710    0.438    0.211    8.458
  161.500  104.312    0.445    0.211    8.020
  161.750  100.128    0.456    0.209    8.348
  162.000   94.729    0.465    0.201    8.689
  162.250   89.921    0.476    0.194    9.744
  162.500   85.113    0.490    0.171   11.758
  162.750   82.768    0.473    0.097   13.187
  163.000   92.556    0.409    0.058   12.738
  163.250   97.483    0.411    0.098   12.088
  163.500  101.804    0.443    0.179   11.261
  163.750  107.963    0.450    0.209    9.940
