~VERSION INFORMATION
 VERS.                 2.0:   CWLS LOG ASCII STANDARD -VERSION 2.0
 WRAP.                  NO:   ONE LINE PER DEPTH STEP
~WELL INFORMATION BLOCK
#MNEM.UNIT           DATA                    DESCRIPTION OF MNEMONIC
#---------    -------------------            -------------------------------
# Generated from Intellog Unique Number	CS_71_72/WELL/3247
WELL.         GEOG WANDER                    : Well_name    - WELL
LOC .         00/11-18-071-13W4/0            : Location     - LOCATION
UWI .         00/11-18-071-13W4/0            : Uwi          - UNIQUE WELL ID
ENTR.         T                              : Entered      - ENTERED BY
SRVC.         SCHLUMBERGER                   : Scn          - SERVICE COMPANY
DATE.         01/30/92                       : Date         - LOG DATE
STRT.M        329.184                        : top_depth    - START DEPTH
STOP.M        545.684                        : bot_depth    - STOP DEPTH
STEP.M        0.25                           : increment    - STEP LENGTH
 NULL. -999.2500:NULL Value
~CURVE INFORMATION BLOCK
#MNEM UNIT       ERCB CURVE CODE    CURVE DESCRIPTION
#-----------   ------------------   ----------------------------------
DEPT.M        00 001 00 00         : DEPTH        - DEPTH
GR  .API      00 310 00 00         : GR           - GAMMA RAY
NPHI.V/V      00 330 00 00         : PHIN         - NEUTRON POROSITY (SANDSTONE)
ILD .OHMM     00 120 00 00         : RESD         - DEEP RESISTIVITY (DIL)
~PARAMETER INFORMATION
#MNEM.UNIT           DATA             DESCRIPTION OF MNEMONIC
#---------         -----------     ------------------------------
GL  .M        644.957              : gl           - GROUND LEVEL ELEVATION
EREF.M        648.005              : kb           - ELEVATION OF DEPTH REFERENCE
DATM.M        648.005              : datum        - DATUM ELEVATION
TDD .M        546.811              : tdd          - TOTAL DEPTH DRILLER
RUN .         ONE                  : Run          - RUN NUMBER
ENG .         BILL                 : Engineer     - RECORDING ENGINEER
WIT .         JIM                  : Witness      - WITNESSED BY
MUD .         GEL                  : Mud_type     - MUD TYPE
MATR.         SANDSTONE            : Logunit      - NEUTRON MATRIX
TMAX.C        26.6667              : BHT          - MAXIMUM RECORDED TEMPERATURE
BHTD.M        546.202              : BHTDEP       - MAXIMUM RECORDED TEMPERATURE
RMT .C        17.7778              : MDTP         - TEMPERATURE OF MUD
MUDD.KG/M     10000                : MWT          - MUD DENSITY
NEUT.         1                    : NEUTRON      - NEUTRON TYPE
RESI.         0                    : RESIST       - RESISTIVITY TYPE
RM  .OHMM     5                    : RM           - RESISTIVITY OF MUD
RMC .OHMM     4.1                  : RMC          - RESISTIVITY OF MUD CAKE
RMF .OHMM     3.5                  : RMF          - RESISTIVITY OF MUD FILTRATE
SUFT.C        4                    : SUFT         - SURFACE TEMPERATURE
~A  DEPTH       GR     PHIN     RESD
# ...
  491.934  103.402    0.437    2.197
  492.184  104.014    0.435    2.198
  492.434  103.460    0.432    2.200
  492.684  102.891    0.425    2.200
  492.934  101.746    0.420    2.202
  493.184  101.775    0.417    2.203
  493.434  102.993    0.422    2.205
  493.684  104.196    0.428    2.294
  493.934  104.823    0.425    2.341
  494.184  105.443    0.418    2.435
  494.434  103.700    0.413    2.533
  494.684  100.769    0.410    2.584
  494.934  100.207    0.420    2.536
  495.184  102.606    0.428    2.348
  495.434  103.824    0.431    2.304
  495.684  102.679    0.427    2.351
  495.934  102.103    0.418    2.398
  496.184  101.548    0.408    2.447
  496.434  102.161    0.406    2.355
  496.684  102.788    0.419    2.180
  496.934  103.408    0.433    2.057
  497.184  104.020    0.451    1.980
  497.434  102.882    0.449    1.905
  497.684  100.535    0.438    1.906
  497.934   96.429    0.425    1.945
  498.184   89.976    0.406    1.984
  498.434   86.454    0.374    2.105
  498.684   81.758    0.332    2.322
  498.934   76.472    0.287    3.301
  499.184   77.092    0.238    5.484
  499.434   80.074    0.216    6.540
  499.684   83.063    0.262    7.075
  499.934   80.139    0.301    7.079
  500.184   77.799    0.312    6.553
  500.434   73.110    0.331    5.950
  500.684   70.777    0.352    5.837
  500.934   69.034    0.365    5.956
  501.184   67.291    0.362    6.319
  501.434   67.911    0.360    6.969
  501.684   72.680    0.358    7.687
  501.934   73.883    0.358    8.480
  502.184   75.684    0.355    9.539
  502.434   75.713    0.353    9.926
  502.684   75.144    0.353   10.331
  502.934   72.234    0.353   10.334
  503.184   71.068    0.353   10.542
  503.434   67.575    0.348   11.189
  503.684   65.825    0.345   11.413
  503.934   64.089    0.338   12.109
  504.184   62.923    0.332   13.100
  504.434   61.195    0.335   14.169
  504.684   60.626    0.349   17.915
  504.934   60.057    0.359   21.365
  505.184   60.101    0.365   27.018
  505.434   60.713    0.357   33.502
  505.684   61.923    0.347   35.547
  505.934   63.724    0.331   29.839
  506.184   69.069    0.318   20.613
  506.434   75.602    0.315   13.171
  506.684   79.168    0.318   10.228
  506.934   85.110    0.323    9.104
  507.184   89.273    0.329    8.104
  507.434   92.846    0.334    7.501
  507.684   95.238    0.339    6.808
  507.934   99.992    0.344    6.179
  508.184  104.162    0.350    5.720
  508.434  108.326    0.356    5.295
  508.684  113.087    0.358    5.196
  508.934  116.069    0.359    5.198
  509.184  114.924    0.359    5.102
  509.434  114.939    0.356    5.204
  509.684  114.385    0.348    5.415
  509.934  112.051    0.338    5.633
  510.184  109.127    0.333    6.216
  510.434  105.022    0.320    6.594
  510.684   99.736    0.306    7.416
  510.934   92.087    0.288    8.181
  511.184   85.028    0.267    9.024
  511.434   82.702    0.252    9.573
  511.684   83.906    0.262    9.769
  511.934   81.587    0.296    9.775
  512.184   81.018    0.320    9.781
  512.434   80.449    0.336    9.981
  512.684   82.264    0.329    9.986
  512.934   83.468    0.320   10.188
  513.184   85.866    0.308    9.999
  513.434   87.070    0.289    9.624
  513.684   88.870    0.286    9.260
  513.934   89.497    0.290    8.739
  514.184   90.110    0.294    8.249
  514.434   91.327    0.303    7.937
  514.684   93.719    0.306    7.638
  514.934   96.111    0.301    7.208
  515.184   95.556    0.295    6.938
  515.434   94.404    0.290    6.941
  515.684   93.252    0.291    7.083
  515.934   92.683    0.291    7.368
  516.184   91.531    0.295    7.667
  516.434   89.803    0.294    7.977
  516.684   88.643    0.294    8.299
  516.934   88.082    0.293    8.470
  517.184   86.937    0.288    8.473
  517.434   86.368    0.281    8.478
  517.684   85.814    0.276    8.484
  517.934   85.836    0.288    8.658
  518.184   87.046    0.318    8.832
  518.434   89.445    0.334    8.838
  518.684   91.246    0.324    8.341
  518.934   93.645    0.315    7.720
  519.184   96.036    0.318    7.007
  519.434   99.018    0.327    6.117
  519.684  102.001    0.351    5.340
  519.934  104.983    0.359    4.753
  520.184  106.776    0.377    4.149
  520.434  104.443    0.385    3.693
  520.684   99.164    0.356    3.624
  520.934   94.461    0.333    3.921
  521.184  105.719    0.340    4.159
  521.434  115.788    0.390    4.500
  521.684  114.046    0.373    5.162
  521.934  105.215    0.346    5.693
  522.184   94.614    0.330    7.199
  522.434   88.153    0.331    8.586
  522.684   88.182    0.336    9.108
  522.934   88.802    0.344    9.854
  523.184   88.831    0.347   10.658
  523.434   87.686    0.342   10.875
  523.684   85.353    0.336   10.883
  523.934   85.382    0.329   10.473
  524.184   85.994    0.326    9.508
  524.434   87.817    0.321    8.971
  524.684   89.013    0.319    8.303
  524.934   90.216    0.315    7.536
  525.184   92.017    0.310    6.582
  525.434   96.195    0.305    6.332
  525.684   98.579    0.305    5.975
  525.934  101.576    0.306    5.532
  526.184  103.369    0.311    5.427
  526.434  105.163    0.317    5.123
  526.684  109.932    0.321    5.026
  526.934  112.906    0.320    4.934
  527.184  112.345    0.320    4.935
  527.434   97.018    0.319    4.938
  527.684   84.644    0.315    5.138
  527.934   75.807    0.309    5.346
  528.184   66.984    0.293    5.899
  528.434   77.053    0.283    6.257
  528.684   84.170    0.275    6.509
  528.934   87.152    0.272    6.907
  529.184   90.725    0.286    7.045
  529.434   96.077    0.292    7.050
  529.684  102.012    0.296    6.526
  529.934  107.357    0.302    5.923
  530.184  109.158    0.305    5.700
  530.434  105.052    0.308    5.703
  530.684   89.725    0.313    5.383
  530.934   77.352    0.326    4.886
  531.184   69.703    0.345    4.611
  531.434   69.141    0.367    4.525
  531.684   73.305    0.366    4.271
  531.934   77.468    0.361    4.030
  532.184   84.001    0.359    3.803
  532.434   81.668    0.351    3.660
  532.684   78.744    0.348    3.663
  532.934   75.834    0.343    3.737
  533.184   75.849    0.340    3.888
  533.434   78.240    0.331    4.046
  533.684   80.632    0.327    4.463
  533.934   83.024    0.317    4.734
  534.184   87.792    0.312    5.325
  534.434   90.767    0.301    5.992
  534.684   94.930    0.289    6.112
  534.934   97.322    0.281    6.360
  535.184  100.304    0.278    6.488
  535.434  101.529    0.270    6.620
  535.684  100.391    0.268    7.022
  535.934   99.808    0.266    7.747
  536.184   97.482    0.265    8.546
  536.434   95.141    0.260    9.428
  536.684   89.264    0.242   10.603
  536.934   79.844    0.205   11.928
  537.184   74.564    0.182   10.616
  537.434   76.365    0.157    9.267
  537.684   79.340    0.195    7.339
  537.934   84.692    0.250    6.043
  538.184   90.037    0.279    5.276
  538.434   94.791    0.277    4.979
  538.684  100.726    0.279    4.792
  538.934  105.487    0.278    4.793
  539.184  105.509    0.278    4.796
  539.434  100.821    0.283    4.527
  539.684   95.534    0.290    4.356
  539.934   87.892    0.301    4.032
  540.184   84.961    0.315    3.659
  540.434   85.588    0.350    3.258
  540.684   87.396    0.344    3.260
  540.934   88.001    0.328    3.392
  541.184   90.400    0.316    3.599
  541.434   92.194    0.308    3.818
  541.684   94.600    0.300    4.129
  541.934   96.992    0.286    4.737
  542.184   95.249    0.323    5.025
  542.434   91.136    0.334    4.836
  542.684   87.038    0.340    4.305
  542.934   84.107    0.345    4.142
  543.184   80.593    0.353    3.834
  543.434   78.850    0.354    3.549
  543.684   77.705    0.348    3.482
  543.934   77.151    0.343    3.553
  544.184   77.770    0.333    3.625
  544.434   78.376    0.322    3.846
  544.684   81.372    0.317    4.002
  544.934   83.764    0.331    4.164
  545.184   85.565    0.341    4.166
  545.434   86.775    0.346    4.088
  545.684   86.804    0.351    4.090
