~VERSION INFORMATION
 VERS.                 2.0:   CWLS LOG ASCII STANDARD -VERSION 2.0
 WRAP.                  NO:   ONE LINE PER DEPTH STEP
~WELL INFORMATION BLOCK
#MNEM.UNIT           DATA                    DESCRIPTION OF MNEMONIC
#---------    -------------------            -------------------------------
# Generated from Intellog Unique Number	CS_67_68/WELL/820
WELL.         DOME PETROLEUM LIMITED         : Well_name    - WELL
LOC .         00/11-08-068-01W4/0            : Location     - LOCATION
UWI .         00/11-08-068-01W4/0            : Uwi          - UNIQUE WELL ID
ENTR.         SP                             : Entered      - ENTERED BY
SRVC.         SCHLUMBERGER                   : Scn          - SERVICE COMPANY
STRT.M        380                            : top_depth    - START DEPTH
STOP.M        635                            : bot_depth    - STOP DEPTH
STEP.M        0.25                           : increment    - STEP LENGTH
 NULL. -999.2500:NULL Value
~CURVE INFORMATION BLOCK
#MNEM UNIT       ERCB CURVE CODE    CURVE DESCRIPTION
#-----------   ------------------   ----------------------------------
DEPT.M        00 001 00 00         : DEPTH        - DEPTH
ILD .OHMM     00 120 00 00         : RESD         - DEEP RESISTIVITY (DIL)
DPHI.V/V      00 890 00 00         : PHID         - DENSITY POROSITY (LIMESTONE)
NPHI.V/V      00 330 00 00         : PHIN         - NEUTRON POROSITY (LIMESTONE)
GR  .API      00 310 00 00         : GR           - GAMMA RAY
~PARAMETER INFORMATION
#MNEM.UNIT           DATA             DESCRIPTION OF MNEMONIC
#---------         -----------     ------------------------------
GL  .M        665.82               : gl           - GROUND LEVEL ELEVATION
EREF.M        669.7                : kb           - ELEVATION OF DEPTH REFERENCE
DATM.M        665.82               : datum        - DATUM ELEVATION
TDD .M        634                  : tdd          - TOTAL DEPTH DRILLER
RUN .         ONE                  : Run          - RUN NUMBER
ENG .         BILL                 : Engineer     - RECORDING ENGINEER
WIT .         JIM                  : Witness      - WITNESSED BY
MUD .         GEL                  : Mud_type     - MUD TYPE
MATR.         LIMESTONE            : Logunit      - NEUTRON MATRIX
TMAX.C        25                   : BHT          - MAXIMUM RECORDED TEMPERATURE
BHTD.M        636                  : BHTDEP       - MAXIMUM RECORDED TEMPERATURE
MATR.         1                    : LOGUNIT      - NEUTRON MATRIX
RMT .C        25                   : MDTP         - TEMPERATURE OF MUD
NEUT.         1                    : NEUTRON      - NEUTRON TYPE
RESI.         0                    : RESIST       - RESISTIVITY TYPE
RMC .OHMM     0.25                 : RMC          - RESISTIVITY OF MUD CAKE
RMF .OHMM     0.25                 : RMF          - RESISTIVITY OF MUD FILTRATE
SUFT.C        15                   : SUFT         - SURFACE TEMPERATURE
~A  DEPTH     RESD     PHID     PHIN       GR
  380.000    2.429    0.259    0.496  116.352
  380.250    2.550    0.256    0.495  116.491
  380.500    2.622    0.256    0.484  116.513
  380.750    2.671    0.258    0.479  116.222
  381.000    2.640    0.254    0.476  115.867
  381.250    2.644    0.243    0.462  114.968
  381.500    2.684    0.235    0.466  114.980
  381.750    2.754    0.233    0.478  117.638
  382.000    2.848    0.238    0.484  113.052
  382.250    2.951    0.244    0.489  109.509
  382.500    3.057    0.248    0.493  108.664
  382.750    3.073    0.248    0.497  112.611
  383.000    3.096    0.246    0.470  114.041
  383.250    3.060    0.243    0.459  114.734
  383.500    3.042    0.240    0.464  115.733
  383.750    3.053    0.240    0.473  117.471
  384.000    3.041    0.242    0.480  118.903
  384.250    3.052    0.242    0.486  119.531
  384.500    3.085    0.240    0.470  120.101
  384.750    3.131    0.235    0.458  119.811
  385.000    3.202    0.228    0.457  116.821
  385.250    3.367    0.234    0.470  113.706
  385.500    3.528    0.217    0.475  110.653
  385.750    3.607    0.190    0.464  107.906
  386.000    3.647    0.183    0.454  113.021
  386.250    3.538    0.209    0.469  117.211
  386.500    3.459    0.219    0.477  119.993
  386.750    3.293    0.227    0.459  121.482
  387.000    3.225    0.229    0.457  120.827
  387.250    3.153    0.230    0.471  120.598
  387.500    3.070    0.231    0.477  120.184
  387.750    3.064    0.232    0.471  118.727
  388.000    3.115    0.234    0.479  115.860
  388.250    3.197    0.235    0.490  115.200
  388.500    3.232    0.236    0.496  116.447
  388.750    3.225    0.235    0.482  117.448
  389.000    3.225    0.231    0.490  118.632
  389.250    3.206    0.230    0.501  121.290
  389.500    3.272    0.230    0.512  122.777
  389.750    3.358    0.231    0.518  123.347
  390.000    3.479    0.232    0.522  119.498
  390.250    3.618    0.230    0.508  115.831
  390.500    3.686    0.227    0.482  111.306
  390.750    3.712    0.226    0.463  109.662
  391.000    3.642    0.227    0.447  121.775
  391.250    3.520    0.231    0.439  132.660
  391.500    3.371    0.237    0.442  131.697
  391.750    3.210    0.242    0.438  124.042
  392.000    3.056    0.244    0.456  120.063
  392.250    2.910    0.246    0.481  114.802
  392.500    2.876    0.250    0.497  115.740
  392.750    3.106    0.251    0.501  116.186
  393.000    3.601    0.251    0.491  114.853
  393.250    4.059    0.254    0.496  115.115
  393.500    4.663    0.259    0.505  116.115
  393.750    5.197    0.271    0.489  106.924
  394.000    5.947    0.288    0.434   98.407
  394.250    6.605    0.296    0.403   86.942
  394.500    8.162    0.283    0.380   88.187
  394.750    8.796    0.275    0.385   94.650
  395.000    9.096    0.270    0.397  101.241
  395.250    9.423    0.265    0.404  101.438
  395.500    9.854    0.267    0.391   91.018
  395.750   10.345    0.286    0.373   78.817
  396.000   11.232    0.311    0.354   67.537
  396.250   11.550    0.308    0.339   60.062
  396.500   11.722    0.297    0.337   70.210
  396.750   11.653    0.289    0.346   77.660
  397.000   11.348    0.282    0.357   82.525
  397.250   10.968    0.282    0.368   89.298
  397.500   10.762    0.296    0.378   94.105
  397.750   10.579    0.303    0.381   94.981
  398.000   10.478    0.303    0.383   95.059
  398.250   10.553    0.297    0.385   95.935
  398.500   10.751    0.288    0.388   98.408
  398.750   10.972    0.281    0.395  100.082
  399.000   11.282    0.273    0.383   91.259
  399.250   11.579    0.274    0.370   83.539
  399.500   11.620    0.289    0.363   77.479
  399.750   11.552    0.299    0.371   76.637
  400.000   11.208    0.297    0.382   76.161
  400.250   10.732    0.291    0.378   81.828
  400.500    9.972    0.284    0.369   93.080
  400.750    9.248    0.276    0.364   99.484
  401.000    9.263    0.269    0.368  104.230
  401.250    9.926    0.288    0.426  109.956
  401.500   10.400    0.297    0.444  106.044
  401.750   10.715    0.308    0.442   97.283
  402.000   10.956    0.315    0.418   90.363
  402.250   10.892    0.310    0.407   86.570
  402.500    9.989    0.305    0.416   85.973
  402.750    9.334    0.299    0.406   84.396
  403.000    8.888    0.283    0.389   82.324
  403.250    8.671    0.266    0.386   90.016
  403.500    8.701    0.236    0.401   95.867
  403.750    8.814    0.241    0.406   96.682
  404.000    8.929    0.250    0.412   96.148
  404.250    9.078    0.236    0.431   97.022
  404.500    9.248    0.242    0.442  101.463
  404.750    9.193    0.273    0.435  105.040
  405.000    9.020    0.283    0.423  108.620
  405.250    9.018    0.290    0.430  111.153
  405.500    9.360    0.289    0.439  111.481
  405.750    9.862    0.283    0.440  111.186
  406.000   10.430    0.273    0.427  100.520
  406.250   11.114    0.257    0.399   91.327
  406.500   11.494    0.240    0.370   85.759
  406.750   12.317    0.218    0.377   80.311
  407.000   12.954    0.217    0.366   67.126
  407.250   13.675    0.293    0.353   57.445
  407.500   14.035    0.311    0.340   50.339
  407.750   14.296    0.320    0.335   45.382
  408.000   14.134    0.324    0.346   39.630
  408.250   13.661    0.330    0.357   36.452
  408.500   12.434    0.328    0.330   35.794
  408.750   11.275    0.321    0.312   46.620
  409.000   10.380    0.299    0.308   56.276
  409.250    9.609    0.272    0.375   81.467
  409.500    9.499    0.254    0.395   94.562
  409.750    9.604    0.263    0.400  106.429
  410.000    9.265    0.278    0.402  115.470
  410.250    8.593    0.292    0.408  121.751
  410.500    8.075    0.297    0.397  128.030
  410.750    7.364    0.300    0.389  134.064
  411.000    6.715    0.284    0.409  138.318
  411.250    6.055    0.259    0.429  138.214
  411.500    5.659    0.238    0.435  132.893
  411.750    5.318    0.220    0.425  129.897
  412.000    5.188    0.212    0.432  130.653
  412.250    5.177    0.229    0.446  133.557
  412.500    5.728    0.222    0.467  133.755
  412.750    7.105    0.217    0.484  129.168
  413.000    8.601    0.251    0.481  122.676
  413.250   10.570    0.316    0.455   78.056
  413.500   11.938    0.336    0.421   60.513
  413.750   13.035    0.347    0.401   48.681
  414.000   13.811    0.352    0.369   46.919
  414.250   14.149    0.354    0.360   48.654
  414.500   14.279    0.351    0.364   54.445
  414.750   14.222    0.349    0.373   58.329
  415.000   13.491    0.355    0.384   61.600
  415.250   12.559    0.364    0.400   62.599
  415.500   12.026    0.366    0.397   66.238
  415.750   11.645    0.355    0.388   69.510
  416.000   11.469    0.352    0.385   72.414
  416.250   11.106    0.352    0.393   72.493
  416.500   10.223    0.337    0.400   71.836
  416.750    8.698    0.305    0.386   74.185
  417.000    7.061    0.283    0.385   79.421
  417.250    5.753    0.262    0.393   86.559
  417.500    5.188    0.249    0.405  115.250
  417.750    5.100    0.238    0.421  129.511
  418.000    5.980    0.229    0.443  131.432
  418.250    7.253    0.216    0.475  127.828
  418.500    9.271    0.207    0.467  121.458
  418.750   10.393    0.199    0.454  116.257
  419.000   11.848    0.245    0.445  112.713
  419.250   12.865    0.266    0.430  110.152
  419.500   13.606    0.281    0.416  100.468
  419.750   13.350    0.282    0.409   93.856
  420.000   12.616    0.279    0.411   91.784
  420.250   11.811    0.273    0.410   92.230
  420.500   11.120    0.268    0.423   97.775
  420.750   10.829    0.267    0.435  100.247
  421.000   10.990    0.270    0.438   99.712
  421.250   11.153    0.260    0.437   99.914
  421.500   11.193    0.259    0.425   99.316
  421.750   10.617    0.265    0.418   98.228
  422.000    9.682    0.270    0.423   98.430
  422.250    9.376    0.264    0.441  100.353
  422.500   10.276    0.262    0.451  102.761
  422.750   11.053    0.261    0.418  101.305
  423.000   12.091    0.270    0.390   79.588
  423.250   12.764    0.335    0.374   63.272
