~VERSION INFORMATION
 VERS.                 2.0:   CWLS LOG ASCII STANDARD -VERSION 2.0
 WRAP.                  NO:   ONE LINE PER DEPTH STEP
~WELL INFORMATION BLOCK
#MNEM.UNIT           DATA                    DESCRIPTION OF MNEMONIC
#---------    -------------------            -------------------------------
# Generated from Intellog Unique Number	CW_73_75/WELL/3022
WELL.         HOME ALMINEX KCL MARTEN H 11-0 : Well_name    - WELL
LOC .         00/11-05-074-25W4/0            : Location     - LOCATION
UWI .         00/11-05-074-25W4/0            : Uwi          - UNIQUE WELL ID
ENTR.         JJ                             : Entered      - ENTERED BY
SRVC.         SCHLUMBERGER                   : Scn          - SERVICE COMPANY
DATE.         20 FEB 66                      : Date         - LOG DATE
STRT.M        460.248                        : top_depth    - START DEPTH
STOP.M        588.248                        : bot_depth    - STOP DEPTH
STEP.M        0.25                           : increment    - STEP LENGTH
 NULL. -999.2500:NULL Value
~CURVE INFORMATION BLOCK
#MNEM UNIT       ERCB CURVE CODE    CURVE DESCRIPTION
#-----------   ------------------   ----------------------------------
DEPT.M        00 001 00 00         : DEPTH        - DEPTH
DELT.US/F     00 520 00 00         : DELT         - SONIC TRAVEL TIME
GR  .API      00 310 00 00         : GR           - GAMMA RAY
ILD .OHMM     00 120 00 00         : RESD         - DEEP RESISTIVITY (DIL)
~PARAMETER INFORMATION
#MNEM.UNIT           DATA             DESCRIPTION OF MNEMONIC
#---------         -----------     ------------------------------
GL  .M        656.722              : gl           - GROUND LEVEL ELEVATION
EREF.M        660.014              : kb           - ELEVATION OF DEPTH REFERENCE
DATM.M        656.722              : datum        - DATUM ELEVATION
TDD .M        596.189              : tdd          - TOTAL DEPTH DRILLER
RUN .         ONE                  : Run          - RUN NUMBER
ENG .         SWINARTON            : Engineer     - RECORDING ENGINEER
WIT .         DAWSON-GROVE         : Witness      - WITNESSED BY
BASE.         EDM                  : Branch       - HOME BASE OF LOGGING UNIT
MUD .         GEL CHEM             : Mud_type     - MUD TYPE
MATR.         SANDSTONE            : Logunit      - NEUTRON MATRIX
TMAX.C        18.3333              : BHT          - MAXIMUM RECORDED TEMPERATURE
BHTD.M        594.665              : BHTDEP       - MAXIMUM RECORDED TEMPERATURE
RMT .C        14.4444              : MDTP         - TEMPERATURE OF MUD
MUDD.KG/M     1020                 : MWT          - MUD DENSITY
NEUT.         1                    : NEUTRON      - NEUTRON TYPE
RESI.         0                    : RESIST       - RESISTIVITY TYPE
RM  .OHMM     3.49                 : RM           - RESISTIVITY OF MUD
RMC .OHMM     2.96                 : RMC          - RESISTIVITY OF MUD CAKE
RMF .OHMM     3.13                 : RMF          - RESISTIVITY OF MUD FILTRATE
SUFT.C        5                    : SUFT         - SURFACE TEMPERATURE
~A  DEPTH     DELT       GR     RESD
# ...
  514.498  356.335   80.013    6.328
  514.748  363.808   67.192    6.823
  514.998  303.745   58.667    8.054
  515.248  268.981   50.890    9.485
  515.498  275.450   59.302   10.103
  515.748  281.319   60.469    9.337
  515.998  258.001   58.738    8.001
  516.248  259.252   67.749    6.910
  516.498  311.172   71.563    6.468
  516.748  333.573   72.132    6.110
  516.998  319.627   70.349    6.036
  517.248  326.433   72.316    6.002
  517.498  350.307   75.234    6.050
  517.748  354.564   73.401    6.057
  517.998  355.279   69.323    5.943
  518.248  352.245   71.191    5.788
  518.498  337.026   72.955    5.876
  518.748  328.707   72.826    5.642
  518.998  339.393   76.587    5.526
  519.248  350.879   76.806    5.490
  519.498  348.651   78.972    5.458
  519.748  353.782   84.535    5.383
  519.998  360.719   78.758    5.391
  520.248  360.894   74.181    5.439
  520.498  360.207   74.198    5.611
  520.748  355.762   77.916    5.780
  520.998  352.398   78.881    5.868
  521.248  350.031   75.401    5.917
  521.498  347.398   72.819    5.723
  521.748  341.888   75.137    5.607
  521.998  346.013   76.652    5.491
  522.248  342.578   74.874    5.458
  522.498  336.129   77.638    5.424
  522.748  335.433   81.503    5.309
  522.998  343.645   84.418    5.195
  523.248  351.860   80.989    5.201
  523.498  351.429   78.258    5.211
  523.748  348.866   75.328    5.298
  523.998  349.981   73.200    5.387
  524.248  348.957   71.418    5.557
  524.498  343.915   73.433    5.892
  524.748  337.733   79.097    6.143
  524.998  347.016   83.711    6.557
  525.248  360.648   84.229    7.094
  525.498  376.153   75.653    8.037
  525.748  418.434   62.181   11.668
  525.998  469.550   53.958   21.855
  526.248  442.286   50.176   40.186
  526.498  414.752   44.149   62.994
  526.748  363.858   40.023   67.685
  526.998  283.446   35.943   67.123
  527.248  204.037   38.658   63.383
  527.498  235.139   41.274   35.255
  527.748  279.094   43.892   27.648
  527.998  310.461   46.806   22.730
  528.248  330.589   49.123   21.067
  528.498  319.786   48.439   19.690
  528.748  315.480   47.157   18.721
  528.998  328.780   48.274   17.994
  529.248  343.749   50.342   16.944
  529.498  356.244   50.209   15.851
  529.748  369.743   49.677   14.678
  529.998  359.008   49.744   14.116
  530.248  361.462   49.312   14.285
  530.498  363.919   50.133   14.781
  530.748  360.817   49.100   15.848
  530.998  340.714   47.020   16.711
  531.248  336.606   50.183   17.044
  531.498  350.774   52.199   16.889
  531.748  372.843   48.126   16.284
  531.998  364.787   49.041   15.478
  532.248  348.030   51.304   15.200
  532.498  344.189   53.170   15.371
  532.748  342.898   50.991   15.825
  532.998  341.268   49.913   16.606
  533.248  348.740   51.230   17.551
  533.498  368.732   53.893   18.739
  533.748  374.401   55.858   19.601
  533.998  366.810   55.627   20.096
  534.248  360.765   52.697   20.512
  534.498  348.024   53.266   20.071
  534.748  351.619   55.032   18.328
  534.998  358.289   55.098   16.909
  535.248  364.357   50.120   15.860
  535.498  353.089   48.939   15.501
  535.748  331.581   50.707   15.589
  535.998  337.849   51.271   15.921
  536.248  341.642   50.042   16.581
  536.498  321.273   50.715   17.403
  536.748  316.093   52.277   17.775
  536.998  317.945   56.090   17.417
  537.248  332.047   58.009   15.511
  537.498  332.292   57.977   13.197
  537.748  315.203   56.842   11.209
  537.998  332.046   63.158    8.896
  538.248  355.718   72.169    6.948
  538.498  348.129   74.882    5.694
  538.748  344.427   70.609    5.212
  538.998  344.671   68.972    5.016
  539.248  345.183   68.095    4.983
  539.498  344.420   66.861    5.237
  539.748  342.528   64.781    5.405
  539.998  339.898   61.952    5.862
  540.248  346.164   60.072    6.397
  540.498  349.358   58.441    7.463
  540.748  349.200   53.909    8.285
  540.998  345.628   54.578    8.577
  541.248  341.993   57.293    8.666
  541.498  334.070   60.161    8.511
  541.748  325.081   60.577    8.193
  541.998  329.342   60.295    7.914
  542.248  343.038   60.761    7.514
  542.498  351.117   57.634    7.360
  542.748  352.694   58.998    7.327
  542.998  350.664   58.416    7.417
  543.248  349.576   54.987    7.585
  543.498  349.286   57.356    7.920
  543.748  345.646   56.872    8.292
  543.998  336.923   54.992    8.707
  544.248  317.355   54.759    9.162
  544.498  305.084   54.429    9.618
  544.748  295.957   53.997   10.032
  544.998  299.480   54.663   10.323
  545.248  311.911   58.429   11.107
  545.498  303.517   56.298   11.520
  545.748  292.787   56.019   12.260
  545.998  283.929   57.185   13.000
  546.248  278.816   56.852   13.782
  546.498  277.728   53.371   14.848
  546.748  270.943   48.393   15.751
  546.998  254.789   49.110   16.246
  547.248  248.677   50.777   16.335
  547.498  240.486   51.195   15.325
  547.748  254.654   50.461   13.826
  547.998  285.758   47.434   12.164
  548.248  297.717   48.900   10.542
  548.498  290.798   53.865    8.555
  548.748  283.481   63.225    7.503
  548.998  300.124   67.942    7.635
  549.248  330.958   71.107    7.884
  549.498  319.690   72.220    8.218
  549.748  315.585   70.641    8.349
  549.998  315.094   67.162    8.315
  550.248  308.645   65.629    8.201
  550.498  293.897   71.343    8.045
  550.748  305.454   79.955    8.012
  550.998  320.091   82.823    7.775
  551.248  327.899   83.838    7.739
  551.498  325.198   83.005    7.504
  551.748  325.512   81.828    7.389
  551.998  324.818   80.891    7.315
  552.248  328.612   80.062    7.281
  552.498  331.535   83.177    7.250
  552.748  325.350   81.196    7.338
  552.998  318.839   83.512    7.507
  553.248  334.812   83.030    7.841
  553.498  331.512   78.801    8.255
  553.748  310.670   73.223    9.200
  553.998  304.355   67.999    9.858
  554.248  311.159   66.914   10.272
  554.498  322.315   66.983   10.442
  554.748  294.249   70.249   11.062
  554.998  282.244   73.812   11.802
  555.248  312.876   72.481   12.133
  555.498  303.952   65.254   12.426
  555.748  296.902   62.275   12.555
  555.998  303.573   63.044   12.278
  556.248  319.080   65.861   11.676
  556.498  328.160   68.575   10.828
  556.748  335.165   71.590    9.979
  556.998  324.566   74.357    8.807
  557.248  312.228   77.522    7.797
  557.498  310.462   80.587    7.477
  557.748  319.144   82.401    8.625
  557.998  341.344   68.081   10.301
  558.248  324.320   58.209   12.140
  558.498  253.479   48.083   14.186
  558.748  240.403   47.852   14.517
  558.998  255.706   58.610   13.181
  559.248  272.622   67.720   11.642
  559.498  290.335   77.731   10.428
  559.748  318.963   78.250    9.499
  559.998  298.859   72.521    9.342
  560.248  286.519   66.042    9.187
  560.498  299.281   70.160    8.910
  560.748  313.178   72.625    8.959
  560.998  299.036   69.495    8.804
  561.248  287.165   67.864    8.648
  561.498  304.276   72.830    8.533
  561.748  318.577   78.393    8.460
  561.998  327.861   83.006    8.427
  562.248  327.168   83.572    8.473
  562.498  312.488   75.346    8.562
  562.748  298.741   71.567    8.651
  562.998  301.734   68.887    8.658
  563.248  314.357   72.452    8.584
  563.498  320.361   75.868    8.510
  563.748  327.833   79.082    8.475
  563.998  315.227   79.103    8.525
  564.248  307.107   79.469    8.735
  564.498  326.428   82.284    9.029
  564.748  333.636   77.808    9.605
  564.998  310.454   72.681   10.508
  565.248  278.436   66.952   10.963
  565.498  270.850   69.117   10.971
  565.748  297.400   76.680   10.652
  565.998  318.395   79.243    9.479
  566.248  310.072   80.261    8.591
  566.498  299.941   77.480    8.598
  566.748  294.565   79.398    9.624
  566.998  291.530   79.316   10.120
  567.248  266.137   74.486    9.110
  567.498  249.649   71.459    8.059
  567.748  267.564   71.776    7.046
  567.998  289.225   74.240    5.305
  568.248  328.030   78.306    4.050
  568.498  363.949   81.622    3.285
