~VERSION INFORMATION
 VERS.                 2.0:   CWLS LOG ASCII STANDARD -VERSION 2.0
 WRAP.                  NO:   ONE LINE PER DEPTH STEP
~WELL INFORMATION BLOCK
#MNEM.UNIT           DATA                    DESCRIPTION OF MNEMONIC
#---------    -------------------            -------------------------------
# Generated from Intellog Unique Number	CW_73_75/WELL/2738
WELL.         MANNVILLE ET AL FAWCETT 10-05  : Well_name    - WELL
LOC .         00/10-05-073-01W5/0            : Location     - LOCATION
UWI .         00/10-05-073-01W5/0            : Uwi          - UNIQUE WELL ID
ENTR.         JAYE                           : Entered      - ENTERED BY
SRVC.         SCHLUMBERGER                   : Scn          - SERVICE COMPANY
DATE.         20 NOV 77                      : Date         - LOG DATE
STRT.M        426.72                         : top_depth    - START DEPTH
STOP.M        685.72                         : bot_depth    - STOP DEPTH
STEP.M        0.25                           : increment    - STEP LENGTH
 NULL. -999.2500:NULL Value
~CURVE INFORMATION BLOCK
#MNEM UNIT       ERCB CURVE CODE    CURVE DESCRIPTION
#-----------   ------------------   ----------------------------------
DEPT.M        00 001 00 00         : DEPTH        - DEPTH
DPHI.V/V      00 890 00 00         : PHID         - DENSITY POROSITY (SANDSTONE)
NPHI.V/V      00 330 00 00         : PHIN         - NEUTRON POROSITY (SANDSTONE)
GR  .API      00 310 00 00         : GR           - GAMMA RAY
CALI.MM       00 280 01 00         : CAL          - CALIPER
ILD .OHMM     00 120 00 00         : RESD         - DEEP RESISTIVITY (DIL)
~PARAMETER INFORMATION
#MNEM.UNIT           DATA             DESCRIPTION OF MNEMONIC
#---------         -----------     ------------------------------
GL  .M        635.203              : gl           - GROUND LEVEL ELEVATION
EREF.M        638.251              : kb           - ELEVATION OF DEPTH REFERENCE
DATM.M        635.203              : datum        - DATUM ELEVATION
TDD .M        694.944              : tdd          - TOTAL DEPTH DRILLER
RUN .         ONE                  : Run          - RUN NUMBER
ENG .         KUBICA/RIVOLLIER     : Engineer     - RECORDING ENGINEER
WIT .         WOOLLEY              : Witness      - WITNESSED BY
BASE.         EDM                  : Branch       - HOME BASE OF LOGGING UNIT
MUD .         GEL                  : Mud_type     - MUD TYPE
MATR.         SANDSTONE            : Logunit      - NEUTRON MATRIX
TMAX.C        21.1111              : BHT          - MAXIMUM RECORDED TEMPERATURE
BHTD.M        694.944              : BHTDEP       - MAXIMUM RECORDED TEMPERATURE
RMT .C        11.1111              : MDTP         - TEMPERATURE OF MUD
MUDD.KG/M     1116                 : MWT          - MUD DENSITY
NEUT.         1                    : NEUTRON      - NEUTRON TYPE
RESI.         0                    : RESIST       - RESISTIVITY TYPE
RM  .OHMM     3.89                 : RM           - RESISTIVITY OF MUD
RMC .OHMM     0                    : RMC          - RESISTIVITY OF MUD CAKE
RMF .OHMM     5.51                 : RMF          - RESISTIVITY OF MUD FILTRATE
SUFT.C        -17.7778             : SUFT         - SURFACE TEMPERATURE
~A  DEPTH     PHID     PHIN       GR      CAL     RESD
# ...
  645.720    0.227    0.280   17.227  159.502    5.784
  645.970    0.236    0.285   17.826  158.148    5.232
  646.220    0.228    0.268   19.234  156.585    4.644
  646.470    0.171    0.246   21.894  155.966    4.265
  646.720    0.140    0.222   28.982  156.081    4.131
  646.970    0.181    0.252   38.382  156.406    4.391
  647.220    0.195    0.269   53.145  157.888    5.094
  647.470    0.059    0.271   63.979  160.521    6.291
  647.720    0.026    0.197   63.267  163.366    8.177
  647.970    0.001    0.169   51.321  165.372   10.118
  648.220    0.003    0.166   37.443  166.642   14.271
  648.470    0.005    0.191   38.727  166.757   17.759
  648.720    0.019    0.218   42.570  166.874   19.276
  648.970    0.033    0.200   43.484  166.988   19.392
  649.220    0.026    0.181   44.518  166.685   18.641
  649.470    0.003    0.164   46.490  166.169   17.382
  649.720    0.016    0.185   50.081  165.130   15.399
  649.970    0.042    0.206   61.291  163.357   13.034
  650.220    0.078    0.269   79.364  160.219   11.012
  650.470    0.123    0.334  109.046  159.075    9.718
  650.720    0.099    0.307  106.026  161.395    8.808
  650.970    0.095    0.278   97.698  165.920    8.929
  651.220    0.083    0.257   88.124  166.979   10.047
  651.470    0.064    0.245   79.485  166.675   11.610
  651.720    0.053    0.223   71.599  166.896   13.726
  651.970    0.032    0.194   66.020  167.432   16.475
  652.220    0.026    0.181   67.303  167.022   18.087
  652.470    0.015    0.219   75.016  163.254   17.059
  652.720    0.064    0.258   83.290  160.642   15.199
  652.970    0.083    0.286   83.264  161.176   14.472
  653.220    0.065    0.242   73.816  162.866   15.949
  653.470    0.000    0.193   65.177  164.242   20.343
  653.720    0.047    0.093   54.915  165.302   24.141
  653.970    0.086    0.107   31.048  165.837   29.364
  654.220    0.113    0.123   40.696  166.372   37.239
  654.470    0.106    0.135   48.412  167.119   42.465
  654.720    0.096    0.165   53.753  167.549   32.627
  654.970    0.088    0.181   59.847  167.979   23.998
  655.220    0.077    0.199   65.434  167.885   21.381
  655.470    0.063    0.227   74.894  168.000   18.305
  655.720    0.052    0.241   83.920  167.906   14.252
  655.970    0.079    0.258   96.937  168.021   10.664
  656.220    0.127    0.295  130.363  168.767    8.575
  656.470    0.171    0.401  142.572  170.982    7.454
  656.720    0.112    0.393  145.040  173.617    6.938
  656.970    0.094    0.374  136.777  174.048    6.771
  657.220    0.063    0.355  125.644  173.953    6.747
  657.470    0.029    0.350  126.928  168.400    6.827
  657.720    0.053    0.347  128.652  167.992    6.855
  657.970    0.131    0.325  131.808  168.948    6.503
  658.220    0.151    0.320  142.579  170.323    5.695
  658.470    0.146    0.389  141.119  171.278    4.998
  658.720    0.146    0.336  130.424  169.923    4.608
  658.970    0.160    0.316  124.402  165.526    4.540
  659.220    0.171    0.309  120.011  162.912    4.637
  659.470    0.158    0.302  128.907  163.449    4.827
  659.720    0.149    0.293  139.928  164.614    5.044
  659.970    0.120    0.285  148.766  165.779    5.342
  660.220    0.091    0.289  153.858  166.839    5.593
  660.470    0.111    0.300  155.330  167.794    5.956
  660.720    0.111    0.307  142.260  168.435    6.165
  660.970    0.104    0.295  130.938  169.285    5.514
  661.220    0.129    0.277  118.868  169.507    5.484
  661.470    0.143    0.253  112.794  168.993    5.863
  661.720    0.109    0.232  108.521  168.584    6.268
  661.970    0.071    0.210  103.437  168.173    6.765
  662.220    0.078    0.226   95.485  167.764    7.302
  662.470    0.099    0.270  103.699  167.461    7.820
  662.720    0.115    0.300  114.844  167.156    6.915
  662.970    0.099    0.353  123.744  167.167    6.196
  663.220    0.048    0.363  117.230  167.283    5.723
  663.470    0.044    0.368  113.894  168.027    5.306
  663.720    0.090    0.387  125.165  171.292    5.198
  663.970    0.147    0.371  137.187  171.722    5.250
  664.220    0.138    0.351  140.529  171.210    5.322
  664.470    0.118    0.332  139.945  171.324    5.415
  664.720    0.107    0.344  141.482  172.070    5.563
  664.970    0.098    0.364  142.201  173.235    5.661
  665.220    0.110    0.345  139.245  173.979    5.805
  665.470    0.108    0.325  127.794  174.412    5.895
  665.720    0.084    0.318  128.644  174.842    6.010
  665.970    0.102    0.332  135.486  175.167    6.023
  666.220    0.114    0.351  138.577  174.968    6.003
  666.470    0.127    0.327  133.371  174.139    5.926
  666.720    0.118    0.324  129.664  172.574    5.871
  666.970    0.083    0.385  132.696  171.640    5.774
  667.220    0.119    0.396  134.857  171.233    5.667
  667.470    0.081    0.368  126.093  170.299    5.552
  667.720    0.064    0.356  130.999  169.993    5.398
  667.970    0.096    0.366  137.963  169.584    5.268
  668.220    0.131    0.387  142.429  169.489    4.997
  668.470    0.138    0.409  136.355  170.342    4.607
  668.720    0.094    0.444  125.901  170.772    4.128
  668.970    0.042    0.451  113.144  170.361    3.154
  669.220    0.062    0.362  100.200  169.322    3.095
  669.470    0.035    0.231   79.454  165.451    3.253
  669.720    0.052    0.206   39.735  161.996    3.445
  669.970    0.096    0.201   35.282  157.073    3.641
  670.220    0.146    0.242   44.553  154.985    3.870
  670.470    0.190    0.275   58.382  155.520    4.217
  670.720    0.159    0.267   80.702  158.995    4.466
  670.970    0.150    0.271   91.907  162.261    4.658
  671.220    0.136    0.299  121.651  164.896    4.830
  671.470    0.139    0.342  138.102  167.319    4.981
  671.720    0.140    0.370  144.318  167.225    5.049
  671.970    0.125    0.411  153.216  163.037    4.984
  672.220    0.136    0.443  150.385  164.517    4.535
  672.470    0.164    0.436  143.307  166.417    3.979
  672.720    0.146    0.431  135.353  166.114    3.675
  672.970    0.106    0.430  128.025  165.704    3.201
  673.220    0.078    0.422  121.136  165.820    2.746
  673.470    0.038    0.362  112.684  167.616    2.460
  673.720    0.055    0.362  107.543  172.140    2.485
  673.970    0.078    0.383  112.759  173.304    2.606
  674.220    0.066    0.427  111.484  169.536    2.861
  674.470    0.073    0.442  114.392  162.724    3.094
  674.720    0.055    0.456  118.488  163.049    3.320
  674.970    0.076    0.474  118.461  164.320    3.469
  675.220    0.034    0.496  118.436  167.900    3.544
  675.470    0.025    0.512  118.785  172.738    3.572
  675.720    0.035    0.487  119.007  179.047    3.594
  675.970    0.061    0.460  118.859  178.849    3.657
  676.220    0.094    0.440  118.771  174.974    3.757
  676.470    0.101    0.452  118.618  175.300    3.940
  676.720    0.095    0.407  109.730  172.896    4.400
  676.970    0.074    0.337   96.037  169.549    5.465
  677.220    0.051    0.235   78.725  166.201    6.221
  677.470    0.036    0.221   60.787  161.908    7.299
  677.720    0.030    0.217   42.538  157.511    8.434
  677.970    0.047    0.214   39.266  154.163    9.068
  678.220    0.062    0.209   41.176  153.227    7.114
  678.470    0.065    0.194   52.321  156.597    6.091
  678.720    0.079    0.328   89.679  162.906    5.365
  678.970    0.103    0.384  104.820  169.948    5.032
  679.220    0.123    0.379  111.971  177.096    4.809
  679.470    0.142    0.368  106.455  173.538    4.623
  679.720    0.136    0.368  108.116  165.572    4.563
  679.970    0.148    0.434  108.276  169.362    4.582
  680.220    0.147    0.423  103.381  181.968    4.645
  680.470    0.185    0.407   97.740  183.658    4.882
  680.720    0.142    0.408   94.222  178.000    5.493
  680.970    0.137    0.364   81.523  171.923    6.408
  681.220    0.114    0.290   67.268  159.024    7.391
  681.470    0.086    0.281   51.328  154.521    9.128
  681.720    0.113    0.264   42.068  156.946   11.533
  681.970    0.092    0.244   36.488  160.840   14.654
