~VERSION INFORMATION
 VERS.                 2.0:   CWLS LOG ASCII STANDARD -VERSION 2.0
 WRAP.                  NO:   ONE LINE PER DEPTH STEP
~WELL INFORMATION BLOCK
#MNEM.UNIT           DATA                    DESCRIPTION OF MNEMONIC
#---------    -------------------            -------------------------------
# Generated from Intellog Unique Number	CS_73_76/WELL/843
WELL.         MAYNARD ENERGY INC             : Well_name    - WELL
LOC .         00/11-04-073-13W4/0            : Location     - LOCATION
UWI .         00/11-04-073-13W4/0            : Uwi          - UNIQUE WELL ID
ENTR.         SP                             : Entered      - ENTERED BY
SRVC.         SCHLUMBERGER                   : Scn          - SERVICE COMPANY
STRT.M        320                            : top_depth    - START DEPTH
STOP.M        540                            : bot_depth    - STOP DEPTH
STEP.M        0.25                           : increment    - STEP LENGTH
 NULL. -999.2500:NULL Value
~CURVE INFORMATION BLOCK
#MNEM UNIT       ERCB CURVE CODE    CURVE DESCRIPTION
#-----------   ------------------   ----------------------------------
DEPT.M        00 001 00 00         : DEPTH        - DEPTH
ILD .OHMM     00 120 00 00         : RESD         - DEEP RESISTIVITY (DIL)
DPHI.V/V      00 890 00 00         : PHID         - DENSITY POROSITY (LIMESTONE)
NPHI.V/V      00 330 00 00         : PHIN         - NEUTRON POROSITY (LIMESTONE)
GR  .API      00 310 00 00         : GR           - GAMMA RAY
~PARAMETER INFORMATION
#MNEM.UNIT           DATA             DESCRIPTION OF MNEMONIC
#---------         -----------     ------------------------------
GL  .M        667.89               : gl           - GROUND LEVEL ELEVATION
EREF.M        664.44               : kb           - ELEVATION OF DEPTH REFERENCE
DATM.M        667.89               : datum        - DATUM ELEVATION
TDD .M        551                  : tdd          - TOTAL DEPTH DRILLER
RUN .         ONE                  : Run          - RUN NUMBER
ENG .         BILL                 : Engineer     - RECORDING ENGINEER
WIT .         JIM                  : Witness      - WITNESSED BY
MUD .         GEL                  : Mud_type     - MUD TYPE
MATR.         LIMESTONE            : Logunit      - NEUTRON MATRIX
TMAX.C        20                   : BHT          - MAXIMUM RECORDED TEMPERATURE
BHTD.M        551                  : BHTDEP       - MAXIMUM RECORDED TEMPERATURE
MATR.         1                    : LOGUNIT      - NEUTRON MATRIX
RMT .C        25                   : MDTP         - TEMPERATURE OF MUD
NEUT.         1                    : NEUTRON      - NEUTRON TYPE
RESI.         0                    : RESIST       - RESISTIVITY TYPE
RMC .OHMM     0.25                 : RMC          - RESISTIVITY OF MUD CAKE
RMF .OHMM     0.25                 : RMF          - RESISTIVITY OF MUD FILTRATE
SUFT.C        15                   : SUFT         - SURFACE TEMPERATURE
~A  DEPTH     RESD     PHID     PHIN       GR
# ...
  450.500    7.197    0.292    0.403   96.541
  450.750    6.873    0.297    0.402   93.489
  451.000    6.711    0.306    0.408   92.270
  451.250    6.549    0.308    0.417   88.602
  451.500    6.551    0.309    0.433   87.379
  451.750    6.633    0.315    0.437   86.165
  452.000    6.716    0.319    0.430   84.336
  452.250    6.797    0.315    0.420   83.121
  452.500    6.799    0.301    0.413   80.683
  452.750    6.881    0.286    0.407   80.696
  453.000    6.801    0.275    0.418   82.556
  453.250    6.802    0.265    0.433   85.028
  453.500    6.803    0.259    0.444   90.579
  453.750    6.803    0.261    0.454   94.900
  454.000    6.886    0.265    0.453   96.142
  454.250    6.887    0.272    0.447   96.769
  454.500    7.051    0.281    0.436   93.098
  454.750    7.051    0.280    0.430   90.652
  455.000    7.215    0.274    0.426   89.438
  455.250    7.298    0.269    0.426   87.611
  455.500    7.380    0.267    0.428   87.631
  455.750    7.462    0.266    0.422   88.871
  456.000    7.382    0.264    0.417   90.120
  456.250    7.383    0.254    0.412   90.748
  456.500    7.302    0.249    0.410   90.761
  456.750    7.141    0.257    0.414   87.087
  457.000    7.061    0.278    0.423   83.416
  457.250    6.899    0.283    0.434   80.969
  457.500    6.657    0.270    0.437   82.829
  457.750    6.576    0.265    0.434   87.772
  458.000    6.496    0.257    0.435   89.627
  458.250    6.416    0.255    0.435   92.100
  458.500    6.254    0.262    0.430   90.885
  458.750    6.092    0.261    0.425   90.897
  459.000    6.012    0.258    0.423   92.142
  459.250    5.931    0.253    0.419   94.003
  459.500    5.770    0.261    0.427   95.247
  459.750    5.771    0.264    0.430   93.425
  460.000    5.691    0.261    0.448   92.204
  460.250    5.773    0.258    0.462   92.220
  460.500    5.774    0.262    0.452   93.470
  460.750    5.775    0.265    0.448   93.483
  461.000    5.532    0.268    0.451   92.270
  461.250    5.290    0.275    0.454   89.827
  461.500    5.047    0.278    0.456   87.993
  461.750    5.047    0.277    0.460   88.629
  462.000    5.048    0.273    0.462   92.334
  462.250    5.131    0.269    0.455   96.043
  462.500    5.294    0.274    0.454   97.281
  462.750    5.377    0.281    0.461   99.140
  463.000    5.703    0.290    0.454   99.768
  463.250    5.948    0.297    0.435  100.399
  463.500    6.437    0.280    0.421   99.186
  463.750    6.600    0.248    0.409   95.515
  464.000    6.926    0.185    0.397   90.612
  464.250    7.009    0.160    0.393   85.090
  464.500    6.928    0.152    0.402   80.188
  464.750    6.848    0.150    0.412   88.194
  465.000    6.687    0.184    0.423   94.355
  465.250    6.444    0.223    0.429   98.676
  465.500    6.364    0.231    0.432   99.309
  465.750    6.283    0.249    0.428   96.860
  466.000    6.041    0.246    0.424   92.574
  466.250    5.879    0.248    0.422   90.129
  466.500    5.717    0.244    0.421   95.073
  466.750    5.637    0.254    0.426   96.927
  467.000    5.556    0.251    0.435   99.405
  467.250    5.476    0.251    0.445  100.027
  467.500    5.477    0.261    0.457  100.657
  467.750    5.560    0.251    0.465  100.057
  468.000    5.642    0.252    0.471  102.532
  468.250    5.724    0.264    0.462  105.622
  468.500    5.969    0.249    0.457  103.796
  468.750    6.214    0.238    0.456   98.896
  469.000    6.540    0.236    0.462   95.834
  469.250    6.704    0.213    0.466   90.930
  469.500    6.949    0.197    0.468   87.255
  469.750    6.868    0.192    0.463   82.971
  470.000    6.788    0.186    0.456   81.752
  470.250    6.627    0.208    0.451   90.380
  470.500    6.546    0.226    0.447   98.387
  470.750    6.466    0.237    0.438  103.320
  471.000    6.386    0.245    0.430  106.404
  471.250    6.387    0.240    0.427  107.038
  471.500    6.306    0.236    0.432  106.438
  471.750    6.308    0.240    0.432  105.220
  472.000    6.390    0.247    0.435  102.785
  472.250    6.473    0.253    0.432  101.563
  472.500    6.473    0.266    0.431  100.352
  472.750    6.474    0.276    0.432  100.981
  473.000    6.557    0.264    0.436  104.071
  473.250    6.476    0.245    0.445  107.158
  473.500    6.396    0.233    0.445  107.789
  473.750    6.316    0.231    0.442  105.971
  474.000    6.073    0.231    0.442  104.753
  474.250    5.911    0.229    0.442  104.146
  474.500    5.668    0.227    0.450  101.090
  474.750    5.263    0.222    0.455   96.799
  475.000    4.695    0.218    0.454   93.740
  475.250    4.208    0.212    0.454   91.911
  475.500    3.640    0.215    0.456   91.926
  475.750    3.559    0.226    0.471   94.405
  476.000    2.666    0.235    0.484   94.419
  476.250    2.504    0.254    0.498   94.437
  476.500    2.343    0.272    0.519   94.450
  476.750    2.345    0.283    0.540   94.464
  477.000    2.345    0.285    0.545   94.483
  477.250    2.509    0.283    0.549   95.110
  477.500    2.672    0.279    0.541   95.738
  477.750    3.161    0.277    0.525   97.599
  478.000    3.650    0.279    0.508  100.075
  478.250    4.058    0.283    0.498  103.161
  478.500    4.384    0.276    0.492  104.407
  478.750    4.791    0.267    0.484  100.737
  479.000    5.199    0.248    0.479   96.450
  479.250    5.281    0.230    0.470   92.773
  479.500    5.363    0.214    0.464   90.330
  479.750    5.446    0.218    0.459   92.194
  480.000    5.528    0.229    0.454   95.895
  480.250    5.692    0.234    0.449   98.980
  480.500    5.856    0.234    0.440   95.931
  480.750    6.019    0.216    0.435   92.251
  481.000    6.182    0.209    0.429   90.424
  481.250    6.346    0.211    0.424   93.514
  481.500    6.428    0.222    0.418   93.526
  481.750    6.348    0.225    0.414   88.626
  482.000    6.186    0.203    0.408   86.180
  482.250    5.700    0.193    0.405   86.201
  482.500    5.050    0.183    0.403   86.825
  482.750    4.320    0.172    0.406   90.530
  483.000    3.670    0.184    0.434   97.308
  483.250    3.427    0.203    0.458  102.238
  483.500    3.103    0.210    0.481  106.557
  483.750    3.023    0.234    0.500  107.194
  484.000    2.943    0.237    0.503  106.590
  484.250    2.943    0.235    0.503  106.603
  484.500    2.945    0.239    0.501  108.462
  484.750    3.028    0.244    0.511  110.324
  485.000    3.110    0.252    0.522  111.571
  485.250    3.192    0.254    0.523  111.589
  485.500    3.275    0.265    0.519  111.602
  485.750    3.276    0.265    0.502  111.616
  486.000    3.276    0.260    0.493  109.176
  486.250    3.359    0.260    0.483  107.344
  486.500    3.359    0.257    0.482  104.906
  486.750    3.361    0.253    0.483  103.691
  487.000    3.443    0.240    0.483  102.473
  487.250    3.606    0.214    0.484  101.254
  487.500    3.689    0.203    0.495  102.502
  487.750    3.771    0.201    0.500  108.049
  488.000    3.772    0.212    0.503  111.752
  488.250    3.854    0.202    0.504  112.383
  488.500    4.018    0.214    0.497  109.325
  488.750    4.344    0.228    0.493  107.495
  489.000    4.426    0.230    0.482  102.591
  489.250    4.509    0.234    0.476  107.530
  489.500    4.510    0.237    0.464  109.385
  489.750    4.429    0.241    0.457  105.712
  490.000    4.186    0.246    0.464  100.193
  490.250    3.862    0.246    0.479   98.365
  490.500    3.457    0.247    0.488  101.465
  490.750    3.376    0.257    0.496  103.933
  491.000    3.785    0.263    0.500  108.862
  491.250    4.029    0.267    0.500  111.952
  491.500    4.681    0.264    0.480  110.123
  491.750    5.332    0.255    0.461  103.991
  492.000    6.064    0.245    0.442   97.861
  492.250    6.635    0.226    0.423   93.573
  492.500    7.123    0.188    0.410   91.126
  492.750    7.775    0.176    0.409   92.987
  493.000    8.426    0.193    0.414   96.689
  493.250    9.240    0.205    0.416  101.624
  493.500   10.054    0.217    0.400  104.098
  493.750   11.112    0.198    0.372   95.505
