~VERSION INFORMATION
 VERS.                 2.0:   CWLS LOG ASCII STANDARD -VERSION 2.0
 WRAP.                  NO:   ONE LINE PER DEPTH STEP
~WELL INFORMATION BLOCK
#MNEM.UNIT           DATA                    DESCRIPTION OF MNEMONIC
#---------    -------------------            -------------------------------
# Generated from Intellog Unique Number	CS_73_76/WELL/2203
WELL.         W.W. BECKER OIL & GAS LTD      : Well_name    - WELL
LOC .         00/11-26-074-14W4/0            : Location     - LOCATION
UWI .         00/11-26-074-14W4/0            : Uwi          - UNIQUE WELL ID
ENTR.         SP                             : Entered      - ENTERED BY
SRVC.         SCHLUMBERGER                   : Scn          - SERVICE COMPANY
STRT.M        411.48                         : top_depth    - START DEPTH
STOP.M        630.73                         : bot_depth    - STOP DEPTH
STEP.M        0.25                           : increment    - STEP LENGTH
 NULL. -999.2500:NULL Value
~CURVE INFORMATION BLOCK
#MNEM UNIT       ERCB CURVE CODE    CURVE DESCRIPTION
#-----------   ------------------   ----------------------------------
DEPT.M        00 001 00 00         : DEPTH        - DEPTH
GR  .API      00 310 00 00         : GR           - GAMMA RAY
DPHI.V/V      00 890 00 00         : PHID         - DENSITY POROSITY (SANDSTONE)
NPHI.V/V      00 330 00 00         : PHIN         - NEUTRON POROSITY (SANDSTONE)
ILD .OHMM     00 120 00 00         : RESD         - DEEP RESISTIVITY (DIL)
~PARAMETER INFORMATION
#MNEM.UNIT           DATA             DESCRIPTION OF MNEMONIC
#---------         -----------     ------------------------------
GL  .M        771.296              : gl           - GROUND LEVEL ELEVATION
EREF.M        774.527              : kb           - ELEVATION OF DEPTH REFERENCE
DATM.M        771.296              : datum        - DATUM ELEVATION
TDD .M        634.594              : tdd          - TOTAL DEPTH DRILLER
RUN .         ONE                  : Run          - RUN NUMBER
ENG .         BILL                 : Engineer     - RECORDING ENGINEER
WIT .         JIM                  : Witness      - WITNESSED BY
MUD .         GEL                  : Mud_type     - MUD TYPE
MATR.         SANDSTONE            : Logunit      - NEUTRON MATRIX
TMAX.C        16.6667              : BHT          - MAXIMUM RECORDED TEMPERATURE
BHTD.M        634.594              : BHTDEP       - MAXIMUM RECORDED TEMPERATURE
MATR.         1                    : LOGUNIT      - NEUTRON MATRIX
RMT .C        25                   : MDTP         - TEMPERATURE OF MUD
NEUT.         1                    : NEUTRON      - NEUTRON TYPE
RESI.         0                    : RESIST       - RESISTIVITY TYPE
RMC .OHMM     0.25                 : RMC          - RESISTIVITY OF MUD CAKE
RMF .OHMM     0.25                 : RMF          - RESISTIVITY OF MUD FILTRATE
SUFT.C        15                   : SUFT         - SURFACE TEMPERATURE
~A  DEPTH       GR     PHID     PHIN     RESD
# ...
  585.480   93.011    0.145    0.475    4.142
  585.730   96.153    0.149    0.466    4.249
  585.980   96.931    0.158    0.459    4.244
  586.230   99.713    0.137    0.452    4.158
  586.480  100.032    0.135    0.456    4.165
  586.730   96.655    0.150    0.453    4.161
  586.980   94.054    0.154    0.439    4.279
  587.230   89.055    0.161    0.429    4.649
  587.480   82.921    0.154    0.434    5.250
  587.730   78.081    0.157    0.406    6.416
  587.980   70.029    0.152    0.383    8.913
  588.230   69.828    0.165    0.375   13.559
  588.480   73.430    0.200    0.385   16.618
  588.730   75.908    0.229    0.400   17.950
  588.980   77.340    0.222    0.412   18.995
  589.230   78.394    0.213    0.428   19.362
  589.480   78.385    0.211    0.413   19.336
  589.730   78.762    0.209    0.394   18.973
  589.980   78.992    0.207    0.384   18.596
  590.230   79.545    0.204    0.388   18.301
  590.480   80.284    0.204    0.380   18.109
  590.730   81.059    0.200    0.386   17.945
  590.980   85.655    0.196    0.390   17.645
  591.230   90.209    0.200    0.397   17.456
  591.480   92.514    0.204    0.390   17.246
  591.730   93.498    0.205    0.395   16.365
  591.980   95.245    0.210    0.396   16.344
  592.230   96.764    0.220    0.390   16.026
  592.480  102.559    0.234    0.396   14.708
  592.730  108.304    0.242    0.429   13.625
  592.980  117.808    0.237    0.433   12.378
  593.230  118.170    0.223    0.410   11.577
  593.480  113.125    0.211    0.400   11.674
  593.730  106.452    0.216    0.399   11.812
  593.980  101.381    0.221    0.403   12.543
  594.230   99.332    0.230    0.398   13.331
  594.480  101.109    0.227    0.387   14.425
  594.730  103.603    0.192    0.374   14.392
  594.980  102.450    0.161    0.364   12.045
  595.230  103.586    0.135    0.362   10.642
  595.480  107.773    0.129    0.375    8.986
  595.730  113.905    0.156    0.395    8.178
  595.980  120.872    0.179    0.417    7.460
  596.230  127.949    0.186    0.434    6.805
  596.480  128.792    0.175    0.446    6.302
  596.730  126.129    0.176    0.435    6.110
  596.980  124.977    0.180    0.427    5.932
  597.230  121.845    0.192    0.414    5.939
  597.480  120.384    0.177    0.408    5.938
  597.730  119.021    0.173    0.418    5.938
  597.980  118.765    0.153    0.426    5.871
  598.230  121.766    0.145    0.436    5.523
  598.480  121.556    0.155    0.448    5.407
  598.730  119.526    0.151    0.453    5.295
  598.980  118.335    0.139    0.453    5.281
  599.230  118.489    0.132    0.446    5.206
  599.480  119.459    0.135    0.438    5.207
  599.730  121.188    0.139    0.433    5.207
  599.980  122.594    0.144    0.431    5.207
  600.230  125.213    0.148    0.433    5.207
  600.480  124.691    0.156    0.444    5.207
  600.730  124.380    0.165    0.454    5.204
  600.980  122.723    0.162    0.463    5.170
  601.230  120.458    0.170    0.471    5.111
  601.480  118.957    0.168    0.479    5.112
  601.730  117.215    0.147    0.461    5.138
  601.980  116.956    0.137    0.449    5.207
  602.230  116.755    0.137    0.439    5.206
  602.480  116.407    0.144    0.441    5.201
  602.730  117.024    0.149    0.445    5.295
  602.980  117.360    0.161    0.448    5.301
  603.230  117.747    0.167    0.444    5.301
  603.480  119.855    0.166    0.440    5.387
  603.730  121.788    0.165    0.437    5.392
  603.980  123.686    0.160    0.434    5.511
  604.230  119.544    0.153    0.431    5.492
  604.480  115.574    0.164    0.426    5.605
  604.730  112.263    0.170    0.421    5.825
  604.980  107.524    0.162    0.417    6.135
  605.230  102.329    0.169    0.414    6.997
  605.480   97.402    0.185    0.411    8.839
  605.730   90.628    0.234    0.412   12.144
  605.980   87.072    0.236    0.420   15.501
  606.230   85.080    0.240    0.424   18.973
  606.480   85.210    0.249    0.426   21.500
  606.730   87.697    0.249    0.427   21.492
  606.980   87.887    0.240    0.415   18.429
  607.230   93.421    0.243    0.403   16.765
  607.480   98.649    0.230    0.404   14.494
  607.730  102.850    0.208    0.413   12.585
  607.980  105.485    0.202    0.422   11.057
  608.230  107.029    0.196    0.426   10.035
  608.480  108.268    0.185    0.421    8.965
  608.730  111.951    0.176    0.395    8.227
  608.980  116.479    0.166    0.380    7.602
  609.230  121.315    0.163    0.382    7.276
  609.480  123.694    0.153    0.389    7.162
  609.730  124.160    0.147    0.391    7.043
  609.980  123.633    0.154    0.388    7.085
  610.230  122.949    0.154    0.385    7.158
  610.480  120.795    0.158    0.383    7.389
  610.730  120.669    0.175    0.388    7.607
  610.980  119.374    0.184    0.392    8.005
  611.230  116.892    0.176    0.392    8.252
  611.480  116.238    0.184    0.384    8.523
  611.730  114.163    0.167    0.374    8.616
  611.980  109.509    0.162    0.368    9.193
  612.230  105.526    0.168    0.368    9.348
  612.480  100.054    0.164    0.366    9.798
  612.730   93.411    0.163    0.375   10.917
  612.980   86.739    0.184    0.390   12.877
  613.230   77.836    0.224    0.403   17.699
  613.480   69.322    0.246    0.410   21.726
  613.730   64.201    0.257    0.411   24.193
  613.980   63.364    0.261    0.401   26.025
  614.230   67.340    0.259    0.394   23.192
  614.480   74.583    0.215    0.400   19.696
  614.730   86.941    0.194    0.394   16.704
  614.980   95.893    0.181    0.383   14.132
  615.230  104.083    0.182    0.378   11.330
  615.480  109.987    0.191    0.381    9.680
  615.730  117.108    0.184    0.384    8.690
  615.980  118.942    0.175    0.381    8.179
  616.230  119.708    0.153    0.382    7.768
  616.480  121.119    0.164    0.391    7.555
  616.730  121.589    0.162    0.401    7.552
  616.980  114.745    0.168    0.416    7.762
  617.230  106.961    0.182    0.415    8.001
  617.480  100.859    0.195    0.412    8.268
  617.730   95.137    0.214    0.400    8.342
  617.980   95.483    0.234    0.394    8.460
  618.230  100.269    0.172    0.389    8.379
  618.480  107.631    0.159    0.388    8.116
  618.730  105.119    0.140    0.383    7.863
  618.980   99.274    0.145    0.375    7.931
  619.230   93.406    0.158    0.361    8.011
  619.480   88.145    0.197    0.345    8.144
  619.730   88.349    0.203    0.339    8.384
  619.980   89.718    0.206    0.339    8.458
  620.230   93.091    0.204    0.336    8.356
  620.480   96.554    0.183    0.332    8.105
  620.730  100.635    0.158    0.331    7.705
  620.980  104.321    0.143    0.334    7.477
  621.230  106.234    0.132    0.344    7.272
  621.480  103.372    0.126    0.350    7.274
  621.730  100.372    0.121    0.355    7.430
  621.980   97.383    0.135    0.357    7.412
  622.230   94.373    0.125    0.361    7.542
  622.480   92.466    0.106    0.372    7.624
  622.730   92.951    0.117    0.385    7.710
  622.980   93.325    0.135    0.398    7.850
  623.230   95.463    0.253    0.394    7.793
  623.480   99.181    0.245    0.373    7.701
  623.730  105.408    0.232    0.356    7.594
  623.980  106.070    0.171    0.343    7.519
  624.230  105.160    0.168    0.347    7.418
  624.480  105.216    0.192    0.341    7.195
  624.730  104.325    0.195    0.344    6.985
  624.980  102.450    0.184    0.379    6.659
  625.230   96.173    0.196    0.411    6.190
  625.480   87.497    0.216    0.413    5.722
  625.730   80.806    0.268    0.423    5.271
  625.980   71.651    0.283    0.438    4.852
  626.230   65.578    0.285    0.433    4.624
  626.480   60.947    0.284    0.428    4.235
  626.730   51.524    0.295    0.427    4.117
  626.980   36.739    0.303    0.427    4.073
  627.230   39.666    0.294    0.426    4.192
  627.480   51.485    0.286    0.423    4.421
  627.730   75.978    0.264    0.396    4.973
  627.980   76.857    0.243    0.372    5.534
  628.230   77.016    0.208    0.368    5.820
  628.480   77.558    0.167    0.363    5.639
  628.730   77.565    0.125    0.350    5.349
