~VERSION INFORMATION
 VERS.                 2.0:   CWLS LOG ASCII STANDARD -VERSION 2.0
 WRAP.                  NO:   ONE LINE PER DEPTH STEP
~WELL INFORMATION BLOCK
#MNEM.UNIT           DATA                    DESCRIPTION OF MNEMONIC
#---------    -------------------            -------------------------------
# Generated from Intellog Unique Number	CW_76_78/WELL/3587
WELL.         SASKATCHEWAN OIL & GAS CORP.   : Well_name    - WELL
LOC .         00/11-06-076-19W4/0            : Location     - LOCATION
UWI .         00/11-06-076-19W4/0            : Uwi          - UNIQUE WELL ID
ENTR.         JO                             : Entered      - ENTERED BY
SRVC.         SCHLUMBERGER                   : Scn          - SERVICE COMPANY
DATE.         05/25/92                       : Date         - LOG DATE
STRT.M        215                            : top_depth    - START DEPTH
STOP.M        460                            : bot_depth    - STOP DEPTH
STEP.M        0.25                           : increment    - STEP LENGTH
 NULL. -999.2500:NULL Value
~CURVE INFORMATION BLOCK
#MNEM UNIT       ERCB CURVE CODE    CURVE DESCRIPTION
#-----------   ------------------   ----------------------------------
DEPT.M        00 001 00 00         : DEPTH        - DEPTH
NPHI.V/V      00 330 00 00         : PHIN         - NEUTRON POROSITY (SANDSTONE)
GR  .API      00 310 00 00         : GR           - GAMMA RAY
DPHI.V/V      00 890 00 00         : PHID         - DENSITY POROSITY (SANDSTONE)
ILD .OHMM     00 120 00 00         : RESD         - DEEP RESISTIVITY (DIL)
~PARAMETER INFORMATION
#MNEM.UNIT           DATA             DESCRIPTION OF MNEMONIC
#---------         -----------     ------------------------------
GL  .M        590.9                : gl           - GROUND LEVEL ELEVATION
EREF.M        594.7                : kb           - ELEVATION OF DEPTH REFERENCE
DATM.M        594.7                : datum        - DATUM ELEVATION
TDD .M        465                  : tdd          - TOTAL DEPTH DRILLER
RUN .         ONE                  : Run          - RUN NUMBER
ENG .         BILL                 : Engineer     - RECORDING ENGINEER
WIT .         JIM                  : Witness      - WITNESSED BY
MUD .         GEL                  : Mud_type     - MUD TYPE
MATR.         SANDSTONE            : Logunit      - NEUTRON MATRIX
TMAX.C        35                   : BHT          - MAXIMUM RECORDED TEMPERATURE
BHTD.M        465                  : BHTDEP       - MAXIMUM RECORDED TEMPERATURE
MATR.         1                    : LOGUNIT      - NEUTRON MATRIX
RMT .C        12                   : MDTP         - TEMPERATURE OF MUD
NEUT.         1                    : NEUTRON      - NEUTRON TYPE
RESI.         0                    : RESIST       - RESISTIVITY TYPE
RMC .OHMM     2.24                 : RMC          - RESISTIVITY OF MUD CAKE
RMF .OHMM     2.38                 : RMF          - RESISTIVITY OF MUD FILTRATE
SUFT.C        5                    : SUFT         - SURFACE TEMPERATURE
~A  DEPTH     PHIN       GR     PHID     RESD
# ...
  345.500    0.449   55.460    0.328    7.253
  345.750    0.463   55.456    0.320    7.120
  346.000    0.459   56.036    0.309    7.121
  346.250    0.440   58.374    0.312    6.863
  346.500    0.423   62.470    0.324    6.493
  346.750    0.417   67.155    0.326    6.258
  347.000    0.417   73.597    0.322    5.812
  347.250    0.445   75.350    0.316    5.602
  347.500    0.440   72.413    0.306    5.399
  347.750    0.441   71.821    0.288    5.203
  348.000    0.447   79.435    0.271    5.203
  348.250    0.438   82.360    0.269    5.400
  348.500    0.423   78.251    0.274    5.708
  348.750    0.409   72.382    0.276    5.924
  349.000    0.398   75.306    0.270    6.262
  349.250    0.407   79.990    0.266    6.499
  349.500    0.420   84.671    0.262    6.620
  349.750    0.432   86.425    0.262    6.500
  350.000    0.438   89.351    0.262    6.037
  350.250    0.431   87.000    0.260    5.712
  350.500    0.415   84.062    0.252    5.404
  350.750    0.409   90.505    0.248    5.112
  351.000    0.454   94.601    0.239    4.837
  351.250    0.484   95.769    0.234    4.662
  351.500    0.473   99.280    0.232    4.662
  351.750    0.454   96.930    0.235    4.663
  352.000    0.472   91.648    0.246    4.750
  352.250    0.471   92.228    0.261    5.115
  352.500    0.460   88.705    0.268    5.508
  352.750    0.457   91.630    0.231    5.931
  353.000    0.438   86.934    0.295    6.155
  353.250    0.419   79.308    0.339    6.628
  353.500    0.420   71.682    0.340    7.007
  353.750    0.412   72.848    0.332    7.138
  354.000    0.406   71.084    0.331    7.008
  354.250    0.409   67.559    0.337    7.008
  354.500    0.413   65.794    0.339    7.009
  354.750    0.415   64.616    0.339    7.009
  355.000    0.402   63.436    0.337    7.010
  355.250    0.395   61.672    0.322    6.882
  355.500    0.404   59.907    0.302    6.883
  355.750    0.416   73.385    0.254    6.757
  356.000    0.431   78.653    0.266    6.512
  356.250    0.442   80.993    0.277    6.276
  356.500    0.435   85.675    0.298    5.829
  356.750    0.436   90.947    0.308    5.315
  357.000    0.447   96.802    0.291    5.029
  357.250    0.445   96.796    0.242    4.847
  357.500    0.435   97.377    0.230    4.671
  357.750    0.426  100.300    0.226    4.586
  358.000    0.429  100.882    0.226    4.420
  358.250    0.468  100.287    0.238    4.339
  358.500    0.506   99.111    0.261    3.743
  358.750    0.489   97.933    0.265    3.228
  359.000    0.526   98.512    0.272    2.734
  359.250    0.523   99.680    0.276    2.315
  359.500    0.474  101.431    0.241    1.997
  359.750    0.417  100.838    0.232    1.691
  360.000    0.424   98.488    0.235    1.458
  360.250    0.447   99.653    0.239    1.355
  360.500    0.468  100.236    0.243    1.571
  360.750    0.449  100.228    0.239    2.273
  361.000    0.421   95.531    0.235    3.056
  361.250    0.421   95.527    0.230    3.746
  361.500    0.430   94.933    0.225    4.264
  361.750    0.448   93.756    0.220    4.764
  362.000    0.465   86.716    0.211    5.324
  362.250    0.452   79.676    0.213    5.733
  362.500    0.424   74.394    0.249    5.840
  362.750    0.426   67.940    0.272    6.061
  363.000    0.437   62.659    0.282    6.407
  363.250    0.431   57.963    0.303    6.527
  363.500    0.422   54.439    0.306    6.774
  363.750    0.418   55.607    0.300    6.900
  364.000    0.416   57.359    0.293    7.030
  364.250    0.410   55.593    0.291    7.162
  364.500    0.398   52.072    0.294    7.162
  364.750    0.405   50.307    0.291    7.163
  365.000    0.410   53.818    0.283    6.903
  365.250    0.396   58.500    0.288    6.653
  365.500    0.402   59.082    0.304    6.295
  365.750    0.436   55.557    0.323    6.067
  366.000    0.442   57.308    0.332    5.956
  366.250    0.441   60.233    0.283    5.740
  366.500    0.423   61.401    0.246    5.741
  366.750    0.421   59.637    0.253    5.741
  367.000    0.407   57.871    0.266    5.849
  367.250    0.389   57.866    0.273    6.070
  367.500    0.384   58.445    0.283    6.416
  367.750    0.390   60.197    0.288    6.782
  368.000    0.386   61.950    0.288    7.440
  368.250    0.374   61.944    0.287    7.865
  368.500    0.392   60.179    0.281    8.012
  368.750    0.429   59.589    0.280    7.866
  369.000    0.444   61.340    0.287    7.442
  369.250    0.445   59.575    0.298    6.912
  369.500    0.428   56.638    0.306    6.540
  369.750    0.409   54.875    0.282    6.540
  370.000    0.358   62.490    0.272    6.914
  370.250    0.362   68.932    0.281    7.044
  370.500    0.389   72.443    0.292    7.176
  370.750    0.397   75.368    0.305    7.176
  371.000    0.415   70.086    0.317    7.177
  371.250    0.428   68.320    0.330    7.046
  371.500    0.411   74.178    0.322    6.666
  371.750    0.413   77.689    0.266    6.425
  372.000    0.407   78.854    0.235    6.307
  372.250    0.401   79.432    0.227    5.751
  372.500    0.406   80.014    0.229    5.646
  372.750    0.411   80.594    0.230    5.752
  373.000    0.405   88.209    0.221    5.969
  373.250    0.399   91.133    0.218    6.310
  373.500    0.391   90.541    0.221    6.428
  373.750    0.388   85.258    0.227    6.671
  374.000    0.392   84.081    0.233    6.796
  374.250    0.398   85.832    0.238    6.923
  374.500    0.403   88.171    0.245    6.924
  374.750    0.411   90.511    0.255    6.797
  375.000    0.411   88.747    0.261    6.673
  375.250    0.416   86.395    0.263    6.552
  375.500    0.426   88.735    0.259    6.552
  375.750    0.420   90.487    0.250    6.433
  376.000    0.414   89.309    0.239    6.433
  376.250    0.421   86.371    0.239    6.434
  376.500    0.422   85.192    0.240    6.434
  376.750    0.419   84.016    0.234    6.435
  377.000    0.416   85.182    0.229    6.435
  377.250    0.419   88.693    0.233    6.089
  377.500    0.419   91.030    0.245    6.089
  377.750    0.419   90.438    0.251    6.089
  378.000    0.419   90.432    0.244    6.090
  378.250    0.420   92.185    0.234    6.090
  378.500    0.421   95.107    0.231    6.091
  378.750    0.431   95.690    0.231    6.091
  379.000    0.437   95.684    0.227    6.092
  379.250    0.434   90.987    0.219    6.092
  379.500    0.438   90.393    0.220    6.093
  379.750    0.450   90.390    0.229    6.093
  380.000    0.451   90.971    0.227    6.094
  380.250    0.446   93.894    0.229    5.982
  380.500    0.443   96.233    0.234    5.983
  380.750    0.442   97.398    0.233    5.766
  381.000    0.439   98.567    0.223    5.661
  381.250    0.436  100.320    0.210    4.883
  381.500    0.432  100.312    0.199    4.535
  381.750    0.427   97.377    0.197    3.912
  382.000    0.422   97.371    0.202    3.313
  382.250    0.446   97.949    0.213    2.703
  382.500    0.467   99.117    0.225    3.021
  382.750    0.463  102.628    0.223    3.842
  383.000    0.451   90.312    0.217    4.622
  383.250    0.442   85.029    0.207    5.561
  383.500    0.431   82.680    0.191    6.214
  383.750    0.424   86.778    0.197    6.944
  384.000    0.434   99.666    0.209    6.817
  384.250    0.434   97.315    0.215    6.570
  384.500    0.426   97.308    0.216    6.450
  384.750    0.420   97.303    0.215    6.451
  385.000    0.422   98.468    0.209    6.333
  385.250    0.427   99.050    0.207    6.334
  385.500    0.435   99.630    0.207    6.334
  385.750    0.433   96.106    0.212    6.335
  386.000    0.431   91.412    0.214    6.335
  386.250    0.425   93.163    0.220    6.335
  386.500    0.427   94.331    0.224    6.336
  386.750    0.429   96.082    0.225    6.337
  387.000    0.423   97.248    0.225    6.337
  387.250    0.417   97.828    0.215    6.338
  387.500    0.415   98.410    0.208    6.338
  387.750    0.419   99.575    0.204    6.339
  388.000    0.415   96.636    0.203    6.339
  388.250    0.407   97.220    0.202    6.458
  388.500    0.395   95.455    0.195    6.458
  388.750    0.383   83.138    0.149    6.579
