~VERSION INFORMATION
 VERS.                 2.0:   CWLS LOG ASCII STANDARD -VERSION 2.0
 WRAP.                  NO:   ONE LINE PER DEPTH STEP
~WELL INFORMATION BLOCK
#MNEM.UNIT           DATA                    DESCRIPTION OF MNEMONIC
#---------    -------------------            -------------------------------
# Generated from Intellog Unique Number	CS_69_70/WELL/874
WELL.         ET AL HEART LAKE               : Well_name    - WELL
LOC .         00/10-30-069-11W4/0            : Location     - LOCATION
UWI .         00/10-30-069-11W4/0            : Uwi          - UNIQUE WELL ID
ENTR.         SP                             : Entered      - ENTERED BY
SRVC.         SCHLUMBERGER                   : Scn          - SERVICE COMPANY
STRT.F        1070                           : top_depth    - START DEPTH
STOP.F        1709.76                        : bot_depth    - STOP DEPTH
STEP.F        0.82                           : increment    - STEP LENGTH
 NULL. -999.2500:NULL Value
~CURVE INFORMATION BLOCK
#MNEM UNIT       ERCB CURVE CODE    CURVE DESCRIPTION
#-----------   ------------------   ----------------------------------
DEPT.F        00 001 00 00         : DEPTH        - DEPTH
GR  .API      00 310 00 00         : GR           - GAMMA RAY
NPHI.V/V      00 330 00 00         : PHIN         - NEUTRON POROSITY (SANDSTONE)
DPHI.V/V      00 890 00 00         : PHID         - DENSITY POROSITY (SANDSTONE)
ILD .OHMM     00 120 00 00         : RESD         - DEEP RESISTIVITY (DIL)
~PARAMETER INFORMATION
#MNEM.UNIT           DATA             DESCRIPTION OF MNEMONIC
#---------         -----------     ------------------------------
GL  .M        650.138              : gl           - GROUND LEVEL ELEVATION
EREF.M        652.668              : kb           - ELEVATION OF DEPTH REFERENCE
DATM.M        650.138              : datum        - DATUM ELEVATION
TDD .M        527.304              : tdd          - TOTAL DEPTH DRILLER
RUN .         ONE                  : Run          - RUN NUMBER
ENG .         BILL                 : Engineer     - RECORDING ENGINEER
WIT .         JIM                  : Witness      - WITNESSED BY
MUD .         GEL                  : Mud_type     - MUD TYPE
MATR.         SANDSTONE            : Logunit      - NEUTRON MATRIX
TMAX.C        20                   : BHT          - MAXIMUM RECORDED TEMPERATURE
BHTD.M        527.304              : BHTDEP       - MAXIMUM RECORDED TEMPERATURE
MATR.         1                    : LOGUNIT      - NEUTRON MATRIX
RMT .C        25                   : MDTP         - TEMPERATURE OF MUD
NEUT.         1                    : NEUTRON      - NEUTRON TYPE
RESI.         0                    : RESIST       - RESISTIVITY TYPE
RMC .OHMM     0.25                 : RMC          - RESISTIVITY OF MUD CAKE
RMF .OHMM     0.25                 : RMF          - RESISTIVITY OF MUD FILTRATE
SUFT.C        15                   : SUFT         - SURFACE TEMPERATURE
~A  DEPTH       GR     PHIN     PHID     RESD
# ...
 1498.150   94.040    0.536    0.272    2.290
 1498.970   93.504    0.528    0.272    2.341
 1499.790   91.224    0.510    0.268    2.434
 1500.610   90.112    0.496    0.264    2.632
 1501.430   89.020    0.498    0.268    2.842
 1502.250   87.871    0.497    0.271    2.956
 1503.070   86.165    0.485    0.297    3.192
 1503.890   84.460    0.474    0.299    3.385
 1504.710   83.962    0.460    0.304    3.589
 1505.530   83.426    0.449    0.301    3.601
 1506.350   81.759    0.450    0.297    3.610
 1507.170   81.223    0.460    0.295    3.553
 1507.990   80.111    0.463    0.297    3.495
 1508.810   79.614    0.457    0.298    3.381
 1509.630   79.652    0.447    0.302    3.386
 1510.450   80.343    0.444    0.299    3.332
 1511.270   81.627    0.450    0.294    3.341
 1512.090   82.873    0.453    0.284    3.413
 1512.910   83.545    0.454    0.279    3.424
 1513.730   83.622    0.455    0.275    3.433
 1514.550   83.124    0.462    0.275    3.440
 1515.370   82.588    0.472    0.273    3.449
 1516.190   81.496    0.473    0.262    3.528
 1517.010   80.978    0.463    0.250    3.601
 1517.830   81.056    0.454    0.242    3.747
 1518.650   81.113    0.447    0.243    3.974
 1519.480   80.596    0.450    0.243    4.133
 1520.300   80.079    0.455    0.234    4.469
 1521.120   80.176    0.451    0.217    4.565
 1521.940   80.291    0.437    0.196    4.659
 1522.760   80.943    0.421    0.192    4.592
 1523.580   81.020    0.416    0.216    4.601
 1524.400   81.672    0.433    0.238    4.529
 1525.220   82.343    0.436    0.243    4.454
 1526.040   83.015    0.429    0.249    4.384
 1526.860   85.488    0.424    0.241    4.399
 1527.680   86.753    0.426    0.239    4.332
 1528.500   86.830    0.423    0.240    4.258
 1529.320   86.965    0.423    0.242    4.272
 1530.140   86.390    0.424    0.248    4.205
 1530.960   86.506    0.425    0.249    4.139
 1531.780   87.158    0.426    0.253    4.147
 1532.600   87.848    0.431    0.251    4.163
 1533.420   87.906    0.436    0.241    4.172
 1534.240   88.002    0.436    0.234    4.186
 1535.060   88.041    0.427    0.230    4.194
 1535.880   88.156    0.416    0.234    4.205
 1536.700   88.789    0.413    0.237    4.219
 1537.520   88.886    0.411    0.242    4.230
 1538.340   89.595    0.409    0.245    4.244
 1539.160   90.228    0.416    0.245    4.250
 1539.980   90.918    0.427    0.243    4.264
 1540.800   91.590    0.439    0.242    4.278
 1541.620   91.648    0.448    0.242    4.292
 1542.440   92.951    0.443    0.242    4.301
 1543.260   93.603    0.427    0.240    4.396
 1544.080   93.661    0.409    0.233    4.402
 1544.900   94.352    0.401    0.223    4.499
 1545.720   93.260    0.402    0.227    4.508
 1546.540   90.366    0.408    0.234    4.440
 1547.360   89.216    0.431    0.252    4.367
 1548.180   85.748    0.432    0.257    4.379
 1549.000   85.231    0.428    0.256    4.315
 1549.820   85.346    0.421    0.225    4.242
 1550.640   85.404    0.409    0.225    4.175
 1551.460   84.868    0.408    0.245    3.892
 1552.280   85.003    0.415    0.248    3.686
 1553.100   84.447    0.433    0.247    3.371
 1553.920   84.524    0.442    0.247    2.970
 1554.740   84.007    0.469    0.252    2.813
 1555.560   84.084    0.478    0.258    2.574
 1556.380   84.180    0.502    0.259    2.487
 1557.200   84.258    0.515    0.255    2.445
 1558.020   84.890    0.511    0.255    2.406
 1558.850   86.156    0.506    0.254    2.370
 1559.670   87.479    0.499    0.263    2.376
 1560.490   86.923    0.490    0.273    2.474
 1561.310   85.218    0.469    0.277    2.524
 1562.130   83.513    0.456    0.272    2.832
 1562.950   83.590    0.455    0.274    2.945
 1563.770   84.855    0.450    0.275    3.124
 1564.590   82.575    0.442    0.278    3.132
 1565.410   80.869    0.437    0.280    3.140
 1566.230   80.352    0.427    0.283    3.151
 1567.050   80.449    0.421    0.281    3.157
 1567.870   80.487    0.410    0.257    3.229
 1568.690   80.603    0.396    0.249    3.235
 1569.510   80.641    0.388    0.232    3.305
 1570.330   81.332    0.416    0.235    3.378
 1571.150   81.984    0.417    0.234    3.448
 1571.970   82.061    0.417    0.197    3.585
 1572.790   82.157    0.416    0.178    3.806
 1573.610   82.254    0.419    0.164    3.887
 1574.430   82.906    0.418    0.178    3.826
 1575.250   83.577    0.421    0.188    3.696
 1576.070   84.861    0.424    0.197    3.636
 1576.890   85.513    0.431    0.210    3.513
 1577.710   86.798    0.438    0.222    3.524
 1578.530   87.450    0.443    0.231    3.600
 1579.350   88.735    0.450    0.238    3.612
 1580.170   90.613    0.445    0.233    3.617
 1580.990   91.879    0.434    0.225    3.626
 1581.810   93.163    0.429    0.213    3.636
 1582.630   93.796    0.452    0.195    3.450
 1583.450   95.062    0.459    0.199    3.153
 1584.270   98.148    0.470    0.211    2.988
 1585.090  100.007    0.486    0.215    2.731
 1585.910  101.867    0.481    0.217    2.592
 1586.730  101.350    0.467    0.218    2.553
 1587.550  101.446    0.472    0.218    2.654
 1588.370  101.504    0.473    0.213    2.762
 1589.190  101.562    0.474    0.212    2.821
 1590.010  101.639    0.479    0.216    2.884
 1590.830  104.112    0.491    0.215    2.838
 1591.650  105.972    0.519    0.221    2.742
 1592.470  107.831    0.512    0.222    2.601
 1593.290  109.096    0.487    0.226    2.466
 1594.110  105.628    0.483    0.230    2.426
 1594.930  103.903    0.477    0.232    2.432
 1595.750  100.415    0.472    0.236    2.628
 1596.570   96.927    0.463    0.236    2.838
 1597.400   92.846    0.457    0.238    3.122
 1598.220   88.169    0.447    0.243    3.501
 1599.040   84.681    0.432    0.246    3.924
 1599.860   81.174    0.419    0.247    4.237
 1600.680   77.686    0.397    0.251    4.661
 1601.500   74.793    0.388    0.252    4.945
 1602.320   69.522    0.377    0.255    5.241
 1603.140   63.658    0.368    0.259    5.556
 1603.960   58.982    0.372    0.260    5.893
 1604.780   58.465    0.362    0.254    6.483
 1605.600   57.334    0.350    0.235    7.127
 1606.420   53.272    0.332    0.190    8.137
 1607.240   53.329    0.318    0.160    9.834
 1608.060   55.189    0.310    0.094   10.418
 1608.880   60.058    0.316    0.044    9.705
 1609.700   64.275    0.322    0.067    8.863
 1610.520   69.105    0.334    0.072    7.521
 1611.340   75.737    0.349    0.182    6.873
 1612.160   81.162    0.368    0.211    6.518
 1612.980   86.644    0.383    0.239    6.190
 1613.800   88.465    0.372    0.234    6.084
 1614.620   90.918    0.358    0.233    6.100
 1615.440   92.184    0.348    0.241    6.004
 1616.260   92.874    0.355    0.243    5.913
 1617.080   92.951    0.364    0.233    5.925
 1617.900   92.434    0.376    0.223    5.941
 1618.720   90.748    0.379    0.218    5.740
 1619.540   89.004    0.366    0.245    5.447
 1620.360   82.565    0.354    0.263    5.358
 1621.180   77.870    0.361    0.277    5.183
 1622.000   72.599    0.370    0.288    5.098
 1622.820   72.082    0.376    0.288    5.108
 1623.640   78.101    0.375    0.282    5.125
 1624.460   84.139    0.363    0.279    5.239
 1625.280   88.988    0.357    0.278    5.249
 1626.100   92.036    0.364    0.272    5.362
 1626.920   95.678    0.371    0.258    5.484
 1627.740   99.320    0.376    0.241    5.495
 1628.560   98.209    0.382    0.237    5.616
 1629.380   95.909    0.394    0.241    5.627
 1630.200   98.382    0.391    0.238    5.752
 1631.020  104.382    0.379    0.231    5.871
 1631.840  111.014    0.378    0.223    5.887
 1632.660  111.685    0.382    0.218    6.017
 1633.480  107.622    0.386    0.208    6.146
 1634.300  104.729    0.381    0.199    6.158
 1635.120  103.023    0.371    0.184    6.178
 1635.940  100.724    0.361    0.157    6.191
 1636.770   97.830    0.346    0.118    6.215
 1637.590   94.917    0.355    0.175    6.228
 1638.410   91.410    0.362    0.192    6.125
 1639.230   87.347    0.357    0.222    6.150
 1640.050   88.018    0.349    0.239    6.158
