~VERSION INFORMATION
 VERS.                 2.0:   CWLS LOG ASCII STANDARD -VERSION 2.0
 WRAP.                  NO:   ONE LINE PER DEPTH STEP
~WELL INFORMATION BLOCK
#MNEM.UNIT           DATA                    DESCRIPTION OF MNEMONIC
#---------    -------------------            -------------------------------
# Generated from Intellog Unique Number	CS_77_79/WELL/1025
WELL.         CWWE THORNBURY                 : Well_name    - WELL
LOC .         00/16-18-079-13W4/0            : Location     - LOCATION
UWI .         00/16-18-079-13W4/0            : Uwi          - UNIQUE WELL ID
ENTR.         JHS                            : Entered      - ENTERED BY
SRVC.         SCHLUMBERGER                   : Scn          - SERVICE COMPANY
STRT.M        250                            : top_depth    - START DEPTH
STOP.M        510                            : bot_depth    - STOP DEPTH
STEP.M        0.25                           : increment    - STEP LENGTH
 NULL. -999.2500:NULL Value
~CURVE INFORMATION BLOCK
#MNEM UNIT       ERCB CURVE CODE    CURVE DESCRIPTION
#-----------   ------------------   ----------------------------------
DEPT.M        00 001 00 00         : DEPTH        - DEPTH
DPHI.V/V      00 890 00 00         : PHID         - DENSITY POROSITY (LIMESTONE)
NPHI.V/V      00 330 00 00         : PHIN         - NEUTRON POROSITY (LIMESTONE)
GR  .API      00 310 00 00         : GR           - GAMMA RAY
ILD .OHMM     00 120 00 00         : RESD         - DEEP RESISTIVITY (DIL)
RHOB.KG/M3    00 350 00 00         : DENS         - BULK DENSITY
~PARAMETER INFORMATION
#MNEM.UNIT           DATA             DESCRIPTION OF MNEMONIC
#---------         -----------     ------------------------------
GL  .M        681.78               : gl           - GROUND LEVEL ELEVATION
EREF.M        684.88               : kb           - ELEVATION OF DEPTH REFERENCE
DATM.M        684.88               : datum        - DATUM ELEVATION
TDD .M        523                  : tdd          - TOTAL DEPTH DRILLER
RUN .         ONE                  : Run          - RUN NUMBER
ENG .         BILL                 : Engineer     - RECORDING ENGINEER
WIT .         JIM                  : Witness      - WITNESSED BY
MUD .         GEL                  : Mud_type     - MUD TYPE
MATR.         LIMESTONE            : Logunit      - NEUTRON MATRIX
TMAX.C        21                   : BHT          - MAXIMUM RECORDED TEMPERATURE
BHTD.M        523                  : BHTDEP       - MAXIMUM RECORDED TEMPERATURE
MATR.         1                    : LOGUNIT      - NEUTRON MATRIX
RMT .C        25                   : MDTP         - TEMPERATURE OF MUD
NEUT.         1                    : NEUTRON      - NEUTRON TYPE
RESI.         0                    : RESIST       - RESISTIVITY TYPE
RMC .OHMM     0.25                 : RMC          - RESISTIVITY OF MUD CAKE
RMF .OHMM     0.25                 : RMF          - RESISTIVITY OF MUD FILTRATE
SUFT.C        15                   : SUFT         - SURFACE TEMPERATURE
~A  DEPTH     PHID     PHIN       GR     RESD     DENS
  250.000    0.247    0.531  118.144    3.153    0.000
  250.250    0.258    0.531  115.677    3.099    0.000
  250.500    0.266    0.518  117.500    3.046    0.000
  250.750    0.262    0.501  121.153    3.050    0.000
  251.000    0.238    0.514  119.301    3.055    0.000
  251.250    0.249    0.530  122.958    3.060    0.000
  251.500    0.261    0.543  127.836    3.123    0.000
  251.750    0.251    0.548  124.144    3.246    0.000
  252.000    0.243    0.538  119.231    3.253    0.000
  252.250    0.259    0.511  115.543    3.258    0.000
  252.500    0.266    0.495  113.689    3.262    0.000
  252.750    0.240    0.505  112.447    3.267    0.000
  253.000    0.237    0.533  112.430    3.334    0.000
  253.250    0.242    0.542  114.248    3.341    0.000
  253.500    0.244    0.554  113.614    3.345    0.000
  253.750    0.249    0.574  114.212    3.350    0.000
  254.000    0.250    0.545  117.258    3.292    0.000
  254.250    0.252    0.527  119.076    3.235    0.000
  254.500    0.243    0.538  117.836    3.240    0.000
  254.750    0.237    0.539  113.532    3.307    0.000
  255.000    0.236    0.531  110.451    3.312    0.000
  255.250    0.237    0.543  113.496    3.318    0.000
  255.500    0.241    0.551  114.705    3.199    0.000
  255.750    0.246    0.529  114.075    3.145    0.000
  256.000    0.252    0.541  111.610    3.091    0.000
  256.250    0.259    0.543  109.757    3.096    0.000
  256.500    0.257    0.525  109.738    3.221    0.000
  256.750    0.251    0.518  109.110    3.348    0.000
  257.000    0.245    0.513  107.252    3.482    0.000
  257.250    0.237    0.496  105.402    3.487    0.000
  257.500    0.234    0.497  109.663    3.427    0.000
  257.750    0.237    0.513  110.264    3.368    0.000
  258.000    0.247    0.506  109.632    3.312    0.000
  258.250    0.251    0.501  109.006    3.193    0.000
  258.500    0.251    0.515  108.987    3.140    0.000
  258.750    0.253    0.520  108.355    3.085    0.000
  259.000    0.253    0.522  105.891    3.033    0.000
  259.250    0.253    0.544  104.653    2.926    0.000
  259.500    0.256    0.541  108.308    2.822    0.000
  259.750    0.265    0.547  109.515    2.773    0.000
  260.000    0.284    0.549  108.886    2.674    0.000
  260.250    0.265    0.530  107.642    2.630    0.000
  260.500    0.261    0.519  110.684    2.684    0.000
  260.750    0.278    0.539  111.895    2.687    0.000
  261.000    0.282    0.559  110.035    2.795    0.000
  261.250    0.276    0.541  108.798    2.851    0.000
  261.500    0.266    0.549  106.332    2.857    0.000
  261.750    0.266    0.564  105.703    2.861    0.000
  262.000    0.275    0.543  106.292    2.866    0.000
  262.250    0.267    0.554  106.282    2.869    0.000
  262.500    0.259    0.538  105.648    2.928    0.000
  262.750    0.255    0.521  103.795    2.933    0.000
  263.000    0.256    0.511  101.942    2.937    0.000
  263.250    0.260    0.516  101.926    2.943    0.000
  263.500    0.263    0.539  101.908    3.003    0.000
  263.750    0.250    0.548  106.787    3.007    0.000
  264.000    0.241    0.558  108.608    3.070    0.000
  264.250    0.233    0.533  106.140    3.131    0.000
  264.500    0.231    0.513  105.512    3.197    0.000
  264.750    0.233    0.515  107.945    3.263    0.000
  265.000    0.232    0.504  109.761    3.330    0.000
  265.250    0.243    0.483  110.359    3.335    0.000
  265.500    0.236    0.494  109.117    3.403    0.000
  265.750    0.227    0.529  107.875    3.472    0.000
  266.000    0.226    0.519  117.038    3.614    0.000
  266.250    0.216    0.504  118.244    3.616    0.000
  266.500    0.208    0.501  113.334    3.761    0.000
  266.750    0.197    0.508  104.745    3.838    0.000
  267.000    0.208    0.491  109.014    3.844    0.000
  267.250    0.237    0.486  116.342    3.926    0.000
  267.500    0.233    0.503  114.484    3.858    0.000
  267.750    0.209    0.484  110.183    3.790    0.000
  268.000    0.212    0.464  108.941    3.657    0.000
  268.250    0.226    0.484  110.150    3.528    0.000
  268.500    0.223    0.507  110.133    3.401    0.000
  268.750    0.225    0.520  109.501    3.343    0.000
  269.000    0.230    0.533  108.261    3.348    0.000
  269.250    0.224    0.513  105.797    3.483    0.000
  269.500    0.218    0.467  102.718    3.622    0.000
  269.750    0.214    0.457  107.598    3.767    0.000
  270.000    0.213    0.458  114.925    3.773    0.000
  270.250    0.218    0.479  118.583    3.641    0.000
  270.500    0.222    0.500  119.788    3.576    0.000
  270.750    0.232    0.518  114.261    3.514    0.000
  271.000    0.234    0.526  109.346    3.328    0.000
  271.250    0.215    0.532  105.043    3.332    0.000
  271.500    0.220    0.510  109.312    3.402    0.000
  271.750    0.227    0.491  109.906    3.538    0.000
  272.000    0.225    0.495  112.336    3.679    0.000
  272.250    0.227    0.514  112.936    3.682    0.000
  272.500    0.236    0.527  108.633    3.831    0.000
  272.750    0.221    0.495  101.882    3.983    0.000
  273.000    0.205    0.463   98.803    3.989    0.000
  273.250    0.222    0.443  106.743    3.920    0.000
  273.500    0.268    0.515  107.952    4.002    0.000
  273.750    0.275    0.544   99.974    4.241    0.000
  274.000    0.171    0.563   91.389    4.936    0.000
  274.250    0.127    0.519   79.129    6.315    0.000
  274.500    0.145    0.410   63.806    7.778    0.000
  274.750    0.224    0.396   71.748    9.581    0.000
  275.000    0.269    0.422   91.320   11.159    0.000
  275.250    0.235    0.429   99.871   11.603    0.000
  275.500    0.208    0.432   94.344   11.195    0.000
  275.750    0.153    0.427   88.206   10.794    0.000
  276.000    0.132    0.363   90.637    9.129    0.000
  276.250    0.161    0.368  105.311    7.432    0.000
  276.500    0.213    0.394  113.254    6.166    0.000
  276.750    0.217    0.447  121.193    5.214    0.000
  277.000    0.203    0.485  122.398    4.665    0.000
  277.250    0.215    0.498  117.482    4.333    0.000
  277.500    0.230    0.477  115.020    4.181    0.000
  277.750    0.239    0.480  119.288    4.110    0.000
  278.000    0.249    0.507  124.779    4.113    0.000
  278.250    0.242    0.511  122.924    4.612    0.000
  278.500    0.254    0.502  113.728    5.790    0.000
  278.750    0.296    0.486   91.671    9.636    0.000
  279.000    0.341    0.272   80.025   11.434    0.000
  279.250    0.381    0.245   64.091   14.629    0.000
  279.500    0.375    0.263   54.891   21.337    0.000
  279.750    0.375    0.312   57.318   27.814    0.000
  280.000    0.371    0.352   64.035   25.841    0.000
  280.250    0.357    0.397   69.527   22.683    0.000
  280.500    0.357    0.420   71.961   19.186    0.000
  280.750    0.348    0.457   71.331   17.494    0.000
  281.000    0.295    0.450   73.761   16.255    0.000
  281.250    0.112    0.380   80.481   15.668    0.000
  281.500    0.124    0.356   92.703   14.282    0.000
  281.750    0.205    0.389   98.198   13.020    0.000
  282.000    0.209    0.422  106.138   12.094    0.000
  282.250    0.219    0.429  107.346   11.671    0.000
  282.500    0.239    0.421  105.493   11.686    0.000
  282.750    0.254    0.437  103.024   11.920    0.000
  283.000    0.258    0.445  101.785   12.404    0.000
  283.250    0.239    0.445   95.644   13.143    0.000
  283.500    0.248    0.430   87.672   13.672    0.000
  283.750    0.271    0.433   86.427   13.943    0.000
  284.000    0.287    0.427   89.471   13.705    0.000
  284.250    0.289    0.418   91.292   12.976    0.000
  284.500    0.264    0.413   91.888   12.056    0.000
  284.750    0.247    0.418   93.092   11.846    0.000
  285.000    0.240    0.432   91.850   11.862    0.000
  285.250    0.269    0.426   88.162   12.811    0.000
  285.500    0.299    0.405   86.919   14.099    0.000
  285.750    0.332    0.395   88.739   16.417    0.000
  286.000    0.334    0.388   85.663   18.055    0.000
  286.250    0.319    0.389   80.748   19.867    0.000
