~VERSION INFORMATION
 VERS.                 2.0:   CWLS LOG ASCII STANDARD -VERSION 2.0
 WRAP.                  NO:   ONE LINE PER DEPTH STEP
~WELL INFORMATION BLOCK
#MNEM.UNIT           DATA                    DESCRIPTION OF MNEMONIC
#---------    -------------------            -------------------------------
# Generated from Intellog Unique Number	CS_69_70/WELL/888
WELL.         ALGAS MINERAL ENTERPRISES      : Well_name    - WELL
LOC .         00/11-15-070-17W4/0            : Location     - LOCATION
UWI .         00/11-15-070-17W4/0            : Uwi          - UNIQUE WELL ID
ENTR.         SP                             : Entered      - ENTERED BY
SRVC.         SCHLUMBERGER                   : Scn          - SERVICE COMPANY
STRT.M        274.32                         : top_depth    - START DEPTH
STOP.M        472.07                         : bot_depth    - STOP DEPTH
STEP.M        0.25                           : increment    - STEP LENGTH
 NULL. -999.2500:NULL Value
~CURVE INFORMATION BLOCK
#MNEM UNIT       ERCB CURVE CODE    CURVE DESCRIPTION
#-----------   ------------------   ----------------------------------
DEPT.M        00 001 00 00         : DEPTH        - DEPTH
GR  .API      00 310 00 00         : GR           - GAMMA RAY
DPHI.V/V      00 890 00 00         : PHID         - DENSITY POROSITY (SANDSTONE)
NPHI.V/V      00 330 00 00         : PHIN         - NEUTRON POROSITY (SANDSTONE)
ILD .OHMM     00 120 00 00         : RESD         - DEEP RESISTIVITY (DIL)
~PARAMETER INFORMATION
#MNEM.UNIT           DATA             DESCRIPTION OF MNEMONIC
#---------         -----------     ------------------------------
GL  .M        556.108              : gl           - GROUND LEVEL ELEVATION
EREF.M        559.003              : kb           - ELEVATION OF DEPTH REFERENCE
DATM.M        556.108              : datum        - DATUM ELEVATION
TDD .M        484.632              : tdd          - TOTAL DEPTH DRILLER
RUN .         ONE                  : Run          - RUN NUMBER
ENG .         BILL                 : Engineer     - RECORDING ENGINEER
WIT .         JIM                  : Witness      - WITNESSED BY
MUD .         GEL                  : Mud_type     - MUD TYPE
MATR.         SANDSTONE            : Logunit      - NEUTRON MATRIX
TMAX.C        56                   : BHT          - MAXIMUM RECORDED TEMPERATURE
BHTD.M        1590                 : BHTDEP       - MAXIMUM RECORDED TEMPERATURE
MATR.         1                    : LOGUNIT      - NEUTRON MATRIX
RMT .C        25                   : MDTP         - TEMPERATURE OF MUD
NEUT.         1                    : NEUTRON      - NEUTRON TYPE
RESI.         0                    : RESIST       - RESISTIVITY TYPE
RMC .OHMM     0.25                 : RMC          - RESISTIVITY OF MUD CAKE
RMF .OHMM     0.25                 : RMF          - RESISTIVITY OF MUD FILTRATE
SUFT.C        15                   : SUFT         - SURFACE TEMPERATURE
~A  DEPTH       GR     PHID     PHIN     RESD
  274.320  107.955    0.244    0.446    2.359
  274.570  108.575    0.211    0.447    2.367
  274.820  108.275    0.211    0.444    2.440
  275.070  107.270    0.222    0.438    2.533
  275.320  106.802    0.227    0.425    2.670
  275.570  106.127    0.217    0.420    2.734
  275.820  107.849    0.111    0.426    2.731
  276.070  112.706    0.074    0.431    2.678
  276.320  114.274    0.159    0.434    2.619
  276.570  113.167    0.189    0.429    2.579
  276.820  116.245    0.199    0.423    2.561
  277.070  116.936    0.194    0.424    2.582
  277.320  118.480    0.187    0.440    2.623
  277.570  118.020    0.185    0.450    2.685
  277.820  117.141    0.202    0.460    2.790
  278.070  120.698    0.214    0.461    2.920
  278.320  119.794    0.212    0.446    3.065
  278.570  115.827    0.201    0.436    3.229
  278.820  111.756    0.186    0.422    3.353
  279.070  114.678    0.171    0.404    3.417
  279.320  113.360    0.168    0.390    3.430
  279.570  112.244    0.155    0.401    3.390
  279.820  115.972    0.187    0.414    3.278
  280.070  118.372    0.196    0.404    3.074
  280.320  120.665    0.188    0.406    2.840
  280.570  118.560    0.201    0.425    2.634
  280.820  118.600    0.188    0.435    2.505
  281.070  117.330    0.205    0.445    2.484
  281.320  114.963    0.198    0.424    2.676
  281.570  113.694    0.186    0.406    2.856
  281.820  113.066    0.189    0.394    2.976
  282.070  113.963    0.185    0.395    2.998
  282.320  113.794    0.187    0.401    2.942
  282.570  112.427    0.202    0.398    2.900
  282.820  114.246    0.198    0.406    2.873
  283.070  113.471    0.199    0.419    2.844
  283.320  110.074    0.217    0.416    2.751
  283.570  106.158    0.219    0.409    2.626
  283.820  109.283    0.220    0.423    2.458
  284.070  107.249    0.215    0.440    2.403
  284.320  103.259    0.223    0.384    2.530
  284.570   99.854    0.204    0.353    2.783
  284.820   97.265    0.171    0.339    3.150
  285.070   97.514    0.177    0.331    3.712
  285.320   99.372    0.270    0.371    4.289
  285.570   93.158    0.348    0.405    4.771
  285.820   86.648    0.383    0.434    4.963
  286.070   86.568    0.354    0.457    4.851
  286.320   91.452    0.275    0.382    4.509
  286.570   98.109    0.250    0.346    4.159
  286.820  101.601    0.241    0.340    3.757
  287.070   88.536    0.233    0.346    3.417
  287.320   73.507    0.226    0.353    3.088
  287.570   57.248    0.250    0.347    2.794
  287.820   47.906    0.272    0.336    2.464
  288.070   39.683    0.275    0.326    2.230
  288.320   37.592    0.266    0.320    2.080
  288.570   36.361    0.285    0.321    1.972
  288.820   35.647    0.291    0.318    1.910
  289.070   36.287    0.291    0.314    1.905
  289.320   37.641    0.300    0.313    1.909
  289.570   38.295    0.301    0.315    1.912
  289.820   39.125    0.298    0.314    1.906
  290.070   40.369    0.292    0.311    1.899
  290.320   39.708    0.287    0.306    1.891
  290.570   39.478    0.281    0.302    1.874
  290.820   40.487    0.286    0.296    1.864
  291.070   42.906    0.296    0.294    1.857
  291.320   46.642    0.291    0.302    1.853
  291.570   49.479    0.304    0.317    1.845
  291.820   51.250    0.314    0.329    1.833
  292.070   54.155    0.326    0.325    1.855
  292.320   60.167    0.315    0.318    1.916
  292.570   69.965    0.306    0.309    2.001
  292.820   78.446    0.297    0.303    2.048
  293.070   83.080    0.292    0.304    2.161
  293.320   80.086    0.288    0.309    2.226
  293.570   76.984    0.284    0.315    2.300
  293.820   78.031    0.279    0.313    2.337
  294.070   76.264    0.286    0.314    2.330
  294.320   72.657    0.280    0.318    2.280
  294.570   66.723    0.269    0.308    2.225
  294.820   61.163    0.274    0.297    2.142
  295.070   57.370    0.267    0.299    2.171
  295.320   64.999    0.259    0.297    2.296
  295.570   73.963    0.258    0.288    2.582
  295.820   80.040    0.244    0.283    2.982
  296.070   89.546    0.227    0.286    3.495
  296.320   95.802    0.205    0.293    3.996
  296.570  100.924    0.189    0.305    4.443
  296.820  100.901    0.180    0.317    4.722
  297.070   95.235    0.177    0.327    4.276
  297.320   87.858    0.191    0.331    3.868
  297.570   81.927    0.220    0.325    3.413
  297.820   77.858    0.232    0.320    3.129
  298.070   79.571    0.220    0.315    2.793
  298.320   85.320    0.212    0.316    2.676
  298.570   96.750    0.203    0.326    3.051
  298.820  109.768    0.173    0.339    3.349
  299.070  120.097    0.148    0.355    3.591
  299.320  124.233    0.146    0.364    3.685
  299.570  123.235    0.143    0.371    3.669
  299.820  121.998    0.129    0.375    3.614
  300.070  125.366    0.131    0.388    3.534
  300.320  128.931    0.140    0.387    3.326
  300.570  130.778    0.147    0.390    3.112
  300.820  134.841    0.152    0.401    3.080
  301.070  138.077    0.146    0.415    3.241
  301.320  138.889    0.161    0.422    3.305
  301.570  134.081    0.168    0.422    3.234
  301.820  129.490    0.139    0.437    3.074
  302.070  129.175    0.141    0.438    2.900
  302.320  133.292    0.164    0.433    2.739
  302.570  134.640    0.189    0.437    2.592
  302.820  131.840    0.195    0.444    2.495
  303.070  126.446    0.209    0.437    2.682
  303.320  120.842    0.237    0.405    2.939
  303.570  114.054    0.241    0.363    3.205
  303.820  107.630    0.225    0.352    3.411
  304.070  106.392    0.206    0.370    3.649
  304.320  104.713    0.192    0.382    3.800
  304.570  102.900    0.200    0.366    3.941
  304.820   98.921    0.199    0.357    3.992
  305.070   94.502    0.207    0.358    3.991
  305.320   89.445    0.200    0.354    3.982
  305.570   84.793    0.220    0.340    3.931
  305.820   81.911    0.216    0.344    3.828
  306.070   83.705    0.226    0.356    3.772
  306.320   88.163    0.239    0.363    3.687
  306.570   93.138    0.250    0.363    3.645
  306.820   99.673    0.232    0.375    3.643
  307.070  106.942    0.215    0.388    3.704
  307.320  113.529    0.190    0.398    3.751
  307.570  118.730    0.160    0.412    3.741
  307.820  121.049    0.153    0.425    3.649
  308.070  121.770    0.166    0.411    3.554
  308.320  121.103    0.177    0.401    3.514
  308.570  117.963    0.197    0.389    3.557
  308.820  111.363    0.228    0.378    3.665
  309.070  102.774    0.221    0.372    3.691
  309.320   92.383    0.216    0.366    3.614
  309.570   84.056    0.216    0.367    3.425
  309.820   86.752    0.196    0.376    3.219
  310.070   93.099    0.241    0.361    3.086
  310.320  100.464    0.254    0.356    3.370
  310.570  105.303    0.239    0.345    3.774
  310.820  110.034    0.224    0.337    4.155
  311.070  114.263    0.220    0.332    4.478
  311.320  116.495    0.224    0.331    4.707
  311.570  117.425    0.205    0.334    4.861
  311.820  117.583    0.195    0.340    4.879
  312.070  117.150    0.187    0.342    4.847
  312.320  115.902    0.179    0.338    4.737
  312.570  113.984    0.170    0.336    4.491
  312.820  112.013    0.194    0.346    4.296
  313.070  113.815    0.212    0.355    4.220
  313.320  117.091    0.209    0.368    4.217
  313.570  122.755    0.191    0.379    4.255
  313.820  126.879    0.183    0.380    4.318
  314.070  130.802    0.211    0.363    4.399
  314.320  135.129    0.227    0.353    4.483
  314.570  132.296    0.237    0.348    4.582
  314.820  127.355    0.219    0.353    4.689
  315.070  122.222    0.221    0.358    4.800
  315.320  118.318    0.215    0.344    4.909
  315.570  119.123    0.184    0.335    4.945
  315.820  124.154    0.168    0.331    4.821
  316.070  128.449    0.170    0.332    4.626
  316.320  133.150    0.182    0.343    4.255
  316.570  137.187    0.189    0.364    3.771
  316.820  138.591    0.168    0.379    3.499
  317.070  137.368    0.169    0.392    3.352
  317.320  133.255    0.170    0.397    3.318
  317.570  128.420    0.186    0.395    3.295
