~VERSION INFORMATION
 VERS.                 2.0:   CWLS LOG ASCII STANDARD -VERSION 2.0
 WRAP.                  NO:   ONE LINE PER DEPTH STEP
~WELL INFORMATION BLOCK
#MNEM.UNIT           DATA                    DESCRIPTION OF MNEMONIC
#---------    -------------------            -------------------------------
# Generated from Intellog Unique Number	CW_70_72/WELL/1050
NULL.         -999.25                        : NULL_VALUE
WELL.         GULF FRANS 10-34               : Well_name    - WELL              
LOC .         10-34-071-21W4                 : Location     - LOCATION          
UWI .         00/10-34-071-21W4/0            : Uwi          - UNIQUE WELL ID    
ENTR.         JAYE                           : Entered      - ENTERED BY        
SRVC.         SCHLUMBERGER                   : Scn          - SERVICE COMPANY   
DATE.         7 MAR 86                       : Date         - LOG DATE          
STRT.M        320                            : top_depth    - START DEPTH       
STOP.M        505                            : bot_depth    - STOP DEPTH        
STEP.M        0.25                           : increment    - STEP LENGTH       
~CURVE INFORMATION BLOCK
#MNEM UNIT       ERCB CURVE CODE    CURVE DESCRIPTION
#-----------   ------------------   ----------------------------------
DEPT.M        00 001 00 00         : DEPTH        - DEPTH                       
DPHI.V/V      00 890 00 00         : PHID         - DENSITY POROSITY (SANDSTONE)
NPHI.V/V      00 330 00 00         : PHIN         - NEUTRON POROSITY (SANDSTONE)
GR  .API      00 310 00 00         : GR           - GAMMA RAY                   
CALI.MM       00 280 01 00         : CAL          - CALIPER                     
ILD .OHMM     00 120 00 00         : RESD         - DEEP RESISTIVITY (DIL)      
~PARAMETER INFORMATION       
#MNEM.UNIT           DATA             DESCRIPTION OF MNEMONIC
#---------         -----------     ------------------------------
GL  .M        593                  : gl           - GROUND LEVEL ELEVATION      
EREF.M        597.3                : kb           - ELEVATION OF DEPTH REFERENCE
DATM.M        593                  : datum        - DATUM ELEVATION             
TDD .M        524                  : tdd          - TOTAL DEPTH DRILLER         
RUN .         ONE                  : Run          - RUN NUMBER                  
ENG .         GEORGE               : Engineer     - RECORDING ENGINEER          
WIT .         CLAPHAM              : Witness      - WITNESSED BY                
BASE.         SL                   : Branch       - HOME BASE OF LOGGING UNIT   
MUD .         GEL CHEM             : Mud_type     - MUD TYPE                    
MATR.         SANDSTONE            : Logunit      - NEUTRON MATRIX              
TMAX.C        22                   : BHT          - MAXIMUM RECORDED TEMPERATURE
BHTD.M        525                  : BHTDEP       - MAXIMUM RECORDED TEMPERATURE
RMT .C        12.8                 : MDTP         - TEMPERATURE OF MUD          
MUDD.KG/M     1120                 : MWT          - MUD DENSITY                 
NEUT.         1                    : NEUTRON      - NEUTRON TYPE                
RESI.         0                    : RESIST       - RESISTIVITY TYPE            
RM  .OHMM     3.15                 : RM           - RESISTIVITY OF MUD          
RMC .OHMM     0                    : RMC          - RESISTIVITY OF MUD CAKE     
RMF .OHMM     3.2                  : RMF          - RESISTIVITY OF MUD FILTRATE 
SUFT.C        0                    : SUFT         - SURFACE TEMPERATURE         
~A  DEPTH     PHID     PHIN       GR      CAL     RESD
# ...
  429.500    0.265    0.434   74.783  203.272    4.317
  429.750    0.253    0.432   76.290  204.435    4.336
  430.000    0.247    0.440   77.733  205.702    4.364
  430.250    0.241    0.450   83.482  206.548    4.383
  430.500    0.247    0.451   80.686  207.604    4.420
  430.750    0.253    0.449   79.762  208.870    4.397
  431.000    0.240    0.444   80.333  209.720    4.237
  431.250    0.225    0.442   80.593  210.464    4.128
  431.500    0.211    0.441   83.161  211.417    3.909
  431.750    0.198    0.449   87.475  212.578    3.511
  432.000    0.217    0.487   90.542  213.531    3.159
  432.250    0.240    0.556   94.420  214.899    2.821
  432.500    0.255    0.584   99.856  216.168    2.568
  432.750    0.269    0.562  104.107  215.975    2.535
  433.000    0.265    0.544   97.881  214.227    2.742
  433.250    0.247    0.551   94.149  212.997    2.971
  433.500    0.233    0.487   96.156  211.766    3.250
  433.750    0.218    0.466   99.160  210.641    3.542
  434.000    0.211    0.470   94.742  209.516    3.890
  434.250    0.202    0.483   96.875  208.907    4.247
  434.500    0.199    0.482   99.567  208.199    4.389
  434.750    0.203    0.461  102.320  207.385    4.649
  435.000    0.203    0.462  100.711  206.052    4.878
  435.250    0.196    0.451   92.861  204.923    5.137
  435.500    0.184    0.438   85.075  202.550    5.319
  435.750    0.176    0.429   88.392  200.387    5.393
  436.000    0.204    0.419   88.465  199.987    5.366
  436.250    0.202    0.432   86.169  200.834    5.349
  436.500    0.192    0.430   88.113  201.996    5.373
  436.750    0.210    0.406   92.675  202.742    5.408
  437.000    0.210    0.426   96.303  203.279    5.472
  437.250    0.203    0.444   91.635  203.402    5.602
  437.500    0.189    0.430   90.774  203.417    5.712
  437.750    0.202    0.413   93.154  203.645    5.771
  438.000    0.215    0.398   92.790  203.453    5.818
  438.250    0.210    0.408   86.377  203.368    5.878
  438.500    0.192    0.408   82.956  203.388    5.881
  438.750    0.172    0.386   83.902  203.194    5.896
  439.000    0.175    0.379   87.593  203.214    5.900
  439.250    0.197    0.398   96.211  203.124    5.859
  439.500    0.212    0.437   96.097  203.247    5.796
  439.750    0.204    0.442   92.241  203.264    5.702
  440.000    0.194    0.448   93.249  203.285    5.685
  440.250    0.186    0.457   87.584  203.299    5.656
  440.500    0.177    0.400   78.799  203.318    5.649
  440.750    0.179    0.378   78.686  203.336    5.652
  441.000    0.196    0.391   81.378  203.253    5.602
  441.250    0.210    0.406   83.072  203.373    5.552
  441.500    0.219    0.419   84.767  203.286    5.535
  441.750    0.215    0.433   85.650  203.094    5.528
  442.000    0.199    0.454   85.662  203.214    5.489
  442.250    0.202    0.434   85.361  203.026    5.441
  442.500    0.214    0.415   85.121  203.041    5.383
  442.750    0.219    0.410   85.194  203.061    5.315
  443.000    0.214    0.405   87.450  203.078    5.239
  443.250    0.205    0.400   88.333  202.678    5.183
  443.500    0.199    0.410   80.298  202.279    5.127
  443.750    0.199    0.422   77.314  202.198    5.015
  444.000    0.206    0.439   78.573  202.109    4.813
  444.250    0.227    0.446   79.581  202.126    4.550
  444.500    0.242    0.459   78.407  202.143    4.212
  444.750    0.245    0.469   76.234  202.161    4.183
  445.000    0.209    0.319   73.001  202.390    4.389
  445.250    0.145    0.295   68.583  202.506    4.711
  445.500    0.114    0.267   61.109  202.421    5.497
  445.750    0.137    0.254   50.329  202.542    6.210
  446.000    0.161    0.265   47.783  202.457    6.923
  446.250    0.194    0.352   49.228  202.477    6.446
  446.500    0.224    0.377   51.047  202.178    5.285
  446.750    0.268    0.401   53.928  201.574    4.408
  447.000    0.306    0.421   55.434  200.448    3.656
  447.250    0.321    0.445   50.954  199.320    3.283
  447.500    0.330    0.421   48.908  198.610    3.022
  447.750    0.331    0.405   49.729  198.628    3.059
  448.000    0.331    0.420   51.174  198.956    3.240
  448.250    0.331    0.425   52.555  199.393    3.504
  448.500    0.331    0.439   53.940  199.408    3.761
  448.750    0.332    0.448   54.012  199.425    4.202
  449.000    0.335    0.452   53.835  199.341    4.587
  449.250    0.303    0.440   53.597  199.046    5.153
  449.500    0.275    0.413   53.234  198.128    5.855
  449.750    0.256    0.381   52.931  197.105    6.528
  450.000    0.248    0.350   52.569  196.186    6.482
  450.250    0.263    0.368   52.144  195.685    6.058
  450.500    0.266    0.401   51.841  195.603    5.555
  450.750    0.274    0.433   51.539  195.825    5.018
  451.000    0.285    0.456   51.424  196.053    4.699
  451.250    0.300    0.450   52.121  196.278    4.458
  451.500    0.288    0.421   54.004  196.605    4.271
  451.750    0.278    0.410   55.946  197.457    4.114
  452.000    0.284    0.410   55.021  198.304    4.164
  452.250    0.287    0.405   55.094  199.047    4.222
  452.500    0.278    0.390   56.165  199.896    4.154
  452.750    0.278    0.400   56.238  200.541    4.070
  453.000    0.282    0.411   55.562  201.389    4.012
  453.250    0.285    0.411   56.446  201.924    3.984
  453.500    0.288    0.401   56.520  202.359    3.986
  453.750    0.296    0.390   55.656  202.583    4.104
  454.000    0.337    0.381   54.482  202.706    4.431
  454.250    0.411    0.373   53.120  202.516    4.684
  454.500    0.369    0.433   47.891  202.430    5.251
  454.750    0.315    0.503   42.476  202.446    6.997
  455.000    0.237    0.223   39.119  202.881   10.348
  455.250    0.033    0.186   36.885  203.625   13.225
  455.500    0.032    0.169   39.576  204.164   13.982
  455.750    0.037    0.175   45.075  203.557    8.011
  456.000    0.049    0.265   50.513  200.559    6.953
  456.250    0.181    0.414   52.518  198.496    5.955
  456.500    0.261    0.410   53.651  197.996    4.921
  456.750    0.253    0.405   54.348  197.700    4.495
  457.000    0.247    0.406   56.105  198.035    4.265
  457.250    0.272    0.414   57.488  198.465    4.204
  457.500    0.282    0.412   57.124  199.313    4.319
  457.750    0.258    0.392   54.829  200.370    4.558
  458.000    0.233    0.380   51.407  202.051    4.920
  458.250    0.219    0.363   50.857  203.836    5.312
  458.500    0.192    0.337   54.421  204.788    5.531
  458.750    0.198    0.355   59.485  205.223    5.482
  459.000    0.220    0.373   62.739  205.656    5.192
  459.250    0.253    0.389   57.572  205.781    4.871
  459.500    0.278    0.396   57.210  205.796    4.648
  459.750    0.263    0.388   58.156  205.710    4.529
  460.000    0.249    0.389   60.349  205.623    4.498
  460.250    0.234    0.390   61.420  205.537    4.561
  460.500    0.249    0.388   59.122  205.451    4.722
  460.750    0.240    0.380   56.139  205.365    4.955
  461.000    0.219    0.364   54.404  205.380    5.238
  461.250    0.230    0.365   53.228  205.503    5.271
  461.500    0.247    0.386   50.743  205.521    5.040
  461.750    0.268    0.402   52.126  205.536    4.675
  462.000    0.293    0.404   55.630  205.557    4.377
  462.250    0.306    0.400   58.509  205.470    4.249
  462.500    0.303    0.419   56.836  205.697    4.148
  462.750    0.273    0.428   50.672  205.711    4.112
  463.000    0.240    0.407   51.618  205.729    4.030
  463.250    0.239    0.440   50.880  205.747    3.971
  463.500    0.268    0.451   48.271  205.866    3.907
  463.750    0.307    0.384   51.276  206.925    3.872
  464.000    0.249    0.378   62.262  208.190    3.941
  464.250    0.223    0.390   74.124  209.870    4.191
  464.500    0.205    0.404   81.681  211.240    4.438
  464.750    0.201    0.399   86.058  211.256    4.746
  465.000    0.199    0.400   89.063  210.444    5.008
  465.250    0.198    0.409   91.006  209.841    5.345
  465.500    0.191    0.413   95.945  209.336    5.683
  465.750    0.175    0.402  100.446  208.728    5.918
