~VERSION INFORMATION
 VERS.                 2.0:   CWLS LOG ASCII STANDARD -VERSION 2.0
 WRAP.                  NO:   ONE LINE PER DEPTH STEP
~WELL INFORMATION BLOCK
#MNEM.UNIT           DATA                    DESCRIPTION OF MNEMONIC
#---------    -------------------            -------------------------------
# Generated from Intellog Unique Number	CC_80_83/WELL/2430
NULL.         -999.25                        : NULL_VALUE
WELL.         IGCR NEWBY                     : Well_name    - WELL
LOC .         12-17-081-04W4                 : Location     - LOCATION          
UWI .         00/12-17-081-04W4/0            : Uwi          - UNIQUE WELL ID    
ENTR.         DW                             : Entered      - ENTERED BY        
SRVC.         SCHLUMBERGER                   : Scn          - SERVICE COMPANY   
DATE.         01 JAN 93                      : Date         - LOG DATE
STRT.M        95                             : top_depth    - START DEPTH       
STOP.M        271.101                        : bot_depth    - STOP DEPTH        
STEP.M        0.3                            : increment    - STEP LENGTH       
~CURVE INFORMATION BLOCK
#MNEM UNIT       ERCB CURVE CODE    CURVE DESCRIPTION
#-----------   ------------------   ----------------------------------
DEPT.M        00 001 00 00         : DEPTH        - DEPTH                       
DPHI.V/V      00 890 00 00         : PHID         - DENSITY POROSITY (LIMESTONE)
NPHI.V/V      00 330 00 00         : PHIN         - NEUTRON POROSITY (LIMESTONE)
GR  .API      00 310 00 00         : GR           - GAMMA RAY                   
ILD .OHMM     00 120 00 00         : RESD         - DEEP RESISTIVITY (DIL)      
~PARAMETER INFORMATION       
#MNEM.UNIT           DATA             DESCRIPTION OF MNEMONIC
#---------         -----------     ------------------------------
GL  .M        441.6                : gl           - GROUND LEVEL ELEVATION      
EREF.M        445.1                : kb           - ELEVATION OF DEPTH REFERENCE
DATM.M        445.1                : datum        - DATUM ELEVATION             
TDD .M        277                  : tdd          - TOTAL DEPTH DRILLER         
RUN .         ONE                  : Run          - RUN NUMBER                  
ENG .         BILL                 : Engineer     - RECORDING ENGINEER          
WIT .         JIM                  : Witness      - WITNESSED BY                
MUD .         GEL                  : Mud_type     - MUD TYPE                    
MATR.         LIMESTONE            : Logunit      - NEUTRON MATRIX              
TMAX.C        18                   : BHT          - MAXIMUM RECORDED TEMPERATURE
BHTD.M        277                  : BHTDEP       - MAXIMUM RECORDED TEMPERATURE
MATR.         1                    : LOGUNIT      - NEUTRON MATRIX              
RMT .C        25                   : MDTP         - TEMPERATURE OF MUD          
NEUT.         1                    : NEUTRON      - NEUTRON TYPE                
RESI.         0                    : RESIST       - RESISTIVITY TYPE            
RMC .OHMM     0.25                 : RMC          - RESISTIVITY OF MUD CAKE     
RMF .OHMM     0.25                 : RMF          - RESISTIVITY OF MUD FILTRATE 
SUFT.C        15                   : SUFT         - SURFACE TEMPERATURE         
~A  DEPTH     PHID     PHIN       GR     RESD
   95.000    0.385    0.492   67.947    8.920
   95.300    0.359    0.474   62.330    8.916
   95.600    0.321    0.423   63.572    8.746
   95.900    0.356    0.419   71.046    8.743
   96.200    0.453    0.478   74.781    8.576
   96.500    0.398    0.468   76.646    8.413
   96.800    0.259    0.425   72.899    8.412
   97.100    0.314    0.418   69.777    8.571
   97.400    0.285    0.418   69.772    8.732
   97.700    0.276    0.419   65.403    8.730
   98.000    0.260    0.439   73.501    8.729
   98.300    0.298    0.451   74.742    8.893
   98.600    0.314    0.431   64.761    8.891
   98.900    0.319    0.435   68.496    8.722
   99.200    0.305    0.410   69.738    8.555
   99.500    0.276    0.424   71.601    8.392
   99.800    0.316    0.453   70.349    7.924
  100.100    0.260    0.403   59.122    7.773
  100.400    0.245    0.403   56.624    7.919
  100.700    0.284    0.429   57.863    8.069
  101.000    0.339    0.448   57.858    8.222
  101.300    0.378    0.431   58.476    8.220
  101.600    0.329    0.469   62.212    8.377
  101.900    0.360    0.441   61.583    8.375
  102.200    0.452    0.438   48.486    8.533
  102.500    0.450    0.468   50.974    8.531
  102.800    0.363    0.470   60.318    8.692
  103.100    0.347    0.449   60.936    8.857
  103.400    0.358    0.433   54.073    8.855
  103.700    0.365    0.429   47.833    8.853
  104.000    0.362    0.463   50.945    8.851
  104.300    0.365    0.515   57.173    9.191
  104.600    0.345    0.544   59.037    9.545
  104.900    0.373    0.444   60.901    9.543
  105.200    0.440    0.445   65.884    8.841
  105.500    0.280    0.469   94.552    7.308
  105.800    0.272    0.509   93.924    4.807
  106.100    0.290    0.592   89.554    3.478
  106.400    0.287    0.595   97.028    3.543
  106.700    0.287    0.537  102.633    3.542
  107.000    0.288    0.538  102.629    3.409
  107.300    0.302    0.570  103.246    3.219
  107.600    0.299    0.600  103.240    2.982
  107.900    0.303    0.602   94.508    2.926
  108.200    0.370    0.580   80.788    3.038
  108.500    0.434    0.537   81.404    3.341
  108.800    0.337    0.507   82.645    4.117
  109.100    0.313    0.494   82.017    4.195
  109.400    0.332    0.484   64.557    4.613
  109.700    0.329    0.468   53.331    5.370
  110.000    0.337    0.418   46.466    7.707
  110.300    0.346    0.398   43.968   12.636
  110.600    0.338    0.416   44.586   15.874
  110.900    0.342    0.432   45.827   17.453
  111.200    0.348    0.437   44.574   17.783
  111.500    0.354    0.433   42.698   17.779
  111.800    0.351    0.417   46.434   17.776
  112.100    0.343    0.387   48.298   17.107
  112.400    0.344    0.409   45.175   16.781
  112.700    0.344    0.443   43.922   16.459
  113.000    0.342    0.437   43.292   17.094
  113.300    0.313    0.427   42.663   17.753
  113.600    0.271    0.468   42.660   18.437
  113.900    0.316    0.439   42.030   20.270
  114.200    0.443    0.483   40.153   21.052
  114.500    0.457    0.438   42.641   21.863
  114.800    0.309    0.402   46.375   22.279
  115.100    0.359    0.407   46.370   21.442
  115.400    0.412    0.466   45.740   17.720
  115.700    0.442    0.524   48.853   15.506
  116.000    0.377    0.437   50.718   15.211
  116.300    0.319    0.416   46.348   15.794
  116.600    0.351    0.418   44.472   16.404
  116.900    0.336    0.412   44.465   17.037
  117.200    0.333    0.403   46.330   17.358
  117.500    0.348    0.423   46.326   17.355
  117.800    0.345    0.442   45.697   16.701
  118.100    0.345    0.431   48.184   16.697
  118.400    0.346    0.426   48.178   17.013
  118.700    0.346    0.430   46.302   17.009
  119.000    0.342    0.418   44.425   17.333
  119.300    0.328    0.418   45.043   17.329
  119.600    0.322    0.421   47.531   17.322
  119.900    0.335    0.420   49.396   17.319
  120.200    0.355    0.411   48.144   16.666
  120.500    0.365    0.403   45.642   16.349
  120.800    0.328    0.413   45.640   16.346
  121.100    0.341    0.453   48.124   16.341
  121.400    0.400    0.448   49.368   16.652
  121.700    0.363    0.445   49.986   17.293
  122.000    0.338    0.443   48.733   18.655
  122.300    0.300    0.385   45.611   22.135
  122.600    0.108    0.192   38.747   48.283
  122.900    0.058    0.157   41.859   59.508
  123.200    0.030    0.117   43.099   69.270
  123.500    0.027    0.111   40.601   71.937
  123.800    0.019    0.121   36.854   69.237
  124.100    0.031    0.162   41.836   53.033
  124.400    0.131    0.265   46.817   22.951
  124.700    0.295    0.345   50.552   17.917
  125.000    0.377    0.471   48.052   16.918
  125.300    0.391    0.507   45.553   16.593
  125.600    0.364    0.426   42.430   16.588
  125.900    0.334    0.417   41.800   16.272
  126.200    0.332    0.444   42.418   15.963
  126.500    0.362    0.474   46.777   15.071
  126.800    0.374    0.517   53.005   14.784
  127.100    0.366    0.520   52.376   14.502
  127.400    0.371    0.477   49.254   14.777
  127.700    0.367    0.447   48.625   15.643
  128.000    0.355    0.431   52.983   16.556
  128.300    0.347    0.414   46.743   16.552
  128.600    0.345    0.409   47.361   16.548
  128.900    0.345    0.396   52.341   16.545
  129.200    0.345    0.394   52.337   15.620
  129.500    0.339    0.437   50.460   15.616
  129.800    0.334    0.412   49.206   15.912
  130.100    0.327    0.390   48.577   16.214
  130.400    0.329    0.405   47.327   16.521
  130.700    0.333    0.399   47.944   16.836
  131.000    0.339    0.401   51.056   16.829
  131.300    0.344    0.459   52.298   16.509
  131.600    0.338    0.430   51.044   15.889
  131.900    0.335    0.414   45.427   15.583
  132.200    0.351    0.433   44.798   15.286
  132.500    0.345    0.440   47.283   15.575
  132.800    0.336    0.433   48.526   16.175
  133.100    0.368    0.413   49.767   16.172
  133.400    0.474    0.463   51.633   15.565
  133.700    0.466    0.491   54.744   13.883
  134.000    0.331    0.453   55.363   13.110
  134.300    0.329    0.438   52.240   13.614
  134.600    0.393    0.448   47.869   14.138
  134.900    0.469    0.488   48.487   14.407
  135.200    0.359    0.448   50.974   14.401
  135.500    0.336    0.429   52.217   14.127
  135.800    0.368    0.423   52.210   14.124
  136.100    0.361    0.430   51.580   14.390
  136.400    0.349    0.419   51.575   14.117
  136.700    0.350    0.393   51.570   14.112
  137.000    0.359    0.446   50.315   14.379
  137.300    0.361    0.474   49.065   14.653
  137.600    0.362    0.445   48.437   14.929
  137.900    0.342    0.425   48.431   14.927
  138.200    0.354    0.419   47.175   14.365
  138.500    0.369    0.443   47.794   13.825
  138.800    0.369    0.440   49.038   13.560
  139.100    0.357    0.413   53.395   13.558
  139.400    0.357    0.410   50.272   13.552
  139.700    0.359    0.435   44.656   13.294
  140.000    0.343    0.474   47.145   13.291
  140.300    0.359    0.485   50.880   13.288
  140.600    0.355    0.478   54.613   13.034
  140.900    0.354    0.468   55.230   12.786
  141.200    0.354    0.443   54.601   12.541
  141.500    0.355    0.427   57.090   11.185
  141.800    0.334    0.452   63.942    8.567
  142.100    0.332    0.492   91.365    4.318
  142.400    0.327    0.567   93.227    2.582
  142.700    0.297    0.617   91.353    2.217
  143.000    0.312    0.598   90.100    2.259
  143.300    0.317    0.567   93.835    2.391
  143.600    0.259    0.520  100.064    2.679
  143.900    0.250    0.539  105.045    2.946
  144.201    0.272    0.548  103.792    3.119
  144.501    0.297    0.549   97.552    3.562
  144.801    0.271    0.557   90.064    3.770
  145.101    0.269    0.528   87.568    3.842
  145.401    0.269    0.543   88.808    4.472
  145.701    0.269    0.518   90.671    5.206
  146.001    0.271    0.486   89.421    5.616
  146.301    0.281    0.471   86.298    5.723
  146.601    0.288    0.457   83.174    5.722
  146.901    0.297    0.467   79.427    5.720
