~VERSION INFORMATION
 VERS.                 2.0:   CWLS LOG ASCII STANDARD -VERSION 2.0
 WRAP.                  NO:   ONE LINE PER DEPTH STEP
~WELL INFORMATION BLOCK
#MNEM.UNIT           DATA                    DESCRIPTION OF MNEMONIC
#---------    -------------------            -------------------------------
# Generated from Intellog Unique Number	CN_91_93/WELL/3054
WELL.         11-08-092-21W4                 : Well_name    - WELL
LOC .         00/11-08-092-21W4/0            : Location     - LOCATION
UWI .         00/11-08-092-21W4/0            : Uwi          - UNIQUE WELL ID
ENTR.         JOETTE                         : Entered      - ENTERED BY
SRVC.         SCHLUMBERGER                   : Scn          - SERVICE COMPANY
DATE.         04/09/92                       : Date         - LOG DATE
STRT.F        300                            : top_depth    - START DEPTH
STOP.F        889.731                        : bot_depth    - STOP DEPTH
STEP.F        0.82                           : increment    - STEP LENGTH
 NULL. -999.2500:NULL Value
~CURVE INFORMATION BLOCK
#MNEM UNIT       ERCB CURVE CODE    CURVE DESCRIPTION
#-----------   ------------------   ----------------------------------
DEPT.F        00 001 00 00         : DEPTH        - DEPTH
CALI.IN       00 280 01 00         : CAL          - CALIPER
GR  .API      00 310 00 00         : GR           - GAMMA RAY
NPHI.V/V      00 330 00 00         : PHIN         - NEUTRON POROSITY (SANDSTONE)
DPHI.V/V      00 890 00 00         : PHID         - DENSITY POROSITY (SANDSTONE)
ILD .OHMM     00 120 00 00         : RESD         - DEEP RESISTIVITY (DIL)
~PARAMETER INFORMATION
#MNEM.UNIT           DATA             DESCRIPTION OF MNEMONIC
#---------         -----------     ------------------------------
GL  .M        547.421              : gl           - GROUND LEVEL ELEVATION
EREF.M        551.383              : kb           - ELEVATION OF DEPTH REFERENCE
DATM.M        551.383              : datum        - DATUM ELEVATION
TDD .M        274.32               : tdd          - TOTAL DEPTH DRILLER
RUN .         ONE                  : Run          - RUN NUMBER
ENG .         BILL                 : Engineer     - RECORDING ENGINEER
WIT .         JIM                  : Witness      - WITNESSED BY
MUD .         GEL                  : Mud_type     - MUD TYPE
MATR.         SANDSTONE            : Logunit      - NEUTRON MATRIX
TMAX.F        67                   : BHT          - MAXIMUM RECORDED TEMPERATURE
BHTD.F        900                  : BHTDEP       - MAXIMUM RECORDED TEMPERATURE
RMT .F        64                   : MDTP         - TEMPERATURE OF MUD
MUDD.LB/G     9.25                 : MWT          - MUD DENSITY
NEUT.         1                    : NEUTRON      - NEUTRON TYPE
RESI.         0                    : RESIST       - RESISTIVITY TYPE
RM  .OHMM     4.31                 : RM           - RESISTIVITY OF MUD
RMC .OHMM     4.31                 : RMC          - RESISTIVITY OF MUD CAKE
RMF .OHMM     3.38                 : RMF          - RESISTIVITY OF MUD FILTRATE
SUFT.F        39.2                 : SUFT         - SURFACE TEMPERATURE
~A  DEPTH      CAL       GR     PHIN     PHID     RESD
# ...
  659.252    8.328   80.230    0.397    0.099   11.029
  660.072    8.288   83.961    0.404    0.149   10.818
  660.892    8.290   84.599    0.419    0.178   10.018
  661.713    8.290   84.618    0.437    0.145    9.827
  662.533    8.251   80.930    0.442    0.138   10.207
  663.353    8.170   79.089    0.431    0.136   10.601
  664.173    8.171   76.633    0.422    0.119   11.223
  664.993    8.131   76.039    0.428    0.102   11.438
  665.814    8.174   77.300    0.436    0.099   11.655
  666.634    8.175   77.314    0.426    0.112   11.877
  667.454    8.176   75.478    0.427    0.130   12.101
  668.274    8.177   73.027    0.432    0.146   12.570
  669.094    8.179   69.948    0.440    0.145   14.365
  669.915    8.180   65.637    0.428    0.145   13.561
  670.735    8.181   62.568    0.349   -0.009   12.322
  671.555    8.182   65.680    0.299    0.013   10.777
  672.375    8.184   68.787    0.376    0.044    9.247
  673.196    8.185   73.137    0.404    0.057    6.554
  674.016    8.186   77.491    0.424    0.092    6.188
  674.836    8.146   77.505    0.444    0.142    5.731
  675.656    8.148   76.911    0.445    0.172    5.207
  676.476    8.190   76.930    0.438    0.181    4.731
  677.297    8.191   78.810    0.436    0.149    4.553
  678.117    8.234   80.056    0.445    0.150    4.137
  678.937    8.276   85.029    0.452    0.152    3.906
  679.757    8.402   88.137    0.464    0.143    3.618
  680.577    8.403   88.165    0.474    0.165    3.617
  681.398    8.281   87.556    0.488    0.173    4.294
  682.218    8.241   82.632    0.514    0.173    6.661
  683.038    8.241   79.553    0.520    0.178    7.611
  683.858    8.243   75.242    0.494    0.171    8.698
  684.678    8.203   69.693    0.463    0.162    9.387
  685.499    8.204   64.150    0.431    0.162    9.384
  686.319    8.165   62.927    0.415    0.157    9.030
  687.139    8.207   64.183    0.442    0.194    8.688
  687.959    8.208   67.919    0.431    0.199    8.686
  688.780    8.209   71.036    0.432    0.200    8.684
  689.600    8.211   70.431    0.437    0.202    8.356
  690.420    8.212   69.213    0.432    0.201    7.593
  691.240    8.213   68.614    0.436    0.200    6.769
  692.060    8.215   69.870    0.440    0.190    6.268
  692.881    8.216   69.894    0.454    0.167    6.637
  693.701    8.217   69.908    0.462    0.125    7.731
  694.521    8.218   70.546    0.456    0.094   11.109
  695.341    8.220   73.040    0.455    0.133   11.540
  696.161    8.304   73.059    0.463    0.146   13.186
  696.982    8.346   69.985    0.455    0.137   14.783
  697.802    8.389   66.911    0.424    0.120   15.954
  698.622    8.431   63.847    0.370    0.074   17.885
  699.442    8.474   61.386    0.345   -0.057   17.882
  700.262    8.475   61.401    0.344   -0.038   17.536
  701.083    8.435   63.894    0.343   -0.011   16.877
  701.903    8.395   66.393    0.338    0.019   15.333
  702.723    8.314   68.263    0.331    0.058   14.755
  703.543    8.315   68.901    0.345    0.102   13.931
  704.364    8.316   69.538    0.371    0.104   13.149
  705.184    8.277   75.744    0.374    0.108   12.414
  706.004    8.277   82.573    0.360    0.132   11.721
  706.824    8.279   84.452    0.425    0.156   10.448
  707.644    8.280   82.002    0.443    0.152    9.493
  708.465    8.364   81.397    0.441    0.151    8.793
  709.285    8.365   80.798    0.439    0.159    8.301
  710.105    8.325   77.724    0.434    0.133    7.399
  710.925    8.327   75.264    0.426    0.136    6.986
  711.745    8.369   75.283    0.424    0.150    6.594
  712.566    8.371   77.781    0.418    0.155    7.254
  713.386    8.331   79.661    0.414    0.154    8.449
  714.206    8.291   80.908    0.407    0.133    9.294
  715.026    8.457   81.550    0.403    0.134   10.620
  715.846    8.665   79.709    0.409    0.128   11.459
  716.667    8.707   76.635    0.398    0.115   11.678
  717.487    8.626   72.947    0.381    0.121   11.453
  718.307    8.380   71.729    0.363    0.156   11.022
  719.127    8.216   70.511    0.359    0.177   10.405
  719.948    8.176   71.149    0.383    0.173   10.206
  720.768    8.384   75.493    0.376    0.071   10.010
  721.588    8.509   81.080    0.387    0.086   10.005
  722.408    8.468   87.904    0.406    0.122   10.004
  723.228    8.305   86.691    0.414    0.122   10.002
  724.049    8.348   91.045    0.406    0.097   10.191
  724.869    8.390   95.394    0.432    0.115   10.189
  725.689    8.391   94.171    0.440    0.128   10.185
  726.509    8.310   84.293    0.412    0.129   10.578
  727.329    8.311   80.605    0.419    0.151   10.575
  728.150    8.353   80.619    0.436    0.163   10.984
  728.970    8.314   76.313    0.430    0.175   11.192
  729.790    8.274   73.234    0.405    0.161   11.626
  730.610    8.316   72.016    0.393    0.112   11.847
  731.430    8.317   74.510    0.383    0.092   11.620
  732.251    8.360   77.008    0.418    0.081   10.969
  733.071    8.568   78.883    0.433    0.150   10.555
  733.891    8.734   78.284    0.456    0.153   10.158
  734.711    8.818   75.828    0.470    0.145    9.773
  735.531    8.861   77.085    0.462    0.133    9.587
  736.352    8.861   79.578    0.448    0.132    9.224
  737.172    8.863   82.067    0.429    0.142    8.875
  737.992    8.865   86.421    0.436    0.140    8.706
  738.812    8.907   89.529    0.453    0.138    8.539
  739.633    8.908   90.790    0.457    0.128    8.375
  740.453    8.909   89.567    0.447    0.118    8.534
  741.273    8.870   87.730    0.441    0.105    9.035
  742.093    8.829   86.512    0.446    0.122    9.937
  742.913    8.665   85.299    0.447    0.156   10.724
  743.734    8.419   82.220    0.439    0.174   12.254
  744.554    8.173   77.295    0.425    0.146   12.729
  745.374    8.009   77.933    0.403    0.143   13.219
  746.194    8.052   82.287    0.397    0.161   13.217
  747.014    8.136   86.632    0.422    0.179   13.213
  747.835    8.220   89.125    0.420    0.158   12.713
  748.655    8.262   91.005    0.416    0.172   12.471
  749.475    8.429   92.261    0.418    0.136   11.549
  750.295    8.512   92.285    0.420    0.129   11.114
  751.115    8.637   92.295    0.414    0.133   10.293
  751.936    8.639   91.700    0.401    0.128   10.489
  752.756    8.599   92.333    0.404    0.126   11.104
  753.576    8.518   92.976    0.418    0.130   11.534
  754.396    8.560   93.614    0.426    0.126   11.531
  755.217    8.644   94.246    0.436    0.125   11.750
  756.037    8.686   94.889    0.434    0.132   11.747
  756.857    8.687   95.531    0.432    0.138   11.747
  757.677    8.648   95.546    0.435    0.126   10.876
  758.497    8.525   95.565    0.419    0.110    9.696
  759.318    8.485   94.966    0.406    0.105   10.069
  760.138    8.486   93.747    0.422    0.137   10.262
  760.958    8.405   92.534    0.441    0.166   11.288
  761.778    8.406   91.925    0.456    0.158   12.415
  762.598    8.408   90.707    0.447    0.136   13.144
  763.419    8.451   85.782    0.454    0.120   12.892
  764.239    8.411   82.703    0.462    0.096   11.493
  765.059    8.412   81.490    0.420    0.020    6.860
  765.879    8.289   85.221    0.351    0.025    4.680
  766.699    8.373   88.338    0.359    0.122    3.940
  767.520    8.374   88.357    0.406    0.167    3.791
  768.340    8.417   93.320    0.444    0.174    4.332
  769.160    8.459   98.288    0.465    0.189    6.226
  769.980    8.585   94.596    0.487    0.188    6.848
  770.801    8.627   90.908    0.509    0.148    7.678
  771.621    8.669   88.453    0.510    0.132    8.445
  772.441    8.671   86.625    0.481    0.115    9.114
  773.261    8.590   85.398    0.437    0.082    9.834
  774.081    8.550   84.180    0.420    0.054    9.831
  774.902    8.427   83.585    0.443    0.099    9.642
  775.722    8.428   82.981    0.454    0.111    9.458
  776.542    8.512   82.381    0.468    0.105    9.276
  777.362    8.513   79.926    0.463    0.086    9.097
  778.182    8.473   81.182    0.446    0.062    8.922
