~VERSION INFORMATION
 VERS.                 2.0:   CWLS LOG ASCII STANDARD -VERSION 2.0
 WRAP.                  NO:   ONE LINE PER DEPTH STEP
~WELL INFORMATION BLOCK
#MNEM.UNIT           DATA                    DESCRIPTION OF MNEMONIC
#---------    -------------------            -------------------------------
# Generated from Intellog Unique Number	CW_82_90/WELL/3453
WELL.         SIEBENS WOODEN                 : Well_name    - WELL
LOC .         00/11-24-088-22W4/0            : Location     - LOCATION
UWI .         00/11-24-088-22W4/0            : Uwi          - UNIQUE WELL ID
ENTR.         MAX                            : Entered      - ENTERED BY
SRVC.         SCHLUMBERGER                   : Scn          - SERVICE COMPANY
STRT.M        76.2                           : top_depth    - START DEPTH
STOP.M        271.2                          : bot_depth    - STOP DEPTH
STEP.M        0.25                           : increment    - STEP LENGTH
 NULL. -999.2500:NULL Value
~CURVE INFORMATION BLOCK
#MNEM UNIT       ERCB CURVE CODE    CURVE DESCRIPTION
#-----------   ------------------   ----------------------------------
DEPT.M        00 001 00 00         : DEPTH        - DEPTH
ILD .OHMM     00 120 00 00         : RESD         - DEEP RESISTIVITY (DIL)
NPHI.V/V      00 330 00 00         : PHIN         - NEUTRON POROSITY (SANDSTONE)
DPHI.V/V      00 890 00 00         : PHID         - DENSITY POROSITY (SANDSTONE)
CALI.MM       00 280 01 00         : CAL          - CALIPER
GR  .API      00 310 00 00         : GR           - GAMMA RAY
~PARAMETER INFORMATION
#MNEM.UNIT           DATA             DESCRIPTION OF MNEMONIC
#---------         -----------     ------------------------------
GL  .M        523.646              : gl           - GROUND LEVEL ELEVATION
EREF.M        525.78               : kb           - ELEVATION OF DEPTH REFERENCE
DATM.M        523.646              : datum        - DATUM ELEVATION
TDD .M        272.491              : tdd          - TOTAL DEPTH DRILLER
RUN .         ONE                  : Run          - RUN NUMBER
ENG .         BILL                 : Engineer     - RECORDING ENGINEER
WIT .         JIM                  : Witness      - WITNESSED BY
MUD .         GEL                  : Mud_type     - MUD TYPE
MATR.         SANDSTONE            : Logunit      - NEUTRON MATRIX
TMAX.C        16.1111              : BHT          - MAXIMUM RECORDED TEMPERATURE
BHTD.M        272.491              : BHTDEP       - MAXIMUM RECORDED TEMPERATURE
MATR.         1                    : LOGUNIT      - NEUTRON MATRIX
RMT .C        12.2222              : MDTP         - TEMPERATURE OF MUD
NEUT.         1                    : NEUTRON      - NEUTRON TYPE
RESI.         0                    : RESIST       - RESISTIVITY TYPE
RMC .OHMM     6.47                 : RMC          - RESISTIVITY OF MUD CAKE
RMF .OHMM     6.61                 : RMF          - RESISTIVITY OF MUD FILTRATE
SUFT.C        -12.2222             : SUFT         - SURFACE TEMPERATURE
~A  DEPTH     RESD     PHIN     PHID      CAL       GR
# ...
  149.200   29.083    0.429    0.315  215.057   36.839
  149.450   28.822    0.460    0.312  214.078   36.259
  149.700   28.564    0.472    0.327  214.089   36.262
  149.950   27.803    0.479    0.335  214.100   36.558
  150.200   27.306    0.482    0.342  214.601   37.732
  150.450   26.819    0.483    0.336  214.610   38.322
  150.700   26.579    0.479    0.317  215.112   39.204
  150.950   26.580    0.461    0.298  215.124   40.085
  151.200   26.821    0.452    0.267  215.130   41.553
  151.450   27.310    0.432    0.242  215.140   42.726
  151.700   28.570    0.452    0.222  215.150   43.900
  151.950   29.619    0.449    0.302  214.666   45.074
  152.200   26.823    0.457    0.345  214.678   46.833
  152.450   16.937    0.456    0.328  215.177   50.055
  152.700    9.597    0.465    0.312  217.160   54.447
  152.950    7.064    0.482    0.288  219.636   59.717
  153.200    5.588    0.525    0.269  218.658   75.518
  153.450    4.794    0.547    0.255  216.202   83.713
  153.700    4.420    0.559    0.242  215.227   93.664
  153.950    4.420    0.559    0.233  216.221   98.056
  154.200    4.501    0.547    0.239  217.216   98.353
  154.450    4.709    0.545    0.227  218.704   96.894
  154.700    4.926    0.548    0.237  221.673   98.068
  154.950    5.061    0.559    0.262  223.654  100.705
  155.200    5.107    0.545    0.258  224.649   99.831
  155.450    5.200    0.532    0.266  225.648   98.372
  155.700    5.343    0.535    0.266  226.641   96.037
  155.950    5.391    0.535    0.260  228.623   95.163
  156.200    5.539    0.534    0.255  229.617   92.534
  156.450    5.691    0.552    0.263  232.094   91.952
  156.700    5.847    0.544    0.265  234.076   86.690
  156.950    6.008    0.531    0.258  235.563   82.599
  157.200    6.062    0.515    0.262  237.051   80.555
  157.450    6.062    0.539    0.272  238.048   81.144
  157.700    5.954    0.536    0.278  238.549   84.658
  157.950    5.901    0.516    0.273  238.066   87.003
  158.200    5.901    0.518    0.269  235.610   86.128
  158.450    6.009    0.512    0.261  231.676   82.329
  158.700    6.286    0.500    0.255  229.220   79.701
  158.950    6.696    0.490    0.247  226.764   77.950
  159.200    7.394    0.480    0.240  224.802   75.906
  159.450    8.541    0.476    0.233  223.334   74.154
  159.700   10.416    0.478    0.233  222.356   71.233
  159.950   11.924    0.489    0.210  220.886   69.482
  160.200   13.287    0.480    0.254  219.416   69.193
  160.450   13.408    0.467    0.299  218.441   69.197
  160.700   12.588    0.475    0.286  218.451   70.078
  160.950   10.607    0.496    0.271  218.952   73.007
  161.200    8.093    0.516    0.252  219.947   77.692
  161.450    6.819    0.525    0.194  220.450   82.085
  161.700    6.231    0.524    0.171  220.458   80.626
  161.950    5.850    0.505    0.151  220.467   80.337
  162.200    5.346    0.505    0.141  220.478   84.437
  162.450    5.065    0.486    0.190  220.488   85.903
  162.700    4.755    0.469    0.175  220.497   87.662
  162.950    4.587    0.571    0.164  220.012   95.272
  163.200    4.628    0.598    0.226  221.500   98.787
  163.450    4.755    0.598    0.241  220.525   98.498
  163.700    4.842    0.553    0.237  220.534   98.502
  163.950    4.842    0.530    0.234  222.023  100.554
  164.200    4.799    0.536    0.231  222.524  100.558
  164.450    4.587    0.544    0.231  223.520   99.099
  164.700    4.425    0.551    0.238  223.530   96.177
  164.950    4.230    0.552    0.257  223.539   95.011
  165.200    4.155    0.548    0.271  223.062   95.016
  165.450    4.155    0.539    0.286  223.065   89.168
  165.700    4.346    0.529    0.270  223.570   84.784
  165.950    4.671    0.502    0.260  223.578   79.814
  166.200    5.066    0.481    0.245  223.587   76.600
  166.450    5.595    0.459    0.266  224.089   77.482
  166.700    6.178    0.462    0.255  227.549   78.071
  166.950    6.701    0.500    0.238  231.996   74.857
  167.200    7.202    0.484    0.250  236.936   73.398
  167.450    7.953    0.488    0.265  233.003   73.110
  167.700    8.548    0.485    0.255  230.545   71.944
  167.950    9.188    0.473    0.259  229.078   69.900
  168.200    9.875    0.467    0.261  226.622   67.563
  168.450   10.807    0.462    0.244  222.687   66.105
  168.700   12.152    0.443    0.212  220.723   69.326
  168.950   12.262    0.461    0.163  219.254   73.718
  169.200   11.104    0.467    0.283  217.785   77.233
  169.450    8.784    0.474    0.266  217.300   80.162
  169.700    7.813    0.494    0.248  217.802   83.676
  169.950    7.402    0.491    0.235  218.799   82.510
  170.200    7.402    0.497    0.240  220.289   80.759
  170.450    7.674    0.496    0.253  221.284   76.667
  170.700    8.028    0.491    0.271  222.771   73.453
  170.950    8.028    0.474    0.284  223.766   72.287
  171.200    7.674    0.451    0.283  223.777   73.754
  171.450    6.888    0.433    0.260  223.786   76.098
  171.700    6.466    0.446    0.240  223.795   78.736
  171.950    6.017    0.464    0.257  223.313   80.787
  172.200    5.856    0.467    0.250  222.336   81.376
  172.450    6.017    0.460    0.244  222.344   78.454
  172.700    6.409    0.469    0.281  220.875   75.825
  172.950    7.014    0.472    0.289  217.432   72.612
  173.200    7.607    0.485    0.264  215.472   69.689
  173.450    8.476    0.478    0.247  217.453   66.768
  173.700    9.445    0.454    0.245  219.927   63.846
  173.950   10.244    0.447    0.306  218.950   61.803
  174.200   11.727    0.432    0.293  218.466   64.732
  174.450   13.426    0.436    0.291  218.476   67.954
  174.700   14.431    0.455    0.279  217.499   70.299
  174.950   14.562    0.450    0.266  216.523   68.840
  175.200   13.187    0.445    0.252  216.534   70.599
  175.450    9.619    0.463    0.237  218.022   72.943
  175.700    6.829    0.481    0.264  219.509   75.872
  175.950    5.026    0.505    0.261  221.492   78.510
  176.200    3.976    0.517    0.255  221.993   81.439
  176.450    3.600    0.516    0.248  222.495   83.490
  176.700    3.666    0.515    0.236  222.999   81.154
  176.950    3.976    0.481    0.196  223.010   75.599
  177.200    4.197    0.447    0.177  223.019   70.630
  177.450    4.848    0.424    0.149  223.028   69.756
  177.700    5.306    0.379    0.117  223.035   76.197
  177.950    6.298    0.432    0.194  222.553   79.419
  178.200    6.892    0.500    0.215  222.070   80.885
  178.450    6.648    0.490    0.221  221.587   80.596
  178.700    6.708    0.467    0.233  220.117   79.138
  178.950    7.276    0.470    0.235  219.139   76.216
  179.200    8.181    0.457    0.225  217.669   71.247
  179.450    8.181    0.442    0.231  216.203   68.032
  179.700    7.820    0.434    0.240  215.716   68.915
  179.950    7.409    0.463    0.245  215.728   71.843
  180.200    7.019    0.483    0.241  215.735   70.970
  180.450    7.476    0.490    0.239  215.744   69.804
  180.700    8.406    0.477    0.233  215.753   69.223
  180.950    9.117    0.462    0.221  215.270   68.934
  181.200    9.888    0.450    0.220  215.280   71.863
  181.450    9.888    0.434    0.267  217.262   75.378
  181.700    8.955    0.431    0.270  217.270   75.674
  181.950    7.822    0.461    0.254  216.788   74.508
  182.200    7.478    0.460    0.270  216.303   73.927
  182.450    7.683    0.458    0.262  216.313   73.638
  182.700    8.258    0.474    0.263  215.830   71.594
  182.950    8.069    0.481    0.260  211.591   73.757
  183.200    6.921    0.463    0.256  213.047   75.209
  183.450    6.045    0.464    0.262  215.015   76.076
  183.700    5.186    0.485    0.256  216.471   77.822
  183.950    5.001    0.495    0.277  217.445   81.620
  184.200    5.421    0.495    0.270  217.905   79.842
  184.450    6.430    0.485    0.259  214.887   73.653
  184.700    8.270    0.473    0.255  212.373   66.288
  184.950    9.376    0.449    0.243  211.843   62.450
  185.200    9.458    0.426    0.224  213.310   60.665
  185.450    7.827    0.400    0.156  216.262   62.117
