~VERSION INFORMATION
 VERS.                 2.0:   CWLS LOG ASCII STANDARD -VERSION 2.0
 WRAP.                  NO:   ONE LINE PER DEPTH STEP
~WELL INFORMATION BLOCK
#MNEM.UNIT           DATA                    DESCRIPTION OF MNEMONIC
#---------    -------------------            -------------------------------
# Generated from Intellog Unique Number	CW_73_75/WELL/3529
WELL.         ULSTER G&W MARTEN HILLS        : Well_name    - WELL
LOC .         00/12-12-074-02W5/0            : Location     - LOCATION
UWI .         00/12-12-074-02W5/0            : Uwi          - UNIQUE WELL ID
ENTR.         T                              : Entered      - ENTERED BY
SRVC.         SCHLUMBERGER                   : Scn          - SERVICE COMPANY
STRT.M        360                            : top_depth    - START DEPTH
STOP.M        600                            : bot_depth    - STOP DEPTH
STEP.M        0.25                           : increment    - STEP LENGTH
 NULL. -999.2500:NULL Value
~CURVE INFORMATION BLOCK
#MNEM UNIT       ERCB CURVE CODE    CURVE DESCRIPTION
#-----------   ------------------   ----------------------------------
DEPT.M        00 001 00 00         : DEPTH        - DEPTH
ILD .OHMM     00 120 00 00         : RESD         - DEEP RESISTIVITY (DIL)
DPHI.V/V      00 890 00 00         : PHID         - DENSITY POROSITY (SANDSTONE)
NPHI.V/V      00 330 00 00         : PHIN         - NEUTRON POROSITY (SANDSTONE)
GR  .API      00 310 00 00         : GR           - GAMMA RAY
~PARAMETER INFORMATION
#MNEM.UNIT           DATA             DESCRIPTION OF MNEMONIC
#---------         -----------     ------------------------------
GL  .M        644                  : gl           - GROUND LEVEL ELEVATION
EREF.M        647.2                : kb           - ELEVATION OF DEPTH REFERENCE
DATM.M        647.2                : datum        - DATUM ELEVATION
TDD .M        606                  : tdd          - TOTAL DEPTH DRILLER
RUN .         ONE                  : Run          - RUN NUMBER
ENG .         BILL                 : Engineer     - RECORDING ENGINEER
WIT .         JIM                  : Witness      - WITNESSED BY
MUD .         GEL                  : Mud_type     - MUD TYPE
MATR.         SANDSTONE            : Logunit      - NEUTRON MATRIX
TMAX.C        23                   : BHT          - MAXIMUM RECORDED TEMPERATURE
BHTD.M        606                  : BHTDEP       - MAXIMUM RECORDED TEMPERATURE
MATR.         1                    : LOGUNIT      - NEUTRON MATRIX
RMT .C        17                   : MDTP         - TEMPERATURE OF MUD
NEUT.         1                    : NEUTRON      - NEUTRON TYPE
RESI.         0                    : RESIST       - RESISTIVITY TYPE
RMC .OHMM     2.6                  : RMC          - RESISTIVITY OF MUD CAKE
RMF .OHMM     1.7                  : RMF          - RESISTIVITY OF MUD FILTRATE
SUFT.C        15                   : SUFT         - SURFACE TEMPERATURE
~A  DEPTH     RESD     PHID     PHIN       GR
# ...
  577.500   13.496    0.358    0.068   90.493
  577.750   19.122    0.382    0.050   43.245
  578.000   22.975    0.389    0.049   26.121
  578.250   21.754    0.388    0.056   23.174
  578.500   17.790    0.355    0.069   21.998
  578.750   12.566    0.328    0.184   20.820
  579.000    7.390    0.306    0.236   19.644
  579.250    6.623    0.252    0.263   18.468
  579.500    5.619    0.251    0.277   18.474
  579.750    4.680    0.267    0.286   18.479
  580.000    3.898    0.266    0.293   18.483
  580.250    3.691    0.267    0.296   19.077
  580.500    3.369    0.268    0.296   19.673
  580.750    3.132    0.268    0.295   20.269
  581.000    3.077    0.267    0.293   22.047
  581.250    3.022    0.267    0.293   23.233
  581.500    2.968    0.267    0.293   23.828
  581.750    2.969    0.264    0.293   23.242
  582.000    2.917    0.262    0.296   22.656
  582.250    2.918    0.262    0.298   22.662
  582.500    2.973    0.258    0.298   23.257
  582.750    2.974    0.256    0.298   24.444
  583.000    3.030    0.253    0.297   25.038
  583.250    3.144    0.252    0.297   26.224
  583.500    3.145    0.252    0.296   26.229
  583.750    3.205    0.251    0.296   26.235
  584.000    3.206    0.247    0.296   26.238
  584.250    3.207    0.251    0.296   25.652
  584.500    3.209    0.251    0.299   25.068
  584.750    3.210    0.251    0.303   25.074
  585.000    3.211    0.248    0.300   25.078
  585.250    3.212    0.248    0.298   26.265
  585.500    3.213    0.251    0.297   28.041
  585.750    3.274    0.246    0.295   32.181
  586.000    3.275    0.239    0.297   33.367
  586.250    3.277    0.240    0.300   32.190
  586.500    3.277    0.242    0.303   32.195
  586.750    3.279    0.243    0.304   33.381
  587.000    3.280    0.248    0.305   34.568
  587.250    3.281    0.249    0.305   34.573
  587.500    3.283    0.249    0.307   33.396
  587.750    3.284    0.249    0.307   33.401
  588.000    3.285    0.254    0.309   34.587
  588.250    3.347    0.247    0.309   35.183
  588.500    3.348    0.219    0.307   35.187
  588.750    3.411    0.203    0.306   32.240
  589.000    3.413    0.231    0.300   29.291
  589.250    3.352    0.253    0.284   26.932
  589.500    3.232    0.270    0.261   21.621
  589.750    3.175    0.285    0.267   18.082
  590.000    3.295    0.285    0.279   16.316
  590.250    3.419    0.282    0.285   15.729
  590.500    3.680    0.277    0.282   14.553
  590.750    4.186    0.261    0.276   16.330
  591.000    4.589    0.249    0.271   18.699
  591.250    5.218    0.244    0.267   21.066
  591.500    5.618    0.232    0.270   23.433
  591.750    5.829    0.188    0.260   25.801
  592.000    6.390    0.153    0.209   25.215
  592.250    7.007    0.169    0.209   24.629
  592.500    7.543    0.192    0.220   24.635
  592.750    8.119    0.203    0.232   25.820
  593.000    8.740    0.200    0.225   27.598
  593.250    9.581    0.186    0.216   29.964
  593.500   11.724    0.166    0.222   35.285
  593.750   14.347    0.067    0.214   44.149
  594.000   17.558    0.045    0.197   52.423
  594.250   16.323    0.046    0.227   61.288
  594.500   15.175    0.052    0.244   70.745
  594.750   14.906    0.387    0.425   80.790
  595.000   16.046    0.394    0.425   77.251
  595.250   16.651    0.310    0.384   73.712
  595.500   14.922    0.277    0.355   81.986
  595.750   12.658    0.214    0.337   90.260
  596.000   10.738    0.163    0.326   99.125
  596.250    9.802    0.280    0.333  106.809
  596.500    8.947    0.455    0.332   95.591
  596.750    9.118    0.417    0.331   80.239
  597.000    9.814    0.356    0.328   83.788
  597.250   10.759    0.272    0.325   95.606
  597.500   12.692    0.157    0.316  110.968
  597.750   14.173    0.099    0.269  116.879
  598.000   14.440    0.080    0.257  106.252
  598.250   14.446    0.091    0.263  102.713
  598.500   14.717    0.104    0.272  100.356
  598.750   15.844    0.097    0.287  103.905
  599.000   16.440    0.088    0.293  107.453
  599.250   22.047    0.076    0.274  108.641
  599.500   45.061    0.052    0.196  108.054
  599.750   75.287   -0.020    0.037  107.468
  600.000  230.267   -0.028    0.028  107.472
