~VERSION INFORMATION
 VERS.                 2.0:   CWLS LOG ASCII STANDARD -VERSION 2.0
 WRAP.                  NO:   ONE LINE PER DEPTH STEP
~WELL INFORMATION BLOCK
#MNEM.UNIT           DATA                    DESCRIPTION OF MNEMONIC
#---------    -------------------            -------------------------------
# Generated from Intellog Unique Number	CW_70_72/WELL/1062
NULL.         -999.25                        : NULL_VALUE
WELL.         MIKAS AMOCO CALLLING LAKE 11-3 : Well_name    - WELL              
LOC .         11-34-071-20W4                 : Location     - LOCATION          
UWI .         00/11-34-071-20W4/0            : Uwi          - UNIQUE WELL ID    
ENTR.         JAYE                           : Entered      - ENTERED BY        
SRVC.         SCHLUMBERGER                   : Scn          - SERVICE COMPANY   
DATE.         8 FEB 73                       : Date         - LOG DATE          
STRT.M        320.04                         : top_depth    - START DEPTH       
STOP.M        533.04                         : bot_depth    - STOP DEPTH        
STEP.M        0.25                           : increment    - STEP LENGTH       
~CURVE INFORMATION BLOCK
#MNEM UNIT       ERCB CURVE CODE    CURVE DESCRIPTION
#-----------   ------------------   ----------------------------------
DEPT.M        00 001 00 00         : DEPTH        - DEPTH                       
DPHI.V/V      00 890 00 00         : PHID         - DENSITY POROSITY (SANDSTONE)
NPHI.V/V      00 330 00 00         : PHIN         - NEUTRON POROSITY (SANDSTONE)
GR  .API      00 310 00 00         : GR           - GAMMA RAY                   
CALI.MM       00 280 01 00         : CAL          - CALIPER                     
ILD .OHMM     00 120 00 00         : RESD         - DEEP RESISTIVITY (DIL)      
~PARAMETER INFORMATION       
#MNEM.UNIT           DATA             DESCRIPTION OF MNEMONIC
#---------         -----------     ------------------------------
GL  .M        591.83               : gl           - GROUND LEVEL ELEVATION      
EREF.M        594.97               : kb           - ELEVATION OF DEPTH REFERENCE
DATM.M        591.83               : datum        - DATUM ELEVATION             
TDD .M        541.63               : tdd          - TOTAL DEPTH DRILLER         
RUN .         ONE                  : Run          - RUN NUMBER                  
ENG .         MACIJUK              : Engineer     - RECORDING ENGINEER          
WIT .         LEWIN/CONVENEY       : Witness      - WITNESSED BY                
BASE.         EDM                  : Branch       - HOME BASE OF LOGGING UNIT   
MUD .         GEL                  : Mud_type     - MUD TYPE                    
MATR.         SANDSTONE            : Logunit      - NEUTRON MATRIX              
TMAX.C        25.5556              : BHT          - MAXIMUM RECORDED TEMPERATURE
BHTD.M        540.41               : BHTDEP       - MAXIMUM RECORDED TEMPERATURE
RMT .C        15                   : MDTP         - TEMPERATURE OF MUD          
MUDD.KG/M     1104                 : MWT          - MUD DENSITY                 
NEUT.         1                    : NEUTRON      - NEUTRON TYPE                
RESI.         0                    : RESIST       - RESISTIVITY TYPE            
RM  .OHMM     4.44                 : RM           - RESISTIVITY OF MUD          
RMC .OHMM     0                    : RMC          - RESISTIVITY OF MUD CAKE     
RMF .OHMM     4.5                  : RMF          - RESISTIVITY OF MUD FILTRATE 
SUFT.C        0                    : SUFT         - SURFACE TEMPERATURE         
~A  DEPTH     PHID     PHIN       GR      CAL     RESD
# ...
  429.540    0.209    0.449   80.217  161.641    5.928
  429.790    0.194    0.451   82.090  160.492    5.890
  430.040    0.185    0.457   85.245  159.820    5.811
  430.290    0.195    0.487   86.376  159.585    5.849
  430.540    0.210    0.495   84.836  159.237    5.898
  430.790    0.219    0.489   82.194  158.686    5.926
  431.040    0.204    0.504   79.669  158.640    5.888
  431.290    0.202    0.494   76.475  158.414    5.755
  431.540    0.220    0.463   74.989  158.266    5.473
  431.790    0.230    0.463   75.763  158.329    5.311
  432.040    0.247    0.486   77.999  158.705    5.287
  432.290    0.265    0.495   81.026  159.392    5.361
  432.540    0.228    0.494   83.940  160.179    5.496
  432.790    0.244    0.491   85.620  162.318    5.562
  433.040    0.234    0.477   85.352  163.537    5.568
  433.290    0.217    0.450   82.038  164.106    5.563
  433.540    0.211    0.435   79.638  164.586    5.528
  433.790    0.204    0.420   81.204  164.856    5.464
  434.040    0.201    0.437   80.214  165.239    5.389
  434.290    0.219    0.435   77.746  165.827    5.239
  434.540    0.213    0.423   74.310  166.723    5.047
  434.790    0.221    0.443   73.012  166.885    4.782
  435.040    0.226    0.455   73.358  166.027    4.665
  435.290    0.236    0.478   73.640  163.523    4.679
  435.540    0.254    0.492   73.738  162.025    4.877
  435.790    0.279    0.500   72.924  160.445    5.232
  436.040    0.276    0.511   67.110  159.579    6.210
  436.290    0.288    0.479   59.833  159.138    7.093
  436.540    0.284    0.452   49.019  159.104    7.967
  436.790    0.287    0.428   44.240  159.377    9.100
  437.040    0.294    0.395   46.358  159.958    9.552
  437.290    0.271    0.447   49.511  160.539    8.245
  437.540    0.277    0.509   50.887  161.227    7.394
  437.790    0.347    0.543   51.110  162.232    6.512
  438.040    0.369    0.549   50.295  163.431    5.884
  438.290    0.354    0.517   49.178  165.048    5.404
  438.540    0.353    0.525   50.750  166.044    5.083
  438.790    0.350    0.511   51.575  166.427    5.297
  439.040    0.345    0.484   51.986  166.903    5.736
  439.290    0.336    0.444   51.360  167.185    6.551
  439.540    0.327    0.427   50.540  167.038    6.966
  439.790    0.283    0.414   49.725  166.179    6.601
  440.040    0.260    0.370   48.490  164.796    6.041
  440.290    0.211    0.338   48.093  163.429    5.438
  440.540    0.229    0.368   47.775  162.041    4.806
  440.790    0.322    0.437   47.934  160.972    4.186
  441.040    0.333    0.442   48.341  159.903    3.693
  441.290    0.332    0.435   48.803  158.540    3.386
  441.540    0.315    0.430   48.968  157.572    3.208
  441.790    0.330    0.430   49.066  156.818    3.057
  442.040    0.332    0.437   49.532  156.164    3.005
  442.290    0.364    0.452   50.435  155.505    3.024
  442.540    0.352    0.466   50.834  154.844    3.066
  442.790    0.355    0.474   49.965  154.599    3.126
  443.040    0.350    0.479   48.839  154.463    3.175
  443.290    0.344    0.483   46.807  153.921    3.262
  443.540    0.345    0.484   44.778  153.871    3.312
  443.790    0.356    0.487   43.842  153.946    3.328
  444.040    0.350    0.489   44.123  154.018    3.332
  444.290    0.369    0.481   46.115  153.868    3.329
  444.540    0.355    0.474   49.200  153.842    3.339
  444.790    0.354    0.477   50.582  153.386    3.341
  445.040    0.352    0.460   50.198  152.107    3.327
  445.290    0.326    0.461   49.146  150.425    3.330
  445.540    0.345    0.472   48.511  149.660    3.334
  445.790    0.365    0.485   47.822  149.632    3.337
  446.040    0.341    0.467   47.373  150.210    3.340
  446.290    0.312    0.448   47.050  151.107    3.362
  446.540    0.343    0.464   47.150  151.998    3.390
  446.790    0.337    0.485   47.672  153.217    3.431
  447.040    0.325    0.472   48.872  153.892    3.448
  447.290    0.337    0.500   51.779  154.693    3.432
  447.540    0.351    0.496   52.734  155.687    3.410
  447.790    0.309    0.486   52.103  156.587    3.401
  448.040    0.326    0.500   50.801  158.090    3.386
  448.290    0.319    0.499   49.014  160.851    3.365
  448.540    0.329    0.486   47.585  162.360    3.362
  448.790    0.335    0.504   45.740  163.557    3.353
  449.040    0.334    0.509   45.782  163.942    3.351
  449.290    0.329    0.458   46.303  163.894    3.342
  449.540    0.320    0.431   48.846  163.448    3.333
  449.790    0.286    0.421   51.994  162.704    3.324
  450.040    0.321    0.446   54.838  162.353    3.273
  450.290    0.344    0.462   48.903  161.798    3.252
  450.540    0.332    0.464   45.954  161.362    3.238
  450.790    0.324    0.466   44.716  160.805    3.265
  451.040    0.320    0.472   45.546  160.454    3.280
  451.290    0.322    0.480   46.136  160.101    3.320
  451.540    0.325    0.453   47.396  159.560    3.366
  451.790    0.322    0.433   48.235  159.107    3.394
  452.040    0.326    0.426   48.572  158.651    3.442
  452.290    0.310    0.419   48.802  158.004    3.515
  452.540    0.316    0.411   48.839  157.554    3.610
  452.790    0.333    0.413   48.332  157.316    3.735
  453.040    0.327    0.424   47.696  157.383    3.878
  453.290    0.293    0.419   46.577  157.545    4.101
  453.540    0.283    0.407   43.511  157.830    4.329
  453.790    0.271    0.398   41.539  157.998    4.528
  454.040    0.252    0.395   41.760  158.263    4.753
  454.290    0.245    0.397   43.084  158.751    4.847
  454.540    0.236    0.396   45.500  158.825    4.824
  454.790    0.244    0.390   47.123  158.893    4.716
  455.040    0.255    0.385   46.308  159.175    4.584
  455.290    0.284    0.378   45.073  159.228    4.368
  455.540    0.295    0.376   44.687  159.393    4.071
  455.790    0.305    0.397   44.967  158.637    3.759
  456.040    0.317    0.407   46.224  158.088    3.530
  456.290    0.318    0.432   49.257  157.427    3.376
  456.540    0.306    0.433   52.041  157.817    3.318
  456.790    0.296    0.433   56.411  158.805    3.395
  457.040    0.286    0.429   62.306  160.940    3.610
  457.290    0.254    0.422   70.390  164.105    3.803
  457.540    0.218    0.447   80.186  168.722    3.711
  457.790    0.190    0.508   88.522  172.193    3.688
  458.040    0.206    0.528   92.097  174.940    3.651
  458.290    0.232    0.545   93.418  176.562    3.615
  458.540    0.246    0.563   93.885  176.834    3.625
  458.790    0.238    0.575   93.868  177.628    3.675
  459.040    0.237    0.570   94.641  178.319    3.817
  459.290    0.226    0.539   95.532  179.104    4.014
  459.540    0.218    0.502   92.094  181.349    4.460
  459.790    0.222    0.484   88.843  182.130    5.094
  460.040    0.216    0.478   85.471  181.061    5.486
  460.290    0.209    0.465   84.230  175.968    5.665
  460.540    0.190    0.454   83.778  169.840    5.672
  460.790    0.161    0.438   84.430  168.981    5.647
  461.040    0.184    0.425   86.055  168.857    5.610
  461.290    0.205    0.446   88.295  168.705    5.585
  461.540    0.205    0.457   89.365  168.053    5.622
  461.790    0.198    0.464   89.405  167.495    5.680
  462.040    0.199    0.477   87.861  167.259    5.780
  462.290    0.194    0.473   85.465  167.116    5.860
  462.540    0.184    0.451   84.402  167.191    5.963
  462.790    0.164    0.434   84.327  167.251    6.114
  463.040    0.175    0.450   86.740  167.017    6.209
  463.290    0.212    0.469   89.708  167.070    6.296
  463.540    0.213    0.484   90.234  166.421    6.302
  463.790    0.207    0.479   91.436  166.190    6.274
  464.040    0.221    0.479   95.070  165.835    6.100
  464.290    0.222    0.484   98.648  165.704    5.908
  464.540    0.223    0.500   95.760  165.561    5.608
  464.790    0.217    0.485   97.144  165.415    5.423
  465.040    0.210    0.471  100.901  165.791    5.348
  465.290    0.219    0.455   94.970  166.894    5.276
  465.540    0.200    0.438   90.799  170.370    5.621
  465.790    0.179    0.417   81.448  169.300    6.010
