~VERSION INFORMATION
 VERS.                 2.0:   CWLS LOG ASCII STANDARD -VERSION 2.0
 WRAP.                  NO:   ONE LINE PER DEPTH STEP
~WELL INFORMATION BLOCK
#MNEM.UNIT           DATA                    DESCRIPTION OF MNEMONIC
#---------    -------------------            -------------------------------
# Generated from Intellog Unique Number	CS_73_76/WELL/3277
WELL.         STAR OIL & GAS LTD.            : Well_name    - WELL
LOC .         00/14-04-076-10W4/0            : Location     - LOCATION
UWI .         00/14-04-076-10W4/0            : Uwi          - UNIQUE WELL ID
ENTR.         SP                             : Entered      - ENTERED BY
SRVC.         SCHLUMBERGER                   : Scn          - SERVICE COMPANY
STRT.M        265                            : top_depth    - START DEPTH
STOP.M        485                            : bot_depth    - STOP DEPTH
STEP.M        0.25                           : increment    - STEP LENGTH
 NULL. -999.2500:NULL Value
~CURVE INFORMATION BLOCK
#MNEM UNIT       ERCB CURVE CODE    CURVE DESCRIPTION
#-----------   ------------------   ----------------------------------
DEPT.M        00 001 00 00         : DEPTH        - DEPTH
ILD .OHMM     00 120 00 00         : RESD         - DEEP RESISTIVITY (DIL)
DPHI.V/V      00 890 00 00         : PHID         - DENSITY POROSITY (LIMESTONE)
NPHI.V/V      00 330 00 00         : PHIN         - NEUTRON POROSITY (LIMESTONE)
GR  .API      00 310 00 00         : GR           - GAMMA RAY
~PARAMETER INFORMATION
#MNEM.UNIT           DATA             DESCRIPTION OF MNEMONIC
#---------         -----------     ------------------------------
GL  .M        662.45               : gl           - GROUND LEVEL ELEVATION
EREF.M        665.5                : kb           - ELEVATION OF DEPTH REFERENCE
DATM.M        662.45               : datum        - DATUM ELEVATION
TDD .M        530                  : tdd          - TOTAL DEPTH DRILLER
RUN .         ONE                  : Run          - RUN NUMBER
ENG .         BILL                 : Engineer     - RECORDING ENGINEER
WIT .         JIM                  : Witness      - WITNESSED BY
MUD .         GEL                  : Mud_type     - MUD TYPE
MATR.         LIMESTONE            : Logunit      - NEUTRON MATRIX
TMAX.C        24                   : BHT          - MAXIMUM RECORDED TEMPERATURE
BHTD.M        530                  : BHTDEP       - MAXIMUM RECORDED TEMPERATURE
MATR.         1                    : LOGUNIT      - NEUTRON MATRIX
RMT .C        25                   : MDTP         - TEMPERATURE OF MUD
NEUT.         1                    : NEUTRON      - NEUTRON TYPE
RESI.         0                    : RESIST       - RESISTIVITY TYPE
RMC .OHMM     0.25                 : RMC          - RESISTIVITY OF MUD CAKE
RMF .OHMM     0.25                 : RMF          - RESISTIVITY OF MUD FILTRATE
SUFT.C        15                   : SUFT         - SURFACE TEMPERATURE
~A  DEPTH     RESD     PHID     PHIN       GR
# ...
  352.000    2.808    0.255    0.493   92.266
  352.250    2.704    0.263    0.545   93.513
  352.500    2.604    0.272    0.558   95.384
  352.750    2.757    0.272    0.547   96.004
  353.000    2.919    0.269    0.541   96.000
  353.250    3.209    0.269    0.535   95.371
  353.500    3.462    0.270    0.536   95.992
  353.750    3.529    0.263    0.524   97.862
  354.000    3.530    0.253    0.514   99.732
  354.250    3.464    0.253    0.509   97.228
  354.500    3.400    0.259    0.498   96.600
  354.750    3.400    0.259    0.506   97.220
  355.000    3.401    0.255    0.506   99.091
  355.250    3.402    0.251    0.494  100.960
  355.500    3.402    0.242    0.485  101.583
  355.750    3.468    0.237    0.486  102.827
  356.000    3.535    0.235    0.494  102.823
  356.250    3.603    0.238    0.498  102.193
  356.500    3.673    0.240    0.485  102.815
  356.750    3.744    0.242    0.480  102.811
  357.000    3.745    0.240    0.491  104.056
  357.250    3.890    0.243    0.503  105.303
  357.500    3.965    0.255    0.510  105.299
  357.750    4.278    0.266    0.508  100.919
  358.000    4.360    0.271    0.500   92.790
  358.250    4.444    0.279    0.494   87.160
  358.500    4.445    0.279    0.494   90.282
  358.750    4.446    0.271    0.496   97.777
  359.000    4.282    0.251    0.499   99.023
  359.250    4.282    0.248    0.494  100.267
  359.500    4.047    0.263    0.485  101.513
  359.750    3.824    0.269    0.493  102.135
  360.000    3.546    0.266    0.496  102.755
  360.250    3.351    0.265    0.515  102.752
  360.500    3.107    0.269    0.531  104.621
  360.750    2.936    0.280    0.546  105.242
  361.000    3.228    0.284    0.562  105.239
  361.250    3.686    0.286    0.557  105.233
  361.500    4.455    0.285    0.537  104.605
  361.750    5.185    0.281    0.530  101.476
  362.000    5.809    0.274    0.508   96.471
  362.250    6.387    0.266    0.477   91.467
  362.500    7.022    0.265    0.469   85.213
  362.750    7.576    0.266    0.466   85.835
  363.000    8.020    0.268    0.462   86.456
  363.250    8.331    0.269    0.459   86.450
  363.500    8.333    0.273    0.466   85.819
  363.750    8.334    0.266    0.457   85.817
  364.000    8.336    0.258    0.451   87.064
  364.250    8.338    0.252    0.438   88.308
  364.500    8.339    0.264    0.440   88.929
  364.750    8.500    0.269    0.454   88.925
  365.000    8.501    0.279    0.448   87.671
  365.250    8.666    0.286    0.450   85.793
  365.500    8.667    0.290    0.453   83.287
  365.750    8.669    0.296    0.442   81.409
  366.000    8.670    0.301    0.437   79.529
  366.250    8.838    0.304    0.436   80.775
  366.500    8.674    0.301    0.436   81.396
  366.750    8.514    0.304    0.453   82.016
  367.000    8.515    0.306    0.443   84.512
  367.250    8.357    0.286    0.438   86.382
  367.500    8.519    0.268    0.431   87.003
  367.750    8.683    0.262    0.441   87.623
  368.000    8.684    0.259    0.445   87.620
  368.250    8.852    0.269    0.441   86.992
  368.500    9.023    0.280    0.441   84.487
  368.750    9.024    0.283    0.445   85.732
  369.000    9.198    0.283    0.464   88.852
  369.250    9.200    0.279    0.477   90.724
  369.500    8.860    0.269    0.482   91.969
  369.750    8.696    0.270    0.489   88.841
  370.000    8.534    0.273    0.487   86.961
  370.250    8.536    0.278    0.476   85.081
  370.500    8.538    0.276    0.462   86.951
  370.750    8.379    0.274    0.453   86.949
  371.000    7.918    0.265    0.452   88.819
  371.250    7.771    0.262    0.458   90.063
  371.500    7.773    0.264    0.451   90.686
  371.750    7.345    0.257    0.440   90.682
  372.000    7.074    0.249    0.447   87.552
  372.250    6.944    0.244    0.452   89.423
  372.500    6.815    0.241    0.445   90.669
  372.750    7.078    0.241    0.452   88.789
  373.000    7.080    0.248    0.460   88.160
  373.250    7.081    0.252    0.472   91.905
  373.500    6.949    0.246    0.474   93.775
  373.750    6.820    0.241    0.467   94.397
  374.000    6.694    0.239    0.461   95.643
  374.250    6.570    0.238    0.484   95.637
  374.500    6.571    0.238    0.478   96.883
  374.750    6.209    0.237    0.469   97.505
  375.000    5.868    0.231    0.462   94.376
  375.250    5.339    0.229    0.461   92.496
  375.500    4.951    0.231    0.462   91.867
  375.750    4.176    0.238    0.471   93.113
  376.000    3.590    0.257    0.484   95.609
  376.250    3.086    0.270    0.503  102.478
  376.500    2.653    0.280    0.533  104.974
  376.750    2.414    0.288    0.546  104.346
  377.000    2.325    0.293    0.551  101.217
  377.250    2.370    0.296    0.559   96.837
  377.500    2.415    0.300    0.572   94.334
  377.750    2.706    0.306    0.555   91.829
  378.000    3.150    0.295    0.512   89.948
  378.250    3.735    0.285    0.488   88.695
  378.500    4.107    0.277    0.471   87.441
  378.750    4.870    0.277    0.452   85.562
  379.000    5.354    0.280    0.449   86.183
  379.250    5.887    0.291    0.447   86.179
  379.500    6.352    0.293    0.445   84.925
  379.750    6.474    0.295    0.444   81.171
  380.000    6.598    0.312    0.434   76.167
  380.250    6.600    0.321    0.428   67.413
  380.500    6.602    0.330    0.415   61.159
  380.750    6.730    0.335    0.410   56.155
  381.000    6.990    0.338    0.394   55.526
  381.250    6.991    0.342    0.381   55.521
  381.500    7.126    0.343    0.384   53.641
  381.750    6.994    0.342    0.394   52.385
  382.000    6.864    0.341    0.402   53.007
  382.250    6.997    0.342    0.404   54.253
  382.500    7.132    0.343    0.402   54.874
  382.750    7.133    0.346    0.403   55.496
  383.000    7.134    0.350    0.408   56.740
  383.250    7.135    0.352    0.413   56.112
  383.500    7.274    0.352    0.413   54.857
  383.750    7.275    0.351    0.414   54.853
  384.000    7.140    0.350    0.419   56.722
  384.250    7.007    0.346    0.418   57.345
  384.500    6.877    0.343    0.411   57.341
  384.750    6.878    0.337    0.410   54.835
  385.000    6.880    0.339    0.413   54.206
  385.250    6.881    0.343    0.414   53.578
  385.500    6.882    0.345    0.414   52.947
  385.750    6.884    0.346    0.414   52.944
  386.000    6.885    0.347    0.423   54.190
  386.250    7.018    0.347    0.434   54.185
  386.500    7.154    0.346    0.412   54.806
  386.750    7.155    0.343    0.399   54.803
  387.000    7.294    0.341    0.400   54.171
  387.250    7.295    0.342    0.402   54.794
  387.500    7.160    0.344    0.404   56.039
  387.750    7.161    0.346    0.408   57.911
  388.000    7.162    0.350    0.409   59.156
  388.250    7.301    0.351    0.400   57.901
  388.500    7.302    0.351    0.400   57.897
  388.750    7.443    0.345    0.404   59.143
  389.000    7.586    0.335    0.410   60.389
  389.250    7.881    0.334    0.410   59.134
  389.500    7.882    0.336    0.408   58.504
  389.750    8.034    0.336    0.409   57.874
  390.000    8.189    0.335    0.410   58.496
  390.250    8.347    0.337    0.412   59.118
  390.500    8.349    0.340    0.418   60.363
  390.750    8.351    0.340    0.424   59.734
  391.000    8.352    0.340    0.413   59.729
  391.250    8.354    0.340    0.397   60.973
  391.500    8.199    0.339    0.407   62.219
  391.750    8.201    0.339    0.423   62.841
  392.000    8.359    0.337    0.429   64.088
  392.250    8.360    0.336    0.433   64.708
  392.500    8.362    0.332    0.430   64.079
  392.750    8.364    0.330    0.434   64.698
  393.000    8.365    0.330    0.441   64.696
  393.250    8.210    0.330    0.443   65.941
  393.500    7.906    0.329    0.435   64.687
  393.750    7.614    0.329    0.431   64.056
  394.000    7.195    0.331    0.425   64.677
  394.250    6.929    0.342    0.418   65.300
  394.500    6.673    0.356    0.427   66.545
  394.750    6.550    0.356    0.431   65.916
  395.000    6.550    0.354    0.433   64.036
  395.250    6.429    0.354    0.434   62.157
