~VERSION INFORMATION
 VERS.                 2.0:   CWLS LOG ASCII STANDARD -VERSION 2.0
 WRAP.                  NO:   ONE LINE PER DEPTH STEP
~WELL INFORMATION BLOCK
#MNEM.UNIT           DATA                    DESCRIPTION OF MNEMONIC
#---------    -------------------            -------------------------------
# Generated from Intellog Unique Number	CS_77_79/WELL/927
WELL.         ALLIED ET AL HOUSE             : Well_name    - WELL
LOC .         00/10-01-079-16W4/0            : Location     - LOCATION
UWI .         00/10-01-079-16W4/0            : Uwi          - UNIQUE WELL ID
ENTR.         JHS                            : Entered      - ENTERED BY
SRVC.         SCHLUMBERGER                   : Scn          - SERVICE COMPANY
STRT.M        198.12                         : top_depth    - START DEPTH
STOP.M        426.37                         : bot_depth    - STOP DEPTH
STEP.M        0.25                           : increment    - STEP LENGTH
 NULL. -999.2500:NULL Value
~CURVE INFORMATION BLOCK
#MNEM UNIT       ERCB CURVE CODE    CURVE DESCRIPTION
#-----------   ------------------   ----------------------------------
DEPT.M        00 001 00 00         : DEPTH        - DEPTH
RHOB.KG/M3    00 350 00 00         : DENS         - BULK DENSITY
GR  .API      00 310 00 00         : GR           - GAMMA RAY
DPHI.V/V      00 890 00 00         : PHID         - DENSITY POROSITY (SANDSTONE)
NPHI.V/V      00 330 00 00         : PHIN         - NEUTRON POROSITY (SANDSTONE)
ILD .OHMM     00 120 00 00         : RESD         - DEEP RESISTIVITY (DIL)
~PARAMETER INFORMATION
#MNEM.UNIT           DATA             DESCRIPTION OF MNEMONIC
#---------         -----------     ------------------------------
GL  .M        603.504              : gl           - GROUND LEVEL ELEVATION
EREF.M        606.552              : kb           - ELEVATION OF DEPTH REFERENCE
DATM.M        606.552              : datum        - DATUM ELEVATION
TDD .M        466.344              : tdd          - TOTAL DEPTH DRILLER
RUN .         ONE                  : Run          - RUN NUMBER
ENG .         BILL                 : Engineer     - RECORDING ENGINEER
WIT .         JIM                  : Witness      - WITNESSED BY
MUD .         GEL                  : Mud_type     - MUD TYPE
MATR.         SANDSTONE            : Logunit      - NEUTRON MATRIX
TMAX.C        31.1111              : BHT          - MAXIMUM RECORDED TEMPERATURE
BHTD.M        466.344              : BHTDEP       - MAXIMUM RECORDED TEMPERATURE
MATR.         1                    : LOGUNIT      - NEUTRON MATRIX
RMT .C        25                   : MDTP         - TEMPERATURE OF MUD
NEUT.         1                    : NEUTRON      - NEUTRON TYPE
RESI.         0                    : RESIST       - RESISTIVITY TYPE
RMC .OHMM     0.25                 : RMC          - RESISTIVITY OF MUD CAKE
RMF .OHMM     0.25                 : RMF          - RESISTIVITY OF MUD FILTRATE
SUFT.C        15                   : SUFT         - SURFACE TEMPERATURE
~A  DEPTH     DENS       GR     PHID     PHIN     RESD
# ...
  271.120    0.000   60.033    0.319    0.466   13.736
  271.370    0.000   59.316    0.323    0.465   13.529
  271.620    0.000   60.061    0.315    0.477   13.551
  271.870    0.000   61.056    0.311    0.478   13.563
  272.120    0.000   64.399    0.313    0.495   13.572
  272.370    0.000   66.182    0.310    0.493   13.583
  272.620    0.000   65.117    0.293    0.495   13.571
  272.870    0.000   61.883    0.284    0.492   13.780
  273.120    0.000   59.331    0.269    0.465   14.230
  273.370    0.000   56.160    0.227    0.392   15.137
  273.620    0.000   55.565    0.156    0.344   17.001
  273.870    0.000   57.807    0.122    0.291   19.461
  274.120    0.000   61.658    0.091    0.327   21.240
  274.370    0.000   61.449    0.092    0.401   22.418
  274.620    0.000   62.422    0.268    0.486   22.449
  274.870    0.000   66.132    0.289    0.471   21.750
  275.120   -0.000   68.626    0.294    0.456   18.051
  275.370    0.000   67.095    0.303    0.453   15.394
  275.620   -0.000   63.688    0.282    0.468   14.473
  275.870   -0.000   65.648    0.280    0.493   14.084
  276.120    0.000   67.160    0.286    0.492   13.752
  276.370    0.000   67.184    0.292    0.491   13.757
  276.620    0.000   65.524    0.298    0.473   13.538
  276.870   -0.000   65.520    0.269    0.465   13.409
  277.120   -0.000   66.157    0.264    0.461   13.382
  277.370    0.000   67.385    0.275    0.457   13.173
  277.620    0.000   69.138    0.270    0.455   12.858
  277.870    0.000   70.410    0.283    0.469   12.544
  278.120   -0.000   70.404    0.288    0.470   12.214
  278.370   -0.000   70.444    0.296    0.456   12.121
  278.620   -0.000   70.605    0.280    0.467   11.780
  278.870    0.000   72.052    0.272    0.494   11.644
  279.120    0.000   74.359    0.298    0.493   11.347
  279.370    0.000   76.680    0.287    0.480   11.029
  279.620   -0.000   79.146    0.281    0.474   10.879
  279.870   -0.000   80.755    0.279    0.482   10.654
  280.120   -0.000   80.659    0.274    0.486   10.682
  280.370    0.000   80.283    0.263    0.478   10.484
  280.620    0.000   79.266    0.260    0.477   10.509
  280.870   -0.000   78.309    0.266    0.475   10.517
  281.120   -0.000   76.634    0.279    0.474   10.547
  281.370   -0.000   76.627    0.285    0.483   10.288
  281.620    0.000   79.872    0.264    0.483    9.960
  281.870    0.000   80.730    0.255    0.483    9.860
  282.120    0.000   79.892    0.246    0.490    9.781
  282.370   -0.000   76.013    0.241    0.504    9.592
  282.620   -0.000   69.262    0.239    0.524    9.807
  282.870   -0.000   61.681    0.304    0.501   10.028
  283.120    0.000   52.886    0.311    0.479   10.549
  283.370    0.000   51.331    0.316    0.460   11.232
  283.620    0.000   51.945    0.312    0.460   12.020
  283.870   -0.000   51.301    0.311    0.469   12.695
  284.120   -0.000   48.612    0.315    0.455   13.041
  284.370    0.000   48.920    0.329    0.448   13.047
  284.620    0.000   50.543    0.314    0.455   12.831
  284.870    0.000   52.799    0.318    0.472   12.835
  285.120   -0.000   52.126    0.311    0.462   12.491
  285.370   -0.000   51.874    0.319    0.462   12.486
  285.620   -0.000   54.031    0.308    0.477   12.492
  285.870    0.000   55.042    0.293    0.479   12.482
  286.120    0.000   55.124    0.281    0.464   12.730
  286.370    0.000   53.093    0.305    0.454   12.719
  286.620   -0.000   51.061    0.316    0.444   12.728
  286.870   -0.000   48.601    0.302    0.459   12.738
  287.120    0.000   49.584    0.313    0.480   12.746
  287.370    0.000   52.539    0.308    0.466   12.755
  287.620    0.000   54.331    0.302    0.465   12.755
  287.870   -0.000   51.659    0.312    0.474   12.963
  288.120   -0.000   51.458    0.299    0.471   13.063
  288.370   -0.000   52.545    0.291    0.474   13.388
  288.620    0.000   51.529    0.321    0.481   13.739
  288.870    0.000   52.890    0.319    0.475   13.772
  289.120    0.000   55.251    0.323    0.459   12.755
  289.370   -0.000   58.881    0.315    0.465   11.813
  289.620   -0.000   60.623    0.316    0.491   10.542
  289.870   -0.000   59.891    0.297    0.533    9.461
  290.120    0.000   58.886    0.292    0.503    9.123
  290.370    0.000   58.955    0.300    0.490    8.995
  290.620   -0.000   58.675    0.285    0.480    8.672
  290.870   -0.000   62.252    0.266    0.464   10.153
  291.120   -0.000   65.048    0.256    0.466   12.026
  291.370    0.000   67.299    0.222    0.450   10.942
  291.620    0.000   75.234    0.172    0.471    8.585
  291.870    0.000   84.086    0.152    0.509    7.300
  292.120   -0.000   87.402    0.219    0.514    6.832
  292.370   -0.000   82.156    0.277    0.514    6.722
  292.620   -0.000   73.505    0.294    0.494    7.626
  292.870    0.000   70.133    0.300    0.481    8.616
  293.120    0.000   70.669    0.315    0.488    9.337
  293.370   -0.000   74.283    0.309    0.493    9.605
  293.620   -0.000   80.279    0.274    0.493    9.194
  293.870   -0.000   79.245    0.231    0.484    8.941
  294.120    0.000   76.282    0.187    0.486    9.014
  294.370    0.000   73.694    0.149    0.450    9.044
  294.620    0.000   71.255    0.118    0.407    8.779
  294.870   -0.000   79.593    0.102    0.376    8.291
  295.120   -0.000   86.754    0.131    0.471    7.981
  295.370   -0.000   88.820    0.220    0.500    7.671
  295.620    0.000   89.299    0.208    0.496    7.015
  295.870    0.000   90.767    0.214    0.499    6.846
  296.120    0.000   91.210    0.233    0.525    6.718
  296.370   -0.000   88.702    0.245    0.514    6.869
  296.620   -0.000   86.207    0.234    0.512    6.982
  296.870    0.000   88.162    0.251    0.524    7.146
  297.120    0.000   92.607    0.236    0.522    7.175
  297.370    0.000   94.405    0.237    0.524    6.956
  297.620   -0.000   94.444    0.233    0.535    6.793
  297.870   -0.000   92.973    0.228    0.538    6.702
  298.120   -0.000   93.874    0.244    0.534    6.366
  298.370    0.000   94.968    0.240    0.531    6.046
  298.620    0.000   93.570    0.217    0.519    5.718
  298.870    0.000   95.663    0.209    0.506    5.630
  299.120   -0.000   97.393    0.221    0.514    5.482
  299.370   -0.000   93.992    0.220    0.544    5.382
  299.620    0.000   90.766    0.244    0.531    5.256
  299.870    0.000   88.207    0.262    0.522    5.055
  300.120    0.000   85.518    0.257    0.534    5.115
  300.370   -0.000   84.734    0.272    0.532    5.453
  300.620   -0.000   84.170    0.297    0.527    5.912
  300.870   -0.000   82.067    0.290    0.539    6.149
  301.120    0.000   82.170    0.272    0.521    6.319
  301.370    0.000   85.519    0.250    0.516    6.407
  301.620    0.000   88.995    0.234    0.530    6.506
  301.870   -0.000   89.079    0.235    0.523    6.329
  302.120   -0.000   87.134    0.286    0.529    6.346
  302.370   -0.000   84.169    0.271    0.544    6.358
  302.620    0.000   81.450    0.273    0.554    6.342
  302.870    0.000   78.493    0.289    0.542    6.585
  303.120   -0.000   75.327    0.284    0.518    6.772
  303.370   -0.000   73.713    0.276    0.504    7.086
  303.620   -0.000   73.038    0.266    0.489    7.665
  303.870    0.000   74.478    0.258    0.491    7.982
  304.120    0.000   77.467    0.275    0.511    8.334
  304.370    0.000   78.911    0.297    0.532    8.423
  304.620   -0.000   77.285    0.292    0.518    8.308
  304.870   -0.000   76.505    0.293    0.505    7.328
  305.120   -0.000   80.410    0.301    0.514    5.550
  305.370    0.000   88.643    0.286    0.569    3.665
  305.620    0.000   96.361    0.278    0.612    2.724
  305.870    0.000   96.299    0.280    0.629    2.306
  306.120   -0.000   95.509    0.288    0.608    1.975
  306.370   -0.000   95.151    0.293    0.593    1.938
  306.620    0.000   95.094    0.276    0.602    1.922
  306.870    0.000   96.055    0.268    0.612    2.503
  307.120    0.000   96.958    0.261    0.595    2.587
  307.370   -0.000   97.020    0.254    0.568    2.755
