~VERSION INFORMATION
 VERS.                 2.0:   CWLS LOG ASCII STANDARD -VERSION 2.0
 WRAP.                  NO:   ONE LINE PER DEPTH STEP
~WELL INFORMATION BLOCK
#MNEM.UNIT           DATA                    DESCRIPTION OF MNEMONIC
#---------    -------------------            -------------------------------
# Generated from Intellog Unique Number	CS_71_72/WELL/894
WELL.         GERC ET AL WANDER              : Well_name    - WELL
LOC .         00/11-10-071-13W4/0            : Location     - LOCATION
UWI .         00/11-10-071-13W4/0            : Uwi          - UNIQUE WELL ID
ENTR.         SP                             : Entered      - ENTERED BY
SRVC.         SCHLUMBERGER                   : Scn          - SERVICE COMPANY
STRT.M        304.8                          : top_depth    - START DEPTH
STOP.M        539.3                          : bot_depth    - STOP DEPTH
STEP.M        0.25                           : increment    - STEP LENGTH
 NULL. -999.2500:NULL Value
~CURVE INFORMATION BLOCK
#MNEM UNIT       ERCB CURVE CODE    CURVE DESCRIPTION
#-----------   ------------------   ----------------------------------
DEPT.M        00 001 00 00         : DEPTH        - DEPTH
GR  .API      00 310 00 00         : GR           - GAMMA RAY
DPHI.V/V      00 890 00 00         : PHID         - DENSITY POROSITY (SANDSTONE)
NPHI.V/V      00 330 00 00         : PHIN         - NEUTRON POROSITY (SANDSTONE)
ILD .OHMM     00 120 00 00         : RESD         - DEEP RESISTIVITY (DIL)
~PARAMETER INFORMATION
#MNEM.UNIT           DATA             DESCRIPTION OF MNEMONIC
#---------         -----------     ------------------------------
GL  .M        630.326              : gl           - GROUND LEVEL ELEVATION
EREF.M        634.289              : kb           - ELEVATION OF DEPTH REFERENCE
DATM.M        630.326              : datum        - DATUM ELEVATION
TDD .M        545.592              : tdd          - TOTAL DEPTH DRILLER
RUN .         ONE                  : Run          - RUN NUMBER
ENG .         BILL                 : Engineer     - RECORDING ENGINEER
WIT .         JIM                  : Witness      - WITNESSED BY
MUD .         GEL                  : Mud_type     - MUD TYPE
MATR.         SANDSTONE            : Logunit      - NEUTRON MATRIX
TMAX.C        20                   : BHT          - MAXIMUM RECORDED TEMPERATURE
BHTD.M        545.592              : BHTDEP       - MAXIMUM RECORDED TEMPERATURE
MATR.         1                    : LOGUNIT      - NEUTRON MATRIX
RMT .C        25                   : MDTP         - TEMPERATURE OF MUD
NEUT.         1                    : NEUTRON      - NEUTRON TYPE
RESI.         0                    : RESIST       - RESISTIVITY TYPE
RMC .OHMM     0.25                 : RMC          - RESISTIVITY OF MUD CAKE
RMF .OHMM     0.25                 : RMF          - RESISTIVITY OF MUD FILTRATE
SUFT.C        15                   : SUFT         - SURFACE TEMPERATURE
~A  DEPTH       GR     PHID     PHIN     RESD
# ...
  478.800   84.036    0.223    0.423    2.894
  479.050   76.276    0.212    0.429    3.202
  479.300   76.095    0.200    0.431    3.076
  479.550   77.952    0.174    0.435    3.096
  479.800   80.649    0.184    0.452    3.126
  480.050   83.318    0.194    0.434    3.181
  480.300   82.744    0.184    0.418    3.188
  480.550   80.004    0.170    0.397    3.101
  480.800   79.197    0.134    0.379    2.986
  481.050   79.985    0.149    0.410    2.779
  481.300   82.439    0.192    0.436    2.581
  481.550   85.140    0.206    0.449    2.495
  481.800   86.485    0.217    0.452    2.491
  482.050   87.496    0.232    0.427    2.728
  482.300   87.327    0.220    0.384    3.118
  482.550   85.647    0.218    0.347    3.718
  482.800   78.645    0.196    0.322    4.260
  483.050   74.423    0.161    0.288    4.836
  483.300   72.914    0.142    0.283    5.568
  483.550   72.100    0.122    0.295    6.273
  483.800   69.862    0.138    0.275    6.807
  484.050   66.238    0.125    0.265    6.687
  484.300   65.119    0.133    0.291    6.551
  484.550   63.729    0.145    0.302    6.508
  484.800   58.677    0.226    0.282    6.653
  485.050   53.996    0.227    0.279    7.133
  485.300   52.651    0.237    0.280    7.675
  485.550   52.602    0.246    0.293    8.198
  485.800   53.108    0.247    0.308    8.937
  486.050   54.478    0.234    0.315    9.681
  486.300   55.360    0.222    0.299   10.135
  486.550   54.952    0.218    0.292   10.298
  486.800   53.061    0.210    0.289   10.532
  487.050   50.885    0.194    0.283   11.059
  487.300   51.257    0.183    0.270   11.904
  487.550   49.100    0.150    0.227   13.581
  487.800   43.931    0.047    0.148   14.472
  488.050   45.469    0.003    0.117   14.523
  488.300   58.666    0.009    0.135   12.155
  488.550   66.142    0.064    0.220   10.211
  488.800   72.556    0.131    0.274    8.967
  489.050   75.868    0.167    0.283    7.719
  489.300   72.327    0.192    0.282    7.377
  489.550   69.145    0.208    0.272    7.264
  489.800   65.871    0.227    0.268    7.184
  490.050   69.332    0.196    0.271    7.207
  490.300   73.650    0.191    0.273    7.195
  490.550   77.617    0.218    0.276    7.033
  490.800   76.957    0.203    0.293    6.642
  491.050   78.010    0.195    0.309    6.328
  491.300   80.029    0.205    0.323    5.924
  491.550   83.476    0.184    0.336    5.746
  491.800   86.046    0.176    0.339    5.720
  492.050   87.478    0.187    0.327    5.834
  492.300   85.899    0.189    0.306    6.141
  492.550   84.645    0.197    0.299    6.376
  492.800   86.389    0.206    0.292    6.693
  493.050   83.806    0.207    0.290    6.922
  493.300   83.739    0.194    0.291    7.169
  493.550   83.492    0.182    0.292    7.447
  493.800   80.171    0.178    0.301    7.522
  494.050   74.172    0.180    0.303    7.782
  494.300   70.068    0.193    0.299    8.444
  494.550   66.537    0.203    0.292    9.138
  494.800   63.187    0.199    0.276    9.740
  495.050   57.717    0.208    0.276   10.270
  495.300   58.963    0.228    0.284   10.516
  495.550   62.084    0.239    0.287   10.507
  495.800   63.708    0.240    0.274    9.845
  496.050   63.596    0.238    0.264    9.339
  496.300   63.300    0.237    0.255    8.904
  496.550   63.973    0.232    0.251    8.699
  496.800   65.922    0.221    0.258    8.634
  497.050   68.771    0.211    0.249    8.676
  497.300   71.824    0.195    0.242    8.800
  497.550   68.249    0.180    0.240    8.854
  497.800   64.871    0.194    0.248    8.948
  498.050   59.308    0.206    0.252    9.082
  498.300   60.512    0.203    0.251    9.159
  498.550   65.668    0.202    0.241    9.155
  498.800   70.059    0.174    0.242    9.097
  499.050   67.379    0.160    0.254    8.935
  499.300   63.412    0.173    0.262    8.845
  499.550   57.628    0.130    0.241    8.666
  499.800   59.712    0.093    0.213    8.428
  500.050   62.589    0.162    0.215    8.172
  500.300   61.597    0.193    0.255    7.865
  500.550   62.198    0.194    0.254    7.455
  500.800   66.419    0.186    0.252    7.051
  501.050   71.203    0.175    0.285    6.686
  501.300   77.039    0.164    0.311    6.416
  501.550   81.385    0.151    0.334    6.279
  501.800   85.151    0.140    0.341    6.199
  502.050   84.325    0.150    0.325    6.162
  502.300   87.334    0.166    0.319    6.159
  502.550   88.962    0.162    0.310    6.164
  502.800   83.818    0.158    0.303    6.243
  503.050   77.780    0.172    0.292    6.367
  503.300   73.781    0.187    0.287    6.532
  503.550   69.700    0.206    0.281    6.636
  503.800   67.139    0.215    0.275    6.676
  504.050   64.613    0.212    0.270    6.740
  504.300   65.311    0.190    0.270    6.790
  504.550   66.611    0.167    0.272    6.928
  504.800   67.462    0.147    0.271    7.025
  505.050   66.569    0.121    0.264    7.097
  505.300   64.796    0.154    0.259    7.248
  505.550   64.134    0.175    0.263    7.393
  505.800   64.430    0.193    0.271    7.479
  506.050   66.100    0.174    0.280    7.588
  506.300   68.283    0.159    0.273    7.699
  506.550   65.143    0.175    0.270    7.781
  506.800   62.694    0.183    0.271    7.886
  507.050   61.771    0.180    0.258    7.900
  507.300   63.511    0.186    0.255    7.822
  507.550   66.021    0.191    0.253    7.765
  507.800   68.788    0.163    0.262    7.615
  508.050   70.885    0.138    0.252    7.426
  508.300   73.204    0.135    0.261    7.276
  508.550   75.580    0.151    0.268    7.096
  508.800   77.242    0.169    0.278    6.875
  509.050   78.165    0.171    0.293    6.760
  509.300   77.581    0.156    0.300    6.610
  509.550   77.134    0.167    0.289    6.510
  509.800   76.227    0.171    0.288    6.439
  510.050   76.283    0.173    0.288    6.396
  510.300   78.175    0.168    0.279    6.128
  510.550   81.378    0.154    0.278    6.118
  510.800   84.246    0.145    0.280    6.105
  511.050   87.535    0.137    0.286    6.077
  511.300   88.922    0.120    0.285    6.047
  511.550   85.537    0.114    0.271    6.051
  511.800   80.692    0.125    0.266    6.038
  512.050   82.383    0.114    0.275    5.995
  512.300   85.390    0.132    0.280    5.931
  512.550   89.364    0.148    0.286    5.893
  512.800   87.667    0.148    0.291    5.840
  513.050   87.780    0.136    0.280    5.820
  513.300   91.385    0.157    0.281    5.799
  513.550   89.998    0.143    0.291    5.790
  513.800   87.564    0.123    0.283    5.771
  514.050   86.817    0.134    0.277    5.775
  514.300   87.078    0.104    0.276    5.730
  514.550   87.743    0.097    0.281    5.765
  514.800   89.180    0.118    0.282    5.792
  515.050   93.681    0.125    0.277    5.810
  515.300   90.377    0.134    0.284    5.841
  515.550   85.872    0.129    0.280    5.868
  515.800   87.295    0.119    0.273    5.912
  516.050   89.980    0.125    0.283    5.924
  516.300   90.156    0.136    0.290    5.944
  516.550   88.600    0.139    0.292    5.951
  516.800   86.723    0.130    0.287    5.955
  517.050   84.176    0.132    0.283    5.978
  517.300   81.894    0.140    0.276    6.032
  517.550   79.593    0.144    0.273    6.124
  517.800   77.256    0.149    0.273    6.455
  518.050   75.102    0.128    0.257    6.703
  518.300   66.334    0.105    0.219    7.199
  518.550   54.011    0.091    0.200    7.603
  518.800   59.853    0.057    0.165    7.703
  519.050   66.592    0.111    0.224    7.457
  519.300   70.496    0.132    0.272    7.139
  519.550   73.837    0.095    0.290    6.762
  519.800   79.025    0.085    0.271    6.499
  520.050   81.875    0.105    0.253    6.263
  520.300   85.481    0.125    0.244    6.132
  520.550   81.530    0.136    0.242    5.966
  520.800   76.642    0.128    0.249    5.938
  521.050   80.004    0.135    0.259    6.010
  521.300   83.349    0.136    0.263    6.111
  521.550   87.320    0.125    0.260    6.273
  521.800   82.952    0.110    0.254    6.443
  522.050   81.466    0.095    0.249    6.449
