~VERSION INFORMATION
 VERS.                 2.0:   CWLS LOG ASCII STANDARD -VERSION 2.0
 WRAP.                  NO:   ONE LINE PER DEPTH STEP
~WELL INFORMATION BLOCK
#MNEM.UNIT           DATA                    DESCRIPTION OF MNEMONIC
#---------    -------------------            -------------------------------
# Generated from Intellog Unique Number	CS_73_76/WELL/845
WELL.         BOW VALLEY INDUSTRIES LTD.     : Well_name    - WELL
LOC .         00/11-19-073-16W4/0            : Location     - LOCATION
UWI .         00/11-19-073-16W4/0            : Uwi          - UNIQUE WELL ID
ENTR.         SP                             : Entered      - ENTERED BY
SRVC.         SCHLUMBERGER                   : Scn          - SERVICE COMPANY
STRT.M        237.744                        : top_depth    - START DEPTH
STOP.M        445.994                        : bot_depth    - STOP DEPTH
STEP.M        0.25                           : increment    - STEP LENGTH
 NULL. -999.2500:NULL Value
~CURVE INFORMATION BLOCK
#MNEM UNIT       ERCB CURVE CODE    CURVE DESCRIPTION
#-----------   ------------------   ----------------------------------
DEPT.M        00 001 00 00         : DEPTH        - DEPTH
GR  .API      00 310 00 00         : GR           - GAMMA RAY
DPHI.V/V      00 890 00 00         : PHID         - DENSITY POROSITY (SANDSTONE)
NPHI.V/V      00 330 00 00         : PHIN         - NEUTRON POROSITY (SANDSTONE)
ILD .OHMM     00 120 00 00         : RESD         - DEEP RESISTIVITY (DIL)
~PARAMETER INFORMATION
#MNEM.UNIT           DATA             DESCRIPTION OF MNEMONIC
#---------         -----------     ------------------------------
GL  .M        574.639              : gl           - GROUND LEVEL ELEVATION
EREF.M        577.596              : kb           - ELEVATION OF DEPTH REFERENCE
DATM.M        574.639              : datum        - DATUM ELEVATION
TDD .M        445.922              : tdd          - TOTAL DEPTH DRILLER
RUN .         ONE                  : Run          - RUN NUMBER
ENG .         BILL                 : Engineer     - RECORDING ENGINEER
WIT .         JIM                  : Witness      - WITNESSED BY
MUD .         GEL                  : Mud_type     - MUD TYPE
MATR.         SANDSTONE            : Logunit      - NEUTRON MATRIX
TMAX.C        23                   : BHT          - MAXIMUM RECORDED TEMPERATURE
BHTD.M        538                  : BHTDEP       - MAXIMUM RECORDED TEMPERATURE
MATR.         1                    : LOGUNIT      - NEUTRON MATRIX
RMT .C        25                   : MDTP         - TEMPERATURE OF MUD
NEUT.         1                    : NEUTRON      - NEUTRON TYPE
RESI.         0                    : RESIST       - RESISTIVITY TYPE
RMC .OHMM     0.25                 : RMC          - RESISTIVITY OF MUD CAKE
RMF .OHMM     0.25                 : RMF          - RESISTIVITY OF MUD FILTRATE
SUFT.C        15                   : SUFT         - SURFACE TEMPERATURE
~A  DEPTH       GR     PHID     PHIN     RESD
  237.744  102.019    0.228    0.549    3.114
  237.994  104.250    0.222    0.512    3.257
  238.244  106.111    0.204    0.502    3.404
  238.494  104.150    0.185    0.514    3.612
  238.744  101.752    0.185    0.537    3.723
  238.994  100.869    0.191    0.529    3.839
  239.244   99.356    0.169    0.519    3.957
  239.494   98.172    0.183    0.508    4.055
  239.744   99.372    0.207    0.510    3.954
  239.994  100.815    0.200    0.521    3.769
  240.244  101.770    0.191    0.528    3.669
  240.494  101.762    0.208    0.521    3.414
  240.744  101.209    0.210    0.536    3.218
  240.994  100.349    0.207    0.529    3.040
  241.244  100.657    0.212    0.516    2.950
  241.494  100.876    0.204    0.508    3.071
  241.744  104.476    0.224    0.508    3.254
  241.994  106.802    0.212    0.519    3.413
  242.244  107.579    0.217    0.513    3.526
  242.494  106.729    0.207    0.509    3.546
  242.744  105.188    0.206    0.523    3.493
  242.994  105.374    0.239    0.541    3.397
  243.244  106.397    0.214    0.545    3.299
  243.494  105.125    0.191    0.547    3.355
  243.744  100.744    0.175    0.532    3.409
  243.994   99.221    0.156    0.513    3.494
  244.244  101.423    0.193    0.509    3.558
  244.494  104.774    0.199    0.518    3.632
  244.744  105.471    0.212    0.522    3.632
  244.994  102.534    0.201    0.512    3.448
  245.244   99.195    0.226    0.509    3.338
  245.494   99.190    0.220    0.514    3.298
  245.744  102.635    0.217    0.525    3.541
  245.994  101.945    0.247    0.507    4.185
  246.244   91.018    0.265    0.489    4.864
  246.494   79.529    0.312    0.517    6.011
  246.744   67.810    0.438    0.550    7.441
  246.994   58.590    0.551    0.610    9.898
  247.244   53.847    0.571    0.643   10.327
  247.494   63.148    0.401    0.684    9.940
  247.744   69.128    0.310    0.535    9.347
  247.994   72.895    0.308    0.445    8.756
  248.244   74.241    0.280    0.424    8.256
  248.494   74.946    0.279    0.430    8.004
  248.744   74.735    0.298    0.426    7.736
  248.994   72.696    0.297    0.418    7.243
  249.244   71.051    0.293    0.424    7.182
  249.494   70.149    0.313    0.436    7.111
  249.744   70.006    0.317    0.446    7.110
  249.994   73.522    0.304    0.449    7.113
  250.244   78.954    0.308    0.442    7.113
  250.494   91.740    0.312    0.452    7.353
  250.744   94.974    0.292    0.462    7.417
  250.994   95.329    0.267    0.452    7.526
  251.244   97.360    0.261    0.431    7.613
  251.494   99.869    0.257    0.421    7.690
  251.744   99.224    0.257    0.429    7.819
  251.994   97.626    0.265    0.441    7.888
  252.244   96.093    0.263    0.437    7.959
  252.494   96.447    0.258    0.444    7.949
  252.744   99.988    0.253    0.451    8.128
  252.994  103.591    0.241    0.441    8.113
  253.244  102.546    0.231    0.455    8.226
  253.494  103.188    0.226    0.449    8.253
  253.744  104.207    0.226    0.439    8.423
  253.994  101.528    0.236    0.430    8.422
  254.244   97.377    0.255    0.426    8.418
  254.494   94.077    0.268    0.427    8.578
  254.744   91.915    0.265    0.430    8.677
  254.994   88.292    0.241    0.416    8.765
  255.244   86.028    0.220    0.399    9.067
  255.494   81.332    0.210    0.397    9.082
  255.744   74.345    0.217    0.403    9.088
  255.994   65.585    0.206    0.400    8.987
  256.244   58.968    0.199    0.382    8.530
  256.494   55.974    0.231    0.370    8.123
  256.744   54.508    0.257    0.382    7.800
  256.994   52.188    0.271    0.382    7.365
  257.244   58.641    0.267    0.382    7.018
  257.494   74.393    0.262    0.385    6.730
  257.744   83.903    0.244    0.398    6.475
  257.994   93.460    0.199    0.413    6.392
  258.244  104.288    0.169    0.442    6.266
  258.494  109.478    0.161    0.463    6.134
  258.744  112.049    0.169    0.475    5.964
  258.994  115.191    0.177    0.485    5.665
  259.244  117.845    0.202    0.497    5.391
  259.494  121.109    0.210    0.508    4.994
  259.744  122.957    0.194    0.518    4.784
  259.994  122.676    0.194    0.517    4.489
  260.244  121.374    0.221    0.533    4.270
  260.494  124.302    0.251    0.540    4.161
  260.744  126.384    0.221    0.526    4.168
  260.994  125.600    0.195    0.522    4.169
  261.244  123.236    0.173    0.528    4.171
  261.494  124.966    0.135    0.550    4.112
  261.744  127.908    0.163    0.567    3.873
  261.994  127.711    0.177    0.588    3.643
  262.244  126.844    0.189    0.608    3.576
  262.494  123.845    0.206    0.599    4.573
  262.744  120.526    0.218    0.502    5.642
  262.994  117.241    0.236    0.454    6.437
  263.244  115.913    0.214    0.431    7.485
  263.494  113.499    0.202    0.427    8.297
  263.744  109.792    0.213    0.444    8.732
  263.994  108.600    0.213    0.460    8.980
  264.244  109.164    0.193    0.475    8.805
  264.494  110.887    0.206    0.487    8.712
  264.744  111.793    0.221    0.487    8.627
  264.994  112.396    0.227    0.490    8.216
  265.244  110.585    0.222    0.492    7.893
  265.494  109.323    0.225    0.493    7.574
  265.744  105.623    0.219    0.489    7.253
  265.994  106.310    0.208    0.485    6.851
  266.244  108.954    0.185    0.494    6.658
  266.494  108.991    0.171    0.510    6.313
  266.744  104.907    0.171    0.524    6.482
  266.994   97.855    0.181    0.531    7.527
  267.244   93.427    0.203    0.516    8.482
  267.494   90.900    0.228    0.502   10.039
  267.744   83.810    0.246    0.483   11.120
  267.994   79.058    0.249    0.456   12.008
  268.244   80.785    0.249    0.419   12.336
  268.494   82.548    0.261    0.419   12.315
  268.744   87.121    0.247    0.428   12.231
  268.994   90.022    0.235    0.447   12.093
  269.244   94.252    0.249    0.464   11.878
  269.494   96.709    0.272    0.462   11.566
  269.744   94.335    0.266    0.451   11.451
  269.994   89.802    0.257    0.443   10.619
  270.244   91.227    0.262    0.435   10.088
  270.494   95.777    0.238    0.424    9.196
  270.744  100.882    0.227    0.418    8.476
  270.994  105.343    0.227    0.430    8.005
  271.244  111.471    0.218    0.449    7.780
  271.494  114.310    0.209    0.472    7.594
  271.744  113.801    0.206    0.467    7.604
  271.994  114.482    0.201    0.450    7.722
  272.244  116.879    0.217    0.451    7.805
  272.494  118.311    0.230    0.452    7.901
  272.744  115.589    0.224    0.460    8.336
  272.994  107.443    0.240    0.487    8.431
  273.244   99.802    0.279    0.500    8.822
  273.494   94.460    0.254    0.454    9.296
  273.744   96.288    0.226    0.418    9.615
  273.994   97.157    0.241    0.421    9.571
  274.244   98.212    0.243    0.413    9.466
  274.494   99.252    0.226    0.400    9.163
  274.744  102.287    0.211    0.397    8.650
  274.994  105.266    0.200    0.400    7.658
  275.244  106.574    0.210    0.400    6.923
  275.494  106.843    0.193    0.416    6.399
  275.744  104.599    0.197    0.429    6.097
  275.994   98.245    0.201    0.448    6.444
  276.244   91.793    0.240    0.485    6.720
  276.494   87.228    0.278    0.501    7.191
  276.744   85.360    0.253    0.479    7.486
  276.994   87.765    0.245    0.492    7.642
  277.244   88.553    0.259    0.498    7.616
  277.494   85.319    0.268    0.480    7.367
  277.744   83.657    0.262    0.484    7.359
  277.994   82.061    0.265    0.470    7.364
  278.244   85.105    0.288    0.447    7.500
  278.494   88.596    0.269    0.448    7.483
  278.744   93.722    0.259    0.455    7.637
  278.994   98.429    0.249    0.458    7.734
  279.244  101.570    0.261    0.450    7.785
  279.494  101.105    0.271    0.442    7.649
  279.744  102.698    0.257    0.431    7.417
  279.994  105.672    0.231    0.437    7.182
  280.244  107.704    0.210    0.452    6.629
  280.494  109.143    0.239    0.462    6.171
  280.744  109.761    0.237    0.479    5.906
  280.994  110.133    0.260    0.509    6.375
