~VERSION INFORMATION
 VERS.                 2.0:   CWLS LOG ASCII STANDARD -VERSION 2.0
 WRAP.                  NO:   ONE LINE PER DEPTH STEP
~WELL INFORMATION BLOCK
#MNEM.UNIT           DATA                    DESCRIPTION OF MNEMONIC
#---------    -------------------            -------------------------------
# Generated from Intellog Unique Number	CW_70_72/WELL/1056
NULL.         -999.25                        : NULL_VALUE
WELL.         SACKVILLE ET AL MITSUE 11-12   : Well_name    - WELL              
LOC .         11-12-071-03W5                 : Location     - LOCATION          
UWI .         00/11-12-071-03W5/2            : Uwi          - UNIQUE WELL ID    
ENTR.         JAYE                           : Entered      - ENTERED BY        
SRVC.         SCHLUMBERGER                   : Scn          - SERVICE COMPANY   
DATE.         9 DEC 77                       : Date         - LOG DATE          
STRT.M        417.576                        : top_depth    - START DEPTH       
STOP.M        652.326                        : bot_depth    - STOP DEPTH        
STEP.M        0.25                           : increment    - STEP LENGTH       
~CURVE INFORMATION BLOCK
#MNEM UNIT       ERCB CURVE CODE    CURVE DESCRIPTION
#-----------   ------------------   ----------------------------------
DEPT.M        00 001 00 00         : DEPTH        - DEPTH                       
DPHI.V/V      00 890 00 00         : PHID         - DENSITY POROSITY (SANDSTONE)
NPHI.V/V      00 330 00 00         : PHIN         - NEUTRON POROSITY (SANDSTONE)
GR  .API      00 310 00 00         : GR           - GAMMA RAY                   
CALI.MM       00 280 01 00         : CAL          - CALIPER                     
ILD .OHMM     00 120 00 00         : RESD         - DEEP RESISTIVITY (DIL)      
~PARAMETER INFORMATION       
#MNEM.UNIT           DATA             DESCRIPTION OF MNEMONIC
#---------         -----------     ------------------------------
GL  .M        610.514              : gl           - GROUND LEVEL ELEVATION      
EREF.M        613.562              : kb           - ELEVATION OF DEPTH REFERENCE
DATM.M        610.514              : datum        - DATUM ELEVATION             
TDD .M        659.892              : tdd          - TOTAL DEPTH DRILLER         
RUN .         ONE                  : Run          - RUN NUMBER                  
ENG .         KOOYMAN              : Engineer     - RECORDING ENGINEER          
WIT .         MINKEN/PODULSKY      : Witness      - WITNESSED BY                
BASE.         EDM                  : Branch       - HOME BASE OF LOGGING UNIT   
MUD .         GEL                  : Mud_type     - MUD TYPE                    
MATR.         SANDSTONE            : Logunit      - NEUTRON MATRIX              
TMAX.C        23.8889              : BHT          - MAXIMUM RECORDED TEMPERATURE
BHTD.M        658.063              : BHTDEP       - MAXIMUM RECORDED TEMPERATURE
RMT .C        10                   : MDTP         - TEMPERATURE OF MUD          
MUDD.KG/M     1140                 : MWT          - MUD DENSITY                 
NEUT.         1                    : NEUTRON      - NEUTRON TYPE                
RESI.         0                    : RESIST       - RESISTIVITY TYPE            
RM  .OHMM     4.33                 : RM           - RESISTIVITY OF MUD          
RMC .OHMM     0                    : RMC          - RESISTIVITY OF MUD CAKE     
RMF .OHMM     4.09                 : RMF          - RESISTIVITY OF MUD FILTRATE 
SUFT.C        -17.7778             : SUFT         - SURFACE TEMPERATURE         
~A  DEPTH     PHID     PHIN       GR      CAL     RESD
# ...
  563.576    0.197    0.441  115.758  160.026    3.195
  563.826    0.217    0.432  108.706  153.356    3.182
  564.076    0.234    0.415  108.189  151.008    3.216
  564.326    0.229    0.410  109.294  153.404    3.275
  564.576    0.220    0.409  113.822  157.382    3.348
  564.826    0.230    0.407  121.402  158.829    3.454
  565.076    0.224    0.401  121.322  155.849    3.610
  565.326    0.211    0.392  117.754  153.708    3.925
  565.576    0.197    0.378  115.249  154.944    4.158
  565.826    0.182    0.373  112.617  156.500    4.010
  566.076    0.181    0.387  111.480  157.314    3.905
  566.326    0.193    0.396  114.575  157.814    3.809
  566.576    0.215    0.407  120.598  157.884    3.694
  566.826    0.193    0.419  124.380  157.757    3.604
  567.076    0.210    0.422  122.745  157.728    3.548
  567.326    0.229    0.401  120.919  158.225    3.494
  567.576    0.227    0.394  122.461  158.199    3.459
  567.826    0.214    0.389  126.243  157.009    3.451
  568.076    0.191    0.383  129.713  155.295    3.443
  568.326    0.195    0.383  129.073  151.999    3.454
  568.576    0.213    0.397  125.632  150.494    3.504
  568.826    0.208    0.426  120.196  153.099    3.582
  569.076    0.209    0.436  115.013  155.390    3.661
  569.326    0.212    0.422  113.503  156.103    3.770
  569.576    0.209    0.415  116.973  157.227    3.832
  569.826    0.196    0.418  119.943  157.938    3.880
  570.076    0.184    0.423  121.855  158.336    3.893
  570.326    0.173    0.427  121.901  158.938    3.920
  570.576    0.159    0.433  122.073  159.332    3.955
  570.826    0.162    0.436  115.394  159.724    3.975
  571.076    0.154    0.430  111.517  159.699    3.995
  571.326    0.152    0.410  114.923  159.662    3.978
  571.576    0.173    0.397  114.097  159.532    3.954
  571.826    0.162    0.388  112.090  159.508    3.915
  572.076    0.183    0.388  108.211  159.582    3.826
  572.326    0.195    0.391  108.819  159.763    3.732
  572.576    0.207    0.398  111.415  159.844    3.682
  572.826    0.214    0.409  110.341  159.604    3.687
  573.076    0.204    0.416  109.077  159.469    3.733
  573.326    0.195    0.416  107.754  159.546    3.795
  573.576    0.182    0.418  106.429  159.515    3.850
  573.826    0.177    0.414  106.289  159.386    3.884
  574.076    0.160    0.387  108.014  159.040    3.897
  574.326    0.180    0.373  112.668  158.167    3.923
  574.576    0.208    0.381  116.386  155.504    3.951
  574.826    0.213    0.390  119.483  152.100    3.971
  575.076    0.196    0.400  122.827  155.650    3.991
  575.326    0.181    0.404  122.998  158.053    4.019
  575.576    0.169    0.399  121.862  159.818    4.025
  575.826    0.182    0.395  118.856  159.682    4.022
  576.076    0.184    0.401  113.919  158.809    4.043
  576.326    0.199    0.414  108.985  157.623    4.109
  576.576    0.205    0.416  103.676  154.220    4.240
  576.826    0.205    0.409  104.656  153.350    4.366
  577.076    0.191    0.396  108.561  154.902    4.514
  577.326    0.174    0.394  104.497  158.458    4.648
  577.576    0.159    0.382  100.870  159.592    4.742
  577.826    0.192    0.388   99.047  158.297    4.775
  578.076    0.194    0.398   93.116  157.004    4.764
  578.326    0.193    0.387   99.013  159.188    4.744
  578.576    0.193    0.369  104.351  158.845    4.679
  578.826    0.189    0.364  106.638  153.967    4.582
  579.076    0.181    0.374  105.251  156.678    4.461
  579.326    0.182    0.381  108.676  162.768    4.405
  579.576    0.178    0.387  111.592  163.488    4.320
  579.826    0.170    0.394  113.823  164.416    4.244
  580.076    0.163    0.404  115.307  164.923    4.130
  580.326    0.172    0.405  117.977  165.434    4.050
  580.576    0.165    0.398  116.594  165.833    3.979
  580.826    0.171    0.397  121.629  165.710    3.983
  581.076    0.186    0.398  121.991  165.267    4.016
  581.326    0.182    0.409  121.792  164.617    4.066
  581.576    0.177    0.420  120.473  163.541    4.054
  581.826    0.181    0.416  115.413  162.148    4.028
  582.076    0.180    0.412  116.960  161.179    3.957
  582.326    0.176    0.417  120.438  160.103    3.816
  582.576    0.172    0.424  124.726  159.662    3.679
  582.826    0.167    0.434  127.892  160.593    3.635
  583.076    0.162    0.441  109.934  161.839    3.686
  583.326    0.167    0.429  104.563  162.346    3.823
  583.576    0.189    0.405   96.824  162.218    3.973
  583.826    0.219    0.387   89.334  160.830    4.245
  584.076    0.272    0.370   81.035  158.067    4.562
  584.326    0.306    0.349   77.035  155.726    4.858
  584.576    0.320    0.336   75.902  153.909    4.944
  584.826    0.308    0.354   75.517  153.152    4.654
  585.076    0.314    0.375   73.760  152.817    4.370
  585.326    0.318    0.391   71.816  152.689    4.207
  585.576    0.313    0.398   69.685  152.566    3.996
  585.826    0.303    0.383   68.302  152.437    3.817
  586.076    0.293    0.374   68.541  152.316    3.559
  586.326    0.285    0.390   70.271  152.189    3.374
  586.576    0.285    0.415   71.881  152.274    3.110
  586.826    0.283    0.404   75.174  152.358    3.016
  587.076    0.290    0.400   78.340  152.448    3.128
  587.326    0.277    0.400   76.022  152.529    3.281
  587.576    0.258    0.393   73.207  152.514    3.640
  587.826    0.235    0.380   70.452  152.703    3.978
  588.076    0.244    0.364   69.257  153.104    4.065
  588.326    0.253    0.372   72.424  153.508    3.832
  588.576    0.280    0.386   74.905  153.699    3.540
  588.826    0.284    0.404   77.074  153.152    3.294
  589.076    0.293    0.409   79.492  152.711    3.082
  589.326    0.310    0.423   78.484  151.636    3.000
  589.576    0.303    0.439   74.606  150.454    2.941
  589.826    0.295    0.418   73.661  150.436    2.911
  590.076    0.310    0.421   73.524  151.045    2.903
  590.326    0.299    0.422   73.015  151.557    2.928
  590.576    0.287    0.423   72.130  152.276    2.948
  590.826    0.292    0.416   71.434  152.678    3.000
  591.076    0.294    0.412   71.235  152.655    3.026
  591.326    0.285    0.410   72.470  151.899    3.063
  591.576    0.278    0.411   74.950  150.508    3.095
  591.826    0.266    0.415   76.186  148.692    3.150
  592.076    0.278    0.418   76.298  147.301    3.195
  592.326    0.294    0.419   75.352  148.655    3.276
  592.576    0.306    0.416   77.147  152.116    3.335
  592.826    0.292    0.405   77.759  155.998    3.440
  593.076    0.283    0.399   79.430  157.671    3.676
  593.326    0.283    0.394   80.913  158.493    3.878
  593.576    0.238    0.382   75.729  159.530    4.294
  593.826    0.184    0.357   72.165  159.825    5.211
  594.076    0.182    0.312   72.591  157.270    5.235
  594.326    0.228    0.305   75.134  154.617    5.020
  594.576    0.281    0.340   79.359  150.375    4.449
  594.826    0.277    0.400   81.093  148.562    4.049
  595.076    0.282    0.410   78.775  147.699    3.774
  595.326    0.285    0.412   76.832  147.359    3.729
  595.576    0.279    0.411   76.321  147.551    3.925
  595.826    0.272    0.404   75.625  148.376    4.087
  596.076    0.246    0.391   73.493  149.938    4.287
  596.326    0.224    0.382   71.862  151.398    4.405
  596.576    0.231    0.389   67.364  153.274    4.392
  596.826    0.226    0.406   71.527  154.630    4.141
  597.076    0.243    0.410   77.809  155.979    3.755
  597.326    0.259    0.405   78.669  156.700    3.487
  597.576    0.262    0.396   79.157  157.313    3.312
  597.826    0.260    0.381   81.949  157.187    3.236
  598.076    0.262    0.382   79.693  153.577    3.245
  598.326    0.245    0.361   76.754  150.923    3.273
  598.576    0.210    0.344   77.615  149.847    3.282
  598.826    0.250    0.336   82.650  153.520    3.242
  599.076    0.275    0.380   82.139  156.033    3.150
  599.326    0.289    0.403   80.569  157.595    2.970
  599.576    0.293    0.440   81.243  158.315    2.858
  599.826    0.298    0.471   82.603  158.610    2.840
