~VERSION INFORMATION
 VERS.                 2.0:   CWLS LOG ASCII STANDARD -VERSION 2.0
 WRAP.                  NO:   ONE LINE PER DEPTH STEP
~WELL INFORMATION BLOCK
#MNEM.UNIT           DATA                    DESCRIPTION OF MNEMONIC
#---------    -------------------            -------------------------------
# Generated from Intellog Unique Number	CC_80_83/WELL/2496
WELL.         CAVALIER CHEVRON ALGER         : Well_name    - WELL
LOC .         00/11-25-081-17W4/0            : Location     - LOCATION
UWI .         00/11-25-081-17W400            : Uwi          - UNIQUE WELL ID
ENTR.         DW                             : Entered      - ENTERED BY
SRVC.         SCHLUMBERGER                   : Scn          - SERVICE COMPANY
STRT.M        118.872                        : top_depth    - START DEPTH
STOP.M        301.622                        : bot_depth    - STOP DEPTH
STEP.M        0.25                           : increment    - STEP LENGTH
 NULL. -999.2500:NULL Value
~CURVE INFORMATION BLOCK
#MNEM UNIT       ERCB CURVE CODE    CURVE DESCRIPTION
#-----------   ------------------   ----------------------------------
DEPT.M        00 001 00 00         : DEPTH        - DEPTH
ILD .OHMM     00 120 00 00         : RESD         - DEEP RESISTIVITY (DIL)
NPHI.V/V      00 330 00 00         : PHIN         - NEUTRON POROSITY (SANDSTONE)
DPHI.V/V      00 890 00 00         : PHID         - DENSITY POROSITY (SANDSTONE)
GR  .API      00 310 00 00         : GR           - GAMMA RAY
~PARAMETER INFORMATION
#MNEM.UNIT           DATA             DESCRIPTION OF MNEMONIC
#---------         -----------     ------------------------------
GL  .M        539.496              : gl           - GROUND LEVEL ELEVATION
EREF.M        545.3                : kb           - ELEVATION OF DEPTH REFERENCE
DATM.M        545.3                : datum        - DATUM ELEVATION
TDD .M        303.581              : tdd          - TOTAL DEPTH DRILLER
RUN .         ONE                  : Run          - RUN NUMBER
ENG .         BILL                 : Engineer     - RECORDING ENGINEER
WIT .         JIM                  : Witness      - WITNESSED BY
MUD .         GEL                  : Mud_type     - MUD TYPE
MATR.         SANDSTONE            : Logunit      - NEUTRON MATRIX
TMAX.C        25                   : BHT          - MAXIMUM RECORDED TEMPERATURE
BHTD.M        303.581              : BHTDEP       - MAXIMUM RECORDED TEMPERATURE
MATR.         1                    : LOGUNIT      - NEUTRON MATRIX
RMT .C        25                   : MDTP         - TEMPERATURE OF MUD
NEUT.         1                    : NEUTRON      - NEUTRON TYPE
RESI.         0                    : RESIST       - RESISTIVITY TYPE
RMC .OHMM     0.25                 : RMC          - RESISTIVITY OF MUD CAKE
RMF .OHMM     0.25                 : RMF          - RESISTIVITY OF MUD FILTRATE
SUFT.C        15                   : SUFT         - SURFACE TEMPERATURE
~A  DEPTH     RESD     PHIN     PHID       GR
# ...
  249.372    6.807    0.476    0.244   80.177
  249.622    7.405    0.468    0.245   77.355
  249.872    7.861    0.460    0.239   76.871
  250.122    9.679    0.444    0.246   75.376
  250.372   11.485    0.425    0.252   72.910
  250.622   12.609    0.392    0.245   67.785
  250.872   13.813    0.341    0.189   61.738
  251.122   16.164    0.299    0.062   62.873
  251.372   23.388    0.255    0.063   65.691
  251.622   27.565    0.232    0.074   69.406
  251.872   24.296    0.225    0.054   66.662
  252.122   19.307    0.213    0.038   60.048
  252.372   18.206    0.210    0.022   62.003
  252.622   16.345    0.255    0.071   67.579
  252.872   14.160    0.335    0.176   76.853
  253.122   12.002    0.389    0.240   82.730
  253.372    9.988    0.411    0.250   86.257
  253.622    8.616    0.427    0.250   91.191
  253.872    7.903    0.423    0.235   93.493
  254.122    7.316    0.422    0.231   99.066
  254.372    7.111    0.441    0.228  105.087
  254.622    7.087    0.457    0.220  108.493
  254.872    7.033    0.449    0.212  107.920
  255.122    7.208    0.437    0.208  103.483
  255.372    7.628    0.443    0.205   98.804
  255.622    7.809    0.453    0.198   96.577
  255.872    7.976    0.461    0.215   98.621
  256.122    8.126    0.463    0.236  100.984
  256.372    8.098    0.460    0.234  100.441
  256.622    8.033    0.466    0.224   99.447
  256.872    7.778    0.476    0.213   97.101
  257.122    7.541    0.468    0.209   94.438
  257.372    7.374    0.458    0.204   94.124
  257.622    7.280    0.456    0.199   96.387
  257.872    7.295    0.452    0.196  100.909
  258.122    7.304    0.450    0.188  108.722
  258.372    7.169    0.446    0.196  112.139
  258.622    6.791    0.443    0.210  111.771
  258.872    6.488    0.456    0.213  111.889
  259.122    6.496    0.477    0.208  112.848
  259.372    6.638    0.473    0.208  111.129
  259.622    7.101    0.459    0.207  104.873
  259.872    8.611    0.440    0.207   94.246
  260.122   10.044    0.421    0.195   88.430
  260.372   10.589    0.409    0.173   90.641
  260.622   10.645    0.411    0.166   95.441
  260.872   10.272    0.419    0.177   99.603
  261.122    9.228    0.424    0.189  100.512
  261.372    8.036    0.427    0.194  101.061
  261.622    7.364    0.437    0.195  102.213
  261.872    7.210    0.457    0.194  102.206
  262.122    7.151    0.470    0.193  100.570
  262.372    7.308    0.467    0.190   98.377
  262.622    7.865    0.454    0.188   93.443
  262.872    8.980    0.434    0.191   90.185
  263.122   10.382    0.416    0.195   90.284
  263.372   11.281    0.405    0.210   89.983
  263.622   11.188    0.396    0.249   88.797
  263.872   10.985    0.402    0.278   91.916
  264.122   10.714    0.416    0.267   94.613
  264.372   10.333    0.432    0.241   95.144
  264.622    9.923    0.446    0.229   93.818
  264.872    9.528    0.448    0.226   90.708
  265.122    9.246    0.420    0.228   88.903
  265.372    9.129    0.405    0.228   84.266
  265.622    9.165    0.415    0.229   78.133
  265.872    9.406    0.431    0.229   74.791
  266.122    9.847    0.439    0.223   75.740
  266.372   10.318    0.440    0.210   78.829
  266.622   10.696    0.436    0.190   81.832
  266.872   10.827    0.422    0.174   85.167
  267.122   10.886    0.402    0.173   88.728
  267.372   10.774    0.398    0.183   92.259
  267.622   10.347    0.425    0.199   94.401
  267.872   10.087    0.445    0.220   92.056
  268.122    9.742    0.436    0.226   88.104
  268.372    9.579    0.424    0.238   86.629
  268.622    9.686    0.422    0.230   87.400
  268.872    9.809    0.423    0.203   88.470
  269.122    9.873    0.422    0.211   89.476
  269.372   10.021    0.421    0.228   89.153
  269.622   10.014    0.415    0.221   88.099
  269.872    9.935    0.419    0.198   87.438
  270.122   10.011    0.429    0.204   87.916
  270.372   10.511    0.428    0.239   86.764
  270.622   11.870    0.422    0.229   78.819
  270.872   13.960    0.398    0.197   69.089
  271.122   14.898    0.344    0.179   63.382
  271.372   14.851    0.303    0.153   66.102
  271.622   14.224    0.311    0.136   76.385
  271.872   12.700    0.349    0.180   86.803
  272.122   12.143    0.382    0.204   90.892
  272.372   10.179    0.406    0.217   92.645
  272.622    8.623    0.416    0.225   95.451
  272.872    8.477    0.419    0.226   97.965
  273.122    8.341    0.423    0.227   97.200
  273.372    8.406    0.426    0.226   93.555
  273.622    8.625    0.428    0.217   91.888
  273.872    8.677    0.429    0.198   92.498
  274.122    8.505    0.431    0.217   93.551
  274.372    8.329    0.430    0.256   93.683
  274.622    8.274    0.426    0.242   93.153
  274.872    8.203    0.425    0.220   93.602
  275.122    8.173    0.424    0.190   94.515
  275.372    7.935    0.424    0.192   98.062
  275.622    7.447    0.425    0.215  103.498
  275.872    6.798    0.425    0.219  106.804
  276.122    6.046    0.427    0.219  107.165
  276.372    5.792    0.433    0.209  108.858
  276.622    5.586    0.443    0.204  111.409
  276.872    5.308    0.453    0.207  113.842
  277.122    5.020    0.459    0.214  116.494
  277.372    4.689    0.457    0.216  119.540
  277.622    4.555    0.451    0.212  121.751
  277.872    4.414    0.445    0.207  121.454
  278.122    4.401    0.446    0.201  119.178
  278.372    5.051    0.449    0.194  114.061
  278.622    6.479    0.446    0.185  106.022
  278.872    7.961    0.432    0.172   97.472
  279.122    9.117    0.421    0.158   88.436
  279.372   11.205    0.410    0.150   83.948
  279.622   12.393    0.397    0.150   86.961
  279.872   12.038    0.388    0.164   93.559
  280.122   11.706    0.388    0.190   98.212
  280.372   11.034    0.388    0.209  101.666
  280.622   10.423    0.395    0.214  105.314
  280.872   10.103    0.413    0.217  102.678
  281.122    9.984    0.434    0.212   98.108
  281.372    9.933    0.442    0.194   98.190
  281.622    9.938    0.432    0.180   99.756
  281.872   10.008    0.428    0.177  102.330
  282.122   10.052    0.427    0.182  103.924
  282.372   10.235    0.425    0.188  104.104
  282.622   10.662    0.417    0.190  103.101
  282.872   11.215    0.404    0.177  100.882
  283.122   11.757    0.391    0.146   98.292
  283.372   12.150    0.375    0.133   97.541
  283.622   12.305    0.374    0.147   99.886
  283.872   12.318    0.383    0.169  104.189
  284.122   12.189    0.393    0.179  107.707
  284.372   11.916    0.403    0.184  110.186
  284.622   11.480    0.403    0.188  115.273
  284.872    9.018    0.402    0.179  118.544
  285.122    7.155    0.401    0.168  120.613
  285.372    6.485    0.407    0.168  120.864
  285.622    5.266    0.424    0.164  116.307
  285.872    4.392    0.432    0.156  109.109
  286.122    4.057    0.438    0.214  104.336
  286.372    3.898    0.481    0.245   95.709
  286.622    3.849    0.539    0.250   79.856
  286.872    4.240    0.528    0.256   66.945
  287.122    5.741    0.442    0.238   66.807
  287.372    8.576    0.424    0.234   69.818
  287.622   10.001    0.424    0.234   72.735
  287.872   10.191    0.417    0.230   76.313
  288.122   10.236    0.411    0.230   80.432
  288.372    9.966    0.408    0.239   84.480
  288.622    8.864    0.407    0.236   88.034
  288.872    7.622    0.409    0.230   88.956
  289.122    6.628    0.434    0.227   91.925
  289.372    5.916    0.459    0.238   96.185
  289.622    5.349    0.469    0.244   99.365
  289.872    4.822    0.469    0.224  101.724
  290.122    4.459    0.450    0.209  102.722
  290.372    4.462    0.434    0.194  103.852
  290.622    4.565    0.424    0.179  104.022
  290.872    4.616    0.427    0.183  104.694
  291.122    4.697    0.450    0.205  107.741
  291.372    4.766    0.479    0.214  110.753
  291.622    4.637    0.494    0.205  110.671
  291.872    4.566    0.491    0.193  108.992
  292.122    4.409    0.477    0.183  108.325
  292.372    4.125    0.458    0.170  109.468
  292.622    3.945    0.443    0.171  111.601
