~VERSION INFORMATION
 VERS.                 2.0:   CWLS LOG ASCII STANDARD -VERSION 2.0
 WRAP.                  NO:   ONE LINE PER DEPTH STEP
~WELL INFORMATION BLOCK
#MNEM.UNIT           DATA                    DESCRIPTION OF MNEMONIC
#---------    -------------------            -------------------------------
# Generated from Intellog Unique Number	CC_80_83/WELL/2363
NULL.         -999.25                        : NULL_VALUE
WELL.         SHELL HOUSE CREEK OV           : Well_name    - WELL
LOC .         10-23-080-13W4                 : Location     - LOCATION          
UWI .         00/10-23-080-13W4/0            : Uwi          - UNIQUE WELL ID    
ENTR.         JHS                            : Entered      - ENTERED BY        
SRVC.         SCHLUMBERGER                   : Scn          - SERVICE COMPANY   
DATE.         01 JAN 93                      : Date         - LOG DATE
STRT.M        320.04                         : top_depth    - START DEPTH       
STOP.M        515.118                        : bot_depth    - STOP DEPTH        
STEP.M        0.305                          : increment    - STEP LENGTH       
~CURVE INFORMATION BLOCK
#MNEM UNIT       ERCB CURVE CODE    CURVE DESCRIPTION
#-----------   ------------------   ----------------------------------
DEPT.M        00 001 00 00         : DEPTH        - DEPTH                       
DPHI.V/V      00 890 00 00         : PHID         - DENSITY POROSITY (LIMESTONE)
GR  .API      00 310 00 00         : GR           - GAMMA RAY                   
ILD .OHMM     00 120 00 00         : RESD         - DEEP RESISTIVITY (DIL)      
~PARAMETER INFORMATION       
#MNEM.UNIT           DATA             DESCRIPTION OF MNEMONIC
#---------         -----------     ------------------------------
GL  .M        696.773              : gl           - GROUND LEVEL ELEVATION      
EREF.M        699.821              : kb           - ELEVATION OF DEPTH REFERENCE
DATM.M        699.821              : datum        - DATUM ELEVATION             
TDD .M        525.17               : tdd          - TOTAL DEPTH DRILLER         
RUN .         ONE                  : Run          - RUN NUMBER                  
ENG .         BILL                 : Engineer     - RECORDING ENGINEER          
WIT .         JIM                  : Witness      - WITNESSED BY                
MUD .         GEL                  : Mud_type     - MUD TYPE                    
MATR.         LIMESTONE            : Logunit      - NEUTRON MATRIX              
TMAX.C        20                   : BHT          - MAXIMUM RECORDED TEMPERATURE
BHTD.M        525.17               : BHTDEP       - MAXIMUM RECORDED TEMPERATURE
MATR.         1                    : LOGUNIT      - NEUTRON MATRIX              
RMT .C        25                   : MDTP         - TEMPERATURE OF MUD          
NEUT.         1                    : NEUTRON      - NEUTRON TYPE                
RESI.         0                    : RESIST       - RESISTIVITY TYPE            
RMC .OHMM     0.25                 : RMC          - RESISTIVITY OF MUD CAKE     
RMF .OHMM     0.25                 : RMF          - RESISTIVITY OF MUD FILTRATE 
SUFT.C        15                   : SUFT         - SURFACE TEMPERATURE         
~A  DEPTH     PHID       GR     RESD
  320.040    0.261   42.663   10.377
  320.345    0.256   43.986   10.388
  320.650    0.244   45.752   10.204
  320.954    0.244   47.073    9.843
  321.259    0.254   50.172    9.146
  321.564    0.258   51.494    8.657
  321.869    0.250   48.371    8.045
  322.174    0.251   50.581    7.617
  322.478    0.249   51.457    7.343
  322.783    0.243   55.002    6.953
  323.088    0.225   52.767    6.830
  323.393    0.224   50.089    6.837
  323.698    0.230   47.855    6.972
  324.003    0.230   47.399    7.378
  324.307    0.232   50.054    7.522
  324.612    0.241   55.820    7.958
  324.917    0.244   56.697    8.421
  325.222    0.252   50.908    8.911
  325.527    0.259   50.004    9.086
  325.831    0.250   50.440    9.094
  326.136    0.242   50.426    8.935
  326.441    0.240   50.416    8.779
  326.746    0.244   49.960    8.950
  327.051    0.232   48.615    8.959
  327.355    0.225   51.270    8.802
  327.660    0.243   57.925    8.332
  327.965    0.249   63.689    7.887
  328.270    0.264   66.344    7.606
  328.575    0.281   62.777    7.472
  328.879    0.289   56.099    7.479
  329.184    0.292   52.089    7.769
  329.489    0.291   49.410    8.376
  329.794    0.293   49.397    9.199
  330.099    0.286   53.385    9.378
  330.404    0.277   51.152    9.387
  330.708    0.272   50.250    9.053
  331.013    0.254   54.238    8.256
  331.318    0.265   54.672    6.863
  331.623    0.291   51.994    6.620
  331.928    0.316   42.204    6.749
  332.232    0.340   33.305    7.276
  332.537    0.344   26.183    8.768
  332.842    0.339   23.948   10.965
  333.147    0.329   24.381   12.971
  333.452    0.331   24.367   14.247
  333.756    0.344   23.466   14.258
  334.061    0.352   22.568   14.009
  334.366    0.348   22.110   13.765
  334.671    0.337   22.541   13.523
  334.976    0.326   22.532   13.531
  335.280    0.319   22.518   13.544
  335.585    0.321   22.951   13.811
  335.890    0.327   22.939   13.824
  336.195    0.335   23.819   13.835
  336.500    0.332   25.140   14.105
  336.805    0.336   26.016   14.118
  337.109    0.336   26.002   14.133
  337.414    0.330   25.103   13.881
  337.719    0.333   24.648   13.898
  338.024    0.342   23.748   13.907
  338.329    0.350   21.956   13.922
  338.633    0.333   19.724   13.932
  338.938    0.321   18.823   13.945
  339.243    0.324   22.368   13.698
  339.548    0.317   27.688   13.461
  339.853    0.323   26.787   13.472
  340.157    0.330   24.554   13.233
  340.462    0.334   23.654   13.246
  340.767    0.331   29.420   13.258
  341.072    0.326   28.519   13.270
  341.377    0.310   24.507   13.530
  341.681    0.293   25.383   13.795
  341.986    0.279   25.817   14.066
  342.291    0.266   23.583   14.343
  342.596    0.261   20.902   14.352
  342.901    0.278   21.781   14.102
  343.206    0.318   25.325   13.854
  343.510    0.347   25.313   13.360
  343.815    0.347   23.968   12.884
  344.120    0.339   24.843   12.425
  344.425    0.333   26.167   12.438
  344.730    0.335   27.044   12.450
  345.034    0.341   27.031   12.691
  345.339    0.333   26.576   12.702
  345.644    0.335   23.898   12.715
  345.949    0.329   18.997   13.207
  346.254    0.300   18.985   13.975
  346.558    0.256   22.084   15.347
  346.863    0.230   22.071   16.855
  347.168    0.253   22.061   16.258
  347.473    0.339   25.160   15.388
  347.778    0.334   23.370   13.524
  348.082    0.332   21.582   12.802
  348.387    0.319   19.792   13.055
  348.692    0.321   21.112   13.559
  348.997    0.326   25.102   14.086
  349.302    0.322   25.089   14.630
  349.607    0.322   22.411   14.644
  349.911    0.317   21.509   14.657
  350.216    0.293   20.608   14.944
  350.521    0.262   22.819   15.525
  350.826    0.237   23.252   15.537
  351.131    0.233   23.684   15.263
  351.435    0.336   25.451   14.450
  351.740    0.342   27.217   13.179
  352.045    0.333   24.539   12.247
  352.350    0.327   20.971   11.810
  352.655    0.333   22.738   11.605
  352.959    0.331   24.946   11.613
  353.264    0.330   23.601   11.623
  353.569    0.340   22.257   11.853
  353.874    0.332   22.689   11.862
  354.179    0.330   23.568   11.873
  354.483    0.335   23.555   11.664
  354.788    0.331   23.543   11.677
  355.093    0.328   23.089   11.687
  355.398    0.332   23.965   11.695
  355.703    0.338   22.620   11.704
  356.008    0.336   20.384   11.714
  356.312    0.330   19.928   11.727
  356.617    0.331   20.804   11.736
  356.922    0.327   21.238   11.748
  357.227    0.323   22.115   11.758
  357.532    0.325   22.104   11.767
  357.836    0.324   22.538   11.776
  358.141    0.327   23.858   11.790
  358.446    0.324   26.068   11.799
  358.751    0.313   26.501   11.809
  359.056    0.319   26.490   11.818
  359.360    0.328   25.145   11.830
  359.665    0.326   23.799   11.621
  359.970    0.318   26.010   11.633
  360.275    0.310   25.999   11.640
  360.580    0.306   28.209   11.651
  360.884    0.312   27.752   11.662
  361.189    0.315   26.407   11.456
  361.494    0.308   25.951   11.465
  361.799    0.305   25.052   11.478
  362.104    0.291   24.595   11.486
  362.409    0.277   24.582   11.496
  362.713    0.277   29.904   11.507
  363.018    0.296   34.336   11.305
  363.323    0.305   33.435   11.107
  363.628    0.296   32.535   11.117
  363.933    0.292   33.857   10.921
  364.237    0.292   32.957   10.729
  364.542    0.296   32.498   10.738
  364.847    0.302   33.376   10.948
  365.152    0.301   30.700   10.958
  365.457    0.296   29.797   10.967
  365.761    0.287   35.119   10.776
  366.066    0.283   36.440   10.391
  366.371    0.291   35.540    9.838
  366.676    0.298   35.083    9.664
  366.981    0.298   35.960    9.854
  367.285    0.296   35.061   10.428
  367.590    0.289   33.269   10.832
  367.895    0.288   31.925   11.045
  368.200    0.290   32.358   11.053
  368.505    0.289   34.124   10.661
  368.810    0.284   35.446   10.281
  369.114    0.284   34.546    9.914
  369.419    0.280   32.312    9.562
  369.724    0.268   32.743    9.393
  370.029    0.256   37.177    9.402
  370.334    0.233   39.830    9.765
  370.638    0.214   38.486   11.132
  370.943    0.169   34.475   12.226
  371.248    0.096   25.575   12.935
  371.553    0.133   26.006   12.476
  371.858    0.229   34.440   11.593
  372.162    0.260   37.982    9.637
  372.467    0.264   37.971    8.010
  372.772    0.263   39.292    7.172
  373.077    0.260   40.613    6.542
  373.382    0.271   38.825    5.967
  373.686    0.286   34.369    5.973
  373.991    0.298   29.912    6.320
  374.296    0.313   28.121    7.072
  374.601    0.307   28.112    8.211
  374.906    0.295   28.099    9.713
  375.211    0.291   28.532   10.666
  375.515    0.295   28.076   10.481
  375.820    0.298   28.951   10.106
  376.125    0.289   28.942    9.567
  376.430    0.281   28.484    9.226
  376.735    0.286   30.249    9.233
  377.039    0.282   32.017    9.243
  377.344    0.283   33.339    9.080
  377.649    0.273   35.103    8.437
  377.954    0.259   38.649    7.416
  378.259    0.247   47.079    6.517
  378.563    0.234   46.625    5.945
  378.868    0.255   43.055    5.524
  379.173    0.273   44.821    5.038
  379.478    0.275   48.367    4.347
  379.783    0.267   54.133    3.681
  380.087    0.251   62.121    3.117
  380.392    0.245   62.109    2.689
  380.697    0.241   59.875    2.593
  381.002    0.242   62.084    2.455
  381.307    0.242   59.851    2.412
  381.612    0.239   58.062    2.414
  381.916    0.246   55.827    2.416
  382.221    0.252   55.814    2.418
  382.526    0.256   57.582    2.559
  382.831    0.263   55.792    2.658
  383.136    0.260   56.669    2.563
  383.440    0.250   57.102    2.427
  383.745    0.239   54.424    2.255
  384.050    0.238   54.856    2.216
  384.355    0.247   53.067    2.218
  384.660    0.260   53.056    2.346
  384.964    0.280   52.597    2.725
  385.269    0.264   52.141    3.283
  385.574    0.254   50.354    4.031
  385.879    0.246   45.897    4.510
