~VERSION INFORMATION
 VERS.                 2.0:   CWLS LOG ASCII STANDARD -VERSION 2.0
 WRAP.                  NO:   ONE LINE PER DEPTH STEP
~WELL INFORMATION BLOCK
#MNEM.UNIT           DATA                    DESCRIPTION OF MNEMONIC
#---------    -------------------            -------------------------------
# Generated from Intellog Unique Number	CW_73_75/WELL/2979
WELL.         ANR ET AL FRANCIS 15-09        : Well_name    - WELL
LOC .         00/15-09-073-21W4/0            : Location     - LOCATION
UWI .         00/15-09-073-21W4/0            : Uwi          - UNIQUE WELL ID
ENTR.         JAYE                           : Entered      - ENTERED BY
SRVC.         WESTERN ATLAS                  : Scn          - SERVICE COMPANY
DATE.         30 JAN 81                      : Date         - LOG DATE
STRT.M        360                            : top_depth    - START DEPTH
STOP.M        560                            : bot_depth    - STOP DEPTH
STEP.M        0.25                           : increment    - STEP LENGTH
 NULL. -999.2500:NULL Value
~CURVE INFORMATION BLOCK
#MNEM UNIT       ERCB CURVE CODE    CURVE DESCRIPTION
#-----------   ------------------   ----------------------------------
DEPT.M        00 001 00 00         : DEPTH        - DEPTH
NPHI.V/V      00 330 00 00         : PHIN         - NEUTRON POROSITY (SANDSTONE)
ILD .OHMM     00 120 00 00         : RESD         - DEEP RESISTIVITY (DIL)
CALI.MM       00 280 01 00         : CAL          - CALIPER
GR  .API      00 310 00 00         : GR           - GAMMA RAY
DPHI.V/V      00 890 00 00         : PHID         - DENSITY POROSITY (SANDSTONE)
~PARAMETER INFORMATION
#MNEM.UNIT           DATA             DESCRIPTION OF MNEMONIC
#---------         -----------     ------------------------------
GL  .M        657.4                : gl           - GROUND LEVEL ELEVATION
EREF.M        660.4                : kb           - ELEVATION OF DEPTH REFERENCE
DATM.M        657.4                : datum        - DATUM ELEVATION
TDD .M        560                  : tdd          - TOTAL DEPTH DRILLER
RUN .         ONE                  : Run          - RUN NUMBER
ENG .         VINCENT              : Engineer     - RECORDING ENGINEER
WIT .         FARMER               : Witness      - WITNESSED BY
BASE.         EDM                  : Branch       - HOME BASE OF LOGGING UNIT
MUD .         GEL CHEM             : Mud_type     - MUD TYPE
MATR.         SANDSTONE            : Logunit      - NEUTRON MATRIX
TMAX.C        19                   : BHT          - MAXIMUM RECORDED TEMPERATURE
BHTD.M        559.1                : BHTDEP       - MAXIMUM RECORDED TEMPERATURE
RMT .C        18                   : MDTP         - TEMPERATURE OF MUD
MUDD.KG/M     1000                 : MWT          - MUD DENSITY
NEUT.         1                    : NEUTRON      - NEUTRON TYPE
RESI.         0                    : RESIST       - RESISTIVITY TYPE
RM  .OHMM     4.25                 : RM           - RESISTIVITY OF MUD
RMC .OHMM     4.9                  : RMC          - RESISTIVITY OF MUD CAKE
RMF .OHMM     4                    : RMF          - RESISTIVITY OF MUD FILTRATE
SUFT.C        0                    : SUFT         - SURFACE TEMPERATURE
~A  DEPTH     PHIN     RESD      CAL       GR     PHID
# ...
  396.500    0.342    6.780  156.526   99.208    0.304
  396.750    0.341    7.560  155.525   88.399    0.311
  397.000    0.345    8.619  155.145   83.566    0.300
  397.250    0.343    9.927  154.453   85.891    0.286
  397.500    0.336   11.280  153.350   84.978    0.261
  397.750    0.328   12.490  152.553   81.200    0.278
  398.000    0.314   13.295  153.104   75.681    0.293
  398.250    0.317   14.009  154.592   75.454    0.303
  398.500    0.290   14.760  156.496   77.217    0.305
  398.750    0.256   15.105  157.464   77.176    0.286
  399.000    0.177   16.811  156.980   75.017    0.278
  399.250    0.150   21.134  155.871   71.864    0.286
  399.500    0.128   29.649  155.494   65.226    0.234
  399.750    0.117   42.026  155.843   58.026    0.090
  400.000    0.107   51.757  156.706   52.384    0.007
  400.250    0.102   52.423  158.086   49.791   -0.003
  400.500    0.098   43.372  159.680   50.745    0.000
  400.750    0.100   24.609  160.440   50.330    0.006
  401.000    0.149   18.496  159.747   52.218    0.024
  401.250    0.193   11.513  158.434   62.697    0.125
  401.500    0.298    8.803  157.639   69.874    0.171
  401.750    0.324    7.498  156.949   76.430    0.304
  402.000    0.319    6.464  156.776   77.076    0.278
  402.250    0.336    5.857  156.809   82.011    0.253
  402.500    0.345    5.549  157.153   88.508    0.286
  402.750    0.346    5.257  157.812   88.278    0.303
  403.000    0.345    5.040  158.156   88.048    0.290
  403.250    0.350    4.800  158.818   90.001    0.290
  403.500    0.354    4.641  159.575   92.572    0.287
  403.750    0.347    4.550  160.030   95.082    0.278
  404.000    0.342    4.492  160.269   94.296    0.274
  404.250    0.349    4.450  160.203   92.634    0.273
  404.500    0.353    4.453  160.544   98.631    0.266
  404.750    0.346    4.456  160.476  102.947    0.264
  405.000    0.338    4.537  160.203  105.582    0.241
  405.250    0.345    4.731  160.129  104.856    0.218
  405.500    0.352    4.934  159.858  100.582    0.203
  405.750    0.359    5.015  159.788   98.050    0.215
  406.000    0.368    4.993  160.032   99.004    0.202
  406.250    0.343    4.878  160.371   97.967    0.208
  406.500    0.342    4.645  160.305  102.097    0.205
  406.750    0.355    4.508  160.337  107.969    0.203
  407.000    0.354    4.481  160.372  104.380    0.208
  407.250    0.352    4.469  160.623  105.458    0.216
  407.500    0.350    4.549  160.857  106.787    0.219
  407.750    0.343    4.794  160.892  102.512    0.208
  408.000    0.331    5.068  160.720   97.553    0.233
  408.250    0.316    5.517  159.927   80.707    0.264
  408.500    0.312    5.842  159.128   58.383    0.301
  408.750    0.315    5.978  158.438   54.419    0.315
  409.000    0.324    6.004  158.266   54.504    0.323
  409.250    0.333    5.707  157.680   59.254    0.340
  409.500    0.342    5.361  157.401   58.593    0.350
  409.750    0.348    5.105  157.333   56.806    0.358
  410.000    0.344    4.911  157.470   53.527    0.351
  410.250    0.333    4.815  157.721   53.424    0.343
  410.500    0.327    4.761  157.854   58.612    0.342
  410.750    0.329    4.757  157.994   57.075    0.351
  411.000    0.336    4.802  157.717   54.047    0.348
  411.250    0.339    4.898  157.231   52.512    0.341
  411.500    0.339    4.960  157.170   52.098    0.339
  411.750    0.335    5.050  157.195   53.737    0.340
  412.000    0.333    5.106  157.025   57.492    0.343
  412.250    0.330    5.145  157.065   57.264    0.336
  412.500    0.323    5.159  156.989   58.530    0.334
  412.750    0.322    5.171  156.818   61.725    0.331
  413.000    0.327    5.193  156.331   67.534    0.324
  413.250    0.330    5.206  156.472   75.459    0.327
  413.500    0.335    5.193  156.607   77.721    0.339
  413.750    0.345    5.152  156.546   65.109    0.339
  414.000    0.354    5.086  156.576   67.555    0.330
  414.250    0.354    5.029  156.819   76.851    0.325
  414.500    0.344    4.931  156.542   70.336    0.331
  414.750    0.335    4.801  156.471   61.953    0.336
  415.000    0.333    4.659  156.093   60.294    0.339
  415.250    0.336    4.513  156.229   59.510    0.343
  415.500    0.330    4.335  156.262   59.402    0.348
  415.750    0.330    4.214  156.404   58.428    0.352
  416.000    0.327    4.160  156.023   56.892    0.355
  416.250    0.327    4.113  156.264   58.656    0.358
  416.500    0.323    4.102  156.506   58.800    0.358
  416.750    0.323    4.070  156.444   56.021    0.346
  417.000    0.323    4.053  156.577   56.041    0.335
  417.250    0.321    4.070  156.511   55.066    0.329
  417.500    0.322    4.087  156.544   52.784    0.322
  417.750    0.317    4.076  156.576   56.416    0.322
  418.000    0.316    4.129  156.924   59.797    0.329
  418.250    0.324    4.161  156.545   59.506    0.344
  418.500    0.328    4.171  155.747   60.896    0.335
  418.750    0.325    4.145  154.018   61.166    0.326
  419.000    0.326    4.156  152.913   58.450    0.329
  419.250    0.327    4.153  152.431   57.038    0.333
  419.500    0.326    4.162  152.256   60.172    0.332
  419.750    0.321    4.195  152.083   61.748    0.330
  420.000    0.324    4.219  152.014   56.977    0.329
  420.250    0.324    4.266  152.153   58.117    0.334
  420.500    0.320    4.314  152.505   58.013    0.338
  420.750    0.319    4.392  152.954   56.666    0.332
  421.000    0.323    4.456  152.984   59.984    0.327
  421.250    0.325    4.514  152.705   59.819    0.325
  421.500    0.327    4.556  152.739   54.736    0.334
  421.750    0.328    4.583  152.982   56.624    0.345
  422.000    0.329    4.611  152.914   59.635    0.340
  422.250    0.317    4.598  152.847   60.961    0.332
  422.500    0.308    4.602  152.990   59.737    0.324
  422.750    0.306    4.717  153.230   57.455    0.323
  423.000    0.297    4.869  153.262   55.297    0.314
  423.250    0.283    5.095  152.982   52.641    0.289
  423.500    0.282    5.314  152.706   49.052    0.286
  423.750    0.290    5.598  152.646   45.276    0.294
  424.000    0.297    5.828  152.164   46.728    0.303
  424.250    0.296    5.974  152.188   52.290    0.304
  424.500    0.304    5.650  153.474   53.182    0.312
  424.750    0.327    5.362  154.030   47.911    0.341
  425.000    0.338    5.212  154.368   48.679    0.349
  425.250    0.335    5.049  155.338   55.795    0.342
  425.500    0.332    4.958  156.097   60.485    0.345
  425.750    0.333    4.988  156.033   58.453    0.336
  426.000    0.341    5.131  156.065   57.165    0.329
  426.250    0.347    5.278  156.312   57.748    0.321
  426.500    0.349    5.328  156.455   57.022    0.325
  426.750    0.345    5.295  156.380   55.484    0.333
  427.000    0.336    5.272  156.516   54.821    0.330
  427.250    0.333    5.214  156.859   57.705    0.331
  427.500    0.336    5.146  157.004   57.414    0.333
  427.750    0.340    5.046  156.727   54.448    0.339
  428.000    0.336    4.913  156.240   52.355    0.344
  428.250    0.331    4.800  155.966   50.569    0.349
  428.500    0.330    4.690  155.790   49.407    0.346
  428.750    0.329    4.662  155.722   51.731    0.337
  429.000    0.328    4.714  155.654   52.499    0.342
  429.250    0.330    4.758  155.376   52.706    0.342
  429.500    0.335    4.861  155.410   52.167    0.337
  429.750    0.343    4.974  155.137   49.635    0.336
  430.000    0.342    4.927  155.068   46.731    0.341
  430.250    0.341    4.798  155.200   44.512    0.341
  430.500    0.336    4.688  155.030   42.789    0.337
  430.750    0.337    4.612  154.959   42.125    0.335
  431.000    0.343    4.591  154.582   40.154    0.343
  431.250    0.342    4.557  154.615   43.660    0.339
  431.500    0.341    4.528  154.445   44.617    0.330
  431.750    0.340    4.455  154.480   42.022    0.321
  432.000    0.339    4.345  154.304   40.113    0.328
  432.250    0.339    4.260  153.719   41.628    0.342
  432.500    0.341    4.156  152.713   38.723    0.354
  432.750    0.344    4.116  151.815   38.499    0.363
