~VERSION INFORMATION
 VERS.                 2.0:   CWLS LOG ASCII STANDARD -VERSION 2.0
 WRAP.                  NO:   ONE LINE PER DEPTH STEP
~WELL INFORMATION BLOCK
#MNEM.UNIT           DATA                    DESCRIPTION OF MNEMONIC
#---------    -------------------            -------------------------------
# Generated from Intellog Unique Number	CC_80_83/WELL/2442
NULL.         -999.25                        : NULL_VALUE
WELL.         GULF RESDELN                   : Well_name    - WELL              
LOC .         16-03-083-07W4                 : Location     - LOCATION          
UWI .         00/16-03-083-07W4/0            : Uwi          - UNIQUE WELL ID    
ENTR.         DW                             : Entered      - ENTERED BY        
SRVC.         SCHLUMBERGER                   : Scn          - SERVICE COMPANY   
DATE.         08 MAR 81                      : Date         - LOG DATE
STRT.M        210                            : top_depth    - START DEPTH       
STOP.M        459.892                        : bot_depth    - STOP DEPTH        
STEP.M        0.3                            : increment    - STEP LENGTH       
~CURVE INFORMATION BLOCK
#MNEM UNIT       ERCB CURVE CODE    CURVE DESCRIPTION
#-----------   ------------------   ----------------------------------
DEPT.M        00 001 00 00         : DEPTH        - DEPTH                       
DPHI.V/V      00 890 00 00         : PHID         - DENSITY POROSITY (LIMESTONE)
NPHI.V/V      00 330 00 00         : PHIN         - NEUTRON POROSITY (LIMESTONE)
GR  .API      00 310 00 00         : GR           - GAMMA RAY                   
ILD .OHMM     00 120 00 00         : RESD         - DEEP RESISTIVITY (DIL)      
~PARAMETER INFORMATION       
#MNEM.UNIT           DATA             DESCRIPTION OF MNEMONIC
#---------         -----------     ------------------------------
GL  .M        670.8                : gl           - GROUND LEVEL ELEVATION      
EREF.M        675.45               : kb           - ELEVATION OF DEPTH REFERENCE
DATM.M        675.45               : datum        - DATUM ELEVATION             
TDD .M        505                  : tdd          - TOTAL DEPTH DRILLER         
RUN .         ONE                  : Run          - RUN NUMBER                  
ENG .         BILL                 : Engineer     - RECORDING ENGINEER          
WIT .         JIM                  : Witness      - WITNESSED BY                
MUD .         GEL                  : Mud_type     - MUD TYPE                    
MATR.         LIMESTONE            : Logunit      - NEUTRON MATRIX              
TMAX.C        18                   : BHT          - MAXIMUM RECORDED TEMPERATURE
BHTD.M        505                  : BHTDEP       - MAXIMUM RECORDED TEMPERATURE
MATR.         1                    : LOGUNIT      - NEUTRON MATRIX              
RMT .C        25                   : MDTP         - TEMPERATURE OF MUD          
NEUT.         1                    : NEUTRON      - NEUTRON TYPE                
RESI.         0                    : RESIST       - RESISTIVITY TYPE            
RMC .OHMM     0.25                 : RMC          - RESISTIVITY OF MUD CAKE     
RMF .OHMM     0.25                 : RMF          - RESISTIVITY OF MUD FILTRATE 
SUFT.C        4                    : SUFT         - SURFACE TEMPERATURE         
~A  DEPTH     PHID     PHIN       GR     RESD
  210.000    0.239    0.496  104.084    3.100
  210.300    0.222    0.506  102.869    3.095
  210.600    0.209    0.520  101.652    3.031
  210.900    0.218    0.535  100.427    3.025
  211.200    0.245    0.531   97.980    3.022
  211.500    0.243    0.547   97.374    2.959
  211.800    0.229    0.525   99.264    2.898
  212.100    0.239    0.521  101.137    2.785
  212.400    0.242    0.524  102.410    2.729
  212.700    0.243    0.535  102.421    2.572
  213.000    0.244    0.548  102.443    2.472
  213.300    0.259    0.558  101.850    2.375
  213.600    0.250    0.563  100.017    2.370
  213.900    0.266    0.594   98.799    2.411
  214.200    0.251    0.602   98.210    2.409
  214.500    0.245    0.564   98.839    2.404
  214.800    0.270    0.557  100.724    2.401
  215.100    0.267    0.572  101.369    2.353
  215.400    0.261    0.554  101.388    2.348
  215.700    0.280    0.569  100.789    2.345
  216.000    0.266    0.578  100.815    2.297
  216.300    0.251    0.575  102.074    2.337
  216.600    0.257    0.547  103.954    2.378
  216.900    0.232    0.562   99.641    2.516
  217.200    0.227    0.554   97.810    2.712
  217.500    0.216    0.556   98.447    2.607
  217.800    0.203    0.545   99.095    2.410
  218.100    0.221    0.565  100.356    2.406
  218.400    0.241    0.585  100.992    2.544
  218.700    0.237    0.588  101.637    2.742
  219.000    0.236    0.580  102.283    2.900
  219.300    0.234    0.555  101.685    3.009
  219.600    0.226    0.564  101.704    3.064
  219.900    0.211    0.575  101.112    2.999
  220.200    0.214    0.521  101.132    3.054
  220.500    0.234    0.525  102.390    3.420
  220.800    0.214    0.556  104.272    3.831
  221.100    0.228    0.531  105.533    4.130
  221.400    0.217    0.509  106.794    4.205
  221.700    0.178    0.505  106.818    4.119
  222.000    0.169    0.512  103.122    4.033
  222.300    0.183    0.492   96.330    4.266
  222.600    0.224    0.481   91.400    4.777
  222.900    0.250    0.510   92.040    5.053
  223.200    0.225    0.476   96.398    5.242
  223.500    0.219    0.432   97.659    4.943
  223.800    0.229    0.422   96.446    4.571
  224.100    0.205    0.448   93.993    4.391
  224.400    0.202    0.471   91.539    4.645
  224.700    0.230    0.494   89.700    6.066
  225.000    0.215    0.499   88.482   11.405
  225.300    0.240    0.427   87.263   13.271
  225.600    0.250    0.451   87.908   12.511
  225.900    0.332    0.431   92.890   10.116
  226.200    0.332    0.437   94.153    8.832
  226.500    0.262    0.452   94.172    9.339
  226.800    0.178    0.429   89.241   11.514
  227.100    0.175    0.427   84.921   13.666
  227.400    0.234    0.453   81.228   15.015
  227.700    0.269    0.456   85.585   15.277
  228.000    0.274    0.409   93.044   16.784
  228.300    0.259    0.396   93.066   18.097
  228.600    0.227    0.399   86.272   18.779
  228.900    0.217    0.403   75.765   18.744
  229.200    0.217    0.418   62.779   18.020
  229.500    0.242    0.415   66.517   15.427
  229.800    0.280    0.405   69.639   14.269
  230.100    0.271    0.379   68.423   13.712
  230.400    0.234    0.380   65.966   14.780
  230.700    0.256    0.399   61.036   17.529
  231.000    0.216    0.431   59.819   18.187
  231.300    0.256    0.446   60.459   18.512
  231.600    0.269    0.437   66.676   18.138
  231.900    0.261    0.425   69.179   16.448
  232.200    0.232    0.413   73.539   15.212
  232.500    0.191    0.418   77.895   14.616
  232.800    0.211    0.416   79.775   14.592
  233.100    0.244    0.396   79.181   14.573
  233.400    0.251    0.391   79.824   14.827
  233.700    0.217    0.408   82.325   14.529
  234.000    0.196    0.401   85.441   14.229
  234.300    0.185    0.391   93.518   13.156
  234.600    0.170    0.388  103.452   11.938
  234.900    0.202    0.407  113.393   10.027
  235.200    0.201    0.412  114.028    9.099
  235.500    0.211    0.415  112.815    9.437
  235.800    0.218    0.422  110.357   10.570
  236.100    0.197    0.438  101.707   11.394
  236.400    0.178    0.459   93.057   11.381
  236.700    0.189    0.430   91.842   11.145
  237.000    0.209    0.403   93.104   10.300
  237.300    0.232    0.399   93.743   10.096
  237.600    0.233    0.421   91.295   10.276
  237.900    0.203    0.438   88.835   11.507
  238.200    0.173    0.419   85.761   13.657
  238.500    0.179    0.417   84.547   16.206
  238.800    0.185    0.422   85.190   18.863
  239.100    0.212    0.420   85.832   21.955
  239.400    0.230    0.444   85.847   23.217
  239.700    0.274    0.476   83.394   23.184
  240.000    0.302    0.447   74.743   21.432
  240.300    0.330    0.447   69.190   20.597
  240.600    0.322    0.442   68.595   20.967
  240.900    0.322    0.431   67.376   22.582
  241.200    0.302    0.446   64.302   22.994
  241.500    0.299    0.449   61.847   23.387
  241.800    0.291    0.447   64.971   23.363
  242.100    0.301    0.464   71.803   23.338
  242.400    0.268    0.477   81.738   22.425
  242.700    0.197    0.434   84.857   19.200
  243.000    0.207    0.434   86.122   17.093
  243.300    0.295    0.448   92.337   13.819
  243.600    0.267    0.430   99.794   11.389
  243.900    0.247    0.423  105.393    9.566
  244.200    0.217    0.417  106.655    9.551
  244.500    0.165    0.433  104.818   11.333
  244.800    0.175    0.440   99.884   13.974
  245.100    0.191    0.468   92.476   17.228
  245.400    0.218    0.484   86.304   19.302
  245.700    0.267    0.470   79.509   20.407
  246.000    0.267    0.458   70.858   21.995
  246.300    0.288    0.459   64.689   23.707
  246.600    0.295    0.448   56.036   25.079
  246.900    0.253    0.415   52.963   26.523
  247.200    0.248    0.426   49.269   27.509
  247.500    0.278    0.425   47.434   27.478
  247.800    0.320    0.425   48.693   26.905
  248.100    0.331    0.426   51.191   26.366
  248.400    0.321    0.427   53.696   24.858
  248.700    0.314    0.427   58.051   19.710
  249.000    0.309    0.426   58.696   18.580
  249.300    0.310    0.445   56.860   20.813
  249.600    0.306    0.475   54.403   22.876
  249.900    0.282    0.440   53.193   23.735
  250.200    0.277    0.403   54.453   21.942
  250.500    0.279    0.428   57.570   19.531
  250.800    0.300    0.454   71.840   16.404
  251.100    0.315    0.427   74.344   13.785
  251.400    0.316    0.414   74.989   12.029
  251.700    0.276    0.432   74.388   11.562
  252.000    0.261    0.436   68.836   10.900
  252.300    0.236    0.411   70.715   10.079
  252.600    0.221    0.422   76.932    9.144
  252.900    0.212    0.435   82.528    9.124
  253.200    0.226    0.397   81.933    9.282
  253.500    0.218    0.413   79.476    9.637
  253.800    0.217    0.439   73.924   11.217
  254.100    0.221    0.445   65.899   12.570
  254.400    0.219    0.436   65.922   13.548
  254.700    0.226    0.446   67.806   13.789
  255.000    0.214    0.443   67.829   12.267
  255.300    0.212    0.426   67.232   11.791
  255.600    0.248    0.435   66.627   12.227
  255.900    0.262    0.430   65.409   12.693
  256.200    0.234    0.425   66.057   12.915
  256.500    0.236    0.429   67.320   12.650
  256.800    0.258    0.421   67.343   12.393
  257.100    0.269    0.416   67.977   11.676
  257.400    0.274    0.432   69.242   11.223
  257.700    0.240    0.451   71.746   10.785
  258.000    0.223    0.446   73.001   10.564
  258.300    0.225    0.430   75.509    9.957
  258.600    0.225    0.426   76.764    9.384
  258.900    0.219    0.422   81.127    8.677
  259.200    0.215    0.423   83.003    7.868
  259.500    0.240    0.426   85.504    7.559
  259.800    0.222    0.424   87.390    7.408
  260.100    0.222    0.404   87.412    7.113
  260.400    0.218    0.402   86.194    7.106
  260.700    0.223    0.418   83.118    7.094
  261.000    0.228    0.450   80.661    7.083
  261.300    0.220    0.464   79.444    7.075
  261.600    0.228    0.457   79.473    7.626
  261.900    0.221    0.445   78.870    8.709
