~VERSION INFORMATION
 VERS.                 2.0:   CWLS LOG ASCII STANDARD -VERSION 2.0
 WRAP.                  NO:   ONE LINE PER DEPTH STEP
~WELL INFORMATION BLOCK
#MNEM.UNIT           DATA                    DESCRIPTION OF MNEMONIC
#---------    -------------------            -------------------------------
# Generated from Intellog Unique Number	CN_91_93/WELL/3595
WELL.         EPIC RESOURCES LTD.            : Well_name    - WELL
LOC .         00/10-07-093-15W4/0            : Location     - LOCATION
UWI .         00/10-07-093-15W400            : Uwi          - UNIQUE WELL ID
ENTR.         JOETTE                         : Entered      - ENTERED BY
SRVC.         SCHLUMBERGER                   : Scn          - SERVICE COMPANY
DATE.         03/18/92                       : Date         - LOG DATE
STRT.M        100                            : top_depth    - START DEPTH
STOP.M        205                            : bot_depth    - STOP DEPTH
STEP.M        0.25                           : increment    - STEP LENGTH
 NULL. -999.2500:NULL Value
~CURVE INFORMATION BLOCK
#MNEM UNIT       ERCB CURVE CODE    CURVE DESCRIPTION
#-----------   ------------------   ----------------------------------
DEPT.M        00 001 00 00         : DEPTH        - DEPTH
GR  .API      00 310 00 00         : GR           - GAMMA RAY
CALI.MM       00 280 01 00         : CAL          - CALIPER
NPHI.V/V      00 330 00 00         : PHIN         - NEUTRON POROSITY (SANDSTONE)
DPHI.V/V      00 890 00 00         : PHID         - DENSITY POROSITY (SANDSTONE)
ILD .OHMM     00 120 00 00         : RESD         - DEEP RESISTIVITY (DIL)
~PARAMETER INFORMATION
#MNEM.UNIT           DATA             DESCRIPTION OF MNEMONIC
#---------         -----------     ------------------------------
GL  .M        466                  : gl           - GROUND LEVEL ELEVATION
EREF.M        469.5                : kb           - ELEVATION OF DEPTH REFERENCE
DATM.M        469.5                : datum        - DATUM ELEVATION
TDD .M        208                  : tdd          - TOTAL DEPTH DRILLER
RUN .         ONE                  : Run          - RUN NUMBER
ENG .         BILL                 : Engineer     - RECORDING ENGINEER
WIT .         JIM                  : Witness      - WITNESSED BY
MUD .         GEL                  : Mud_type     - MUD TYPE
MATR.         SANDSTONE            : Logunit      - NEUTRON MATRIX
TMAX.C        18                   : BHT          - MAXIMUM RECORDED TEMPERATURE
BHTD.M        208                  : BHTDEP       - MAXIMUM RECORDED TEMPERATURE
RMT .C        20                   : MDTP         - TEMPERATURE OF MUD
MUDD.KG/M     1020                 : MWT          - MUD DENSITY
NEUT.         1                    : NEUTRON      - NEUTRON TYPE
RESI.         0                    : RESIST       - RESISTIVITY TYPE
RM  .OHMM     0.29                 : RM           - RESISTIVITY OF MUD
RMC .OHMM     0.26                 : RMC          - RESISTIVITY OF MUD CAKE
RMF .OHMM     0.26                 : RMF          - RESISTIVITY OF MUD FILTRATE
SUFT.C        4                    : SUFT         - SURFACE TEMPERATURE
~A  DEPTH       GR      CAL     PHIN     PHID     RESD
  100.000   72.171  169.163    0.547    0.373    5.247
  100.250   77.799  169.145    0.542    0.362    5.247
  100.500   81.735  169.123    0.546    0.395    5.246
  100.750   82.850  169.109    0.540    0.404    5.246
  101.000   78.331  169.096    0.575    0.406    5.148
  101.250   74.373  169.073    0.617    0.400    5.053
  101.500   71.543  169.060    0.602    0.402    4.959
  101.750   67.586  169.042    0.551    0.391    4.958
  102.000   64.192  169.020    0.528    0.364    4.958
  102.250   68.128  168.997    0.597    0.400    5.051
  102.500   67.551  168.984    0.610    0.399    5.242
  102.750   65.287  168.971    0.570    0.387    5.242
  103.000   61.894  170.828    0.533    0.374    5.049
  103.250   65.266  170.814    0.516    0.363    4.864
  103.500   68.635  170.787    0.515    0.364    4.515
  103.750   66.369  170.774    0.524    0.364    4.863
  104.000   61.851  170.761    0.536    0.355    6.312
  104.250   57.893  169.799    0.551    0.336    8.824
  104.500   53.935  169.781    0.560    0.196    8.345
  104.750   52.794  169.767    0.565    0.159    7.745
  105.000   62.371  168.805    0.513    0.109    7.890
  105.250   87.170  167.852    0.421    0.129   10.050
  105.500   93.364  165.010    0.408    0.181   10.430
  105.750  103.502  163.118    0.457    0.222   10.237
  106.000  105.744  162.160    0.483    0.247   10.236
  106.250  104.042  163.077    0.494    0.249   10.428
  106.500  101.778  163.064    0.459    0.246   11.233
  106.750  101.768  164.925    0.445    0.236   11.658
  107.000   99.502  167.727    0.440    0.224   12.100
  107.250   96.672  168.649    0.445    0.225   12.557
  107.500   98.353  171.450    0.436    0.237   12.556
  107.750  103.416  173.312    0.433    0.245   12.555
  108.000  105.094  170.474    0.452    0.240   12.554
  108.250  103.392  168.573    0.458    0.238   12.553
  108.500  100.001  167.611    0.439    0.247   12.320
  108.750   94.352  166.662    0.448    0.272   12.091
  109.000   94.341  166.639    0.465    0.263   12.090
  109.250  103.352  165.682    0.463    0.225   12.089
  109.500  105.597  163.784    0.412    0.204   12.315
  109.750  101.075  163.771    0.372    0.206   13.021
  110.000   98.245  162.805    0.378    0.219   13.265
  110.250   93.160  162.791    0.374    0.239   13.264
  110.500   88.075  162.773    0.377    0.263   13.766
  110.750   85.245  162.751    0.383    0.280   13.765
  111.000   88.050  162.737    0.391    0.294   14.022
  111.250   86.912  163.659    0.393    0.268   14.021
  111.500   84.082  163.646    0.397    0.261   14.020
  111.750   81.819  164.568    0.408    0.254   13.759
  112.000   84.627  164.545    0.435    0.278   13.504
  112.250   89.124  164.532    0.451    0.273   13.009
  112.500   90.244  164.514    0.461    0.272   12.533
  112.750   85.723  161.672    0.480    0.278   11.851
  113.000   84.582  160.719    0.488    0.286   10.999
  113.250   87.393  162.576    0.477    0.282   10.795
  113.500   93.020  164.438    0.494    0.269   10.997
  113.750   99.209  165.364    0.524    0.275   11.627
  114.000   96.943  165.346    0.513    0.272   12.526
  114.250   96.932  163.449    0.509    0.241   12.760
  114.500   92.414  162.491    0.494    0.201   12.998
  114.750   83.381  161.525    0.385    0.116   12.522
  115.000   85.062  161.511    0.331    0.165   11.622
  115.250   98.584  161.498    0.345    0.259   10.392
  115.500  111.541  162.420    0.400    0.273    9.467
  115.750  108.711  162.398    0.421    0.264    9.466
  116.000  102.496  162.384    0.459    0.261    9.291
  116.250  102.488  163.306    0.443    0.261    8.785
  116.500  104.168  168.922    0.438    0.254    8.307
  116.750  104.155  173.607    0.447    0.251    7.710
  117.000  104.711  177.353    0.461    0.264    7.427
  117.250  105.264  177.330    0.479    0.276    7.023
  117.500  105.250  176.373    0.495    0.277    6.640
  117.750  103.548  173.540    0.508    0.267    6.397
  118.000  100.721  170.703    0.509    0.262    6.049
  118.250   95.072  168.806    0.492    0.259    5.511
  118.500   89.984  167.839    0.481    0.250    5.020
  118.750   90.540  167.830    0.468    0.262    5.020
  119.000  101.806  167.803    0.470    0.288    4.573
  119.250  109.122  167.790    0.505    0.303    4.166
  119.500  110.239  167.777    0.537    0.309    4.165
  119.750  113.050  166.810    0.548    0.297    4.487
  120.000  108.529  165.861    0.556    0.282    5.111
  120.250   98.933  165.843    0.546    0.269    5.823
  120.500   97.794  165.826    0.461    0.253    6.511
  120.750  101.167  167.683    0.432    0.243    7.014
  121.000  102.847  167.669    0.512    0.251    7.555
  121.250  106.217  167.651    0.522    0.256    8.139
  121.500  110.151  168.569    0.511    0.255    8.768
  121.750  109.018  168.551    0.520    0.238    9.445
  122.000  106.751  167.589    0.483    0.150   10.175
  122.250  102.230  166.636    0.399    0.128   11.376
  122.500   93.759  164.729    0.334    0.169   11.807
  122.750   96.570  163.776    0.398    0.187   12.719
  123.000  101.067  163.767    0.441    0.213   13.200
  123.250   99.368  162.805    0.458    0.245   13.700
  123.500   96.538  162.792    0.450    0.242   13.957
  123.750   94.836  162.769    0.432    0.236   14.218
  124.000   97.080  162.756    0.408    0.235   14.483
  124.250  100.453  162.734    0.421    0.239   14.482
  124.500  101.570  163.660    0.437    0.246   15.030
  124.750  102.686  163.637    0.428    0.252   15.311
  125.000  105.495  164.555    0.414    0.254   15.598
  125.250  103.793  164.546    0.401    0.252   15.890
  125.500   99.271  166.403    0.400    0.251   16.187
  125.750   94.183  166.381    0.404    0.250   16.490
  126.000   91.920  167.311    0.412    0.256   16.798
  126.250   94.162  167.294    0.446    0.258   17.112
  126.500   95.281  167.276    0.446    0.249   17.110
  126.750   92.451  167.249    0.428    0.240   17.109
  127.000   91.310  167.235    0.413    0.244   17.107
  127.250   94.124  167.222    0.417    0.257   17.105
  127.500  104.263  167.200    0.427    0.257   16.788
  127.750  103.124  167.186    0.437    0.258   16.787
  128.000   97.475  166.215    0.449    0.273   16.785
  128.250   92.390  166.206    0.457    0.284   16.784
  128.500   89.560  166.188    0.442    0.280   16.783
  128.750   90.113  166.175    0.427    0.281   16.781
  129.000   89.538  166.153    0.408    0.284   16.779
  129.250   91.783  166.139    0.392    0.273   17.415
  129.500   94.591  166.112    0.427    0.266   18.760
  129.750   91.762  166.099    0.420    0.270   20.589
  130.000   87.801  167.016    0.407    0.276   23.895
  130.250   84.971  167.007    0.384    0.282   28.784
  130.500   83.272  166.985    0.421    0.282   34.034
  130.750   88.899  166.963    0.432    0.271   40.998
  131.000   97.910  167.893    0.450    0.259   44.164
  131.250   89.442  167.875    0.470    0.201   42.545
  131.500   79.282  167.858    0.296    0.094   40.986
  131.750   67.431  167.840    0.172    0.020   38.755
  132.000   56.702  167.817    0.171    0.009   35.969
  132.250   57.255  167.795    0.172    0.000   32.163
  132.500   56.119  167.786    0.176    0.003   28.228
  132.750   53.850  167.759    0.171    0.005   24.776
  133.000   59.480  167.750    0.166    0.014   21.344
  133.250   65.111  168.663    0.181    0.035   18.733
  133.500   79.760  168.654    0.295    0.197   17.386
  133.750   83.696  168.632    0.380    0.254   16.440
  134.000   88.757  168.614    0.420    0.276   17.062
  134.250   91.004  168.596    0.413    0.257   17.708
  134.500   90.425  168.574    0.415    0.248   16.744
  134.750   87.036  168.560    0.445    0.222   15.541
  135.000   79.695  168.542    0.514    0.152   14.158
  135.250   73.483  168.525    0.408    0.102   12.196
  135.500   77.419  168.507    0.332    0.079   10.906
  135.750   84.738  169.433    0.283    0.156   10.312
  136.000   92.621  169.411    0.417    0.215   10.121
  136.250   99.940  170.337    0.450    0.246   10.120
