~VERSION INFORMATION
 VERS.                 2.0:   CWLS LOG ASCII STANDARD -VERSION 2.0
 WRAP.                  NO:   ONE LINE PER DEPTH STEP
~WELL INFORMATION BLOCK
#MNEM.UNIT           DATA                    DESCRIPTION OF MNEMONIC
#---------    -------------------            -------------------------------
# Generated from Intellog Unique Number	CS_67_68/WELL/2215
WELL.         BP ATMORE                      : Well_name    - WELL
LOC .         00/13-20-067-17W4/0            : Location     - LOCATION
UWI .         00/13-20-067-17W4/0            : Uwi          - UNIQUE WELL ID
ENTR.         SP                             : Entered      - ENTERED BY
SRVC.         SCHLUMBERGER                   : Scn          - SERVICE COMPANY
STRT.M        345                            : top_depth    - START DEPTH
STOP.M        510                            : bot_depth    - STOP DEPTH
STEP.M        0.25                           : increment    - STEP LENGTH
 NULL. -999.2500:NULL Value
~CURVE INFORMATION BLOCK
#MNEM UNIT       ERCB CURVE CODE    CURVE DESCRIPTION
#-----------   ------------------   ----------------------------------
DEPT.M        00 001 00 00         : DEPTH        - DEPTH
ILD .OHMM     00 120 00 00         : RESD         - DEEP RESISTIVITY (DIL)
DPHI.V/V      00 890 00 00         : PHID         - DENSITY POROSITY (LIMESTONE)
NPHI.V/V      00 330 00 00         : PHIN         - NEUTRON POROSITY (LIMESTONE)
GR  .API      00 310 00 00         : GR           - GAMMA RAY
CALI.MM       00 280 01 00         : CAL          - CALIPER
~PARAMETER INFORMATION
#MNEM.UNIT           DATA             DESCRIPTION OF MNEMONIC
#---------         -----------     ------------------------------
GL  .M        582.64               : gl           - GROUND LEVEL ELEVATION
EREF.M        586.34               : kb           - ELEVATION OF DEPTH REFERENCE
DATM.M        586.34               : datum        - DATUM ELEVATION
TDD .M        537                  : tdd          - TOTAL DEPTH DRILLER
RUN .         ONE                  : Run          - RUN NUMBER
ENG .         BILL                 : Engineer     - RECORDING ENGINEER
WIT .         JIM                  : Witness      - WITNESSED BY
MUD .         GEL                  : Mud_type     - MUD TYPE
MATR.         LIMESTONE            : Logunit      - NEUTRON MATRIX
TMAX.C        13                   : BHT          - MAXIMUM RECORDED TEMPERATURE
BHTD.M        537                  : BHTDEP       - MAXIMUM RECORDED TEMPERATURE
MATR.         1                    : LOGUNIT      - NEUTRON MATRIX
RMT .C        25                   : MDTP         - TEMPERATURE OF MUD
NEUT.         1                    : NEUTRON      - NEUTRON TYPE
RESI.         0                    : RESIST       - RESISTIVITY TYPE
RMC .OHMM     0.25                 : RMC          - RESISTIVITY OF MUD CAKE
RMF .OHMM     0.25                 : RMF          - RESISTIVITY OF MUD FILTRATE
SUFT.C        15                   : SUFT         - SURFACE TEMPERATURE
~A  DEPTH     RESD     PHID     PHIN       GR      CAL
# ...
  418.000    2.544    0.212    0.483   92.159  151.728
  418.250    2.386    0.211    0.492   82.031  154.360
  418.500    2.259    0.261    0.479   74.087  156.182
  418.750    2.180    0.297    0.449   73.240  148.502
  419.000    1.946    0.323    0.432   74.637  146.483
  419.250    1.903    0.313    0.427   74.699  150.226
  419.500    1.914    0.292    0.427   75.126  153.363
  419.750    2.011    0.291    0.437   75.794  152.456
  420.000    2.133    0.290    0.448   76.827  151.145
  420.250    2.229    0.276    0.452   76.708  150.642
  420.500    2.302    0.279    0.433   76.346  150.645
  420.750    2.299    0.270    0.419   76.408  152.367
  421.000    2.256    0.250    0.410   76.895  151.763
  421.250    2.219    0.243    0.417   76.229  152.069
  421.500    2.186    0.245    0.441   74.290  153.285
  421.750    2.191    0.257    0.466   76.718  154.400
  422.000    2.208    0.264    0.475   80.541  156.324
  422.250    2.208    0.258    0.461   85.031  158.146
  422.500    2.201    0.237    0.448   88.794  159.565
  422.750    2.176    0.222    0.462   91.222  160.578
  423.000    2.160    0.246    0.483   92.315  163.108
  423.250    2.165    0.257    0.495   80.489  165.740
  423.500    2.203    0.264    0.480   71.271  161.497
  423.750    2.203    0.282    0.459   68.907  156.850
  424.000    2.200    0.294    0.444   73.337  153.011
  424.250    2.115    0.263    0.437   74.309  150.285
  424.500    2.006    0.252    0.440   74.251  148.165
  424.750    1.936    0.253    0.442   73.828  151.503
  425.000    1.854    0.254    0.443   72.859  152.517
  425.250    1.812    0.271    0.442   69.707  152.419
  425.500    1.792    0.291    0.441   66.736  152.524
  425.750    1.793    0.296    0.440   64.797  153.234
  426.000    1.793    0.309    0.439   63.525  154.450
  426.250    1.790    0.315    0.439   62.435  156.272
  426.500    1.787    0.319    0.440   61.284  157.893
  426.750    1.795    0.298    0.438   59.891  158.502
  427.000    1.802    0.295    0.444   58.134  156.281
  427.250    1.796    0.299    0.452   56.862  151.937
  427.500    1.789    0.291    0.423   55.468  149.210
  427.750    1.786    0.291    0.415   54.196  148.202
  428.000    1.794    0.311    0.441   52.560  149.620
  428.250    1.797    0.328    0.453   55.110  153.162
  428.500    1.801    0.322    0.430   56.628  155.692
  428.750    1.812    0.317    0.429   56.690  156.908
  429.000    1.819    0.327    0.425   55.661  155.091
  429.250    1.823    0.318    0.429   54.450  155.094
  429.500    1.827    0.323    0.431   53.663  156.916
  429.750    1.835    0.309    0.429   53.664  158.335
  430.000    1.842    0.319    0.431   54.879  159.450
  430.250    1.853    0.332    0.426   58.096  159.756
  430.500    1.871    0.322    0.430   61.616  158.647
  430.750    1.897    0.324    0.436   64.407  155.718
  431.000    1.915    0.328    0.431   65.683  152.284
  431.250    1.948    0.301    0.423   65.260  150.063
  431.500    2.013    0.296    0.434   65.504  150.066
  431.750    2.087    0.300    0.431   64.718  150.271
  432.000    2.156    0.280    0.414   61.747  149.970
  432.250    2.185    0.273    0.410   58.838  149.063
  432.500    2.137    0.294    0.414   58.051  148.965
  432.750    2.065    0.300    0.415   57.992  149.069
  433.000    1.989    0.299    0.421   59.085  149.679
  433.250    1.887    0.305    0.426   59.876  151.299
  433.500    1.821    0.313    0.421   59.817  153.324
  433.750    1.764    0.302    0.421   60.971  156.359
  434.000    1.728    0.305    0.421   63.278  157.575
  434.250    1.722    0.305    0.417   63.583  157.983
  434.500    1.755    0.299    0.426   62.068  158.087
  434.750    1.869    0.309    0.432   61.402  158.089
  435.000    2.094    0.297    0.417   64.437  158.396
  435.250    2.324    0.280    0.411   67.775  158.904
  435.500    2.614    0.246    0.416   71.355  159.312
  435.750    2.810    0.215    0.429   75.117  159.820
  436.000    2.947    0.230    0.424   79.608  160.732
  436.250    3.091    0.216    0.416   83.855  161.140
  436.500    3.132    0.220    0.428   86.101  161.143
  436.750    3.175    0.214    0.438   85.678  160.640
  437.000    3.206    0.222    0.439   84.952  160.340
  437.250    3.152    0.215    0.438   84.044  160.141
  437.500    2.968    0.216    0.447   80.892  160.144
  437.750    2.737    0.230    0.452   76.951  161.056
  438.000    2.476    0.238    0.466   72.100  163.283
  438.250    2.266    0.230    0.490   66.825  164.903
  438.500    2.129    0.247    0.534   65.432  165.109
  438.750    2.246    0.284    0.458   69.437  163.595
  439.000    2.465    0.293    0.426   73.987  161.475
  439.250    2.629    0.257    0.429   77.811  159.759
  439.500    2.789    0.233    0.420   76.721  158.044
  439.750    2.908    0.236    0.433   78.118  157.542
  440.000    3.038    0.246    0.440   80.970  158.050
  440.250    3.186    0.221    0.442   83.762  158.962
  440.500    3.360    0.190    0.432   81.034  159.572
  440.750    3.551    0.172    0.434   81.157  161.091
  441.000    3.689    0.180    0.440   84.434  162.206
  441.250    3.825    0.194    0.423   87.408  163.422
  441.500    3.906    0.199    0.425   90.685  163.829
  441.750    3.937    0.207    0.430   93.538  163.023
  442.000    3.938    0.215    0.437   95.480  161.611
  442.250    3.917    0.203    0.442   96.938  162.827
  442.500    3.859    0.191    0.447   97.122  164.245
  442.750    3.816    0.181    0.443   96.274  164.956
  443.000    3.767    0.193    0.444   99.067  164.958
  443.250    3.655    0.202    0.451  101.919  164.658
  443.500    3.514    0.210    0.459  104.589  164.055
  443.750    3.359    0.200    0.480  106.593  164.260
  444.000    3.247    0.198    0.493  107.140  165.274
  444.250    3.187    0.194    0.473  105.929  166.388
  444.500    3.134    0.209    0.455  102.473  166.897
  444.750    3.117    0.166    0.437   99.503  166.495
  445.000    3.220    0.187    0.421   95.198  164.982
  445.250    3.326    0.205    0.414   91.500  163.367
  445.500    3.455    0.186    0.423   94.049  161.348
  445.750    3.617    0.171    0.429   96.780  159.430
  446.000    3.729    0.156    0.438   94.963  157.614
  446.250    3.837    0.159    0.434   92.659  157.212
  446.500    3.904    0.184    0.432   96.604  158.630
  446.750    3.774    0.176    0.424   99.942  162.475
  447.000    3.621    0.168    0.425  101.277  164.197
  447.250    3.541    0.158    0.441  103.099  164.705
  447.500    3.535    0.186    0.430   98.309  165.213
  447.750    3.693    0.194    0.425   90.972  165.722
  448.000    3.902    0.184    0.423   83.876  165.017
  448.250    4.093    0.149    0.399   78.844  160.875
  448.500    4.086    0.115    0.320   80.544  159.260
  448.750    3.943    0.143    0.346   85.095  158.152
  449.000    3.833    0.176    0.385   87.038  158.660
  449.250    3.720    0.198    0.419   87.949  159.977
  449.500    3.610    0.213    0.434   89.164  161.092
  449.750    3.550    0.212    0.445   90.076  162.206
  450.000    3.524    0.210    0.448   90.441  163.119
  450.250    3.572    0.212    0.447   90.564  162.515
  450.500    3.600    0.201    0.454   91.719  156.959
  450.750    3.614    0.190    0.458   91.538  153.423
  451.000    3.596    0.199    0.447   92.146  157.166
  451.250    3.575    0.211    0.431   92.998  159.697
  451.500    3.509    0.206    0.429   92.514  160.003
  451.750    3.335    0.195    0.438   91.848  160.511
  452.000    3.099    0.185    0.443   89.970  161.929
  452.250    2.901    0.201    0.436   90.639  163.145
  452.500    2.705    0.208    0.429   89.731  162.137
  452.750    2.528    0.218    0.441   84.395  159.006
  453.000    2.380    0.231    0.451   79.362  154.258
  453.250    2.228    0.245    0.456   76.149  149.307
  453.500    2.166    0.239    0.452   76.515  152.141
  453.750    2.082    0.243    0.444   73.363  153.357
  454.000    2.021    0.269    0.434   67.663  151.742
  454.250    1.968    0.294    0.427   63.843  151.341
