~VERSION INFORMATION
 VERS.                 2.0:   CWLS LOG ASCII STANDARD -VERSION 2.0
 WRAP.                  NO:   ONE LINE PER DEPTH STEP
~WELL INFORMATION BLOCK
#MNEM.UNIT           DATA                    DESCRIPTION OF MNEMONIC
#---------    -------------------            -------------------------------
# Generated from Intellog Unique Number	CS_67_68/WELL/2212
WELL.         GEOG et al HYLO                : Well_name    - WELL
LOC .         00/12-08-067-14W4/0            : Location     - LOCATION
UWI .         00/12-08-067-14W4/0            : Uwi          - UNIQUE WELL ID
ENTR.         SP                             : Entered      - ENTERED BY
SRVC.         SCHLUMBERGER                   : Scn          - SERVICE COMPANY
STRT.M        300                            : top_depth    - START DEPTH
STOP.M        485                            : bot_depth    - STOP DEPTH
STEP.M        0.25                           : increment    - STEP LENGTH
 NULL. -999.2500:NULL Value
~CURVE INFORMATION BLOCK
#MNEM UNIT       ERCB CURVE CODE    CURVE DESCRIPTION
#-----------   ------------------   ----------------------------------
DEPT.M        00 001 00 00         : DEPTH        - DEPTH
ILD .OHMM     00 120 00 00         : RESD         - DEEP RESISTIVITY (DIL)
DPHI.V/V      00 890 00 00         : PHID         - DENSITY POROSITY (LIMESTONE)
NPHI.V/V      00 330 00 00         : PHIN         - NEUTRON POROSITY (LIMESTONE)
GR  .API      00 310 00 00         : GR           - GAMMA RAY
CALI.MM       00 280 01 00         : CAL          - CALIPER
~PARAMETER INFORMATION
#MNEM.UNIT           DATA             DESCRIPTION OF MNEMONIC
#---------         -----------     ------------------------------
GL  .M        565.5                : gl           - GROUND LEVEL ELEVATION
EREF.M        568.7                : kb           - ELEVATION OF DEPTH REFERENCE
DATM.M        568.7                : datum        - DATUM ELEVATION
TDD .M        494.5                : tdd          - TOTAL DEPTH DRILLER
RUN .         ONE                  : Run          - RUN NUMBER
ENG .         BILL                 : Engineer     - RECORDING ENGINEER
WIT .         JIM                  : Witness      - WITNESSED BY
MUD .         GEL                  : Mud_type     - MUD TYPE
MATR.         LIMESTONE            : Logunit      - NEUTRON MATRIX
TMAX.C        24                   : BHT          - MAXIMUM RECORDED TEMPERATURE
BHTD.M        493.2                : BHTDEP       - MAXIMUM RECORDED TEMPERATURE
MATR.         1                    : LOGUNIT      - NEUTRON MATRIX
RMT .C        25                   : MDTP         - TEMPERATURE OF MUD
NEUT.         1                    : NEUTRON      - NEUTRON TYPE
RESI.         0                    : RESIST       - RESISTIVITY TYPE
RMC .OHMM     0.25                 : RMC          - RESISTIVITY OF MUD CAKE
RMF .OHMM     0.25                 : RMF          - RESISTIVITY OF MUD FILTRATE
SUFT.C        15                   : SUFT         - SURFACE TEMPERATURE
~A  DEPTH     RESD     PHID     PHIN       GR      CAL
# ...
  373.000    3.415    0.223    0.330   87.577  164.488
  373.250    3.587    0.210    0.338   96.169  165.776
  373.500    3.733    0.196    0.356  102.929  166.463
  373.750    3.974    0.188    0.366  107.308  166.940
  374.000    4.073    0.182    0.364  107.046  167.111
  374.250    4.191    0.177    0.362  101.590  166.979
  374.500    4.256    0.196    0.369   90.702  166.643
  374.750    4.108    0.214    0.384   82.376  166.309
  375.000    3.790    0.229    0.403   77.351  166.581
  375.250    3.497    0.232    0.395   84.843  168.077
  375.500    3.184    0.220    0.390   94.532  170.793
  375.750    2.845    0.208    0.422  101.601  173.717
  376.000    2.620    0.211    0.507  107.751  177.655
  376.250    2.449    0.217    0.542  105.654  180.882
  376.500    2.350    0.232    0.514  100.875  182.071
  376.750    2.396    0.252    0.466   95.725  176.237
  377.000    2.663    0.233    0.425   91.920  170.506
  377.250    2.861    0.221    0.400   87.993  165.479
  377.500    3.063    0.242    0.388   82.843  163.117
  377.750    3.235    0.266    0.378   77.693  161.558
  378.000    3.117    0.286    0.373   74.499  161.222
  378.250    2.876    0.293    0.373   72.161  161.188
  378.500    2.750    0.298    0.375   70.065  160.851
  378.750    2.585    0.306    0.379   68.582  160.615
  379.000    2.519    0.302    0.388   67.891  160.586
  379.250    2.496    0.298    0.399   68.422  160.558
  379.500    2.516    0.292    0.399   71.274  160.829
  379.750    2.579    0.270    0.390   76.752  161.817
  380.000    2.560    0.235    0.419   83.206  164.841
  380.250    2.689    0.191    0.438   88.624  169.594
  380.500    2.847    0.205    0.435   93.125  172.209
  380.750    3.018    0.241    0.417   91.702  169.838
  381.000    3.268    0.287    0.385   82.767  165.320
  381.250    3.518    0.328    0.350   74.930  163.566
  381.500    3.525    0.329    0.377   69.292  162.824
  381.750    3.487    0.308    0.420   65.058  162.792
  382.000    3.372    0.292    0.420   63.271  162.961
  382.250    3.373    0.291    0.411   63.677  162.930
  382.500    3.517    0.304    0.403   66.893  163.514
  382.750    3.591    0.309    0.403   68.772  163.890
  383.000    3.723    0.305    0.408   70.464  164.469
  383.250    3.867    0.301    0.407   71.849  164.844
  383.500    3.964    0.310    0.413   69.998  164.406
  383.750    3.966    0.316    0.413   62.527  163.966
  384.000    3.945    0.306    0.421   58.234  163.633
  384.250    3.858    0.291    0.433   60.902  163.499
  384.500    3.682    0.273    0.425   64.549  163.463
  384.750    3.481    0.254    0.409   69.660  163.534
  385.000    3.279    0.234    0.410   74.161  163.917
  385.250    2.997    0.227    0.425   78.477  164.697
  385.500    2.807    0.228    0.437   80.905  164.153
  385.750    2.639    0.225    0.448   81.313  163.107
  386.000    2.513    0.227    0.430   78.911  162.159
  386.250    2.444    0.232    0.422   76.265  161.926
  386.500    2.468    0.240    0.414   74.295  161.794
  386.750    2.530    0.254    0.412   71.771  162.062
  387.000    2.456    0.275    0.412   69.735  162.241
  387.250    2.730    0.296    0.415   69.720  162.618
  387.500    2.884    0.304    0.430   73.121  162.587
  387.750    2.973    0.311    0.440   75.546  162.142
  388.000    3.019    0.320    0.434   73.753  161.810
  388.250    3.008    0.325    0.441   73.737  161.376
  388.500    3.021    0.327    0.448   71.337  160.931
  388.750    3.039    0.333    0.451   70.402  160.700
  389.000    3.063    0.339    0.446   72.888  160.671
  389.250    3.035    0.326    0.440   73.358  160.429
  389.500    3.002    0.314    0.428   68.453  160.403
  389.750    2.975    0.303    0.417   68.861  160.374
  390.000    2.993    0.297    0.420   69.638  160.544
  390.250    3.108    0.290    0.417   72.917  161.330
  390.500    3.284    0.282    0.423   77.600  162.111
  390.750    3.535    0.269    0.435   82.041  162.487
  391.000    3.706    0.258    0.427   77.685  162.253
  391.250    3.990    0.251    0.427   77.421  161.410
  391.500    4.255    0.242    0.426   76.000  160.565
  391.750    4.461    0.229    0.417   73.719  159.820
  392.000    4.496    0.213    0.413   73.397  159.279
  392.250    4.523    0.191    0.412   76.309  158.945
  392.500    4.533    0.179    0.404   79.893  158.608
  392.750    4.501    0.182    0.392   82.442  158.578
  393.000    4.352    0.189    0.404   76.925  158.546
  393.250    4.046    0.186    0.412   76.294  158.309
  393.500    3.608    0.180    0.405   78.538  157.770
  393.750    3.470    0.191    0.421   80.595  157.639
  394.000    3.445    0.207    0.431   81.125  157.194
  394.250    3.492    0.230    0.441   80.006  157.164
  394.500    3.566    0.248    0.435   79.439  157.034
  394.750    3.669    0.259    0.420   78.626  157.612
  395.000    3.825    0.238    0.410   77.630  158.495
  395.250    3.988    0.224    0.399   77.735  159.079
  395.500    4.166    0.228    0.388   79.912  159.661
  395.750    4.295    0.219    0.389   81.300  159.827
  396.000    4.469    0.208    0.400   82.688  160.303
  396.250    4.660    0.208    0.402   83.586  160.275
  396.500    4.831    0.215    0.396   80.696  160.447
  396.750    4.971    0.215    0.390   77.746  160.930
  397.000    5.105    0.209    0.397   77.360  161.103
  397.250    5.194    0.207    0.403   78.197  161.375
  397.500    5.215    0.212    0.395   77.141  161.347
  397.750    5.100    0.215    0.383   74.862  161.316
  398.000    4.969    0.214    0.377   77.039  161.385
  398.250    4.716    0.208    0.386   79.526  161.455
  398.500    4.501    0.202    0.384   82.257  161.528
  398.750    4.344    0.196    0.378   82.725  161.490
  399.000    4.217    0.189    0.405   83.073  161.465
  399.250    4.155    0.183    0.416   85.559  161.434
  399.500    4.141    0.178    0.421   87.130  161.606
  399.750    4.166    0.176    0.420   85.032  161.576
  400.000    4.191    0.187    0.419   83.978  161.641
  400.250    4.216    0.195    0.419   83.287  161.814
  400.500    4.217    0.200    0.425   85.711  162.701
  400.750    4.163    0.203    0.439   87.036  163.893
  401.000    3.981    0.207    0.454   86.651  165.385
  401.250    3.736    0.200    0.449   88.341  166.479
  401.500    3.605    0.195    0.429   89.240  167.568
  401.750    3.668    0.190    0.438   91.787  168.445
  402.000    3.760    0.185    0.442   95.677  169.031
  402.250    3.833    0.181    0.441   96.208  169.510
  402.500    3.870    0.182    0.429   94.660  169.679
  402.750    3.886    0.180    0.424   93.235  169.545
  403.000    3.880    0.178    0.424   92.183  169.516
  403.250    3.845    0.184    0.418   90.454  169.487
  403.500    3.698    0.192    0.407   89.335  169.454
  403.750    3.555    0.191    0.398   88.584  169.629
  404.000    3.349    0.189    0.407   86.856  169.600
  404.250    3.172    0.196    0.423   89.522  169.872
  404.500    3.085    0.203    0.432   90.665  170.038
  404.750    3.199    0.205    0.428   91.930  170.321
  405.000    3.310    0.197    0.424   96.001  170.284
  405.250    3.425    0.189    0.450  100.626  170.157
  405.500    3.544    0.212    0.466  105.918  169.413
  405.750    3.633    0.243    0.451  100.587  166.424
  406.000    3.696    0.223    0.430   90.432  164.667
  406.250    3.669    0.211    0.413   84.367  163.412
  406.500    3.629    0.212    0.407   82.576  163.384
  406.750    3.617    0.215    0.420   83.536  163.860
  407.000    3.564    0.215    0.422   86.876  164.442
  407.250    3.427    0.211    0.413   87.709  164.817
  407.500    3.302    0.204    0.404   87.694  165.091
  407.750    3.229    0.216    0.399   84.010  164.653
  408.000    3.105    0.226    0.401   81.244  164.113
  408.250    2.859    0.242    0.402   78.844  163.268
  408.500    2.474    0.270    0.391   76.565  162.525
  408.750    2.236    0.318    0.354   71.660  161.577
  409.000    2.036    0.378    0.258   62.541  160.628
  409.250    1.976    0.353    0.238   54.034  160.089
