~VERSION INFORMATION
 VERS.                 2.0:   CWLS LOG ASCII STANDARD -VERSION 2.0
 WRAP.                  NO:   ONE LINE PER DEPTH STEP
~WELL INFORMATION BLOCK
#MNEM.UNIT           DATA                    DESCRIPTION OF MNEMONIC
#---------    -------------------            -------------------------------
# Generated from Intellog Unique Number	CW_73_75/WELL/1038
WELL.         CDN SUP ET AL FRANCIS 11-13    : Well_name    - WELL
LOC .         00/11-13-075-20W4/0            : Location     - LOCATION
UWI .         00/11-13-075-20W4/0            : Uwi          - UNIQUE WELL ID
ENTR.         JAYE                           : Entered      - ENTERED BY
SRVC.         SCHLUMBERGER                   : Scn          - SERVICE COMPANY
DATE.         2 FEB 77                       : Date         - LOG DATE
STRT.M        292.608                        : top_depth    - START DEPTH
STOP.M        496.858                        : bot_depth    - STOP DEPTH
STEP.M        0.25                           : increment    - STEP LENGTH
 NULL. -999.2500:NULL Value
~CURVE INFORMATION BLOCK
#MNEM UNIT       ERCB CURVE CODE    CURVE DESCRIPTION
#-----------   ------------------   ----------------------------------
DEPT.M        00 001 00 00         : DEPTH        - DEPTH
ILD .OHMM     00 120 00 00         : RESD         - DEEP RESISTIVITY (DIL)
NPHI.V/V      00 330 00 00         : PHIN         - NEUTRON POROSITY (SANDSTONE)
DPHI.V/V      00 890 00 00         : PHID         - DENSITY POROSITY (SANDSTONE)
GR  .API      00 310 00 00         : GR           - GAMMA RAY
CALI.MM       00 280 01 00         : CAL          - CALIPER
~PARAMETER INFORMATION
#MNEM.UNIT           DATA             DESCRIPTION OF MNEMONIC
#---------         -----------     ------------------------------
GL  .M        611.734              : gl           - GROUND LEVEL ELEVATION
EREF.M        616.001              : kb           - ELEVATION OF DEPTH REFERENCE
DATM.M        611.734              : datum        - DATUM ELEVATION
TDD .M        548.64               : tdd          - TOTAL DEPTH DRILLER
RUN .         ONE                  : Run          - RUN NUMBER
ENG .         LEDUC                : Engineer     - RECORDING ENGINEER
WIT .         KELLY                : Witness      - WITNESSED BY
BASE.         EDM                  : Branch       - HOME BASE OF LOGGING UNIT
MUD .         GEL CHEM             : Mud_type     - MUD TYPE
MATR.         SANDSTONE            : Logunit      - NEUTRON MATRIX
TMAX.C        100082               : BHT          - MAXIMUM RECORDED TEMPERATURE
BHTD.M        548.945              : BHTDEP       - MAXIMUM RECORDED TEMPERATURE
RMT .C        16.1111              : MDTP         - TEMPERATURE OF MUD
MUDD.KG/M     0                    : MWT          - MUD DENSITY
NEUT.         1                    : NEUTRON      - NEUTRON TYPE
RESI.         0                    : RESIST       - RESISTIVITY TYPE
RM  .OHMM     4                    : RM           - RESISTIVITY OF MUD
RMC .OHMM     0                    : RMC          - RESISTIVITY OF MUD CAKE
RMF .OHMM     4.32                 : RMF          - RESISTIVITY OF MUD FILTRATE
SUFT.C        -17.7778             : SUFT         - SURFACE TEMPERATURE
~A  DEPTH     RESD     PHIN     PHID       GR      CAL
# ...
  365.608    5.888    0.459    0.311   74.116  160.408
  365.858    5.802    0.460    0.294   71.103  160.307
  366.108    5.814    0.467    0.302   68.511  159.930
  366.358    5.956    0.468    0.312   66.103  159.730
  366.608    6.045    0.461    0.308   63.575  159.555
  366.858    6.227    0.449    0.313   62.616  159.274
  367.108    6.487    0.435    0.314   64.622  158.954
  367.358    6.707    0.440    0.303   66.389  158.773
  367.608    6.782    0.438    0.300   65.915  158.393
  367.858    6.859    0.429    0.293   64.114  158.121
  368.108    6.911    0.430    0.284   63.218  157.920
  368.358    6.911    0.443    0.297   63.347  157.733
  368.608    6.874    0.446    0.305   61.847  157.447
  368.858    6.824    0.443    0.291   58.894  157.150
  369.108    6.737    0.442    0.282   57.816  156.880
  369.358    6.639    0.440    0.274   58.249  156.797
  369.608    6.628    0.439    0.277   58.384  157.018
  369.858    6.628    0.445    0.288   57.730  156.626
  370.108    6.604    0.451    0.294   58.406  156.541
  370.358    6.532    0.455    0.293   56.360  156.448
  370.608    6.437    0.452    0.288   55.402  156.369
  370.858    6.414    0.443    0.280   56.799  156.481
  371.108    6.356    0.427    0.275   58.086  156.212
  371.358    6.333    0.416    0.288   57.436  156.541
  371.608    6.357    0.436    0.297   55.269  156.558
  371.858    6.417    0.443    0.290   55.457  156.771
  372.108    6.502    0.437    0.305   56.797  157.194
  372.358    6.514    0.425    0.301   57.719  157.219
  372.608    6.551    0.421    0.287   58.091  157.552
  372.858    6.588    0.420    0.299   57.498  157.767
  373.108    6.613    0.422    0.289   56.605  157.804
  373.358    6.639    0.428    0.285   56.493  157.814
  373.608    6.640    0.435    0.282   56.380  157.930
  373.858    6.665    0.443    0.286   56.816  158.160
  374.108    6.703    0.439    0.272   57.075  158.278
  374.358    6.728    0.425    0.281   56.964  158.404
  374.608    6.754    0.417    0.285   57.763  158.420
  374.858    6.755    0.428    0.288   58.862  158.544
  375.108    6.781    0.446    0.272   57.785  158.861
  375.358    6.769    0.444    0.272   56.158  158.790
  375.608    6.707    0.440    0.276   56.416  159.205
  375.858    6.646    0.442    0.299   57.999  159.333
  376.108    6.574    0.449    0.291   58.069  159.339
  376.358    6.490    0.456    0.298   56.389  159.682
  376.608    6.431    0.468    0.290   55.492  160.105
  376.858    6.408    0.475    0.301   56.106  160.233
  377.108    6.540    0.452    0.303   57.146  160.463
  377.358    6.602    0.438    0.290   58.548  160.573
  377.608    6.603    0.430    0.287   57.775  160.593
  377.858    6.567    0.435    0.287   56.093  160.928
  378.108    6.519    0.422    0.282   57.070  160.831
  378.358    6.472    0.413    0.279   59.496  160.760
  378.608    6.425    0.409    0.285   61.087  160.782
  378.858    6.414    0.416    0.291   60.975  160.794
  379.108    6.414    0.423    0.300   59.111  160.711
  379.358    6.463    0.423    0.293   59.002  160.710
  379.608    6.440    0.419    0.296   61.193  160.637
  379.858    6.428    0.416    0.297   63.682  160.968
  380.108    6.417    0.418    0.291   65.264  161.086
  380.358    6.418    0.417    0.285   66.669  161.214
  380.608    6.611    0.413    0.276   68.129  161.330
  380.858    6.760    0.414    0.282   68.323  161.237
  381.108    6.837    0.414    0.283   69.662  161.263
  381.358    6.850    0.409    0.280   71.548  161.186
  381.608    6.864    0.408    0.271   73.139  161.319
  381.858    6.852    0.428    0.263   72.365  161.848
  382.108    6.789    0.431    0.267   72.497  162.372
  382.358    6.653    0.423    0.263   74.440  162.701
  382.608    6.413    0.425    0.254   77.480  163.134
  382.858    6.124    0.428    0.267   80.091  163.661
  383.108    5.957    0.422    0.283   82.823  164.095
  383.358    5.957    0.417    0.258   86.649  164.831
  383.608    6.069    0.411    0.256   92.103  165.457
  383.858    6.206    0.417    0.239  101.432  165.995
  384.108    6.241    0.428    0.217  111.486  166.619
  384.358    5.680    0.441    0.194  110.949  166.951
  384.608    5.047    0.456    0.172  102.131  167.782
  384.858    4.576    0.435    0.150   91.012  168.420
  385.108    4.196    0.410    0.068   92.050  169.161
  385.358    4.014    0.375    0.110  100.954  170.100
  385.608    3.869    0.415    0.200  104.294  170.838
  385.858    3.905    0.460    0.181  107.087  172.386
  386.108    3.957    0.476    0.150  108.728  174.144
  386.358    4.001    0.462    0.162  109.587  175.706
  386.608    4.009    0.457    0.173  110.751  177.063
  386.858    4.017    0.458    0.188  113.543  178.516
  387.108    4.092    0.459    0.203  109.866  180.166
  387.358    4.271    0.470    0.177  105.098  181.216
  387.608    4.711    0.489    0.154  100.329  179.906
  387.858    5.130    0.500    0.197   95.194  175.928
  388.108    5.555    0.479    0.228   92.663  169.902
  388.358    5.786    0.449    0.262   90.377  166.334
  388.608    5.851    0.430    0.295   88.030  163.167
  388.858    5.831    0.430    0.293   85.260  161.456
  389.108    5.778    0.442    0.293   79.102  159.733
  389.358    5.736    0.438    0.291   71.371  159.336
  389.608    5.610    0.433    0.296   66.540  159.465
  389.858    5.447    0.451    0.301   68.542  159.574
  390.108    5.260    0.460    0.286   72.370  160.213
  390.358    5.098    0.459    0.274   78.247  160.547
  390.608    4.968    0.449    0.288   82.435  161.077
  390.858    4.797    0.431    0.271   88.315  162.520
  391.108    4.649    0.418    0.252   95.523  164.291
  391.358    4.473    0.406    0.235  103.825  167.792
  391.608    4.359    0.424    0.186  112.850  171.084
  391.858    4.186    0.451    0.168  115.160  173.467
  392.108    4.027    0.461    0.170  112.086  175.326
  392.358    3.712    0.463    0.179  111.371  176.368
  392.608    3.461    0.474    0.180  112.835  177.311
  392.858    3.238    0.477    0.192  114.055  178.146
  393.108    3.144    0.472    0.179  113.220  178.681
  393.358    3.180    0.472    0.173  111.478  179.420
  393.608    3.264    0.482    0.209  109.915  180.257
  393.858    3.393    0.497    0.222  108.052  182.013
  394.108    3.668    0.503    0.204  107.033  184.595
  394.358    3.957    0.487    0.195  104.380  187.999
  394.608    4.245    0.471    0.188  102.882  190.774
  394.858    4.538    0.462    0.178  103.014  190.486
  395.108    4.727    0.457    0.169   97.639  188.153
  395.358    4.816    0.451    0.200   92.506  185.309
  395.608    4.852    0.456    0.227   88.285  175.597
  395.858    4.808    0.467    0.244   84.180  167.113
  396.108    4.782    0.463    0.267   77.420  164.980
  396.358    4.730    0.447    0.275   72.108  162.839
  396.608    4.783    0.434    0.282   71.026  161.735
  396.858    4.900    0.426    0.286   73.821  160.833
  397.108    5.132    0.431    0.291   73.225  160.342
  397.358    5.810    0.432    0.301   71.905  160.143
  397.608    7.486    0.419    0.301   70.228  160.169
  397.858    9.609    0.416    0.254   67.757  160.088
  398.108   11.975    0.409    0.219   63.533  160.005
  398.358   15.372    0.333    0.054   62.033  159.916
  398.608   17.370    0.181    0.013   61.075  159.835
  398.858   17.827    0.159   -0.010   59.999  159.959
  399.108   17.928    0.151   -0.009   58.316  160.182
  399.358   17.152    0.160   -0.006   58.146  160.294
  399.608   16.258    0.167    0.004   56.586  160.631
  399.858   15.326    0.167    0.027   53.935  161.261
  400.108   14.078    0.167    0.021   52.668  161.684
  400.358   13.027    0.168   -0.000   52.988  162.330
  400.608   11.747    0.170   -0.002   53.237  162.942
  400.858    9.604    0.177    0.030   53.611  163.074
  401.108    7.896    0.193    0.051   54.352  163.399
  401.358    6.431    0.206    0.084   56.542  163.529
  401.608    5.579    0.225    0.107   58.245  163.645
  401.858    4.920    0.263    0.152   60.429  163.566
