~VERSION INFORMATION
 VERS.                 2.0:   CWLS LOG ASCII STANDARD -VERSION 2.0
 WRAP.                  NO:   ONE LINE PER DEPTH STEP
~WELL INFORMATION BLOCK
#MNEM.UNIT           DATA                    DESCRIPTION OF MNEMONIC
#---------    -------------------            -------------------------------
# Generated from Intellog Unique Number	CW_73_75/WELL/1029
WELL.         PACIFIC AMADOU 10-32           : Well_name    - WELL
LOC .         00/10-32-075-20W4/0            : Location     - LOCATION
UWI .         00/10-32-075-20W4/0            : Uwi          - UNIQUE WELL ID
ENTR.         JAYE                           : Entered      - ENTERED BY
SRVC.         SCHLUMBERGER                   : Scn          - SERVICE COMPANY
DATE.         20 MAR 74                      : Date         - LOG DATE
STRT.M        301.752                        : top_depth    - START DEPTH
STOP.M        475.502                        : bot_depth    - STOP DEPTH
STEP.M        0.25                           : increment    - STEP LENGTH
 NULL. -999.2500:NULL Value
~CURVE INFORMATION BLOCK
#MNEM UNIT       ERCB CURVE CODE    CURVE DESCRIPTION
#-----------   ------------------   ----------------------------------
DEPT.M        00 001 00 00         : DEPTH        - DEPTH
CALI.MM       00 280 01 00         : CAL          - CALIPER
GR  .API      00 310 00 00         : GR           - GAMMA RAY
NPHI.V/V      00 330 00 00         : PHIN         - NEUTRON POROSITY (SANDSTONE)
DPHI.V/V      00 890 00 00         : PHID         - DENSITY POROSITY (SANDSTONE)
ILD .OHMM     00 120 00 00         : RESD         - DEEP RESISTIVITY (DIL)
~PARAMETER INFORMATION
#MNEM.UNIT           DATA             DESCRIPTION OF MNEMONIC
#---------         -----------     ------------------------------
GL  .M        619.049              : gl           - GROUND LEVEL ELEVATION
EREF.M        623.103              : kb           - ELEVATION OF DEPTH REFERENCE
DATM.M        619.049              : datum        - DATUM ELEVATION
TDD .M        478.536              : tdd          - TOTAL DEPTH DRILLER
RUN .         ONE                  : Run          - RUN NUMBER
ENG .         BROWN                : Engineer     - RECORDING ENGINEER
WIT .         WADDELL              : Witness      - WITNESSED BY
BASE.         EDM                  : Branch       - HOME BASE OF LOGGING UNIT
MUD .         GEL CHEM             : Mud_type     - MUD TYPE
MATR.         SANDSTONE            : Logunit      - NEUTRON MATRIX
TMAX.C        18.3333              : BHT          - MAXIMUM RECORDED TEMPERATURE
BHTD.M        479.755              : BHTDEP       - MAXIMUM RECORDED TEMPERATURE
RMT .C        15.5556              : MDTP         - TEMPERATURE OF MUD
MUDD.KG/M     1044                 : MWT          - MUD DENSITY
NEUT.         1                    : NEUTRON      - NEUTRON TYPE
RESI.         0                    : RESIST       - RESISTIVITY TYPE
RM  .OHMM     9.59                 : RM           - RESISTIVITY OF MUD
RMC .OHMM     0                    : RMC          - RESISTIVITY OF MUD CAKE
RMF .OHMM     5.7                  : RMF          - RESISTIVITY OF MUD FILTRATE
SUFT.C        -17.7778             : SUFT         - SURFACE TEMPERATURE
~A  DEPTH      CAL       GR     PHIN     PHID     RESD
# ...
  338.252  158.242   80.015    0.515    0.256    5.439
  338.502  157.167   63.662    0.501    0.286    5.358
  338.752  156.289   56.712    0.469    0.303    5.277
  339.002  155.420   57.042    0.442    0.295    5.198
  339.252  154.847   60.039    0.482    0.277    5.178
  339.502  154.074   62.066    0.504    0.261    5.128
  339.752  153.409   59.725    0.480    0.256    5.108
  340.002  153.138   61.874    0.480    0.256    5.116
  340.252  153.592   63.597    0.473    0.282    5.152
  340.502  153.844   64.779    0.496    0.271    5.131
  340.752  153.881   66.377    0.514    0.258    5.092
  341.002  154.632   68.223    0.493    0.258    5.053
  341.252  155.688   69.524    0.470    0.252    5.005
  341.502  156.955   72.340    0.459    0.249    4.976
  341.752  158.319   69.876    0.462    0.245    5.011
  342.002  158.461   66.141    0.488    0.264    5.179
  342.252  157.790   59.918    0.484    0.292    5.383
  342.502  155.899   52.241    0.476    0.319    5.827
  342.752  154.722   49.902    0.467    0.300    6.793
  343.002  154.554   47.500    0.451    0.287    8.325
  343.252  156.135   44.796    0.376    0.257   10.547
  343.502  157.286   41.364    0.320    0.165   16.200
  343.752  157.432   33.685    0.148    0.085   30.556
  344.002  157.478   33.468    0.134    0.014   30.774
  344.252  157.617   35.677    0.136   -0.006   24.682
  344.502  156.341   40.980    0.141   -0.007   18.901
  344.752  155.967   44.891    0.157    0.029    9.248
  345.002  155.706   46.613    0.224    0.077    6.638
  345.252  155.744   50.275    0.278    0.170    5.649
  345.502  154.671   56.609    0.375    0.211    5.035
  345.752  152.475   59.668    0.428    0.282    4.735
  346.002  150.479   59.935    0.472    0.293    4.453
  346.252  149.297   60.810    0.478    0.298    4.395
  346.502  149.030   60.715    0.486    0.306    4.442
  346.752  149.279   58.011    0.515    0.317    4.491
  347.002  149.420   55.489    0.534    0.319    4.632
  347.252  149.466   56.543    0.513    0.314    4.788
  347.502  149.103   59.845    0.506    0.310    4.949
  347.752  148.835   62.357    0.504    0.319    5.030
  348.002  148.875   63.657    0.488    0.326    5.095
  348.252  149.329   61.075    0.512    0.318    5.140
  348.502  150.077   59.644    0.528    0.306    5.177
  348.752  149.104   61.793    0.561    0.300    5.195
  349.002  147.922   61.695    0.571    0.291    5.193
  349.252  147.148   58.931    0.535    0.278    5.191
  349.502  146.484   58.834    0.500    0.314    5.209
  349.752  147.232   64.198    0.480    0.313    5.188
  350.002  148.703   59.067    0.483    0.307    5.177
  350.252  149.972   56.243    0.493    0.294    5.127
  350.502  150.316   56.270    0.512    0.256    5.089
  350.752  150.154   59.084    0.522    0.244    4.993
  351.002  149.788   65.114    0.509    0.299    4.891
  351.252  149.730   70.659    0.472    0.288    4.747
  351.502  150.175   72.807    0.498    0.276    4.685
  351.752  151.230   75.987    0.461    0.299    4.692
  352.002  153.715   78.015    0.465    0.337    4.760
  352.252  161.600   80.468    0.505    0.318    4.830
  352.502  174.466   83.525    0.547    0.325    4.974
  352.752  176.547   87.250    0.535    0.264    5.056
  353.002  167.628   83.331    0.571    0.292    5.206
  353.252  158.505   80.750    0.541    0.333    5.381
  353.502  149.793   82.473    0.506    0.270    5.572
  353.752  153.097   89.049    0.487    0.247    5.674
  354.002  157.620   94.595    0.491    0.216    5.736
  354.252  160.002   94.623    0.500    0.211    5.671
  354.502  160.449   92.643    0.520    0.194    5.586
  354.752  160.694   92.852    0.539    0.189    5.512
  355.002  162.055   95.484    0.549    0.200    5.541
  355.252  165.563   95.939    0.529    0.229    5.622
  355.502  170.079   96.385    0.531    0.196    5.757
  355.752  171.955   97.319    0.525    0.228    5.819
  356.002  167.112   95.586    0.511    0.217    5.786
  356.252  155.650   95.613    0.476    0.208    5.689
  356.502  158.642   93.817    0.469    0.195    5.470
  356.752  161.947   93.358    0.487    0.186    5.231
  357.002  165.038   91.927    0.538    0.167    4.965
  357.252  171.187   91.588    0.526    0.208    4.575
  357.502  166.035   92.040    0.515    0.225    4.131
  357.752  159.974   85.818    0.552    0.245    3.807
  358.002  154.924   79.715    0.600    0.288    3.412
  358.252  151.806   81.258    0.747    0.303    2.991
  358.502  155.010   87.833    0.737    0.279    2.706
  358.752  165.636   86.040    0.733    0.332    2.725
  359.002  175.449   81.395    0.669    0.366    2.885
  359.252  178.143   79.600    0.657    0.367    3.277
  359.502  193.042   80.111    0.679    0.325    3.913
  359.752  185.042   86.626    0.624    0.281    4.307
  360.002  172.357   89.987    0.588    0.259    4.812
  360.252  159.473   86.251    0.585    0.246    5.395
  360.502  155.241   82.456    0.590    0.242    5.628
  360.752  154.467   84.605    0.564    0.272    5.657
  361.002  156.134   86.328    0.563    0.257    5.614
  361.252  154.345   78.953    0.570    0.253    5.592
  361.502  153.774   72.428    0.544    0.272    5.569
  361.752  157.378   71.424    0.535    0.248    5.588
  362.002  158.748   71.750    0.526    0.242    5.597
  362.252  156.958   68.258    0.521    0.234    5.564
  362.502  155.675   70.471    0.512    0.251    5.491
  362.752  154.700   72.375    0.508    0.258    5.479
  363.002  154.742   73.794    0.535    0.262    5.437
  363.252  155.088   73.092    0.522    0.260    5.425
  363.502  155.540   71.842    0.509    0.266    5.344
  363.752  155.885   69.143    0.534    0.270    5.352
  364.002  156.438   67.284    0.561    0.276    5.341
  364.252  156.372   64.034    0.543    0.271    5.439
  364.502  155.904   63.756    0.521    0.255    5.529
  364.752  155.336   67.663    0.501    0.252    5.527
  365.002  155.587   73.331    0.515    0.258    5.344
  365.252  156.137   75.903    0.575    0.241    5.196
  365.502  156.790   75.990    0.574    0.255    5.118
  365.752  157.443   76.014    0.559    0.265    5.126
  366.002  157.789   75.981    0.539    0.258    5.172
  366.252  158.138   72.485    0.553    0.275    5.228
  366.502  157.467   67.537    0.560    0.300    5.265
  366.752  156.385   63.984    0.536    0.305    5.362
  367.002  152.453   65.707    0.530    0.296    5.471
  367.252  151.796   65.005    0.543    0.301    5.582
  367.502  152.045   62.120    0.529    0.300    5.834
  367.752  152.170   61.052    0.504    0.295    6.188
  368.002  151.919   59.320    0.480    0.286    6.539
  368.252  152.055   59.346    0.486    0.273    7.079
  368.502  152.506   60.282    0.470    0.256    7.592
  368.752  153.559   59.700    0.425    0.231    7.818
  369.002  155.435   57.662    0.405    0.183    8.006
  369.252  157.409   54.837    0.288    0.084    8.063
  369.502  156.232   55.592    0.328    0.111    8.016
  369.752  152.207   56.346    0.423    0.124    8.148
  370.002  151.427   58.369    0.546    0.147    8.919
  370.252  150.658   57.729    0.567    0.315    9.322
  370.502  150.289   53.021    0.571    0.318    8.262
  370.752  150.129   47.285    0.558    0.304    7.243
  371.002  149.456   49.617    0.528    0.307    6.408
  371.252  149.499   50.614    0.523    0.318    5.483
  371.502  149.233   51.064    0.536    0.321    4.539
  371.752  148.264   49.751    0.531    0.314    4.237
  372.002  147.485   46.441    0.517    0.306    4.243
  372.252  147.528   43.982    0.484    0.297    4.386
  372.502  150.116   43.520    0.516    0.304    4.739
  372.752  152.598   42.456    0.539    0.302    5.092
  373.002  154.677   41.449    0.550    0.286    5.273
  373.252  154.110   39.958    0.442    0.266    5.061
  373.502  149.876   39.557    0.378    0.224    4.848
  373.752  144.621   43.466    0.380    0.220    4.662
  374.002  149.962   46.099    0.405    0.294    4.475
  374.252  151.527   47.885    0.468    0.318    4.351
  374.502  150.958   47.848    0.490    0.327    4.301
