~VERSION INFORMATION
 VERS.                 2.0:   CWLS LOG ASCII STANDARD -VERSION 2.0
 WRAP.                  NO:   ONE LINE PER DEPTH STEP
~WELL INFORMATION BLOCK
#MNEM.UNIT           DATA                    DESCRIPTION OF MNEMONIC
#---------    -------------------            -------------------------------
# Generated from Intellog Unique Number	CS_73_76/WELL/4776
WELL.         BOW VALLEY                     : Well_name    - WELL
LOC .         00/10-01-074-14W4/0            : Location     - LOCATION
UWI .         00/10-01-074-14W4/0            : Uwi          - UNIQUE WELL ID
ENTR.         T                              : Entered      - ENTERED BY
SRVC.         SCHLUMBERGER                   : Scn          - SERVICE COMPANY
STRT.M        500                            : top_depth    - START DEPTH
STOP.M        580                            : bot_depth    - STOP DEPTH
STEP.M        0.25                           : increment    - STEP LENGTH
 NULL. -999.2500:NULL Value
~CURVE INFORMATION BLOCK
#MNEM UNIT       ERCB CURVE CODE    CURVE DESCRIPTION
#-----------   ------------------   ----------------------------------
DEPT.M        00 001 00 00         : DEPTH        - DEPTH
GR  .API      00 310 00 00         : GR           - GAMMA RAY
NPHI.V/V      00 330 00 00         : PHIN         - NEUTRON POROSITY (SANDSTONE)
DPHI.V/V      00 890 00 00         : PHID         - DENSITY POROSITY (SANDSTONE)
ILD .OHMM     00 120 00 00         : RESD         - DEEP RESISTIVITY (DIL)
~PARAMETER INFORMATION
#MNEM.UNIT           DATA             DESCRIPTION OF MNEMONIC
#---------         -----------     ------------------------------
GL  .M        695                  : gl           - GROUND LEVEL ELEVATION
EREF.M        698.4                : kb           - ELEVATION OF DEPTH REFERENCE
DATM.M        698.4                : datum        - DATUM ELEVATION
TDD .M        586                  : tdd          - TOTAL DEPTH DRILLER
RUN .         ONE                  : Run          - RUN NUMBER
ENG .         BILL                 : Engineer     - RECORDING ENGINEER
WIT .         JIM                  : Witness      - WITNESSED BY
MUD .         GEL                  : Mud_type     - MUD TYPE
MATR.         SANDSTONE            : Logunit      - NEUTRON MATRIX
TMAX.C        25                   : BHT          - MAXIMUM RECORDED TEMPERATURE
BHTD.M        586                  : BHTDEP       - MAXIMUM RECORDED TEMPERATURE
MATR.         1                    : LOGUNIT      - NEUTRON MATRIX
RMT .C        25                   : MDTP         - TEMPERATURE OF MUD
NEUT.         1                    : NEUTRON      - NEUTRON TYPE
RESI.         0                    : RESIST       - RESISTIVITY TYPE
RMC .OHMM     4.5                  : RMC          - RESISTIVITY OF MUD CAKE
RMF .OHMM     3.4                  : RMF          - RESISTIVITY OF MUD FILTRATE
SUFT.C        15                   : SUFT         - SURFACE TEMPERATURE
~A  DEPTH       GR     PHIN     PHID     RESD
# ...
  543.500   60.606    0.384    0.240   38.407
  543.750   63.693    0.382    0.226   35.008
  544.000   69.247    0.384    0.251   31.318
  544.250   72.953    0.392    0.266   28.017
  544.500   74.204    0.396    0.279   24.604
  544.750   73.608    0.398    0.273   21.201
  545.000   72.404    0.400    0.268   19.320
  545.250   73.053    0.405    0.274   15.737
  545.500   73.077    0.415    0.295   13.560
  545.750   71.867    0.419    0.302   11.690
  546.000   68.213    0.429    0.311   10.653
  546.250   66.395    0.429    0.315    9.179
  546.500   67.032    0.423    0.315    7.763
  546.750   67.062    0.414    0.314    6.689
  547.000   67.079    0.397    0.316    5.765
  547.250   66.483    0.405    0.318    5.254
  547.500   65.279    0.411    0.320    4.701
  547.750   62.847    0.414    0.323    4.366
  548.000   61.029    0.412    0.329    4.132
  548.250   57.983    0.401    0.333    3.767
  548.500   54.950    0.387    0.337    3.633
  548.750   56.803    0.389    0.333    3.502
  549.000   60.509    0.396    0.330    3.316
  549.250   64.222    0.419    0.324    3.196
  549.500   69.156    0.424    0.317    3.141
  549.750   75.926    0.414    0.310    3.086
  550.000   77.177    0.402    0.307    3.090
  550.250   77.820    0.392    0.307    3.093
  550.500   77.236    0.396    0.307    3.039
  550.750   76.026    0.402    0.308    2.931
  551.000   73.600    0.399    0.313    2.878
  551.250   71.770    0.397    0.315    2.726
  551.500   68.117    0.399    0.318    2.628
  551.750   66.293    0.426    0.319    2.581
  552.000   64.475    0.428    0.321    2.537
  552.250   62.668    0.431    0.325    2.492
  552.500   62.066    0.433    0.328    2.449
  552.750   61.482    0.436    0.333    2.406
  553.000   60.897    0.436    0.333    2.409
  553.250   60.909    0.430    0.333    2.411
  553.500   61.564    0.406    0.330    2.369
  553.750   61.582    0.406    0.325    2.372
  554.000   61.599    0.415    0.322    2.375
  554.250   62.243    0.420    0.315    2.378
  554.500   62.254    0.421    0.309    2.381
  554.750   61.050    0.421    0.309    2.384
  555.000   57.397    0.416    0.311    2.386
  555.250   54.351    0.382    0.314    2.388
  555.500   58.052    0.382    0.317    2.392
  555.750   60.536    0.395    0.326    2.395
  556.000   57.485    0.400    0.333    2.397
  556.250   52.598    0.394    0.329    2.399
  556.500   54.463    0.391    0.307    2.403
  556.750   60.636    0.388    0.301    2.405
  557.000   62.501    0.386    0.301    2.454
  557.250   59.462    0.395    0.306    2.456
  557.500   57.632    0.418    0.310    2.505
  557.750   53.358    0.425    0.314    2.461
  558.000   47.249    0.429    0.321    2.418
  558.250   43.584    0.429    0.325    2.333
  558.500   41.146    0.428    0.330    2.249
  558.750   37.498    0.427    0.334    2.169
  559.000   35.675    0.429    0.341    2.131
  559.250   33.851    0.435    0.345    2.093
  559.500   31.419    0.436    0.352    2.136
  559.750   30.829    0.439    0.357    2.179
  560.000   32.092    0.439    0.361    2.222
  560.250   33.349    0.430    0.361    2.267
  560.500   34.594    0.430    0.358    2.269
  560.750   37.073    0.432    0.356    2.315
  561.000   38.324    0.435    0.356    2.317
  561.250   36.506    0.432    0.356    2.321
  561.500   34.694    0.425    0.356    2.280
  561.750   34.092    0.414    0.357    2.240
  562.000   33.502    0.403    0.358    2.202
  562.250   32.297    0.413    0.359    2.163
  562.500   31.093    0.418    0.360    2.125
  562.750   29.889    0.422    0.361    2.088
  563.000   29.299    0.422    0.363    2.090
  563.250   28.708    0.422    0.364    2.054
  563.500   28.124    0.422    0.364    2.056
  563.750   28.142    0.421    0.364    2.058
  564.000   28.171    0.421    0.363    2.022
  564.250   28.194    0.419    0.363    2.025
  564.500   28.224    0.414    0.360    2.027
  564.750   28.236    0.411    0.359    2.030
  565.000   30.107    0.412    0.358    2.071
  565.250   32.580    0.417    0.356    2.072
  565.500   37.520    0.420    0.353    2.075
  565.750   41.834    0.420    0.349    2.077
  566.000   44.319    0.421    0.348    2.079
  566.250   41.887    0.420    0.343    2.079
  566.500   38.222    0.417    0.348    2.009
  566.750   36.410    0.416    0.357    2.010
  567.000   35.819    0.410    0.365    2.012
  567.250   38.298    0.401    0.359    2.015
  567.500   43.840    0.393    0.351    2.016
  567.750   45.717    0.393    0.345    2.019
  568.000   45.133    0.399    0.341    2.021
  568.250   43.917    0.407    0.338    2.024
  568.500   40.877    0.413    0.341    2.065
  568.750   37.831    0.414    0.344    2.066
  569.000   34.791    0.421    0.347    2.070
  569.250   32.968    0.433    0.347    2.071
  569.500   31.144    0.440    0.347    2.074
  569.750   29.939    0.430    0.347    2.075
  570.000   29.963    0.422    0.352    2.040
  570.250   31.220    0.422    0.355    2.004
  570.500   32.471    0.425    0.357    1.969
  570.750   34.330    0.426    0.358    1.935
  571.000   38.049    0.428    0.357    1.936
  571.250   39.908    0.428    0.354    1.869
  571.500   43.614    0.426    0.353    1.870
  571.750   46.093    0.425    0.353    1.872
  572.000   46.725    0.424    0.354    1.839
  572.250   47.362    0.424    0.356    1.841
  572.500   50.455    0.425    0.357    1.844
  572.750   53.547    0.419    0.352    1.845
  573.000   51.735    0.415    0.348    1.882
  573.250   47.462    0.419    0.349    1.921
  573.500   43.797    0.420    0.354    1.959
  573.750   41.979    0.418    0.354    2.037
  574.000   43.849    0.413    0.352    2.197
  574.250   46.942    0.400    0.324    2.462
  574.500   49.421    0.371    0.282    2.607
  574.750   51.900    0.302    0.239    2.976
  575.000   54.385    0.196   -0.001    4.254
  575.250   57.477    0.194    0.007    6.934
  575.500   60.564    0.226    0.020   10.101
  575.750   65.504    0.242    0.047   15.274
  576.000   61.839    0.264    0.063   18.105
  576.250   56.952    0.269    0.060   20.282
  576.500   50.837    0.191    0.032   21.079
  576.750   46.569    0.180    0.027   23.620
  577.000   44.132    0.208    0.052   25.501
  577.250   40.484    0.212    0.058   25.515
  577.500   39.268    0.207    0.061   26.025
  577.750   36.836    0.188    0.054   27.063
  578.000   34.404    0.173    0.047   28.127
  578.250   32.586    0.179    0.047   28.165
  578.500   31.382    0.188    0.049   28.180
  578.750   30.178    0.199    0.053   28.218
  579.000   29.588    0.190    0.051   27.732
  579.250   29.617    0.174    0.049   27.761
  579.500   29.027    0.160    0.049   27.791
  579.750   29.044    0.171    0.050   27.821
  580.000   29.068    0.183    0.052   27.851
