~VERSION INFORMATION
 VERS.                 2.0:   CWLS LOG ASCII STANDARD -VERSION 2.0
 WRAP.                  NO:   ONE LINE PER DEPTH STEP
~WELL INFORMATION BLOCK
#MNEM.UNIT           DATA                    DESCRIPTION OF MNEMONIC
#---------    -------------------            -------------------------------
# Generated from Intellog Unique Number	CS_73_76/WELL/3256
WELL.         DOME ET AL KIRBY               : Well_name    - WELL
LOC .         00/11-04-075-06W4/0            : Location     - LOCATION
UWI .         00/11-04-075-06W4/0            : Uwi          - UNIQUE WELL ID
ENTR.         SP                             : Entered      - ENTERED BY
SRVC.         SCHLUMBERGER                   : Scn          - SERVICE COMPANY
STRT.M        265                            : top_depth    - START DEPTH
STOP.M        480                            : bot_depth    - STOP DEPTH
STEP.M        0.25                           : increment    - STEP LENGTH
 NULL. -999.2500:NULL Value
~CURVE INFORMATION BLOCK
#MNEM UNIT       ERCB CURVE CODE    CURVE DESCRIPTION
#-----------   ------------------   ----------------------------------
DEPT.M        00 001 00 00         : DEPTH        - DEPTH
ILD .OHMM     00 120 00 00         : RESD         - DEEP RESISTIVITY (DIL)
DPHI.V/V      00 890 00 00         : PHID         - DENSITY POROSITY (LIMESTONE)
NPHI.V/V      00 330 00 00         : PHIN         - NEUTRON POROSITY (LIMESTONE)
GR  .API      00 310 00 00         : GR           - GAMMA RAY
~PARAMETER INFORMATION
#MNEM.UNIT           DATA             DESCRIPTION OF MNEMONIC
#---------         -----------     ------------------------------
GL  .M        654.52               : gl           - GROUND LEVEL ELEVATION
EREF.M        658.42               : kb           - ELEVATION OF DEPTH REFERENCE
DATM.M        654.52               : datum        - DATUM ELEVATION
TDD .M        484                  : tdd          - TOTAL DEPTH DRILLER
RUN .         ONE                  : Run          - RUN NUMBER
ENG .         BILL                 : Engineer     - RECORDING ENGINEER
WIT .         JIM                  : Witness      - WITNESSED BY
MUD .         GEL                  : Mud_type     - MUD TYPE
MATR.         LIMESTONE            : Logunit      - NEUTRON MATRIX
TMAX.C        16                   : BHT          - MAXIMUM RECORDED TEMPERATURE
BHTD.M        484                  : BHTDEP       - MAXIMUM RECORDED TEMPERATURE
MATR.         1                    : LOGUNIT      - NEUTRON MATRIX
RMT .C        25                   : MDTP         - TEMPERATURE OF MUD
NEUT.         1                    : NEUTRON      - NEUTRON TYPE
RESI.         0                    : RESIST       - RESISTIVITY TYPE
RMC .OHMM     0.25                 : RMC          - RESISTIVITY OF MUD CAKE
RMF .OHMM     0.25                 : RMF          - RESISTIVITY OF MUD FILTRATE
SUFT.C        15                   : SUFT         - SURFACE TEMPERATURE
~A  DEPTH     RESD     PHID     PHIN       GR
# ...
  395.500    5.812    0.246    0.468   79.859
  395.750    5.811    0.235    0.472   76.806
  396.000    5.920    0.229    0.474   74.363
  396.250    5.919    0.238    0.468   73.140
  396.500    6.028    0.232    0.454   73.135
  396.750    5.914    0.221    0.445   73.744
  397.000    5.913    0.237    0.433   76.788
  397.250    5.801    0.260    0.423   79.223
  397.500    5.378    0.244    0.421   80.440
  397.750    4.987    0.233    0.422   80.436
  398.000    4.801    0.211    0.441   80.433
  398.250    4.452    0.211    0.454   77.990
  398.500    4.127    0.234    0.462   74.938
  398.750    3.756    0.232    0.458   72.495
  399.000    3.482    0.221    0.450   71.881
  399.250    3.169    0.214    0.451   71.879
  399.500    2.725    0.231    0.471   72.484
  399.750    2.526    0.248    0.497   73.091
  400.000    2.479    0.264    0.514   73.697
  400.250    2.432    0.287    0.535   73.694
  400.500    2.431    0.303    0.558   72.471
  400.750    2.430    0.305    0.534   71.247
  401.000    2.475    0.305    0.524   70.634
  401.250    2.475    0.301    0.535   71.849
  401.500    2.521    0.294    0.525   73.676
  401.750    2.667    0.290    0.518   75.501
  402.000    2.929    0.277    0.512   77.328
  402.250    3.340    0.269    0.508   77.934
  402.500    3.809    0.260    0.488   79.150
  402.750    4.184    0.255    0.473   78.536
  403.000    4.683    0.266    0.456   76.703
  403.250    4.953    0.258    0.439   76.700
  403.500    5.239    0.234    0.438   76.087
  403.750    5.338    0.227    0.450   70.595
  404.000    5.336    0.236    0.442   69.371
  404.250    5.235    0.239    0.422   68.759
  404.500    4.763    0.232    0.403   68.144
  404.750    4.253    0.209    0.391   68.752
  405.000    3.523    0.197    0.410   69.968
  405.250    3.145    0.214    0.465   74.842
  405.500    2.972    0.236    0.484   79.107
  405.750    3.144    0.250    0.502   82.152
  406.000    3.585    0.242    0.476   81.539
  406.250    4.246    0.242    0.454   79.095
  406.500    5.123    0.242    0.422   78.483
  406.750    6.300    0.232    0.408   73.601
  407.000    7.893    0.252    0.385   72.988
  407.250    9.174    0.272    0.370   71.765
  407.500   10.661    0.282    0.362   68.104
  407.750   11.709    0.305    0.348   63.831
  408.000   12.155    0.326    0.315   60.168
  408.250   12.382    0.344    0.292   58.946
  408.500   12.378    0.347    0.303   55.893
  408.750   11.694    0.328    0.319   54.061
  409.000   10.843    0.310    0.340   52.838
  409.250    9.683    0.299    0.341   52.834
  409.500    8.327    0.298    0.338   52.831
  409.750    7.027    0.307    0.337   52.825
  410.000    5.930    0.332    0.331   53.434
  410.250    5.710    0.364    0.403   53.431
  410.500    6.154    0.336    0.416   54.037
  410.750    7.288    0.321    0.424   55.860
  411.000    9.661    0.313    0.425   56.466
  411.250   11.229    0.302    0.425   57.073
  411.500   12.567    0.268    0.414   57.071
  411.750   12.802    0.230    0.349   57.067
  412.000   11.648    0.187    0.288   56.454
  412.250   10.017    0.138    0.341   56.450
  412.500    8.945    0.192    0.377   56.446
  412.750   10.011    0.244    0.449   56.443
  413.000   12.309    0.280    0.462   56.440
  413.250   13.269    0.313    0.470   57.046
  413.500   15.713    0.301    0.477   57.652
  413.750   17.587    0.316    0.486   58.258
  414.000   18.955    0.305    0.498   59.475
  414.250   19.310    0.305    0.489   60.081
  414.500   19.303    0.312    0.473   60.077
  414.750   18.938    0.291    0.460   58.244
  415.000   18.234    0.279    0.447   57.631
  415.250   15.977    0.309    0.435   57.018
  415.500   14.538    0.291    0.433   57.014
  415.750   13.229    0.274    0.433   57.620
  416.000   12.037    0.257    0.413   58.836
  416.250   10.952    0.230    0.386   60.661
  416.500   10.745    0.212    0.370   61.878
  416.750   10.946    0.215    0.373   64.313
  417.000   11.578    0.227    0.382   66.139
  417.250   13.711    0.247    0.386   58.209
  417.500   17.838    0.264    0.380   54.548
  417.750   24.556    0.226    0.371   49.056
  418.000   30.197    0.263    0.374   44.174
  418.250   35.760    0.280    0.380   37.464
  418.500   40.023    0.295    0.378   32.582
  418.750   43.140    0.292    0.390   27.090
  419.000   44.780    0.304    0.392   25.258
  419.250   43.114    0.328    0.384   25.864
  419.500   35.041    0.307    0.387   28.909
  419.750   22.722    0.300    0.376   35.003
  420.000   19.174    0.300    0.364   44.146
  420.250   17.777    0.290    0.342   52.679
  420.500   17.116    0.303    0.364   60.602
  420.750   16.480    0.301    0.379   66.696
  421.000   16.166    0.282    0.385   70.960
  421.250   17.101    0.264    0.380   73.397
  421.500   19.139    0.253    0.378   76.442
  421.750   22.665    0.241    0.376   73.998
  422.000   26.341    0.254    0.398   71.557
  422.250   31.193    0.262    0.408   52.650
  422.500   36.249    0.267    0.397   47.770
  422.750   38.341    0.269    0.376   45.937
  423.000   39.060    0.262    0.367   52.030
  423.250   39.048    0.272    0.362   55.685
  423.500   38.308    0.279    0.369   59.949
  423.750   36.881    0.280    0.379   60.556
  424.000   35.508    0.286    0.386   60.553
  424.250   32.925    0.294    0.400   62.377
  424.500   28.852    0.301    0.398   63.594
  424.750   25.283    0.287    0.397   64.811
  425.000   21.337    0.272    0.396   67.246
  425.250   18.696    0.253    0.396   69.680
  425.500   17.665    0.239    0.390   70.288
  425.750   17.006    0.225    0.387   69.674
  426.000   16.685    0.219    0.384   69.670
  426.250   16.062    0.234    0.389   70.886
  426.500   15.178    0.246    0.392   72.713
  426.750   13.810    0.255    0.389   75.757
  427.000   12.102    0.261    0.379   78.802
  427.250   11.220    0.264    0.375   83.067
  427.500   11.429    0.261    0.392   85.503
  427.750   11.644    0.246    0.402   85.500
  428.000   12.314    0.241    0.411   76.960
  428.250   12.546    0.256    0.397   62.322
  428.500   12.781    0.277    0.383   57.440
  428.750   13.517    0.275    0.368   54.387
  429.000   13.771    0.266    0.353   52.555
  429.250   14.295    0.274    0.334   51.333
  429.500   14.563    0.258    0.324   59.865
  429.750   15.116    0.246    0.327   65.349
  430.000   15.400    0.229    0.346   67.175
  430.250   15.687    0.217    0.356   68.391
  430.500   15.981    0.208    0.372   68.387
  430.750   15.975    0.205    0.352   67.164
  431.000   15.673    0.206    0.351   67.161
  431.250   13.734    0.223    0.357   69.596
  431.500   12.035    0.243    0.358   72.032
  431.750   10.950    0.221    0.355   74.468
  432.000   10.347    0.202    0.346   76.293
  432.250    9.961    0.180    0.338   75.680
  432.500    9.958    0.204    0.355   57.994
  432.750   10.337    0.234    0.368   48.844
  433.000   11.142    0.266    0.358   45.182
  433.250   12.238    0.285    0.350   53.715
  433.500   15.047    0.240    0.335   63.467
  433.750   17.820    0.224    0.339   63.464
  434.000   24.997    0.232    0.351   59.800
  434.250   29.050    0.271    0.374   59.188
  434.500   30.729    0.295    0.390   59.185
  434.750   29.586    0.300    0.402   58.571
  435.000   27.953    0.285    0.399   57.957
  435.250   28.475    0.261    0.382   56.126
  435.500   31.870    0.245    0.385   52.463
  435.750   37.036    0.251    0.390   51.240
  436.000   41.451    0.283    0.380   51.236
  436.250   45.529    0.298    0.372   54.281
  436.500   51.923    0.301    0.371   57.327
  436.750   58.114    0.302    0.383   59.762
  437.000   67.536    0.293    0.380   57.320
  437.250   78.486    0.306    0.374   50.609
  437.500   86.205    0.317    0.369   43.899
  437.750   96.473    0.318    0.374   45.724
  438.000  100.146    0.320    0.373   47.550
  438.250  102.027    0.304    0.374   48.766
  438.500  101.991    0.318    0.387   49.371
  438.750   94.565    0.324    0.395   49.368
