~VERSION INFORMATION
 VERS.                 2.0:   CWLS LOG ASCII STANDARD -VERSION 2.0
 WRAP.                  NO:   ONE LINE PER DEPTH STEP
~WELL INFORMATION BLOCK
#MNEM.UNIT           DATA                    DESCRIPTION OF MNEMONIC
#---------    -------------------            -------------------------------
# Generated from Intellog Unique Number	CW_82_90/WELL/1030
WELL.         AMOCO BRINTNELL 13-16          : Well_name    - WELL
LOC .         00/13-16-084-23W4/0            : Location     - LOCATION
UWI .         00/13-16-084-23W4/0            : Uwi          - UNIQUE WELL ID
ENTR.         JAYE                           : Entered      - ENTERED BY
SRVC.         SCHLUMBERGER                   : Scn          - SERVICE COMPANY
DATE.         25 FEB 86                      : Date         - LOG DATE
STRT.M        190                            : top_depth    - START DEPTH
STOP.M        410                            : bot_depth    - STOP DEPTH
STEP.M        0.25                           : increment    - STEP LENGTH
 NULL. -999.2500:NULL Value
~CURVE INFORMATION BLOCK
#MNEM UNIT       ERCB CURVE CODE    CURVE DESCRIPTION
#-----------   ------------------   ----------------------------------
DEPT.M        00 001 00 00         : DEPTH        - DEPTH
CALI.MM       00 280 01 00         : CAL          - CALIPER
GR  .API      00 310 00 00         : GR           - GAMMA RAY
NPHI.V/V      00 330 00 00         : PHIN         - NEUTRON POROSITY (SANDSTONE)
DPHI.V/V      00 890 00 00         : PHID         - DENSITY POROSITY (SANDSTONE)
ILD .OHMM     00 120 00 00         : RESD         - DEEP RESISTIVITY (DIL)
~PARAMETER INFORMATION
#MNEM.UNIT           DATA             DESCRIPTION OF MNEMONIC
#---------         -----------     ------------------------------
GL  .M        584.4                : gl           - GROUND LEVEL ELEVATION
EREF.M        588                  : kb           - ELEVATION OF DEPTH REFERENCE
DATM.M        584.4                : datum        - DATUM ELEVATION
TDD .M        413                  : tdd          - TOTAL DEPTH DRILLER
RUN .         ONE                  : Run          - RUN NUMBER
ENG .         VERNER               : Engineer     - RECORDING ENGINEER
WIT .         KOSS                 : Witness      - WITNESSED BY
BASE.         S.L.                 : Branch       - HOME BASE OF LOGGING UNIT
MUD .         GEL CHEM             : Mud_type     - MUD TYPE
MATR.         SANDSTONE            : Logunit      - NEUTRON MATRIX
TMAX.C        20                   : BHT          - MAXIMUM RECORDED TEMPERATURE
BHTD.M        413                  : BHTDEP       - MAXIMUM RECORDED TEMPERATURE
RMT .C        18.3                 : MDTP         - TEMPERATURE OF MUD
MUDD.KG/M     1130                 : MWT          - MUD DENSITY
NEUT.         1                    : NEUTRON      - NEUTRON TYPE
RESI.         0                    : RESIST       - RESISTIVITY TYPE
RM  .OHMM     4.13                 : RM           - RESISTIVITY OF MUD
RMC .OHMM     0                    : RMC          - RESISTIVITY OF MUD CAKE
RMF .OHMM     4.22                 : RMF          - RESISTIVITY OF MUD FILTRATE
SUFT.C        0                    : SUFT         - SURFACE TEMPERATURE
~A  DEPTH      CAL       GR     PHIN     PHID     RESD
  190.000  259.111   98.150    0.524    0.303    2.735
  190.250  259.551   96.412    0.535    0.303    2.509
  190.500  260.309   95.862    0.538    0.306    2.402
  190.750  261.174   96.192    0.528    0.311    2.391
  191.000  261.202   97.089    0.531    0.327    2.372
  191.250  261.438   96.854    0.541    0.326    2.344
  191.500  260.947   96.306    0.542    0.300    2.329
  191.750  261.916   99.331    0.531    0.295    2.333
  192.000  264.136  101.420    0.524    0.289    2.335
  192.250  266.462  101.496    0.542    0.279    2.386
  192.500  266.806  100.575    0.559    0.285    2.489
  192.750  263.173  102.284    0.574    0.299    2.606
  193.000  257.974  104.243    0.571    0.284    2.827
  193.250  255.391  104.201    0.510    0.266    2.938
  193.500  255.418  104.215    0.496    0.279    3.048
  193.750  253.149  103.354    0.501    0.272    3.138
  194.000  252.131  100.549    0.533    0.259    3.274
  194.250  253.726   99.750    0.551    0.262    3.467
  194.500  256.573   99.704    0.537    0.265    3.643
  194.750  261.831   98.969    0.533    0.258    3.908
  195.000  263.947   97.165    0.538    0.234    4.320
  195.250  262.302   90.972    0.357    0.200    4.909
  195.500  257.835   81.896    0.323    0.176    6.217
  195.750  256.502   56.826    0.354    0.221    8.098
  196.000  252.246   50.573    0.384    0.244    9.936
  196.250  248.304   55.482    0.410    0.280   11.725
  196.500  245.924   56.313    0.450    0.328   13.499
  196.750  244.386   46.736    0.440    0.355   17.386
  197.000  243.785   39.476    0.462    0.364   24.491
  197.250  242.457   36.798    0.454    0.359   26.033
  197.500  240.393   37.503    0.471    0.374   25.916
  197.750  239.270   41.096    0.487    0.384   24.171
  198.000  241.389   43.871    0.490    0.385   22.339
  198.250  243.196   45.392    0.468    0.380   22.279
  198.500  243.014   46.351    0.477    0.362   23.066
  198.750  242.310   46.116    0.452    0.339   23.970
  199.000  242.964   42.681    0.435    0.342   24.453
  199.250  243.303   40.569    0.437    0.356   24.255
  199.500  243.644   41.901    0.458    0.351   23.969
  199.750  244.097   44.174    0.474    0.351   23.204
  200.000  244.120   46.135    0.480    0.358   22.133
  200.250  244.254   46.280    0.483    0.353   20.075
  200.500  243.862   46.670    0.454    0.339   18.274
  200.750  243.263   47.567    0.448    0.329   16.603
  201.000  242.665   48.523    0.442    0.345   15.088
  201.250  242.378   48.036    0.440    0.359   18.135
  201.500  242.091   45.984    0.451    0.360   25.593
  201.750  241.075   42.681    0.453    0.362   37.418
  202.000  240.686   42.194    0.453    0.370   48.559
  202.250  239.980   42.524    0.457    0.367   58.586
  202.500  239.171   42.665    0.453    0.362   65.120
  202.750  238.152   39.609    0.436    0.356   67.064
  203.000  237.038   40.440    0.440    0.355   63.590
  203.250  236.646   42.401    0.445    0.357   54.229
  203.500  237.295   41.539    0.432    0.363   45.820
  203.750  239.001   40.176    0.426    0.371   41.018
  204.000  240.908   39.880    0.434    0.375   38.037
  204.250  242.501   40.526    0.445    0.374   35.609
  204.500  244.307   41.169    0.440    0.363   32.659
  204.750  245.801   41.748    0.439    0.361   30.917
  205.000  246.558   42.330    0.443    0.359   30.387
  205.250  247.110   43.413    0.443    0.362   31.055
  205.500  247.029   43.806    0.444    0.371   31.673
  205.750  245.283   43.633    0.448    0.375   32.254
  206.000  242.278   43.336    0.453    0.371   32.291
  206.250  238.232   42.412    0.467    0.363   32.270
  206.500  236.583   41.864    0.475    0.360   32.547
  206.750  234.631   40.127    0.461    0.360   33.199
  207.000  234.447   37.449    0.439    0.361   32.329
  207.250  234.477   36.588    0.427    0.359   32.129
  207.500  234.501   36.728    0.465    0.358   31.989
  207.750  234.426   37.435    0.465    0.358   31.896
  208.000  234.454   37.513    0.464    0.359   31.999
  208.250  234.271   36.650    0.470    0.360   32.273
  208.500  234.511   35.789    0.479    0.361   32.802
  208.750  235.161   37.377    0.483    0.362   33.144
  209.000  236.655   38.207    0.470    0.365   33.121
  209.250  238.146   38.352    0.447    0.359   32.672
  209.500  240.263   37.676    0.433    0.350   32.528
  209.750  243.116   36.875    0.425    0.342   32.386
  210.000  245.651   36.642    0.439    0.338   32.243
  210.250  247.556   37.227    0.459    0.339   32.042
  210.500  249.259   37.246    0.447    0.343   31.729
  210.750  249.815   36.881    0.437    0.344   31.701
  211.000  249.522   36.649    0.434    0.344   31.563
  211.250  249.132   36.914    0.447    0.343   31.423
  211.500  248.849   37.310    0.457    0.338   31.403
  211.750  247.938   36.259    0.454    0.329   31.206
  212.000  246.813   34.957    0.453    0.330   31.252
  212.250  245.585   34.725    0.453    0.341   31.286
  212.500  243.521   36.057    0.456    0.329   31.678
  212.750  241.881   37.202    0.455    0.326   31.891
  213.000  240.650   35.590    0.452    0.334   32.047
  213.250  239.632   33.408    0.452    0.337   32.022
  213.500  238.933   34.307    0.434    0.337   31.885
  213.750  238.545   35.952    0.423    0.336   31.330
  214.000  238.256   37.036    0.420    0.337   30.114
  214.250  238.912   37.489    0.424    0.341   29.374
  214.500  240.194   38.510    0.437    0.342   29.457
  214.750  241.582   38.903    0.463    0.339   31.426
  215.000  243.177   39.360    0.470    0.320   34.794
  215.250  243.931   40.315    0.302    0.273   37.680
  215.500  243.752   36.697    0.213    0.118   38.073
  215.750  242.423   35.834    0.239    0.116   34.985
  216.000  241.821   38.987    0.359    0.203   29.069
  216.250  241.747   43.832    0.457    0.319   26.262
  216.500  242.294   49.492    0.463    0.352   25.003
  216.750  243.268   56.911    0.481    0.352   24.712
  217.000  243.917   62.382    0.475    0.355   24.238
  217.250  243.842   60.142    0.469    0.357   23.379
  217.500  242.721   48.243    0.469    0.363   22.088
  217.750  241.074   43.870    0.474    0.370   19.482
  218.000  239.433   44.264    0.482    0.358   16.276
  218.250  238.515   49.862    0.484    0.321   13.124
  218.500  238.231   53.451    0.466    0.280   13.212
  218.750  239.514   53.593    0.437    0.324   13.278
  219.000  241.840   47.654    0.423    0.348   12.200
  219.250  244.481   47.483    0.437    0.334   11.400
  219.500  246.390   50.449    0.472    0.300    9.923
  219.750  248.614   58.050    0.473    0.278    8.917
  220.000  249.373   62.644    0.449    0.320   10.328
  220.250  248.669   54.007    0.444    0.349   12.980
  220.500  247.653   50.386    0.454    0.358   16.562
  220.750  246.425   48.146    0.463    0.367   18.550
  221.000  245.197   47.289    0.466    0.371   17.858
  221.250  243.761   47.304    0.462    0.364   15.400
  221.500  243.269   47.570    0.468    0.352   12.535
  221.750  243.822   49.093    0.485    0.338    9.866
  222.000  244.580   51.051    0.485    0.321    7.692
  222.250  245.545   57.840    0.469    0.308    6.783
  222.500  246.619   64.945    0.476    0.295    5.763
  222.750  247.482   75.935    0.505    0.293    4.638
  223.000  248.349   86.676    0.537    0.296    3.868
  223.250  248.478   92.653    0.557    0.296    3.368
  223.500  248.716   93.671    0.537    0.291    3.146
  223.750  248.847   91.555    0.504    0.288    3.388
  224.000  249.089   83.606    0.489    0.290    3.968
  224.250  249.116   78.732    0.479    0.292    5.110
  224.500  249.140   74.484    0.466    0.302    8.387
  224.750  249.171   67.852    0.459    0.337   11.088
  225.000  249.512   62.665    0.451    0.364   12.255
  225.250  249.540   60.988    0.448    0.375   11.033
  225.500  248.940   67.841    0.489    0.330    8.523
  225.750  247.502   78.581    0.496    0.296    5.799
  226.000  244.289   72.201    0.459    0.263    7.540
  226.250  241.808   70.714    0.455    0.245    9.302
