~VERSION INFORMATION
 VERS.                 2.0:   CWLS LOG ASCII STANDARD -VERSION 2.0
 WRAP.                  NO:   ONE LINE PER DEPTH STEP
~WELL INFORMATION BLOCK
#MNEM.UNIT           DATA                    DESCRIPTION OF MNEMONIC
#---------    -------------------            -------------------------------
# Generated from Intellog Unique Number	CW_73_75/WELL/2748
WELL.         UNEX ET AL MITSUE 12-20        : Well_name    - WELL
LOC .         00/12-20-073-05W5/0            : Location     - LOCATION
UWI .         00/12-20-073-05W5/0            : Uwi          - UNIQUE WELL ID
ENTR.         JAYE                           : Entered      - ENTERED BY
SRVC.         SCHLUMBERGER                   : Scn          - SERVICE COMPANY
DATE.         15 JAN 77                      : Date         - LOG DATE
STRT.M        365.76                         : top_depth    - START DEPTH
STOP.M        612.76                         : bot_depth    - STOP DEPTH
STEP.M        0.25                           : increment    - STEP LENGTH
 NULL. -999.2500:NULL Value
~CURVE INFORMATION BLOCK
#MNEM UNIT       ERCB CURVE CODE    CURVE DESCRIPTION
#-----------   ------------------   ----------------------------------
DEPT.M        00 001 00 00         : DEPTH        - DEPTH
DPHI.V/V      00 890 00 00         : PHID         - DENSITY POROSITY (SANDSTONE)
NPHI.V/V      00 330 00 00         : PHIN         - NEUTRON POROSITY (SANDSTONE)
GR  .API      00 310 00 00         : GR           - GAMMA RAY
CALI.MM       00 280 01 00         : CAL          - CALIPER
ILD .OHMM     00 120 00 00         : RESD         - DEEP RESISTIVITY (DIL)
~PARAMETER INFORMATION
#MNEM.UNIT           DATA             DESCRIPTION OF MNEMONIC
#---------         -----------     ------------------------------
GL  .M        577.291              : gl           - GROUND LEVEL ELEVATION
EREF.M        581.254              : kb           - ELEVATION OF DEPTH REFERENCE
DATM.M        577.291              : datum        - DATUM ELEVATION
TDD .M        1689.2               : tdd          - TOTAL DEPTH DRILLER
RUN .         ONE                  : Run          - RUN NUMBER
BASE.         EDM                  : Branch       - HOME BASE OF LOGGING UNIT
MATR.         SANDSTONE            : Logunit      - NEUTRON MATRIX
TMAX.C        51.1111              : BHT          - MAXIMUM RECORDED TEMPERATURE
BHTD.M        1688.29              : BHTDEP       - MAXIMUM RECORDED TEMPERATURE
RMT .C        17.7778              : MDTP         - TEMPERATURE OF MUD
MUDD.KG/M     0                    : MWT          - MUD DENSITY
NEUT.         1                    : NEUTRON      - NEUTRON TYPE
RESI.         0                    : RESIST       - RESISTIVITY TYPE
RM  .OHMM     0.75                 : RM           - RESISTIVITY OF MUD
RMC .OHMM     0                    : RMC          - RESISTIVITY OF MUD CAKE
RMF .OHMM     0.55                 : RMF          - RESISTIVITY OF MUD FILTRATE
SUFT.C        0                    : SUFT         - SURFACE TEMPERATURE
~A  DEPTH     PHID     PHIN       GR      CAL     RESD
# ...
  438.760    0.330    0.443   49.905  211.160    4.429
  439.010    0.322    0.449   46.836  210.677    4.381
  439.260    0.319    0.439   44.789  208.934    4.423
  439.510    0.327    0.432   41.993  206.501    4.515
  439.760    0.336    0.436   39.671  204.756    4.685
  440.010    0.331    0.457   41.967  202.319    4.872
  440.260    0.321    0.451   45.284  199.998    4.891
  440.510    0.332    0.440   48.871  198.715    4.619
  440.760    0.321    0.435   53.001  198.236    4.553
  441.010    0.308    0.435   56.996  198.906    4.655
  441.260    0.318    0.439   62.144  201.875    4.438
  441.510    0.316    0.500   70.010  207.146    4.176
  441.760    0.336    0.546   82.968  217.702    3.901
  442.010    0.332    0.570   91.511  232.054    3.698
  442.260    0.327    0.486   84.981  246.294    3.598
  442.510    0.378    0.453   78.585  241.100    3.598
  442.760    0.392    0.424   73.753  213.024    3.707
  443.010    0.304    0.424   70.074  207.484    3.897
  443.260    0.275    0.447   65.988  217.351    4.221
  443.510    0.243    0.454   63.192  210.088    4.664
  443.760    0.278    0.439   61.482  186.841    5.079
  444.010    0.318    0.419   61.538  188.085    5.184
  444.260    0.305    0.460   63.562  200.828    5.034
  444.510    0.309    0.479   67.763  208.510    4.934
  444.760    0.292    0.483   70.058  210.563    4.890
  445.010    0.284    0.471   67.805  211.692    4.855
  445.260    0.266    0.448   65.349  212.474    4.802
  445.510    0.294    0.433   63.912  212.223    4.794
  445.760    0.299    0.438   63.017  212.207    4.786
  446.010    0.297    0.448   63.413  212.533    4.858
  446.260    0.297    0.449   64.757  213.313    4.922
  446.510    0.307    0.439   66.919  214.559    4.924
  446.760    0.314    0.438   68.742  215.574    4.915
  447.010    0.305    0.453   66.760  215.900    4.898
  447.260    0.288    0.456   63.081  212.774    4.899
  447.510    0.286    0.456   60.083  200.339    4.891
  447.760    0.296    0.454   60.884  200.893    4.874
  448.010    0.302    0.452   63.384  212.025    4.857
  448.260    0.317    0.446   65.547  214.532    4.813
  448.510    0.309    0.425   68.115  215.319    4.779
  448.760    0.289    0.418   69.801  215.991    4.779
  449.010    0.268    0.442   69.585  216.772    4.807
  449.260    0.246    0.474   68.691  217.214    4.879
  449.510    0.245    0.461   68.204  217.656    4.953
  449.760    0.255    0.447   69.821  218.784    5.009
  450.010    0.250    0.434   72.117  217.155    5.066
  450.260    0.270    0.433   74.143  202.762    5.114
  450.510    0.259    0.437   76.916  209.066    5.210
  450.760    0.240    0.436   78.736  224.912    5.318
  451.010    0.241    0.455   74.108  217.993    5.429
  451.260    0.268    0.440   68.731  208.430    5.531
  451.510    0.305    0.428   68.243  211.284    5.563
  451.760    0.280    0.421   70.812  219.311    5.523
  452.010    0.268    0.400   74.941  226.536    5.423
  452.260    0.252    0.422   77.645  231.115    5.325
  452.510    0.218    0.436   77.772  234.314    5.219
  452.760    0.217    0.422   74.840  236.826    5.171
  453.010    0.235    0.419   77.137  239.910    5.125
  453.260    0.243    0.413   82.352  241.958    5.116
  453.510    0.211    0.410   86.551  242.169    5.089
  453.760    0.194    0.425   88.984  241.918    5.071
  454.010    0.179    0.442   90.399  241.898    5.063
  454.260    0.199    0.467   92.627  242.679    5.064
  454.510    0.205    0.465   92.480  243.583    5.093
  454.760    0.166    0.422   91.313  245.634    5.122
  455.010    0.167    0.399   89.874  252.283    5.142
  455.260    0.177    0.389   87.826  261.002    5.181
  455.510    0.186    0.406   86.864  245.459    5.240
  455.760    0.164    0.432   88.481  258.774    5.300
  456.010    0.136    0.425   89.149  250.936    5.380
  456.260    0.137    0.432   87.440  258.047    5.481
  456.510    0.181    0.421   82.878  244.573    5.584
  456.760    0.193    0.410   76.687  241.328    5.637
  457.010    0.186    0.421   73.280  241.542    5.607
  457.260    0.198    0.437   75.508  242.212    5.526
  457.510    0.224    0.426   79.231  242.653    5.446
  457.760    0.197    0.418   82.818  243.550    5.347
  458.010    0.166    0.403   81.653  244.105    5.250
  458.260    0.157    0.401   81.030  244.431    5.174
  458.510    0.172    0.411   85.567  244.410    5.137
  458.760    0.173    0.426   88.676  244.274    5.063
  459.010    0.163    0.420   89.006  244.142    5.008
  459.260    0.168    0.412   87.976  243.548    4.917
  459.510    0.155    0.410   87.693  244.789    4.828
  459.760    0.154    0.419   86.662  247.299    4.749
  460.010    0.174    0.433   83.594  250.960    4.663
  460.260    0.200    0.442   78.896  257.955    4.570
  460.510    0.201    0.439   75.830  249.770    4.454
  460.760    0.195    0.426   75.343  244.577    4.333
  461.010    0.189    0.419   71.460  243.521    4.271
  461.260    0.204    0.431   67.306  240.166    4.432
  461.510    0.219    0.434   61.251  228.647    4.800
  461.760    0.247    0.424   61.442  224.144    5.103
  462.010    0.272    0.415   62.721  223.315    5.394
  462.260    0.264    0.400   61.962  223.984    5.619
  462.510    0.274    0.399   58.555  224.773    5.610
  462.760    0.271    0.381   56.776  225.673    5.427
  463.010    0.280    0.374   56.561  225.766    5.193
  463.260    0.287    0.376   58.926  226.779    4.978
  463.510    0.293    0.386   63.940  228.256    4.807
  463.760    0.268    0.397   70.787  232.145    4.634
  464.010    0.244    0.407   76.275  238.564    4.533
  464.260    0.232    0.414   75.516  240.730    4.567
  464.510    0.237    0.423   66.269  233.695    4.847
  464.760    0.248    0.433   58.380  227.583    5.030
  465.010    0.266    0.443   54.429  225.377    5.144
  465.260    0.281    0.448   56.454  225.012    5.221
  465.510    0.264    0.450   60.585  225.105    5.300
  465.760    0.276    0.443   65.258  225.083    5.380
  466.010    0.289    0.432   67.013  225.064    5.461
  466.260    0.294    0.428   67.001  224.814    5.523
  466.510    0.281    0.440   66.579  225.025    5.576
  466.760    0.294    0.426   67.655  225.922    5.608
  467.010    0.276    0.421   68.730  227.284    5.630
  467.260    0.280    0.434   67.700  228.186    5.589
  467.510    0.283    0.443   65.787  229.773    5.458
  467.760    0.266    0.437   63.601  232.973    5.212
  468.010    0.271    0.422   63.929  237.553    5.005
  468.260    0.255    0.407   68.805  241.212    5.043
  468.510    0.232    0.418   73.547  243.722    5.139
  468.760    0.243    0.443   71.024  245.887    5.235
  469.010    0.271    0.430   59.467  237.474    5.305
  469.260    0.279    0.417   52.937  237.103    5.228
  469.510    0.292    0.417   55.507  237.889    4.919
  469.760    0.308    0.424   62.149  239.483    4.672
  470.010    0.311    0.433   67.977  241.991    4.308
  470.260    0.295    0.438   73.125  243.581    4.084
  470.510    0.278    0.441   72.435  242.643    3.908
  470.760    0.288    0.420   70.928  241.351    3.865
  471.010    0.289    0.428   72.750  241.567    3.960
  471.260    0.260    0.447   72.602  240.969    4.304
  471.510    0.248    0.448   72.929  240.489    4.517
  471.760    0.256    0.415   74.412  239.548    4.543
  472.010    0.252    0.406   75.011  239.993    4.494
  472.260    0.257    0.419   69.702  245.144    4.445
  472.510    0.245    0.439   67.451  248.231    4.397
  472.760    0.229    0.454   67.370  251.888    4.333
  473.010    0.224    0.447   67.970  254.859    4.278
  473.260    0.222    0.426   68.160  257.252    4.232
  473.510    0.236    0.417   68.149  256.889    4.209
  473.760    0.258    0.435   67.933  250.200    4.210
  474.010    0.291    0.455   67.719  244.201    4.298
  474.260    0.316    0.456   66.281  237.627    4.468
  474.510    0.329    0.442   63.010  233.352    4.733
  474.760    0.324    0.429   57.361  229.998    5.240
  475.010    0.256    0.403   48.523  227.558    6.603
