~VERSION INFORMATION
 VERS.                 2.0:   CWLS LOG ASCII STANDARD -VERSION 2.0
 WRAP.                  NO:   ONE LINE PER DEPTH STEP
~WELL INFORMATION BLOCK
#MNEM.UNIT           DATA                    DESCRIPTION OF MNEMONIC
#---------    -------------------            -------------------------------
# Generated from Intellog Unique Number	CW_82_90/WELL/994
WELL.         11-14-084-24W4                 : Well_name    - WELL
LOC .         00/11-14-084-24W4/0            : Location     - LOCATION
UWI .         00/11-14-084-24W4/0            : Uwi          - UNIQUE WELL ID
ENTR.         JAYE                           : Entered      - ENTERED BY
SRVC.         SCHLUMBERGER                   : Scn          - SERVICE COMPANY
DATE.         3 FEB 76                       : Date         - LOG DATE
STRT.M        182.88                         : top_depth    - START DEPTH
STOP.M        390.13                         : bot_depth    - STOP DEPTH
STEP.M        0.25                           : increment    - STEP LENGTH
 NULL. -999.2500:NULL Value
~CURVE INFORMATION BLOCK
#MNEM UNIT       ERCB CURVE CODE    CURVE DESCRIPTION
#-----------   ------------------   ----------------------------------
DEPT.M        00 001 00 00         : DEPTH        - DEPTH
CALI.MM       00 280 01 00         : CAL          - CALIPER
GR  .API      00 310 00 00         : GR           - GAMMA RAY
NPHI.V/V      00 330 00 00         : PHIN         - NEUTRON POROSITY (SANDSTONE)
DPHI.V/V      00 890 00 00         : PHID         - DENSITY POROSITY (SANDSTONE)
ILD .OHMM     00 120 00 00         : RESD         - DEEP RESISTIVITY (DIL)
~PARAMETER INFORMATION
#MNEM.UNIT           DATA             DESCRIPTION OF MNEMONIC
#---------         -----------     ------------------------------
GL  .M        562.356              : gl           - GROUND LEVEL ELEVATION
EREF.M        565.099              : kb           - ELEVATION OF DEPTH REFERENCE
DATM.M        562.356              : datum        - DATUM ELEVATION
TDD .M        399.288              : tdd          - TOTAL DEPTH DRILLER
RUN .         ONE                  : Run          - RUN NUMBER
MATR.         SANDSTONE            : Logunit      - NEUTRON MATRIX
TMAX.C        17.2222              : BHT          - MAXIMUM RECORDED TEMPERATURE
BHTD.M        399.288              : BHTDEP       - MAXIMUM RECORDED TEMPERATURE
RMT .C        7.22222              : MDTP         - TEMPERATURE OF MUD
MUDD.KG/M     0                    : MWT          - MUD DENSITY
NEUT.         1                    : NEUTRON      - NEUTRON TYPE
RESI.         0                    : RESIST       - RESISTIVITY TYPE
RM  .OHMM     6.7                  : RM           - RESISTIVITY OF MUD
RMC .OHMM     0                    : RMC          - RESISTIVITY OF MUD CAKE
RMF .OHMM     0                    : RMF          - RESISTIVITY OF MUD FILTRATE
SUFT.C        -17.7778             : SUFT         - SURFACE TEMPERATURE
~A  DEPTH      CAL       GR     PHIN     PHID     RESD
# ...
  328.880  199.290   85.400    0.350    0.141   16.808
  329.130  198.584   86.144    0.349    0.185   17.499
  329.380  198.701   85.050    0.347    0.171   20.803
  329.630  198.824   82.672    0.341    0.170   23.430
  329.880  199.047   82.070    0.331    0.155   23.983
  330.130  199.167   76.563    0.309    0.092   23.264
  330.380  200.323   73.754    0.286    0.024   21.527
  330.630  201.482   76.767    0.266    0.005   18.593
  330.880  202.538   83.027    0.318    0.029   16.952
  331.130  203.177   87.693    0.344    0.084   16.410
  331.380  203.714   86.233    0.364    0.163   16.551
  331.630  203.830   84.099    0.366    0.167   16.846
  331.880  204.263   83.862    0.361    0.171   17.119
  332.130  204.591   84.118    0.350    0.167   16.082
  332.380  204.921   84.250    0.327    0.152   14.127
  332.630  206.491   85.425    0.355    0.141   12.643
  332.880  207.861   86.536    0.379    0.153   11.570
  333.130  208.292   88.202    0.395    0.156   11.011
  333.380  208.616   89.375    0.393    0.154   10.617
  333.630  209.777   87.791    0.399    0.153   10.221
  333.880  210.206   84.678    0.410    0.137    9.948
  334.130  209.605   83.216    0.410    0.103    9.577
  334.380  209.930   83.167    0.406    0.076    9.251
  334.630  211.501   85.073    0.414    0.124    8.956
  334.880  213.180   91.640    0.435    0.143    9.015
  335.130  213.611   94.469    0.423    0.140    9.797
  335.380  213.626   93.988    0.409    0.137   10.910
  335.630  213.334   88.852    0.405    0.135   11.859
  335.880  212.932   85.552    0.404    0.118   12.187
  336.130  212.537   84.642    0.391    0.062   12.314
  336.380  212.862   86.859    0.382    0.036   12.749
  336.630  212.778   92.811    0.385    0.098   13.099
  336.880  211.756   93.496    0.407    0.118   13.871
  337.130  210.838   92.157    0.400    0.129   14.305
  337.380  210.130   86.040    0.389    0.164   14.729
  337.630  209.423   83.539    0.385    0.164   14.689
  337.880  208.609   83.305    0.386    0.144   13.296
  338.130  208.623   84.353    0.386    0.108   12.466
  338.380  208.639   89.632    0.388    0.079   11.888
  338.630  208.448   91.971    0.395    0.139   11.548
  338.880  207.844   92.411    0.402    0.163   11.243
  339.130  207.239   92.481    0.410    0.158   11.066
  339.380  206.943   93.533    0.406    0.146   10.954
  339.630  206.958   94.218    0.407    0.141   11.028
  339.880  207.080   96.003    0.412    0.136   11.227
  340.130  207.718   95.769    0.449    0.123   11.343
  340.380  208.151   94.491    0.444    0.148   11.744
  340.630  208.062   86.597    0.430    0.139   12.136
  340.880  208.495   86.667    0.428    0.061   12.378
  341.130  208.513   89.740    0.411    0.045   12.509
  341.380  208.113   90.608    0.399    0.125   12.405
  341.630  207.819   91.047    0.412    0.149   12.121
  341.880  207.211   94.429    0.417    0.147   11.886
  342.130  206.398   97.318    0.420    0.144   11.590
  342.380  206.417   98.984    0.425    0.135   11.410
  342.630  206.742   99.543    0.422    0.132   11.402
  342.880  206.449   99.677    0.414    0.147   11.803
  343.130  206.154   97.968    0.399    0.154   12.591
  343.380  205.445   91.912    0.390    0.161   13.761
  343.630  204.943   89.778    0.382    0.164   15.296
  343.880  204.648   88.442    0.378    0.163   17.256
  344.130  204.253   83.303    0.378    0.159   19.911
  344.380  204.267   77.921    0.383    0.157   22.931
  344.630  204.077   74.744    0.381    0.148   25.448
  344.880  203.779   68.627    0.369    0.097   25.709
  345.130  202.760   69.065    0.348    0.006   25.399
  345.380  201.844   75.018    0.245   -0.008   22.604
  345.630  201.651   78.214    0.304    0.048   18.667
  345.880  202.502   81.657    0.357    0.113   17.116
  346.130  202.409   84.179    0.355    0.149   16.205
  346.380  201.493   83.269    0.354    0.153   16.034
  346.630  200.472   81.011    0.360    0.168   16.082
  346.880  200.077   79.797    0.379    0.172   16.807
  347.130  199.883   78.213    0.379    0.172   17.995
  347.380  199.280   76.568    0.378    0.172   20.002
  347.630  199.296   73.146    0.371    0.175   22.273
  347.880  200.036   71.012    0.352    0.186   24.297
  348.130  200.468   68.511    0.343    0.177   24.782
  348.380  201.004   66.988    0.292    0.129   25.657
  348.630  202.162   65.404    0.271    0.096   27.013
  348.880  202.594   64.494    0.300    0.070   29.690
  349.130  202.718   63.891    0.321    0.133   34.905
  349.380  203.044   62.246    0.315    0.159   43.401
  349.630  203.682   59.561    0.299    0.134   57.076
  349.880  204.426   56.262    0.245    0.092   54.940
  350.130  204.647   57.314    0.216   -0.001   44.193
  350.380  204.978   62.961    0.221    0.002   31.662
  350.630  205.099   70.568    0.309    0.041   20.241
  350.880  205.425   75.664    0.335    0.122   17.453
  351.130  205.858   76.470    0.378    0.197   16.546
  351.380  205.458   75.377    0.370    0.198   15.868
  351.630  205.475   74.715    0.366    0.192   15.533
  351.880  204.764   74.600    0.366    0.176   16.785
  352.130  205.612   73.998    0.367    0.170   20.523
  352.380  205.837   70.882    0.365    0.150   29.357
  352.630  206.065   66.297    0.347    0.108   32.700
  352.880  206.393   58.708    0.315    0.072   31.763
  353.130  207.029   64.111    0.248    0.026   28.963
  353.380  206.628   69.573    0.244    0.002   23.345
  353.630  207.482   74.241    0.285    0.062   21.282
  353.880  207.492   77.987    0.327    0.128   17.607
  354.130  206.889   78.916    0.372    0.160   16.023
  354.380  206.386   79.113    0.362    0.144   15.027
  354.630  205.675   80.835    0.358    0.131   14.303
  354.880  205.696   85.321    0.360    0.112   13.791
  355.130  206.126   85.695    0.363    0.113   12.787
  355.380  206.553   86.564    0.382    0.147   12.355
  355.630  207.609   88.719    0.389    0.137   12.390
  355.880  208.039   88.545    0.396    0.139   12.976
  356.130  208.263   82.979    0.401    0.126   13.380
  356.380  208.488   80.661    0.388    0.127   13.801
  356.630  208.504   79.688    0.363    0.108   14.000
  356.880  208.833   78.657    0.339    0.076   13.908
  357.130  208.642   80.199    0.353    0.086   13.364
  357.380  208.770   81.556    0.372    0.118   13.104
  357.630  209.090   83.713    0.377    0.128   12.810
  357.880  209.108   84.703    0.390    0.121   12.747
  358.130  209.124   80.054    0.394    0.106   12.664
  358.380  209.658   82.517    0.366    0.078   12.236
  358.630  209.887   85.712    0.368    0.026   11.801
  358.880  210.213   88.846    0.373   -0.003   11.336
  359.130  210.227   85.240    0.398    0.111   10.994
  359.380  210.348   77.899    0.390    0.093   11.108
  359.630  210.676   75.578    0.363    0.078   11.037
  359.880  212.257   85.025    0.320    0.061   10.683
  360.130  212.686   94.410    0.332    0.004   10.245
  360.380  212.800  100.791    0.359    0.112    9.916
  360.630  213.441  103.989    0.372    0.127    9.529
  360.880  214.286  105.162    0.382    0.126    9.222
  361.130  214.620  106.091    0.400    0.143    8.859
  361.380  215.254  105.304    0.407    0.147    8.433
  361.630  216.620  103.170    0.401    0.143    8.116
  361.880  218.921  102.873    0.384    0.134    7.799
  362.130  220.597  102.331    0.382    0.121    7.705
  362.380  221.442  100.809    0.391    0.110    7.932
  362.630  221.769   97.695    0.403    0.113    8.463
  362.880  221.686   91.332    0.405    0.116    9.250
  363.130  220.870   84.846    0.395    0.121   11.392
  363.380  212.066   66.107    0.287    0.122   13.572
  363.630  212.085   60.417    0.243    0.088   15.310
  363.880  213.969   55.525    0.221    0.051   17.177
  364.130  214.194   52.595    0.194    0.010   19.128
  364.380  214.209   59.284    0.221    0.001   20.944
  364.630  212.565   82.209    0.296    0.027   23.109
  364.880  210.092   84.547    0.353    0.066   25.588
  365.130  208.033   80.269    0.385    0.165   29.358
