~VERSION INFORMATION
 VERS.                 2.0:   CWLS LOG ASCII STANDARD -VERSION 2.0
 WRAP.                  NO:   ONE LINE PER DEPTH STEP
~WELL INFORMATION BLOCK
#MNEM.UNIT           DATA                    DESCRIPTION OF MNEMONIC
#---------    -------------------            -------------------------------
# Generated from Intellog Unique Number	CS_67_68/WELL/842
WELL.         CANADA-CITIES SERVICE LTD      : Well_name    - WELL
LOC .         00/11-25-068-14W4/0            : Location     - LOCATION
UWI .         00/11-25-068-14W4/0            : Uwi          - UNIQUE WELL ID
ENTR.         SP                             : Entered      - ENTERED BY
SRVC.         SCHLUMBERGER                   : Scn          - SERVICE COMPANY
STRT.M        259.08                         : top_depth    - START DEPTH
STOP.M        456.830                        : bot_depth    - STOP DEPTH
STEP.M        0.25                           : increment    - STEP LENGTH
 NULL. -999.2500:NULL Value
~CURVE INFORMATION BLOCK
#MNEM UNIT       ERCB CURVE CODE    CURVE DESCRIPTION
#-----------   ------------------   ----------------------------------
DEPT.M        00 001 00 00         : DEPTH        - DEPTH
GR  .API      00 310 00 00         : GR           - GAMMA RAY
DPHI.V/V      00 890 00 00         : PHID         - DENSITY POROSITY (SANDSTONE)
NPHI.V/V      00 330 00 00         : PHIN         - NEUTRON POROSITY (SANDSTONE)
ILD .OHMM     00 120 00 00         : RESD         - DEEP RESISTIVITY (DIL)
~PARAMETER INFORMATION
#MNEM.UNIT           DATA             DESCRIPTION OF MNEMONIC
#---------         -----------     ------------------------------
GL  .M        552.907              : gl           - GROUND LEVEL ELEVATION
EREF.M        555.346              : kb           - ELEVATION OF DEPTH REFERENCE
DATM.M        552.907              : datum        - DATUM ELEVATION
TDD .M        458.114              : tdd          - TOTAL DEPTH DRILLER
RUN .         ONE                  : Run          - RUN NUMBER
ENG .         BILL                 : Engineer     - RECORDING ENGINEER
WIT .         JIM                  : Witness      - WITNESSED BY
MUD .         GEL                  : Mud_type     - MUD TYPE
MATR.         SANDSTONE            : Logunit      - NEUTRON MATRIX
TMAX.C        14.4444              : BHT          - MAXIMUM RECORDED TEMPERATURE
BHTD.M        458.114              : BHTDEP       - MAXIMUM RECORDED TEMPERATURE
MATR.         1                    : LOGUNIT      - NEUTRON MATRIX
RMT .C        25                   : MDTP         - TEMPERATURE OF MUD
NEUT.         1                    : NEUTRON      - NEUTRON TYPE
RESI.         0                    : RESIST       - RESISTIVITY TYPE
RMC .OHMM     0.25                 : RMC          - RESISTIVITY OF MUD CAKE
RMF .OHMM     0.25                 : RMF          - RESISTIVITY OF MUD FILTRATE
SUFT.C        15                   : SUFT         - SURFACE TEMPERATURE
~A  DEPTH       GR     PHID     PHIN     RESD
# ...
  433.080   88.241    0.198    0.344    6.555
  433.330   90.014    0.180    0.343    6.485
  433.580   84.191    0.162    0.345    6.426
  433.830   74.039    0.158    0.344    6.404
  434.080   70.024    0.169    0.337    6.384
  434.330   77.258    0.182    0.332    6.362
  434.580   83.271    0.190    0.343    6.393
  434.830   87.641    0.196    0.358    6.522
  435.080   87.147    0.196    0.369    6.789
  435.330   83.724    0.188    0.381    6.990
  435.580   79.546    0.178    0.373    7.179
  435.830   82.873    0.162    0.364    7.348
  436.080   83.206    0.147    0.358    7.431
  436.330   80.236    0.173    0.352    7.485
  436.580   78.585    0.189    0.347    7.427
  436.830   73.758    0.176    0.348    7.371
  437.080   64.578    0.173    0.347    7.354
  437.330   58.602    0.201    0.356    7.406
  437.580   53.703    0.226    0.376    7.462
  437.830   49.183    0.238    0.393    7.573
  438.080   49.374    0.247    0.383    7.714
  438.330   56.199    0.256    0.370    7.728
  438.580   63.115    0.249    0.367    7.693
  438.830   68.223    0.237    0.375    7.503
  439.080   73.146    0.241    0.389    7.175
  439.330   77.167    0.228    0.392    6.797
  439.580   82.025    0.204    0.382    6.588
  439.830   85.636    0.188    0.376    6.310
  440.080   90.345    0.181    0.360    6.099
  440.330   96.477    0.179    0.352    5.882
  440.580   99.775    0.383    0.386    5.581
  440.830   90.677    0.488    0.408    5.320
  441.080   86.098    0.540    0.458    5.074
  441.330   93.331    0.400    0.600    4.951
  441.580   88.262    0.275    0.653    5.197
  441.830   83.290    0.226    0.664    5.406
  442.080   89.641    0.194    0.650    5.560
  442.330   93.517    0.182    0.325    5.704
  442.580   91.624    0.173    0.353    5.694
  442.830   88.181    0.190    0.365    5.630
  443.080   86.769    0.179    0.369    5.460
  443.330   84.286    0.160    0.362    5.244
  443.580   81.704    0.138    0.359    5.114
  443.830   81.971    0.192    0.358    5.163
  444.080   85.642    0.217    0.356    5.366
  444.330   90.997    0.208    0.354    5.553
  444.580   99.228    0.190    0.354    5.707
  444.830  103.921    0.170    0.359    5.881
  445.080  109.957    0.152    0.366    6.015
  445.330  113.634    0.146    0.374    6.076
  445.580  107.833    0.148    0.386    6.068
  445.830   94.903    0.159    0.389    5.999
  446.080   86.582    0.176    0.372    5.926
  446.330   81.150    0.192    0.351    5.837
  446.580   76.699    0.195    0.338    5.715
  446.830   70.817    0.184    0.328    5.562
  447.080   64.855    0.224    0.334    5.385
  447.330   63.109    0.253    0.338    5.316
  447.580   65.432    0.232    0.337    5.387
  447.830   69.270    0.223    0.335    5.630
  448.080   72.599    0.211    0.334    5.818
  448.330   74.897    0.197    0.337    5.987
  448.580   77.567    0.186    0.335    6.201
  448.830   81.934    0.172    0.326    6.456
  449.080   87.037    0.164    0.342    6.636
  449.330   88.690    0.160    0.377    6.653
  449.580   80.675    0.157    0.396    6.542
  449.830   79.013    0.170    0.394    6.427
  450.080   74.177    0.182    0.395    6.312
  450.330   66.258    0.192    0.397    6.111
  450.580   59.441    0.208    0.401    5.777
  450.830   66.098    0.220    0.415    4.960
  451.080   80.074    0.290    0.429    4.334
  451.330   88.573    0.308    0.450    3.884
  451.580   89.442    0.344    0.444    3.679
  451.830   91.283    0.326    0.422    3.363
  452.080   88.003    0.301    0.406    3.067
  452.330   88.701    0.291    0.396    2.773
  452.580   89.240    0.286    0.381    2.608
  452.830   89.856    0.285    0.374    2.407
  453.080   90.479    0.282    0.376    2.251
  453.330   90.338    0.279    0.456    2.303
  453.580   89.693    0.274    0.526    2.562
  453.830   89.633    0.279    0.569    2.843
  454.080   89.738    0.266    0.589    3.165
  454.330   89.769    0.250    0.586    3.438
  454.580   89.871    0.213    0.584    3.666
  454.830   89.990    0.161    0.582    3.779
  455.080   90.029    0.232    0.580    3.981
  455.330   89.791    0.253    0.578    4.201
  455.580   89.718    0.239    0.576    4.590
  455.830   89.872    0.173    0.576    4.581
  456.080   89.941    0.086    0.576    4.566
  456.330   90.034    0.043    0.577    4.551
  456.580   90.239    0.018    0.577    4.546
  456.830   90.643    0.002    0.578    4.510
