~VERSION INFORMATION
 VERS.                 2.0:   CWLS LOG ASCII STANDARD -VERSION 2.0
 WRAP.                  NO:   ONE LINE PER DEPTH STEP
~WELL INFORMATION BLOCK
#MNEM.UNIT           DATA                    DESCRIPTION OF MNEMONIC
#---------    -------------------            -------------------------------
# Generated from Intellog Unique Number	CS_67_68/WELL/829
WELL.         SUNCOR                         : Well_name    - WELL
LOC .         00/11-10-068-18W4/0            : Location     - LOCATION
UWI .         00/11-10-068-18W4/0            : Uwi          - UNIQUE WELL ID
ENTR.         SP                             : Entered      - ENTERED BY
SRVC.         SCHLUMBERGER                   : Scn          - SERVICE COMPANY
STRT.M        275                            : top_depth    - START DEPTH
STOP.M        500                            : bot_depth    - STOP DEPTH
STEP.M        0.25                           : increment    - STEP LENGTH
 NULL. -999.2500:NULL Value
~CURVE INFORMATION BLOCK
#MNEM UNIT       ERCB CURVE CODE    CURVE DESCRIPTION
#-----------   ------------------   ----------------------------------
DEPT.M        00 001 00 00         : DEPTH        - DEPTH
ILD .OHMM     00 120 00 00         : RESD         - DEEP RESISTIVITY (DIL)
DPHI.V/V      00 890 00 00         : PHID         - DENSITY POROSITY (LIMESTONE)
NPHI.V/V      00 330 00 00         : PHIN         - NEUTRON POROSITY (LIMESTONE)
GR  .API      00 310 00 00         : GR           - GAMMA RAY
~PARAMETER INFORMATION
#MNEM.UNIT           DATA             DESCRIPTION OF MNEMONIC
#---------         -----------     ------------------------------
GL  .M        556                  : gl           - GROUND LEVEL ELEVATION
EREF.M        559.4                : kb           - ELEVATION OF DEPTH REFERENCE
DATM.M        556                  : datum        - DATUM ELEVATION
TDD .M        537                  : tdd          - TOTAL DEPTH DRILLER
RUN .         ONE                  : Run          - RUN NUMBER
ENG .         BILL                 : Engineer     - RECORDING ENGINEER
WIT .         JIM                  : Witness      - WITNESSED BY
MUD .         GEL                  : Mud_type     - MUD TYPE
MATR.         LIMESTONE            : Logunit      - NEUTRON MATRIX
TMAX.C        21                   : BHT          - MAXIMUM RECORDED TEMPERATURE
BHTD.M        527                  : BHTDEP       - MAXIMUM RECORDED TEMPERATURE
MATR.         1                    : LOGUNIT      - NEUTRON MATRIX
RMT .C        25                   : MDTP         - TEMPERATURE OF MUD
NEUT.         1                    : NEUTRON      - NEUTRON TYPE
RESI.         0                    : RESIST       - RESISTIVITY TYPE
RMC .OHMM     0.25                 : RMC          - RESISTIVITY OF MUD CAKE
RMF .OHMM     0.25                 : RMF          - RESISTIVITY OF MUD FILTRATE
SUFT.C        15                   : SUFT         - SURFACE TEMPERATURE
~A  DEPTH     RESD     PHID     PHIN       GR
# ...
  318.500    2.518    0.218    0.497  103.862
  318.750    2.543    0.207    0.507   99.786
  319.000    2.568    0.209    0.524   98.213
  319.250    2.622    0.221    0.533   98.536
  319.500    2.688    0.211    0.540  100.570
  319.750    2.725    0.210    0.557  103.031
  320.000    2.752    0.209    0.538  102.744
  320.250    2.774    0.207    0.528  101.968
  320.500    2.791    0.203    0.526  102.231
  320.750    2.829    0.207    0.527  103.715
  321.000    2.873    0.213    0.519  105.992
  321.250    2.912    0.205    0.507  107.173
  321.500    2.963    0.215    0.495  106.882
  321.750    3.077    0.199    0.511  103.235
  322.000    3.244    0.152    0.490   99.646
  322.250    3.307    0.122    0.452   96.060
  322.500    3.346    0.132    0.430   94.975
  322.750    3.316    0.149    0.426  102.388
  323.000    3.244    0.156    0.437  105.459
  323.250    3.144    0.170    0.442  105.415
  323.500    3.064    0.190    0.449  105.066
  323.750    3.021    0.203    0.461  105.879
  324.000    3.011    0.213    0.482  106.263
  324.250    3.029    0.207    0.502  106.157
  324.500    3.030    0.200    0.492  105.809
  324.750    3.049    0.200    0.481  105.826
  325.000    3.051    0.196    0.475  107.492
  325.250    3.058    0.190    0.488  109.774
  325.500    3.060    0.188    0.507  110.461
  325.750    3.061    0.193    0.519  110.539
  326.000    3.056    0.202    0.521  110.007
  326.250    3.058    0.208    0.513  107.641
  326.500    3.054    0.207    0.511  103.687
  326.750    3.061    0.204    0.515  100.894
  327.000    3.062    0.209    0.496  100.668
  327.250    3.047    0.214    0.475  101.845
  327.500    3.025    0.207    0.464   99.603
  327.750    2.982    0.197    0.453   97.420
  328.000    2.950    0.191    0.448  102.634
  328.250    2.940    0.199    0.470  104.971
  328.500    2.931    0.192    0.496  105.477
  328.750    2.932    0.183    0.484   97.184
  329.000    2.967    0.202    0.431   91.276
  329.250    3.041    0.239    0.403   85.549
  329.500    3.212    0.252    0.394   88.438
  329.750    3.444    0.250    0.396   91.329
  330.000    3.524    0.243    0.396   90.673
  330.250    3.480    0.244    0.397   89.899
  330.500    3.411    0.240    0.396   89.794
  330.750    3.355    0.246    0.388   89.629
  331.000    3.414    0.250    0.380   89.338
  331.250    3.633    0.275    0.391   87.645
  331.500    3.844    0.301    0.431   82.347
  331.750    4.091    0.304    0.468   76.805
  332.000    4.193    0.297    0.422   72.300
  332.250    4.164    0.295    0.416   68.835
  332.500    4.021    0.294    0.406   77.833
  332.750    3.882    0.275    0.389   88.361
  333.000    3.784    0.258    0.374   95.893
  333.250    3.750    0.250    0.388   99.702
  333.500    3.745    0.237    0.392   99.229
  333.750    3.754    0.220    0.385   98.695
  334.000    3.820    0.202    0.388  102.319
  334.250    3.952    0.235    0.407  106.245
  334.500    4.120    0.263    0.427  107.609
  334.750    4.344    0.289    0.442  107.136
  335.000    4.494    0.255    0.424  108.926
  335.250    4.668    0.222    0.393  108.944
  335.500    4.812    0.211    0.395  101.325
  335.750    4.924    0.213    0.389   93.583
  336.000    4.917    0.220    0.386   86.084
  336.250    4.765    0.247    0.390   70.887
  336.500    4.183    0.271    0.379   55.140
  336.750    3.517    0.286    0.369   48.009
  337.000    3.181    0.296    0.363   44.361
  337.250    2.904    0.301    0.365   42.547
  337.500    2.726    0.306    0.365   49.590
  337.750    2.623    0.278    0.370   55.961
  338.000    2.760    0.233    0.365   63.128
  338.250    2.964    0.207    0.353   67.238
  338.500    3.269    0.190    0.344   69.211
  338.750    3.564    0.231    0.355   70.877
  339.000    3.701    0.252    0.369   73.583
  339.250    3.837    0.258    0.379   78.980
  339.500    4.091    0.243    0.385   83.946
  339.750    4.402    0.219    0.383   86.895
  340.000    4.764    0.197    0.381   89.296
  340.250    5.117    0.179    0.385   93.470
  340.500    5.445    0.434    0.396   91.103
  340.750    5.806    0.494    0.443   77.983
  341.000    5.995    0.557    0.492   65.109
  341.250    6.066    0.616    0.538   51.745
  341.500    5.979    0.270    0.603   60.744
  341.750    5.741    0.204    0.535   75.365
  342.000    5.251    0.194    0.497   86.258
  342.250    4.995    0.196    0.458   92.813
  342.500    4.841    0.204    0.457   86.293
  342.750    4.843    0.213    0.450   81.362
  343.000    4.909    0.223    0.439   80.646
  343.250    4.949    0.207    0.420   83.963
  343.500    4.988    0.178    0.408   87.958
  343.750    5.019    0.195    0.414   90.538
  344.000    5.021    0.205    0.420   92.142
  344.250    5.024    0.201    0.425   89.715
  344.500    4.998    0.192    0.428   88.205
  344.750    4.945    0.185    0.433   91.707
  345.000    4.892    0.186    0.438   93.986
  345.250    4.840    0.191    0.463   95.101
  345.500    4.824    0.203    0.466   94.264
  345.750    4.835    0.213    0.457   92.204
  346.000    4.901    0.221    0.469   88.130
  346.250    5.015    0.194    0.460   84.847
  346.500    5.112    0.155    0.438   81.808
  346.750    5.299    0.103    0.417   79.564
  347.000    5.243    0.081    0.405   85.387
  347.250    4.822    0.139    0.425   95.242
  347.500    4.536    0.155    0.441  102.163
  347.750    4.290    0.145    0.453  106.825
  348.000    4.277    0.138    0.459  110.141
  348.250    4.376    0.175    0.466  116.269
  348.500    4.536    0.196    0.435  120.807
  348.750    4.782    0.195    0.409  115.326
  349.000    4.976    0.184    0.393  109.849
  349.250    5.110    0.186    0.411  107.723
  349.500    5.210    0.196    0.404  105.541
  349.750    5.222    0.199    0.385  106.662
  350.000    5.224    0.193    0.379  108.203
  350.250    5.227    0.193    0.397  108.893
  350.500    5.219    0.200    0.391  106.589
  350.750    5.222    0.192    0.385  104.590
  351.000    5.176    0.199    0.397  102.408
  351.250    5.130    0.205    0.409  100.287
  351.500    5.094    0.202    0.414  101.100
  351.750    5.031    0.199    0.411  104.233
  352.000    4.894    0.197    0.419  107.798
  352.250    4.708    0.199    0.427  110.377
  352.500    4.580    0.195    0.429  114.001
  352.750    4.556    0.179    0.427  116.829
  353.000    4.593    0.180    0.422  119.106
  353.250    4.638    0.197    0.413  120.651
  353.500    4.684    0.199    0.410  118.530
  353.750    4.731    0.197    0.419  110.910
  354.000    4.741    0.194    0.423  107.445
  354.250    4.726    0.172    0.410  106.669
  354.500    4.720    0.161    0.393  111.512
  354.750    4.669    0.178    0.384  114.402
  355.000    4.577    0.180    0.375  109.900
  355.250    4.511    0.178    0.384  104.905
  355.500    4.388    0.167    0.411  113.843
  355.750    4.135    0.153    0.430  124.067
  356.000    3.818    0.156    0.456  127.381
  356.250    3.666    0.183    0.479  127.460
  356.500    3.599    0.204    0.441  121.735
  356.750    3.561    0.188    0.423  105.561
  357.000    3.644    0.196    0.436   96.474
  357.250    3.707    0.204    0.447   89.708
  357.500    3.758    0.211    0.446   82.760
  357.750    3.788    0.223    0.435   79.906
  358.000    3.811    0.212    0.429   84.570
  358.250    3.914    0.208    0.428   87.642
  358.500    4.027    0.212    0.422   91.144
  358.750    4.183    0.226    0.413   91.830
  359.000    4.344    0.267    0.420   81.766
  359.250    4.436    0.447    0.561   75.367
  359.500    4.565    0.425    0.604   74.713
  359.750    4.533    0.308    0.538   87.012
  360.000    4.451    0.269    0.415   92.467
  360.250    4.363    0.273    0.383   86.558
  360.500    4.292    0.276    0.373   81.688
  360.750    4.303    0.162    0.394   78.100
  361.000    4.435    0.141    0.317   72.132
  361.250    5.048    0.124    0.296   72.517
  361.500    5.607    0.220    0.339   76.441
  361.750    5.547    0.240    0.385   82.204
