~VERSION INFORMATION
 VERS.                 2.0:   CWLS LOG ASCII STANDARD -VERSION 2.0
 WRAP.                  NO:   ONE LINE PER DEPTH STEP
~WELL INFORMATION BLOCK
#MNEM.UNIT           DATA                    DESCRIPTION OF MNEMONIC
#---------    -------------------            -------------------------------
# Generated from Intellog Unique Number	CS_71_72/WELL/870
WELL.         AEC IPIATIK KIRBY              : Well_name    - WELL
LOC .         00/10-25-071-05W4/0            : Location     - LOCATION
UWI .         00/10-25-071-05W4/0            : Uwi          - UNIQUE WELL ID
ENTR.         SP                             : Entered      - ENTERED BY
SRVC.         SCHLUMBERGER                   : Scn          - SERVICE COMPANY
STRT.M        300                            : top_depth    - START DEPTH
STOP.M        520                            : bot_depth    - STOP DEPTH
STEP.M        0.25                           : increment    - STEP LENGTH
 NULL. -999.2500:NULL Value
~CURVE INFORMATION BLOCK
#MNEM UNIT       ERCB CURVE CODE    CURVE DESCRIPTION
#-----------   ------------------   ----------------------------------
DEPT.M        00 001 00 00         : DEPTH        - DEPTH
GR  .API      00 310 00 00         : GR           - GAMMA RAY
NPHI.V/V      00 330 00 00         : PHIN         - NEUTRON POROSITY (LIMESTONE)
DPHI.V/V      00 890 00 00         : PHID         - DENSITY POROSITY (LIMESTONE)
ILD .OHMM     00 120 00 00         : RESD         - DEEP RESISTIVITY (DIL)
~PARAMETER INFORMATION
#MNEM.UNIT           DATA             DESCRIPTION OF MNEMONIC
#---------         -----------     ------------------------------
GL  .M        681.4                : gl           - GROUND LEVEL ELEVATION
EREF.M        685.4                : kb           - ELEVATION OF DEPTH REFERENCE
DATM.M        681.4                : datum        - DATUM ELEVATION
TDD .M        543.5                : tdd          - TOTAL DEPTH DRILLER
RUN .         ONE                  : Run          - RUN NUMBER
ENG .         BILL                 : Engineer     - RECORDING ENGINEER
WIT .         JIM                  : Witness      - WITNESSED BY
MUD .         GEL                  : Mud_type     - MUD TYPE
MATR.         LIMESTONE            : Logunit      - NEUTRON MATRIX
TMAX.C        20                   : BHT          - MAXIMUM RECORDED TEMPERATURE
BHTD.M        543.5                : BHTDEP       - MAXIMUM RECORDED TEMPERATURE
MATR.         1                    : LOGUNIT      - NEUTRON MATRIX
RMT .C        25                   : MDTP         - TEMPERATURE OF MUD
NEUT.         1                    : NEUTRON      - NEUTRON TYPE
RESI.         0                    : RESIST       - RESISTIVITY TYPE
RMC .OHMM     0.25                 : RMC          - RESISTIVITY OF MUD CAKE
RMF .OHMM     0.25                 : RMF          - RESISTIVITY OF MUD FILTRATE
SUFT.C        15                   : SUFT         - SURFACE TEMPERATURE
~A  DEPTH       GR     PHIN     PHID     RESD
# ...
  430.500   88.398    0.488    0.238    5.964
  430.750   90.372    0.496    0.237    5.934
  431.000   89.192    0.486    0.242    5.994
  431.250   85.529    0.464    0.254    6.043
  431.500   82.652    0.450    0.263    6.093
  431.750   83.105    0.452    0.263    6.271
  432.000   74.585    0.470    0.196    7.023
  432.250   66.616    0.482    0.064    8.787
  432.500   60.823    0.384    0.025   12.443
  432.750   56.186    0.202    0.003   16.500
  433.000   59.552    0.182   -0.012   20.413
  433.250   66.565    0.222    0.010   20.198
  433.500   70.902    0.287    0.067   14.774
  433.750   74.273    0.332    0.132   10.706
  434.000   79.826    0.395    0.282    8.039
  434.250   86.775    0.448    0.271    7.002
  434.500   88.992    0.469    0.256    6.723
  434.750   92.606    0.454    0.270    6.518
  435.000   98.165    0.448    0.274    6.522
  435.250  100.680    0.440    0.248    6.526
  435.500  102.110    0.437    0.238    6.458
  435.750  101.716    0.443    0.236    6.342
  436.000   96.110    0.456    0.231    6.147
  436.250   90.560    0.445    0.227    5.903
  436.500   86.529    0.454    0.238    5.775
  436.750   81.713    0.448    0.246    5.485
  437.000   77.804    0.445    0.253    5.416
  437.250   75.225    0.455    0.245    5.359
  437.500   69.499    0.441    0.194    5.527
  437.750   66.011    0.430    0.156    5.752
  438.000   68.110    0.422    0.143    5.954
  438.250   70.752    0.418    0.160    6.014
  438.500   74.680    0.429    0.161    6.052
  438.750   78.240    0.433    0.152    6.057
  439.000   79.223    0.425    0.185    5.971
  439.250   82.346    0.428    0.228    5.798
  439.500   85.293    0.438    0.247    4.902
  439.750   83.689    0.436    0.250    4.391
  440.000   83.237    0.459    0.256    3.535
  440.250   88.125    0.484    0.263    3.399
  440.500   93.493    0.511    0.270    3.023
  440.750   97.169    0.529    0.272    2.839
  441.000   97.442    0.527    0.270    2.949
  441.250   91.538    0.530    0.275    2.890
  441.500   87.381    0.512    0.292    3.249
  441.750   83.893    0.483    0.269    3.743
  442.000   84.837    0.465    0.246    4.231
  442.250   86.884    0.470    0.232    4.748
  442.500   87.635    0.483    0.224    4.961
  442.750   88.819    0.474    0.219    5.011
  443.000   85.214    0.454    0.222    4.978
  443.250   84.337    0.439    0.223    4.952
  443.500   88.984    0.427    0.218    4.882
  443.750   91.988    0.422    0.220    4.698
  444.000   94.751    0.429    0.225    4.735
  444.250   92.901    0.443    0.233    5.004
  444.500   78.923    0.453    0.264    6.018
  444.750   69.191    0.418    0.287    7.601
  445.000   64.796    0.409    0.301    9.367
  445.250   62.644    0.357    0.251   10.571
  445.500   62.985    0.298    0.128   11.170
  445.750   64.348    0.313    0.108   11.540
  446.000   65.657    0.345    0.181   10.774
  446.250   68.055    0.372    0.216    8.545
  446.500   75.127    0.394    0.228    7.454
  446.750   82.564    0.419    0.230    5.955
  447.000   86.964    0.448    0.217    4.802
  447.250   89.844    0.480    0.205    3.991
  447.500   92.556    0.501    0.202    3.636
  447.750   93.615    0.502    0.200    3.491
  448.000   93.828    0.507    0.197    3.429
  448.250   93.982    0.526    0.210    3.406
  448.500   95.352    0.526    0.220    3.585
  448.750   96.720    0.514    0.227    3.561
  449.000   98.334    0.502    0.223    3.551
  449.250   99.090    0.495    0.221    3.600
  449.500   97.669    0.499    0.224    3.670
  449.750   92.363    0.525    0.232    4.057
  450.000   85.787    0.543    0.235    4.527
  450.250   79.874    0.463    0.244    5.244
  450.500   72.868    0.397    0.257    5.884
  450.750   67.626    0.382    0.268    6.590
  451.000   67.597    0.364    0.270    7.203
  451.250   73.701    0.352    0.274    7.597
  451.500   76.581    0.376    0.270    7.574
  451.750   80.132    0.433    0.257    6.672
  452.000   83.685    0.463    0.246    5.756
  452.250   84.507    0.494    0.239    5.146
  452.500   78.054    0.428    0.247    5.995
  452.750   73.473    0.372    0.254    8.348
  453.000   65.931    0.333    0.203   10.803
  453.250   61.286    0.281    0.151   12.398
  453.500   61.261    0.309    0.180   13.299
  453.750   64.507    0.341    0.245   13.740
  454.000   66.608    0.359    0.265   13.931
  454.250   64.392    0.365    0.203   13.993
  454.500   57.696    0.361    0.156   13.847
  454.750   62.826    0.345    0.139   13.421
  455.000   68.380    0.367    0.169   12.672
  455.250   72.048    0.386    0.218   12.054
  455.500   75.361    0.376    0.246   11.467
  455.750   75.755    0.369    0.253   11.072
  456.000   76.577    0.371    0.250   10.895
  456.250   79.344    0.379    0.246   10.841
  456.500   77.249    0.384    0.245   11.035
  456.750   66.789    0.368    0.252   11.659
  457.000   57.360    0.329    0.278   12.887
  457.250   49.808    0.308    0.305   14.957
  457.500   41.593    0.305    0.332   17.689
  457.750   35.438    0.340    0.333   19.736
  458.000   40.513    0.374    0.315   21.571
  458.250   43.270    0.403    0.305   23.578
  458.500   45.669    0.409    0.303   25.246
  458.750   46.672    0.411    0.307   26.989
  459.000   44.278    0.409    0.303   27.300
  459.250   45.343    0.407    0.300   28.160
  459.500   46.590    0.407    0.305   27.660
  459.750   45.532    0.411    0.317   23.691
  460.000   46.717    0.410    0.329   19.395
  460.250   54.334    0.407    0.321   17.763
  460.500   62.072    0.404    0.299   14.652
  460.750   69.873    0.416    0.282   12.781
  461.000   75.422    0.462    0.267   10.307
  461.250   81.281    0.483    0.250   10.199
  461.500   78.341    0.424    0.239   11.510
  461.750   73.038    0.381    0.290   12.769
  462.000   72.407    0.350    0.281   14.738
  462.250   69.101    0.328    0.264   16.724
  462.500   62.762    0.311    0.264   18.943
  462.750   61.582    0.296    0.302   21.537
  463.000   68.179    0.280    0.323   23.538
  463.250   70.144    0.294    0.300   25.154
  463.500   69.144    0.298    0.280   26.234
  463.750   73.608    0.301    0.293   26.850
  464.000   67.210    0.305    0.300   26.467
  464.250   59.843    0.279    0.283   26.043
  464.500   60.909    0.246    0.324   28.574
  464.750   59.183    0.238    0.323   31.702
  465.000   53.148    0.234    0.331   34.646
  465.250   54.158    0.239    0.356   37.657
  465.500   57.704    0.309    0.339   37.331
  465.750   60.952    0.330    0.312   28.244
  466.000   60.925    0.345    0.295   19.528
  466.250   64.177    0.358    0.287   15.456
  466.500   67.974    0.348    0.289   13.285
  466.750   68.487    0.343    0.268   11.923
  467.000   57.722    0.360    0.256   11.601
  467.250   53.509    0.366    0.272   11.762
  467.500   56.395    0.376    0.285   12.290
  467.750   59.642    0.382    0.286   13.383
  468.000   55.187    0.388    0.293   14.302
  468.250   54.551    0.379    0.300   16.053
  468.500   52.887    0.369    0.296   17.052
  468.750   50.437    0.373    0.290   19.718
  469.000   48.769    0.387    0.292   23.363
  469.250   47.831    0.404    0.296   27.472
  469.500   52.777    0.411    0.285   35.553
  469.750   59.422    0.408    0.282   48.491
  470.000   64.734    0.400    0.288   57.453
  470.250   58.702    0.390    0.294   63.267
  470.500   51.882    0.384    0.301   66.481
  470.750   51.792    0.389    0.301   64.073
  471.000   55.406    0.396    0.295   57.617
  471.250   58.050    0.396    0.290   49.711
  471.500   54.625    0.394    0.292   42.570
  471.750   47.684    0.394    0.285   47.234
  472.000   43.769    0.408    0.276   55.962
  472.250   40.102    0.419    0.290   77.193
  472.500   37.164    0.410    0.311   98.221
  472.750   34.351    0.386    0.299  115.288
  473.000   32.561    0.374    0.293  123.441
  473.250   31.381    0.379    0.293   95.701
  473.500   35.174    0.390    0.305   67.929
  473.750   40.729    0.398    0.315   55.607
