~VERSION INFORMATION
 VERS.                 2.0:   CWLS LOG ASCII STANDARD -VERSION 2.0
 WRAP.                  NO:   ONE LINE PER DEPTH STEP
~WELL INFORMATION BLOCK
#MNEM.UNIT           DATA                    DESCRIPTION OF MNEMONIC
#---------    -------------------            -------------------------------
# Generated from Intellog Unique Number	CS_77_79/WELL/937
WELL.         AMOCO B-1 LEISMER              : Well_name    - WELL
LOC .         00/10-09-078-09W4/0            : Location     - LOCATION
UWI .         00/10-09-078-09W4/0            : Uwi          - UNIQUE WELL ID
ENTR.         JHS                            : Entered      - ENTERED BY
SRVC.         SCHLUMBERGER                   : Scn          - SERVICE COMPANY
STRT.M        179.832                        : top_depth    - START DEPTH
STOP.M        402.082                        : bot_depth    - STOP DEPTH
STEP.M        0.25                           : increment    - STEP LENGTH
 NULL. -999.2500:NULL Value
~CURVE INFORMATION BLOCK
#MNEM UNIT       ERCB CURVE CODE    CURVE DESCRIPTION
#-----------   ------------------   ----------------------------------
DEPT.M        00 001 00 00         : DEPTH        - DEPTH
RHOB.KG/M3    00 350 00 00         : DENS         - BULK DENSITY
GR  .API      00 310 00 00         : GR           - GAMMA RAY
DPHI.V/V      00 890 00 00         : PHID         - DENSITY POROSITY (SANDSTONE)
NPHI.V/V      00 330 00 00         : PHIN         - NEUTRON POROSITY (SANDSTONE)
ILD .OHMM     00 120 00 00         : RESD         - DEEP RESISTIVITY (DIL)
~PARAMETER INFORMATION
#MNEM.UNIT           DATA             DESCRIPTION OF MNEMONIC
#---------         -----------     ------------------------------
GL  .M        599.953              : gl           - GROUND LEVEL ELEVATION
EREF.M        602.59               : kb           - ELEVATION OF DEPTH REFERENCE
DATM.M        602.59               : datum        - DATUM ELEVATION
TDD .M        417.576              : tdd          - TOTAL DEPTH DRILLER
RUN .         ONE                  : Run          - RUN NUMBER
ENG .         BILL                 : Engineer     - RECORDING ENGINEER
WIT .         JIM                  : Witness      - WITNESSED BY
MUD .         GEL                  : Mud_type     - MUD TYPE
MATR.         SANDSTONE            : Logunit      - NEUTRON MATRIX
TMAX.C        22.2222              : BHT          - MAXIMUM RECORDED TEMPERATURE
BHTD.M        417.576              : BHTDEP       - MAXIMUM RECORDED TEMPERATURE
MATR.         1                    : LOGUNIT      - NEUTRON MATRIX
RMT .C        25                   : MDTP         - TEMPERATURE OF MUD
NEUT.         1                    : NEUTRON      - NEUTRON TYPE
RESI.         0                    : RESIST       - RESISTIVITY TYPE
RMC .OHMM     0.25                 : RMC          - RESISTIVITY OF MUD CAKE
RMF .OHMM     0.25                 : RMF          - RESISTIVITY OF MUD FILTRATE
SUFT.C        15                   : SUFT         - SURFACE TEMPERATURE
~A  DEPTH     DENS       GR     PHID     PHIN     RESD
# ...
  289.332   -0.000   82.082    0.241    0.493    6.736
  289.582   -0.000   81.957    0.257    0.511    6.600
  289.832    0.000   84.853    0.276    0.536    6.516
  290.082    0.000   88.126    0.274    0.530    6.507
  290.332    0.000   87.950    0.262    0.465    6.376
  290.582   -0.000   86.982    0.267    0.439    6.298
  290.832   -0.000   84.865    0.274    0.459    6.237
  291.082    0.000   89.617    0.268    0.469    6.162
  291.332    0.000   96.632    0.263    0.460    5.867
  291.582    0.000   97.580    0.248    0.500    5.726
  291.832   -0.000   94.805    0.225    0.525    5.640
  292.082   -0.000   97.072    0.218    0.489    5.636
  292.332   -0.000   96.896    0.235    0.469    5.639
  292.582    0.000   94.733    0.242    0.476    5.563
  292.832    0.000   96.217    0.241    0.471    5.170
  293.082    0.000   95.452    0.234    0.469    4.662
  293.332   -0.000   97.248    0.258    0.552    3.767
  293.582   -0.000  100.627    0.278    0.598    2.988
  293.832   -0.000  102.135    0.269    0.613    2.428
  294.082    0.000  100.470    0.278    0.613    2.164
  294.332    0.000   99.030    0.279    0.626    2.003
  294.582   -0.000   98.847    0.301    0.624    2.023
  294.832   -0.000   94.891    0.308    0.620    2.083
  295.082   -0.000   91.295    0.292    0.599    2.275
  295.332    0.000   84.547    0.270    0.537    2.631
  295.582    0.000   88.123    0.258    0.489    3.234
  295.832    0.000   85.832    0.274    0.464    4.194
  296.082   -0.000   83.624    0.298    0.464    5.095
  296.332   -0.000   81.796    0.278    0.421    6.235
  296.582   -0.000   80.213    0.305    0.386    6.860
  296.832    0.000   81.785    0.343    0.355    7.357
  297.082    0.000   80.753    0.357    0.344    7.349
  297.332   -0.000   80.879    0.358    0.353    6.991
  297.582   -0.000   80.950    0.343    0.402    6.602
  297.832   -0.000   80.139    0.315    0.458    6.107
  298.082    0.000   77.046    0.297    0.467    5.840
  298.332    0.000   76.499    0.271    0.453    5.832
  298.582    0.000   77.246    0.264    0.477    5.827
  298.832   -0.000   73.095    0.246    0.471    5.918
  299.082   -0.000   71.829    0.263    0.439    6.103
  299.332   -0.000   72.301    0.276    0.430    6.291
  299.582    0.000   76.057    0.272    0.443    6.290
  299.832    0.000   76.337    0.291    0.463    6.303
  300.082    0.000   76.402    0.320    0.495    6.183
  300.332   -0.000   76.803    0.288    0.507    6.192
  300.582   -0.000   76.665    0.282    0.491    6.224
  300.832    0.000   73.056    0.280    0.472    6.307
  301.082    0.000   69.507    0.263    0.478    6.500
  301.332    0.000   71.935    0.248    0.466    6.689
  301.582   -0.000   73.456    0.260    0.474    6.578
  301.832   -0.000   72.317    0.279    0.477    6.441
  302.082   -0.000   71.010    0.296    0.468    6.299
  302.332    0.000   68.958    0.317    0.488    6.011
  302.582    0.000   67.152    0.335    0.501    5.833
  302.832    0.000   65.246    0.350    0.513    5.781
  303.082   -0.000   64.458    0.366    0.526    5.610
  303.332   -0.000   60.987    0.375    0.497    5.480
  303.582    0.000   59.382    0.360    0.494    5.387
  303.832    0.000   59.734    0.353    0.486    5.390
  304.082    0.000   61.815    0.359    0.468    5.392
  304.332   -0.000   64.811    0.364    0.455    5.394
  304.582   -0.000   64.791    0.351    0.472    5.387
  304.832   -0.000   65.493    0.354    0.501    5.510
  305.082    0.000   64.031    0.342    0.508    5.504
  305.332    0.000   62.027    0.335    0.497    5.505
  305.582    0.000   63.228    0.349    0.471    5.502
  305.832   -0.000   62.781    0.355    0.450    5.481
  306.082   -0.000   61.650    0.360    0.425    5.687
  306.332   -0.000   59.001    0.346    0.425    6.177
  306.582    0.000   54.227    0.288    0.397    6.889
  306.832    0.000   49.380    0.237    0.296    7.481
  307.082   -0.000   54.110    0.171    0.240    7.695
  307.332   -0.000   60.850    0.114    0.245    7.634
  307.582   -0.000   62.889    0.229    0.444    7.188
  307.832    0.000   63.186    0.348    0.474    6.460
  308.082    0.000   67.309    0.365    0.472    5.838
  308.332    0.000   67.459    0.366    0.511    5.535
  308.582   -0.000   63.567    0.364    0.474    5.455
  308.832   -0.000   67.296    0.368    0.465    5.344
  309.082   -0.000   66.996    0.359    0.478    5.357
  309.332    0.000   63.452    0.361    0.486    5.435
  309.582    0.000   61.712    0.364    0.494    5.454
  309.832   -0.000   62.433    0.360    0.504    5.570
  310.082   -0.000   65.284    0.368    0.471    5.582
  310.332   -0.000   69.643    0.359    0.462    5.463
  310.582    0.000   70.364    0.356    0.498    5.483
  310.832    0.000   69.558    0.359    0.531    5.362
  311.082    0.000   66.298    0.345    0.545    5.494
  311.332   -0.000   62.659    0.347    0.501    5.487
  311.582   -0.000   65.130    0.374    0.484    5.495
  311.832   -0.000   66.189    0.361    0.486    5.504
  312.082    0.000   64.594    0.348    0.493    5.605
  312.332    0.000   63.663    0.347    0.482    5.597
  312.582    0.000   62.707    0.340    0.502    5.715
  312.832   -0.000   60.379    0.336    0.485    5.978
  313.082   -0.000   57.532    0.334    0.485    6.254
  313.332    0.000   56.250    0.294    0.415    6.626
  313.582    0.000   55.848    0.242    0.344    6.479
  313.832    0.000   58.705    0.209    0.346    6.359
  314.082   -0.000   63.733    0.259    0.499    6.074
  314.332   -0.000   66.986    0.331    0.511    5.783
  314.582   -0.000   67.019    0.333    0.514    5.497
  314.832    0.000   65.429    0.351    0.499    5.250
  315.082    0.000   65.328    0.349    0.499    5.245
  315.332    0.000   66.740    0.352    0.516    5.247
  315.582   -0.000   68.366    0.358    0.501    5.177
  315.832   -0.000   68.449    0.349    0.504    5.153
  316.082    0.000   65.514    0.354    0.539    5.257
  316.332    0.000   63.775    0.352    0.513    5.258
  316.582    0.000   62.271    0.356    0.500    5.262
  316.832   -0.000   60.841    0.368    0.492    5.265
  317.082   -0.000   62.425    0.368    0.532    5.272
  317.332   -0.000   65.133    0.372    0.571    5.288
  317.582    0.000   66.674    0.378    0.545    5.376
  317.832    0.000   68.805    0.369    0.538    5.380
  318.082    0.000   68.598    0.345    0.528    5.389
  318.332   -0.000   68.574    0.345    0.512    5.488
  318.582   -0.000   69.753    0.339    0.524    5.487
  318.832   -0.000   68.759    0.339    0.548    5.490
  319.082    0.000   69.632    0.356    0.573    5.493
  319.332    0.000   70.564    0.349    0.524    5.503
  319.582   -0.000   67.850    0.332    0.489    5.403
  319.832   -0.000   59.723    0.336    0.475    5.481
  320.082   -0.000   62.333    0.336    0.487    5.415
  320.332    0.000   65.777    0.323    0.546    5.514
  320.582    0.000   67.139    0.332    0.543    5.568
  320.832    0.000   68.465    0.328    0.520    5.618
  321.082   -0.000   69.861    0.303    0.495    5.623
  321.332   -0.000   71.733    0.306    0.495    5.626
  321.582   -0.000   73.460    0.323    0.539    5.629
  321.832    0.000   75.567    0.325    0.526    5.633
  322.082    0.000   77.320    0.333    0.509    5.635
  322.332    0.000   76.963    0.319    0.502    5.640
  322.582   -0.000   75.680    0.315    0.492    5.711
  322.832   -0.000   73.863    0.334    0.521    5.717
  323.082    0.001   72.288    0.336    0.501    5.657
  323.332    0.023   73.623    0.337    0.470    5.449
  323.582    0.133   79.583    0.314    0.447    5.223
  323.832   -0.809   83.317    0.295    0.489    5.093
  324.082  -15.446   86.393    0.273    0.536    4.873
  324.332  -57.015   83.787    0.266    0.502    4.891
  324.582 1755.150   76.922    0.309    0.472    4.964
  324.832 2105.830   74.909    0.317    0.453    5.132
  325.082 2192.780   73.640    0.302    0.456    5.185
  325.332 2251.590   72.323    0.269    0.442    5.505
  325.582 2321.710   67.972    0.227    0.381    6.205
