~VERSION INFORMATION
 VERS.                 2.0:   CWLS LOG ASCII STANDARD -VERSION 2.0
 WRAP.                  NO:   ONE LINE PER DEPTH STEP
~WELL INFORMATION BLOCK
#MNEM.UNIT           DATA                    DESCRIPTION OF MNEMONIC
#---------    -------------------            -------------------------------
# Generated from Intellog Unique Number	CS_77_79/WELL/973
WELL.         FRANCANA LEISMERE              : Well_name    - WELL
LOC .         00/10-27-078-07W4/0            : Location     - LOCATION
UWI .         00/10-27-078-07W4/0            : Uwi          - UNIQUE WELL ID
ENTR.         JHS                            : Entered      - ENTERED BY
SRVC.         SCHLUMBERGER                   : Scn          - SERVICE COMPANY
STRT.M        110                            : top_depth    - START DEPTH
STOP.M        345                            : bot_depth    - STOP DEPTH
STEP.M        0.25                           : increment    - STEP LENGTH
 NULL. -999.2500:NULL Value
~CURVE INFORMATION BLOCK
#MNEM UNIT       ERCB CURVE CODE    CURVE DESCRIPTION
#-----------   ------------------   ----------------------------------
DEPT.M        00 001 00 00         : DEPTH        - DEPTH
DPHI.V/V      00 890 00 00         : PHID         - DENSITY POROSITY (LIMESTONE)
NPHI.V/V      00 330 00 00         : PHIN         - NEUTRON POROSITY (LIMESTONE)
GR  .API      00 310 00 00         : GR           - GAMMA RAY
ILD .OHMM     00 120 00 00         : RESD         - DEEP RESISTIVITY (DIL)
~PARAMETER INFORMATION
#MNEM.UNIT           DATA             DESCRIPTION OF MNEMONIC
#---------         -----------     ------------------------------
GL  .M        548.21               : gl           - GROUND LEVEL ELEVATION
EREF.M        555.72               : kb           - ELEVATION OF DEPTH REFERENCE
DATM.M        555.72               : datum        - DATUM ELEVATION
TDD .M        351                  : tdd          - TOTAL DEPTH DRILLER
RUN .         ONE                  : Run          - RUN NUMBER
ENG .         BILL                 : Engineer     - RECORDING ENGINEER
WIT .         JIM                  : Witness      - WITNESSED BY
MUD .         GEL                  : Mud_type     - MUD TYPE
MATR.         LIMESTONE            : Logunit      - NEUTRON MATRIX
TMAX.C        13                   : BHT          - MAXIMUM RECORDED TEMPERATURE
BHTD.M        351                  : BHTDEP       - MAXIMUM RECORDED TEMPERATURE
MATR.         1                    : LOGUNIT      - NEUTRON MATRIX
RMT .C        25                   : MDTP         - TEMPERATURE OF MUD
NEUT.         1                    : NEUTRON      - NEUTRON TYPE
RESI.         0                    : RESIST       - RESISTIVITY TYPE
RMC .OHMM     0.25                 : RMC          - RESISTIVITY OF MUD CAKE
RMF .OHMM     0.25                 : RMF          - RESISTIVITY OF MUD FILTRATE
SUFT.C        15                   : SUFT         - SURFACE TEMPERATURE
~A  DEPTH     PHID     PHIN       GR     RESD
  110.000    0.300    0.589   84.489    3.006
  110.250    0.309    0.572   84.511    3.010
  110.500    0.331    0.559   84.538    3.015
  110.750    0.316    0.547   85.788    2.963
  111.000    0.321    0.578   88.877    2.968
  111.250    0.301    0.587   89.514    2.971
  111.500    0.297    0.594   87.704    2.922
  111.750    0.323    0.598   85.280    2.871
  112.000    0.323    0.586   85.917    2.821
  112.250    0.316    0.602   88.396    2.772
  112.500    0.321    0.613   89.644    2.778
  112.750    0.324    0.617   88.447    2.730
  113.000    0.319    0.618   87.863    2.733
  113.250    0.324    0.619   88.493    2.737
  113.500    0.345    0.619   90.968    2.691
  113.750    0.340    0.619   93.447    2.644
  114.000    0.334    0.619   92.859    2.648
  114.250    0.328    0.619   91.045    2.602
  114.500    0.313    0.618   89.237    2.606
  114.750    0.306    0.608   89.872    2.562
  115.000    0.321    0.592   86.839    2.565
  115.250    0.315    0.583   83.801    2.618
  115.500    0.300    0.593   83.218    2.723
  115.750    0.293    0.610   85.085    2.779
  116.000    0.290    0.616   84.496    2.837
  116.250    0.277    0.602   83.294    2.843
  116.500    0.274    0.576   81.487    2.846
  116.750    0.294    0.560   80.282    2.851
  117.000    0.284    0.559   79.700    2.856
  117.250    0.290    0.569   81.563    2.860
  117.500    0.287    0.575   82.200    2.919
  117.750    0.273    0.563   84.679    2.980
  118.000    0.265    0.532   87.149    3.041
  118.250    0.258    0.524   89.012    3.105
  118.500    0.267    0.512   90.871    3.169
  118.750    0.245    0.498   92.126    3.234
  119.000    0.209    0.486   90.310    3.302
  119.250    0.183    0.490   87.887    3.369
  119.500    0.262    0.499   86.083    3.573
  119.750    0.277    0.499   87.328    3.647
  120.000    0.270    0.496   92.254    3.793
  120.250    0.257    0.494   94.116    3.871
  120.500    0.261    0.500   92.917    3.877
  120.750    0.263    0.494   89.884    3.739
  121.000    0.261    0.479   88.074    3.606
  121.250    0.279    0.485   88.708    3.543
  121.500    0.277    0.516   90.576    3.483
  121.750    0.263    0.537   89.374    3.554
  122.000    0.270    0.537   89.397    3.769
  122.250    0.257    0.505   91.871    3.846
  122.500    0.262    0.489   93.739    3.853
  122.750    0.259    0.479   92.537    3.787
  123.000    0.237    0.501   93.786    3.721
  123.250    0.250    0.537   94.426    3.870
  123.500    0.264    0.558   91.999    5.251
  123.750    0.257    0.524   84.677    6.358
  124.000    0.253    0.495   71.239    7.414
  124.250    0.228    0.444   60.855    7.422
  124.500    0.213    0.424   55.984    7.023
  124.750    0.244    0.429   57.238    6.397
  125.000    0.229    0.424   61.544    5.505
  125.250    0.255    0.448   72.587    4.921
  125.500    0.257    0.478   83.023    4.745
  125.750    0.257    0.496   88.562    4.843
  126.000    0.259    0.504   87.362    5.332
  126.250    0.250    0.514   81.873    6.457
  126.500    0.267    0.482   73.942    7.526
  126.750    0.299    0.445   72.131    9.467
  127.000    0.288    0.460   81.340   10.230
  127.250    0.282    0.476   87.493   10.643
  127.500    0.311    0.493   90.578   10.858
  127.750    0.288    0.510   91.214   11.296
  128.000    0.285    0.480   90.018   12.679
  128.250    0.278    0.473   88.818   14.227
  128.500    0.280    0.470   85.785   16.902
  128.750    0.289    0.473   84.589   20.468
  129.000    0.294    0.478   86.444   22.538
  129.250    0.295    0.466   84.635   25.297
  129.500    0.297    0.443   75.474   28.928
  129.750    0.303    0.413   45.503   30.095
  130.000    0.319    0.391   30.837   30.144
  130.250    0.316    0.401   30.250   29.619
  130.500    0.324    0.414   30.890   28.559
  130.750    0.325    0.428   34.588   26.024
  131.000    0.322    0.428   39.514   23.268
  131.250    0.339    0.435   41.380   22.004
  131.500    0.346    0.450   48.136   20.428
  131.750    0.334    0.459   49.381   19.328
  132.000    0.329    0.463   52.471   18.634
  132.250    0.340    0.472   61.679   17.634
  132.500    0.328    0.476   69.662   17.331
  132.750    0.281    0.456   73.975   17.691
  133.000    0.277    0.425   74.001   18.404
  133.250    0.278    0.424   70.353   18.784
  133.500    0.253    0.420   67.929   18.813
  133.750    0.262    0.435   67.954   17.797
  134.000    0.283    0.432   75.329   16.522
  134.250    0.278    0.425   79.028   15.630
  134.500    0.280    0.435   80.891   15.078
  134.750    0.280    0.433   83.361   14.540
  135.000    0.257    0.420   85.837   14.019
  135.250    0.253    0.415   85.253   13.772
  135.500    0.218    0.429   84.669   13.536
  135.750    0.190    0.426   87.755   13.300
  136.000    0.190    0.423   87.168   14.651
  136.250    0.247    0.434   79.848   15.828
  136.500    0.259    0.417   73.137   16.157
  136.750    0.261    0.417   68.268   15.289
  137.000    0.280    0.437   68.293   14.740
  137.250    0.297    0.435   71.376   13.943
  137.500    0.282    0.412   73.856   13.194
  137.750    0.244    0.403   75.104   14.809
  138.000    0.244    0.417   72.680   17.264
  138.250    0.273    0.431   67.192   19.371
  138.500    0.296    0.437   54.364   20.931
  138.750    0.324    0.456   50.105   22.189
  139.000    0.334    0.471   54.415   23.086
  139.250    0.337    0.442   61.786   23.565
  139.500    0.334    0.438   66.100   23.157
  139.750    0.341    0.451   70.410   22.754
  140.000    0.332    0.457   75.332   22.366
  140.250    0.320    0.464   78.421   21.569
  140.500    0.310    0.459   77.220   21.596
  140.750    0.304    0.452   69.901   21.233
  141.000    0.317    0.437   67.479   21.264
  141.250    0.332    0.430   68.727   21.700
  141.500    0.338    0.433   66.919   21.734
  141.750    0.311    0.424   63.884   22.187
  142.000    0.297    0.434   63.918   22.216
  142.250    0.287    0.437   63.933   21.834
  142.500    0.271    0.432   63.352   21.457
  142.750    0.281    0.418   62.765   20.700
  143.000    0.306    0.419   64.013   20.735
  143.250    0.287    0.427   66.487   20.770
  143.500    0.286    0.430   65.291   20.395
  143.750    0.298    0.418   63.479   20.820
  144.000    0.271    0.408   59.215   20.851
  144.250    0.289    0.417   61.077   20.885
  144.500    0.310    0.429   66.612   21.325
  144.750    0.328    0.440   68.481   20.947
  145.000    0.325    0.440   66.667   20.587
  145.250    0.316    0.431   64.863   19.475
  145.500    0.310    0.425   66.106   17.743
  145.750    0.273    0.424   68.580   15.266
  146.000    0.256    0.425   72.277   11.076
  146.250    0.246    0.437   75.980    7.736
  146.500    0.235    0.473   81.512    6.171
  146.750    0.219    0.515   91.334    5.411
  147.000    0.210    0.515  101.767    5.121
  147.250    0.195    0.494  105.466    4.939
  147.500    0.211    0.501  105.492    4.852
  147.750    0.168    0.484  107.357    4.859
  148.000    0.148    0.491  104.319    4.777
  148.250    0.164    0.498  103.118    4.876
  148.500    0.200    0.496  103.149    5.472
  148.750    0.235    0.516  100.727    6.880
  149.000    0.271    0.530   98.300   10.069
  149.250    0.290    0.471   94.656   15.310
  149.500    0.330    0.450   85.494   19.250
  149.750    0.344    0.441   69.602   22.875
  150.000    0.340    0.431   51.873   24.247
  150.250    0.341    0.429   50.064   23.836
  150.500    0.339    0.435   57.441   23.864
  150.750    0.319    0.450   58.085   23.453
  151.000    0.326    0.442   57.495   22.619
  151.250    0.335    0.451   58.738   20.996
  151.500    0.335    0.473   64.888   20.637
  151.750    0.313    0.448   69.811   20.279
  152.000    0.300    0.442   74.122   20.706
  152.250    0.311    0.438   72.929   21.134
  152.500    0.315    0.437   71.111   21.162
  152.750    0.299    0.438   67.466   20.027
  153.000    0.302    0.431   63.823   18.591
  153.250    0.304    0.426   63.840   16.613
