~VERSION INFORMATION
 VERS.                 2.0:   CWLS LOG ASCII STANDARD -VERSION 2.0
 WRAP.                  NO:   ONE LINE PER DEPTH STEP
~WELL INFORMATION BLOCK
#MNEM.UNIT           DATA                    DESCRIPTION OF MNEMONIC
#---------    -------------------            -------------------------------
# Generated from Intellog Unique Number	CS_73_76/WELL/804
WELL.         PACIFIC PHILLIPS AEC WIAU      : Well_name    - WELL
LOC .         00/10-01-073-09W4/0            : Location     - LOCATION
UWI .         00/10-01-073-09W4/0            : Uwi          - UNIQUE WELL ID
ENTR.         SP                             : Entered      - ENTERED BY
SRVC.         SCHLUMBERGER                   : Scn          - SERVICE COMPANY
STRT.M        320                            : top_depth    - START DEPTH
STOP.M        530                            : bot_depth    - STOP DEPTH
STEP.M        0.25                           : increment    - STEP LENGTH
 NULL. -999.2500:NULL Value
~CURVE INFORMATION BLOCK
#MNEM UNIT       ERCB CURVE CODE    CURVE DESCRIPTION
#-----------   ------------------   ----------------------------------
DEPT.M        00 001 00 00         : DEPTH        - DEPTH
ILD .OHMM     00 120 00 00         : RESD         - DEEP RESISTIVITY (DIL)
DPHI.V/V      00 890 00 00         : PHID         - DENSITY POROSITY (LIMESTONE)
NPHI.V/V      00 330 00 00         : PHIN         - NEUTRON POROSITY (LIMESTONE)
GR  .API      00 310 00 00         : GR           - GAMMA RAY
~PARAMETER INFORMATION
#MNEM.UNIT           DATA             DESCRIPTION OF MNEMONIC
#---------         -----------     ------------------------------
GL  .M        682.9                : gl           - GROUND LEVEL ELEVATION
EREF.M        685.9                : kb           - ELEVATION OF DEPTH REFERENCE
DATM.M        682.9                : datum        - DATUM ELEVATION
TDD .M        544                  : tdd          - TOTAL DEPTH DRILLER
RUN .         ONE                  : Run          - RUN NUMBER
ENG .         BILL                 : Engineer     - RECORDING ENGINEER
WIT .         JIM                  : Witness      - WITNESSED BY
MUD .         GEL                  : Mud_type     - MUD TYPE
MATR.         LIMESTONE            : Logunit      - NEUTRON MATRIX
TMAX.C        16                   : BHT          - MAXIMUM RECORDED TEMPERATURE
BHTD.M        544                  : BHTDEP       - MAXIMUM RECORDED TEMPERATURE
MATR.         1                    : LOGUNIT      - NEUTRON MATRIX
RMT .C        25                   : MDTP         - TEMPERATURE OF MUD
NEUT.         1                    : NEUTRON      - NEUTRON TYPE
RESI.         0                    : RESIST       - RESISTIVITY TYPE
RMC .OHMM     0.25                 : RMC          - RESISTIVITY OF MUD CAKE
RMF .OHMM     0.25                 : RMF          - RESISTIVITY OF MUD FILTRATE
SUFT.C        15                   : SUFT         - SURFACE TEMPERATURE
~A  DEPTH     RESD     PHID     PHIN       GR
# ...
  363.500    8.984    0.244    0.484  107.308
  363.750    9.501    0.239    0.509  104.890
  364.000   10.046    0.227    0.519  101.263
  364.250   10.427    0.244    0.507  100.659
  364.500   10.626    0.256    0.492  100.055
  364.750   11.032    0.256    0.484   98.242
  365.000   11.039    0.256    0.476   95.824
  365.250   11.048    0.259    0.466   99.455
  365.500   11.258    0.267    0.453  101.875
  365.750   11.471    0.253    0.442  101.272
  366.000   11.689    0.238    0.437   98.854
  366.250   11.916    0.235    0.456   92.808
  366.500   11.922    0.238    0.490   90.995
  366.750   11.927    0.244    0.507   89.786
  367.000   11.936    0.261    0.495   90.997
  367.250   11.940    0.256    0.492   93.418
  367.500   11.947    0.247    0.488   94.024
  367.750   11.736    0.244    0.482   93.421
  368.000   11.320    0.244    0.486   93.422
  368.250   11.116    0.252    0.487   96.448
  368.500   10.721    0.250    0.487   99.473
  368.750   10.338    0.244    0.495  101.289
  369.000   10.156    0.252    0.513  100.082
  369.250    9.975    0.235    0.521   98.873
  369.500    9.619    0.224    0.504   97.665
  369.750    8.940    0.238    0.469   97.666
  370.000    8.009    0.225    0.470  102.507
  370.250    7.044    0.208    0.478  106.742
  370.500    6.195    0.198    0.488  108.557
  370.750    5.975    0.204    0.498   97.672
  371.000    7.187    0.245    0.494   85.576
  371.250    8.487    0.256    0.461   83.158
  371.500   11.197    0.255    0.455   81.345
  371.750   12.282    0.265    0.458   77.114
  372.000   13.228    0.282    0.470   76.510
  372.250   13.732    0.289    0.483   77.721
  372.500   13.998    0.270    0.476   78.327
  372.750   13.751    0.277    0.479   78.934
  373.000   13.506    0.279    0.482   79.539
  373.250   13.024    0.279    0.473   80.751
  373.500   12.791    0.279    0.488   82.567
  373.750   12.113    0.270    0.499   84.987
  374.000   11.897    0.258    0.485   86.198
  374.250   11.685    0.244    0.478   84.990
  374.500   11.482    0.238    0.476   86.807
  374.750   11.485    0.236    0.459   88.017
  375.000   11.924    0.233    0.442   89.228
  375.250   12.845    0.233    0.433   86.810
  375.500   13.333    0.244    0.427   83.788
  375.750   13.587    0.266    0.415   81.975
  376.000   14.368    0.254    0.422   79.557
  376.250   14.640    0.268    0.425   79.558
  376.500   14.120    0.278    0.416   82.584
  376.750   13.617    0.283    0.410   84.400
  377.000   12.894    0.262    0.405   86.820
  377.250   12.433    0.251    0.408   89.241
  377.500   11.771    0.239    0.404   89.847
  377.750   11.561    0.231    0.415   86.825
  378.000   12.002    0.218    0.419   86.826
  378.250   12.008    0.242    0.426   85.618
  378.500   11.795    0.247    0.430   85.620
  378.750   10.567    0.261    0.433   88.645
  379.000    9.642    0.254    0.439   93.485
  379.250    8.639    0.231    0.451   96.511
  379.500    8.329    0.216    0.451   96.512
  379.750    7.742    0.216    0.448   97.118
  380.000    6.935    0.232    0.447   91.677
  380.250    6.100    0.253    0.472   90.468
  380.500    5.775    0.283    0.494   87.445
  380.750    6.454    0.274    0.516   80.794
  381.000    7.482    0.260    0.534   76.562
  381.250    9.168    0.302    0.512   73.538
  381.500   10.630    0.316    0.473   69.306
  381.750   11.449    0.317    0.467   67.493
  382.000   11.885    0.312    0.453   65.075
  382.250   12.115    0.305    0.448   62.052
  382.500   11.898    0.301    0.460   57.820
  382.750   10.858    0.299    0.467   62.055
  383.000   10.863    0.306    0.476   63.871
  383.250   11.278    0.307    0.484   67.502
  383.500   11.706    0.317    0.493   68.108
  383.750   12.847    0.320    0.480   62.666
  384.000   13.090    0.334    0.472   60.248
  384.250   14.362    0.344    0.461   57.830
  384.500   15.185    0.358    0.505   53.598
  384.750   16.355    0.398    0.564   52.389
  385.000   16.977    0.442    0.577   52.390
  385.250   17.955    0.369    0.459   55.416
  385.500   18.301    0.319    0.431   57.232
  385.750   18.648    0.318    0.413   59.653
  386.000   18.659    0.324    0.420   59.050
  386.250   18.669    0.333    0.417   56.632
  386.500   19.026    0.331    0.411   55.423
  386.750   19.037    0.330    0.431   54.820
  387.000   19.046    0.324    0.422   54.821
  387.250   19.057    0.318    0.423   54.218
  387.500   19.424    0.329    0.426   53.010
  387.750   19.431    0.334    0.425   53.616
  388.000   19.445    0.318    0.425   55.432
  388.250   19.453    0.325    0.430   55.433
  388.500   19.828    0.326    0.440   53.016
  388.750   19.837    0.331    0.449   51.807
  389.000   19.486    0.334    0.438   52.414
  389.250   19.866    0.318    0.434   54.230
  389.500   20.242    0.313    0.427   55.440
  389.750   20.253    0.318    0.423   57.861
  390.000   20.262    0.314    0.413   59.678
  390.250   20.274    0.335    0.408   60.284
  390.500   19.911    0.343    0.404   60.890
  390.750   19.559    0.334    0.413   60.892
  391.000   19.212    0.324    0.423   61.498
  391.250   18.872    0.328    0.437   62.105
  391.500   18.883    0.341    0.444   62.106
  391.750   18.899    0.346    0.455   62.106
  392.000   18.905    0.348    0.443   60.899
  392.250   19.267    0.352    0.431   60.295
  392.500   20.371    0.341    0.443   60.902
  392.750   19.646    0.346    0.459   62.113
  393.000   19.297    0.349    0.449   63.323
  393.250   18.958    0.343    0.445   66.350
  393.500   18.966    0.328    0.442   67.561
  393.750   18.628    0.324    0.452   69.377
  394.000   18.301    0.329    0.459   69.983
  394.250   17.978    0.334    0.468   69.380
  394.500   17.657    0.339    0.465   68.171
  394.750   17.666    0.340    0.459   65.148
  395.000   17.355    0.347    0.469   63.335
  395.250   17.053    0.332    0.472   63.337
  395.500   16.747    0.322    0.468   63.943
  395.750   16.753    0.325    0.463   63.944
  396.000   16.456    0.336    0.459   63.341
  396.250   16.469    0.347    0.455   61.528
  396.500   16.173    0.352    0.465   60.320
  396.750   16.184    0.342    0.469   59.716
  397.000   16.194    0.339    0.465   59.718
  397.250   16.200    0.341    0.457   59.719
  397.500   16.211    0.335    0.465   60.326
  397.750   16.525    0.341    0.466   60.932
  398.000   16.841    0.345    0.457   60.933
  398.250   16.847    0.343    0.461   60.934
  398.500   17.167    0.319    0.473   60.936
  398.750   14.026    0.334    0.475   60.332
  399.000   11.045    0.342    0.480   59.729
  399.250    8.860    0.335    0.485   62.150
  399.500    7.238    0.332    0.488   66.990
  399.750    6.024    0.320    0.477   73.040
  400.000    5.599    0.305    0.475   76.065
  400.250    5.301    0.290    0.484   80.301
  400.500    5.303    0.255    0.490   82.722
  400.750    5.608    0.255    0.486   84.537
  401.000    6.153    0.260    0.489   82.725
  401.250    6.506    0.298    0.503   78.492
  401.500    6.753    0.306    0.501   77.284
  401.750    6.277    0.301    0.481   80.309
  402.000    5.129    0.291    0.485   83.940
  402.250    4.428    0.286    0.502   85.756
  402.500    3.967    0.311    0.511   86.967
  402.750    3.756    0.294    0.525   88.178
  403.000    3.622    0.284    0.534   88.785
  403.250    3.558    0.285    0.555   88.181
  403.500    3.693    0.286    0.560   86.973
  403.750    3.905    0.279    0.548   85.764
  404.000    4.206    0.294    0.540   84.556
  404.250    4.531    0.302    0.561   84.558
  404.500    4.971    0.285    0.534   83.954
  404.750    5.659    0.288    0.506   83.351
  405.000    5.873    0.304    0.540   83.352
  405.250    6.325    0.318    0.513   85.169
  405.500    6.688    0.303    0.491   85.775
  405.750    6.818    0.294    0.487   86.986
  406.000    6.573    0.298    0.486   89.407
  406.250    6.339    0.281    0.491   90.618
  406.500    6.113    0.272    0.480   91.224
  406.750    6.232    0.263    0.474   91.830
