~VERSION INFORMATION
 VERS.                 2.0:   CWLS LOG ASCII STANDARD -VERSION 2.0
 WRAP.                  NO:   ONE LINE PER DEPTH STEP
~WELL INFORMATION BLOCK
#MNEM.UNIT           DATA                    DESCRIPTION OF MNEMONIC
#---------    -------------------            -------------------------------
# Generated from Intellog Unique Number	CS_71_72/WELL/903
WELL.         BVX HOL UNIGAS NIXON           : Well_name    - WELL
LOC .         00/11-24-072-15W4/0            : Location     - LOCATION
UWI .         00/11-24-072-15W4/0            : Uwi          - UNIQUE WELL ID
ENTR.         SP                             : Entered      - ENTERED BY
SRVC.         SCHLUMBERGER                   : Scn          - SERVICE COMPANY
STRT.M        274.32                         : top_depth    - START DEPTH
STOP.M        469.82                         : bot_depth    - STOP DEPTH
STEP.M        0.25                           : increment    - STEP LENGTH
 NULL. -999.2500:NULL Value
~CURVE INFORMATION BLOCK
#MNEM UNIT       ERCB CURVE CODE    CURVE DESCRIPTION
#-----------   ------------------   ----------------------------------
DEPT.M        00 001 00 00         : DEPTH        - DEPTH
GR  .API      00 310 00 00         : GR           - GAMMA RAY
DPHI.V/V      00 890 00 00         : PHID         - DENSITY POROSITY (SANDSTONE)
NPHI.V/V      00 330 00 00         : PHIN         - NEUTRON POROSITY (SANDSTONE)
ILD .OHMM     00 120 00 00         : RESD         - DEEP RESISTIVITY (DIL)
~PARAMETER INFORMATION
#MNEM.UNIT           DATA             DESCRIPTION OF MNEMONIC
#---------         -----------     ------------------------------
GL  .M        601.98               : gl           - GROUND LEVEL ELEVATION
EREF.M        605.028              : kb           - ELEVATION OF DEPTH REFERENCE
DATM.M        601.98               : datum        - DATUM ELEVATION
TDD .M        472.745              : tdd          - TOTAL DEPTH DRILLER
RUN .         ONE                  : Run          - RUN NUMBER
ENG .         BILL                 : Engineer     - RECORDING ENGINEER
WIT .         JIM                  : Witness      - WITNESSED BY
MUD .         GEL                  : Mud_type     - MUD TYPE
MATR.         SANDSTONE            : Logunit      - NEUTRON MATRIX
TMAX.C        20.5556              : BHT          - MAXIMUM RECORDED TEMPERATURE
BHTD.M        472.745              : BHTDEP       - MAXIMUM RECORDED TEMPERATURE
MATR.         1                    : LOGUNIT      - NEUTRON MATRIX
RMT .C        25                   : MDTP         - TEMPERATURE OF MUD
NEUT.         1                    : NEUTRON      - NEUTRON TYPE
RESI.         0                    : RESIST       - RESISTIVITY TYPE
RMC .OHMM     0.25                 : RMC          - RESISTIVITY OF MUD CAKE
RMF .OHMM     0.25                 : RMF          - RESISTIVITY OF MUD FILTRATE
SUFT.C        15                   : SUFT         - SURFACE TEMPERATURE
~A  DEPTH       GR     PHID     PHIN     RESD
# ...
  361.320   85.577    0.455    0.580    4.166
  361.570   87.695    0.414    0.563    3.928
  361.820   87.426    0.397    0.575    3.706
  362.070   82.399    0.452    0.593    3.655
  362.320   78.590    0.488    0.598    3.675
  362.570   78.725    0.492    0.570    3.877
  362.820   80.581    0.395    0.557    4.175
  363.070   84.168    0.365    0.548    4.436
  363.320   86.358    0.344    0.554    4.657
  363.570   90.141    0.312    0.540    4.903
  363.820   93.332    0.290    0.534    5.052
  364.070   93.538    0.278    0.527    5.205
  364.320   95.852    0.271    0.529    5.491
  364.570   96.547    0.256    0.544    5.521
  364.820   96.115    0.252    0.551    5.622
  365.070   95.340    0.246    0.538    5.654
  365.320   95.388    0.243    0.530    5.429
  365.570   95.391    0.246    0.519    5.270
  365.820   95.355    0.251    0.516    5.225
  366.070   96.005    0.258    0.542    5.168
  366.320   95.701    0.260    0.566    5.071
  366.570   94.001    0.260    0.559    5.082
  366.820   93.058    0.254    0.551    5.092
  367.070   92.722    0.248    0.544    4.939
  367.320   92.573    0.243    0.540    4.906
  367.570   93.113    0.243    0.547    4.754
  367.820   92.404    0.246    0.541    4.577
  368.070   92.445    0.245    0.539    4.398
  368.320   90.509    0.240    0.545    3.946
  368.570   88.739    0.247    0.538    3.700
  368.820   86.463    0.254    0.530    3.559
  369.070   85.444    0.255    0.520    3.878
  369.320   86.083    0.256    0.514    4.327
  369.570   84.801    0.259    0.504    4.868
  369.820   82.885    0.265    0.491    5.128
  370.070   83.142    0.264    0.502    5.474
  370.320   83.072    0.261    0.506    5.745
  370.570   80.007    0.264    0.503    5.885
  370.820   74.788    0.268    0.483    5.902
  371.070   71.469    0.268    0.480    5.995
  371.320   66.397    0.186    0.502    6.185
  371.570   61.922    0.135    0.310    6.859
  371.820   59.341    0.112    0.299    7.250
  372.070   59.108    0.096    0.289    7.746
  372.320   62.899    0.082    0.314    8.241
  372.570   69.910    0.122    0.433    8.650
  372.820   72.793    0.173    0.498    8.814
  373.070   69.047    0.288    0.421    8.276
  373.320   63.663    0.166    0.387    7.780
  373.570   61.049    0.146    0.353    8.028
  373.820   65.960    0.139    0.337    8.561
  374.070   69.990    0.170    0.391    8.847
  374.320   73.975    0.227    0.472    8.911
  374.570   78.679    0.299    0.517    8.668
  374.820   80.704    0.313    0.558    7.894
  375.070   81.293    0.322    0.535    7.292
  375.320   79.467    0.319    0.514    6.267
  375.570   78.835    0.312    0.521    5.485
  375.820   81.314    0.307    0.537    5.095
  376.070   83.372    0.301    0.537    5.003
  376.320   83.612    0.294    0.529    5.005
  376.570   82.040    0.303    0.526    5.101
  376.820   81.399    0.323    0.536    5.114
  377.070   80.803    0.324    0.535    5.133
  377.320   75.698    0.318    0.544    5.222
  377.570   72.048    0.316    0.550    5.225
  377.820   71.831    0.322    0.538    5.231
  378.070   72.697    0.324    0.521    5.235
  378.320   74.752    0.325    0.514    5.214
  378.570   76.055    0.321    0.507    5.055
  378.820   78.073    0.311    0.501    5.126
  379.070   79.045    0.302    0.502    5.132
  379.320   79.030    0.299    0.517    5.072
  379.570   77.820    0.293    0.529    5.022
  379.820   75.146    0.292    0.543    4.998
  380.070   72.739    0.308    0.536    4.915
  380.320   70.136    0.311    0.527    4.923
  380.570   67.607    0.306    0.521    4.820
  380.820   68.204    0.301    0.523    4.832
  381.070   68.989    0.300    0.524    4.839
  381.320   68.949    0.310    0.522    4.847
  381.570   68.885    0.311    0.515    4.931
  381.820   70.999    0.311    0.510    5.035
  382.070   73.721    0.315    0.503    5.130
  382.320   75.816    0.324    0.502    5.145
  382.570   76.367    0.330    0.503    5.044
  382.820   77.839    0.336    0.502    4.966
  383.070   79.252    0.340    0.499    4.925
  383.320   78.387    0.340    0.509    4.775
  383.570   77.419    0.338    0.511    4.640
  383.820   76.420    0.342    0.511    4.547
  384.070   76.213    0.346    0.521    4.462
  384.320   76.735    0.341    0.513    4.476
  384.570   77.651    0.333    0.511    4.511
  384.820   77.954    0.328    0.514    4.566
  385.070   79.321    0.331    0.515    4.651
  385.320   81.100    0.334    0.504    4.756
  385.570   83.254    0.331    0.493    4.747
  385.820   85.184    0.324    0.487    4.846
  386.070   86.924    0.323    0.482    4.829
  386.320   85.221    0.326    0.496    4.766
  386.570   85.638    0.336    0.487    4.602
  386.820   88.400    0.347    0.494    4.230
  387.070   91.408    0.360    0.530    3.703
  387.320   92.360    0.365    0.551    3.121
  387.570   91.661    0.356    0.600    2.698
  387.820   92.142    0.352    0.613    2.439
  388.070   93.470    0.352    0.598    2.236
  388.320   95.883    0.348    0.589    2.310
  388.570   95.653    0.333    0.581    2.562
  388.820   93.254    0.319    0.559    2.813
  389.070   91.804    0.308    0.548    3.206
  389.320   90.763    0.288    0.543    3.486
  389.570   90.540    0.279    0.535    3.769
  389.820   91.036    0.275    0.519    4.158
  390.070   91.818    0.276    0.506    4.247
  390.320   90.988    0.283    0.522    4.438
  390.570   87.882    0.294    0.523    4.589
  390.820   86.453    0.286    0.521    4.687
  391.070   86.442    0.279    0.519    4.681
  391.320   86.377    0.280    0.511    4.604
  391.570   86.141    0.296    0.511    4.494
  391.820   84.067    0.302    0.518    4.368
  392.070   82.370    0.296    0.536    4.238
  392.320   81.093    0.290    0.507    4.221
  392.570   80.575    0.289    0.493    4.217
  392.820   79.909    0.302    0.503    4.297
  393.070   79.189    0.297    0.526    4.496
  393.320   78.289    0.282    0.532    4.548
  393.570   74.980    0.276    0.524    4.577
  393.820   71.426    0.274    0.512    4.477
  394.070   68.618    0.286    0.505    4.210
  394.320   62.962    0.293    0.521    3.994
  394.570   59.073    0.313    0.514    3.884
  394.820   56.843    0.358    0.500    3.850
  395.070   55.799    0.361    0.479    3.751
  395.320   54.394    0.361    0.471    3.691
  395.570   53.725    0.362    0.469    3.694
  395.820   53.760    0.365    0.475    3.693
  396.070   54.238    0.369    0.473    3.756
  396.320   55.840    0.372    0.469    3.870
  396.570   58.248    0.375    0.470    4.079
  396.820   60.590    0.330    0.486    4.196
  397.070   63.891    0.248    0.349    4.447
  397.320   66.377    0.219    0.328    4.827
  397.570   67.726    0.206    0.351    5.288
  397.820   68.630    0.272    0.419    5.989
  398.070   66.934    0.323    0.455    6.457
  398.320   66.897    0.323    0.505    6.533
  398.570   67.705    0.328    0.512    6.168
  398.820   68.635    0.333    0.505    5.453
  399.070   70.508    0.340    0.500    4.836
  399.320   73.147    0.350    0.498    4.278
  399.570   75.570    0.337    0.501    3.992
  399.820   77.396    0.319    0.501    3.809
  400.070   78.373    0.299    0.500    3.909
  400.320   80.351    0.281    0.496    4.035
  400.570   82.165    0.272    0.494    4.187
  400.820   82.444    0.281    0.500    4.369
  401.070   81.449    0.293    0.512    4.418
  401.320   80.361    0.295    0.519    4.541
  401.570   78.367    0.295    0.531    4.628
  401.820   76.626    0.297    0.519    4.682
  402.070   77.289    0.301    0.506    4.718
  402.320   78.203    0.298    0.492    4.809
  402.570   79.942    0.294    0.486    4.820
  402.820   80.168    0.291    0.486    4.827
  403.070   81.184    0.285    0.491    4.833
  403.320   81.971    0.287    0.499    4.844
  403.570   81.935    0.298    0.508    4.751
  403.820   83.407    0.311    0.512    4.712
  404.070   84.702    0.322    0.516    4.477
  404.320   86.096    0.320    0.523    4.273
  404.570   86.674    0.319    0.523    4.204
