~VERSION INFORMATION
 VERS.                 2.0:   CWLS LOG ASCII STANDARD -VERSION 2.0
 WRAP.                  NO:   ONE LINE PER DEPTH STEP
~WELL INFORMATION BLOCK
#MNEM.UNIT           DATA                    DESCRIPTION OF MNEMONIC
#---------    -------------------            -------------------------------
# Generated from Intellog Unique Number	CS_77_79/WELL/1014
WELL.         ICGR CHARD                     : Well_name    - WELL
LOC .         00/12-20-079-05W4/0            : Location     - LOCATION
UWI .         00/12-20-079-05W4/0            : Uwi          - UNIQUE WELL ID
ENTR.         JHS                            : Entered      - ENTERED BY
SRVC.         SCHLUMBERGER                   : Scn          - SERVICE COMPANY
STRT.M        105                            : top_depth    - START DEPTH
STOP.M        325                            : bot_depth    - STOP DEPTH
STEP.M        0.25                           : increment    - STEP LENGTH
 NULL. -999.2500:NULL Value
~CURVE INFORMATION BLOCK
#MNEM UNIT       ERCB CURVE CODE    CURVE DESCRIPTION
#-----------   ------------------   ----------------------------------
DEPT.M        00 001 00 00         : DEPTH        - DEPTH
DPHI.V/V      00 890 00 00         : PHID         - DENSITY POROSITY (LIMESTONE)
NPHI.V/V      00 330 00 00         : PHIN         - NEUTRON POROSITY (LIMESTONE)
GR  .API      00 310 00 00         : GR           - GAMMA RAY
ILD .OHMM     00 120 00 00         : RESD         - DEEP RESISTIVITY (DIL)
RHOB.KG/M3    00 350 00 00         : DENS         - BULK DENSITY
~PARAMETER INFORMATION
#MNEM.UNIT           DATA             DESCRIPTION OF MNEMONIC
#---------         -----------     ------------------------------
GL  .M        478.6                : gl           - GROUND LEVEL ELEVATION
EREF.M        481.6                : kb           - ELEVATION OF DEPTH REFERENCE
DATM.M        481.6                : datum        - DATUM ELEVATION
TDD .M        335                  : tdd          - TOTAL DEPTH DRILLER
RUN .         ONE                  : Run          - RUN NUMBER
ENG .         BILL                 : Engineer     - RECORDING ENGINEER
WIT .         JIM                  : Witness      - WITNESSED BY
MUD .         GEL                  : Mud_type     - MUD TYPE
MATR.         LIMESTONE            : Logunit      - NEUTRON MATRIX
TMAX.C        25                   : BHT          - MAXIMUM RECORDED TEMPERATURE
BHTD.M        335                  : BHTDEP       - MAXIMUM RECORDED TEMPERATURE
MATR.         1                    : LOGUNIT      - NEUTRON MATRIX
RMT .C        25                   : MDTP         - TEMPERATURE OF MUD
NEUT.         1                    : NEUTRON      - NEUTRON TYPE
RESI.         0                    : RESIST       - RESISTIVITY TYPE
RMC .OHMM     0.25                 : RMC          - RESISTIVITY OF MUD CAKE
RMF .OHMM     0.25                 : RMF          - RESISTIVITY OF MUD FILTRATE
SUFT.C        15                   : SUFT         - SURFACE TEMPERATURE
~A  DEPTH     PHID     PHIN       GR     RESD     DENS
# ...
  214.500    0.234    0.471   81.882    4.949 2309.580
  214.750    0.254    0.430   80.099    5.438 2276.260
  215.000    0.266    0.392   74.081    5.975 2255.490
  215.250    0.261    0.378   69.270    6.207 2263.920
  215.500    0.253    0.412   72.325    5.763 2276.550
  215.750    0.252    0.433   81.434    4.964 2278.760
  216.000    0.259    0.443   89.935    4.523 2266.350
  216.250    0.262    0.468   89.967    4.200 2262.240
  216.500    0.251    0.514   86.968    3.974 2281.160
  216.750    0.235    0.507   82.763    3.902 2308.410
  217.000    0.226    0.485   84.009    3.761 2323.150
  217.250    0.237    0.462   84.033    3.694 2304.450
  217.500    0.244    0.462   82.865    3.626 2292.020
  217.750    0.238    0.486   84.107    3.562 2302.570
  218.000    0.236    0.489   85.350    3.498 2306.830
  218.250    0.247    0.494   84.765    3.436 2288.160
  218.500    0.259    0.517   84.806    3.437 2267.340
  218.750    0.271    0.512   86.640    3.375 2246.540
  219.000    0.247    0.504   89.090    3.253 2288.450
  219.250    0.232    0.506   90.341    3.255 2313.620
  219.500    0.245    0.494   88.554    3.197 2290.740
  219.750    0.250    0.480   85.553    3.259 2282.470
  220.000    0.256    0.483   80.746    3.649 2272.140
  220.250    0.268    0.476   76.546    4.321 2251.330
  220.500    0.282    0.449   74.159    5.022 2228.470
  220.750    0.284    0.434   78.424    5.623 2224.380
  221.000    0.253    0.435   84.501    5.734 2276.720
  221.250    0.234    0.460   88.158    5.630 2310.240
  221.500    0.235    0.476   84.563    5.327 2308.260
  221.750    0.262    0.487   80.964    5.231 2262.390
  222.000    0.256    0.469   82.207    5.332 2272.960
  222.250    0.238    0.480   81.030    6.084 2302.290
  222.500    0.177    0.412   75.614    6.684 2406.880
  222.750    0.108    0.367   68.382    7.769 2526.070
  223.000    0.082    0.331   66.599    8.378 2570.050
  223.250    0.156    0.363   72.079    8.383 2442.700
  223.500    0.189    0.397   75.132    8.389 2386.390
  223.750    0.215    0.394   70.934    8.393 2342.610
  224.000    0.243    0.369   67.328    9.052 2294.660
  224.250    0.273    0.350   62.527    9.227    0.000
  224.500    0.309    0.337   61.343    8.253 2182.030
  224.750    0.292    0.340   66.212    7.244 2211.390
  225.000    0.283    0.433   71.082    5.899 2226.110
  225.250    0.288    0.465   73.541    4.458 2217.860
  225.500    0.364    0.349   71.749    4.898 2088.410
  225.750    0.403    0.229   60.285    6.021 2021.650
  226.000    0.416    0.108   29.472    9.443 1998.770
  226.250    0.426    0.080   25.872   29.600 1982.170
  226.500    0.432    0.060   24.693   57.030 1971.820
  226.750    0.415    0.054   29.569   91.124 2001.170
  227.000    0.391    0.108   35.040   96.454 2040.980
  227.250    0.397    0.126   44.141   83.085 2030.620
  227.500    0.395    0.095   41.756   72.925 2034.900
  227.750    0.374    0.077   37.548   70.299 2070.530
  228.000    0.375    0.083   31.536   70.328 2068.540
  228.250    0.379    0.112   29.151   65.302 2062.390
  228.500    0.374    0.098   26.757   57.310 2070.830
  228.750    0.384    0.087   31.022   48.454 2054.220
  229.000    0.402    0.099   37.103   35.272 2022.990
  229.250    0.396    0.187   43.181   25.196 2033.550
  229.500    0.370    0.273   46.845   14.926 2077.510
  229.750    0.331    0.327   48.690    9.894 2144.470
  230.000    0.311    0.337   54.768    7.908 2178.010
  230.250    0.277    0.365   61.448    6.813 2236.610
  230.500    0.265    0.381   59.062    6.446 2257.620
  230.750    0.295    0.354   54.254    6.330 2205.480
  231.000    0.323    0.340   57.310    6.334 2157.520
  231.250    0.334    0.338   55.526    6.337 2138.840
  231.500    0.346    0.325   52.531    6.461 2118.020
  231.750    0.346    0.340   65.265    6.227 2118.130
  232.000    0.329    0.391   68.921    6.115 2147.490
  232.250    0.312    0.413   70.171    6.119 2176.840
  232.500    0.295    0.400   77.457    6.239 2206.200
  232.750    0.284    0.392   85.344    6.729 2225.110
  233.000    0.277    0.402   94.453    7.121 2235.670
  233.250    0.255    0.425   98.718    7.397 2273.350
  233.500    0.232    0.447  104.191    7.131 2313.160
  233.750    0.288    0.436  103.010    6.745 2217.140
  234.000    0.322    0.424   84.289    6.380 2158.750
  234.250    0.332    0.436   61.344    6.266 2142.120
  234.500    0.327    0.425   63.183    6.269 2150.610
  234.750    0.299    0.399   71.682    6.391 2198.760
  235.000    0.273    0.384   76.554    6.766 2242.730
  235.250    0.235    0.401   79.605    6.897 2307.610
  235.500    0.232    0.415   51.818    6.649 2313.980
  235.750    0.312    0.409   42.774    6.408 2176.170
  236.000    0.321    0.382   40.989    5.950 2161.670
  236.250    0.327    0.376   40.417    5.628 2151.340
  236.500    0.318    0.366   33.794    5.325 2166.060
  236.750    0.308    0.350   30.194    5.228 2182.850
  237.000    0.311    0.362   32.043    5.232 2178.780
  237.250    0.313    0.336   43.562    5.333 2174.700
  237.500    0.287    0.307   65.372    5.861 2218.680
  237.750    0.238    0.312   79.916    6.202 2302.370
  238.000    0.194    0.397   93.250    6.816 2377.680
  238.250    0.164    0.381   94.491    6.949 2430.020
  238.500    0.180    0.374   73.359    6.952 2402.970
  238.750    0.263    0.391   57.054    6.578 2260.970
  239.000    0.310    0.386   51.045    6.107 2179.590
  239.250    0.322    0.366   53.491    5.776 2158.800
  239.500    0.312    0.377   48.684    5.465 2175.620
  239.750    0.305    0.394   49.314    5.367 2188.250
  240.000    0.295    0.377   62.653    5.471 2205.080
  240.250    0.267    0.372   68.128    5.791 2253.230
  240.500    0.239    0.383   63.319    6.015 2301.390
  240.750    0.251    0.360   57.914    6.250 2280.590
  241.000    0.280    0.407   58.542    6.491 2230.560
  241.250    0.250    0.429   57.973    6.618 2282.890
  241.500    0.200    0.411   68.888    6.874 2368.670
  241.750    0.193    0.379   78.593    7.142 2379.220
  242.000    0.218    0.342   81.656    7.145 2337.530
  242.250    0.214    0.334   82.286    7.286 2343.890
  242.500    0.193    0.359   91.995    7.292 2379.550
  242.750    0.196    0.385   89.008    7.159 2375.460
  243.000    0.231    0.422   78.146    6.900 2314.950
  243.250    0.293    0.411   60.029    6.527 2208.500
  243.500    0.310    0.370   35.268    5.948 2179.350
  243.750    0.314    0.351   33.480    5.320 2173.180
  244.000    0.319    0.363   41.378    4.940 2164.920
  244.250    0.311    0.375   44.429    4.849 2177.560
  244.500    0.315    0.372   45.670    4.675 2171.390
  244.750    0.322    0.371   43.280    4.591 2158.950
  245.000    0.327    0.373   40.287    4.508 2150.710
  245.250    0.332    0.373   46.368    4.511 2142.450
  245.500    0.336    0.383   48.815    4.514 2136.290
  245.750    0.329    0.397   50.058    4.517 2146.840
  246.000    0.306    0.417   55.537    4.519 2186.630
  246.250    0.275    0.429   56.176    4.522 2238.970
  246.500    0.250    0.413   50.770    4.786 2282.950
  246.750    0.224    0.395   49.574    5.162 2326.930
  247.000    0.224    0.386   59.287    5.567 2327.030
  247.250    0.285    0.385   67.793    5.570 2222.670
  247.500    0.280    0.390   70.836    5.573 2231.130
  247.750    0.269    0.402   74.497    5.372 2250.030
  248.000    0.284    0.412   75.737    5.178 2225.060
  248.250    0.297    0.411   76.997    4.991 2202.200
  248.500    0.290    0.402   77.617    4.902 2214.810
  248.750    0.272    0.398   82.483    4.903 2244.160
  249.000    0.270    0.425   85.538    5.000 2248.440
  249.250    0.270    0.415   87.991    5.098 2248.560
  249.500    0.260    0.441   96.488    5.296 2265.360
  249.750    0.249    0.486  104.989    5.400 2284.270
  250.000    0.251    0.493  102.596    5.401 2280.200
  250.250    0.267    0.461   92.357    5.507 2253.160
  250.500    0.272    0.448   89.362    5.511 2244.880
  250.750    0.279    0.463   88.177    5.619 2232.450
