~VERSION INFORMATION
 VERS.                 2.0:   CWLS LOG ASCII STANDARD -VERSION 2.0
 WRAP.                  NO:   ONE LINE PER DEPTH STEP
~WELL INFORMATION BLOCK
#MNEM.UNIT           DATA                    DESCRIPTION OF MNEMONIC
#---------    -------------------            -------------------------------
# Generated from Intellog Unique Number	CW_82_90/WELL/3445
WELL.         DOME MINK                      : Well_name    - WELL
LOC .         00/10-35-088-22W4/0            : Location     - LOCATION
UWI .         00/10-35-088-22W4/0            : Uwi          - UNIQUE WELL ID
ENTR.         MAX                            : Entered      - ENTERED BY
SRVC.         WESTERN ATLAS                  : Scn          - SERVICE COMPANY
STRT.M        50                             : top_depth    - START DEPTH
STOP.M        252                            : bot_depth    - STOP DEPTH
STEP.M        0.25                           : increment    - STEP LENGTH
 NULL. -999.2500:NULL Value
~CURVE INFORMATION BLOCK
#MNEM UNIT       ERCB CURVE CODE    CURVE DESCRIPTION
#-----------   ------------------   ----------------------------------
DEPT.M        00 001 00 00         : DEPTH        - DEPTH
ILD .OHMM     00 120 00 00         : RESD         - DEEP RESISTIVITY (DIL)
NPHI.V/V      00 330 00 00         : PHIN         - NEUTRON POROSITY (SANDSTONE)
DPHI.V/V      00 890 00 00         : PHID         - DENSITY POROSITY (SANDSTONE)
CALI.MM       00 280 01 00         : CAL          - CALIPER
GR  .API      00 310 00 00         : GR           - GAMMA RAY
~PARAMETER INFORMATION
#MNEM.UNIT           DATA             DESCRIPTION OF MNEMONIC
#---------         -----------     ------------------------------
GL  .M        516.7                : gl           - GROUND LEVEL ELEVATION
EREF.M        520                  : kb           - ELEVATION OF DEPTH REFERENCE
DATM.M        516.7                : datum        - DATUM ELEVATION
TDD .M        252                  : tdd          - TOTAL DEPTH DRILLER
RUN .         ONE                  : Run          - RUN NUMBER
ENG .         BILL                 : Engineer     - RECORDING ENGINEER
WIT .         JIM                  : Witness      - WITNESSED BY
MUD .         GEL                  : Mud_type     - MUD TYPE
MATR.         SANDSTONE            : Logunit      - NEUTRON MATRIX
TMAX.C        20                   : BHT          - MAXIMUM RECORDED TEMPERATURE
BHTD.M        252                  : BHTDEP       - MAXIMUM RECORDED TEMPERATURE
MATR.         1                    : LOGUNIT      - NEUTRON MATRIX
RMT .C        18                   : MDTP         - TEMPERATURE OF MUD
NEUT.         1                    : NEUTRON      - NEUTRON TYPE
RESI.         0                    : RESIST       - RESISTIVITY TYPE
RMC .OHMM     5.4                  : RMC          - RESISTIVITY OF MUD CAKE
RMF .OHMM     4.5                  : RMF          - RESISTIVITY OF MUD FILTRATE
SUFT.C        -15                  : SUFT         - SURFACE TEMPERATURE
~A  DEPTH     RESD     PHIN     PHID      CAL       GR
# ...
  196.000   12.795    0.377    0.273  227.185   83.561
  196.250   12.572    0.388    0.270  227.682   82.381
  196.500   12.462    0.396    0.261  227.686   81.201
  196.750   12.356    0.405    0.252  228.183   81.794
  197.000   11.484    0.399    0.255  228.187   83.570
  197.250   11.177    0.392    0.258  227.698   85.050
  197.500   11.184    0.384    0.264  227.701   86.826
  197.750   11.294    0.364    0.268  227.212   87.125
  198.000   11.837    0.347    0.274  226.723   85.649
  198.250   12.871    0.357    0.280  225.743   81.217
  198.500   14.127    0.368    0.274  225.253   79.150
  198.750   15.647    0.360    0.264  224.764   78.856
  199.000   17.171    0.326    0.247  224.768   78.859
  199.250   20.480    0.312    0.242  224.279   77.678
  199.500   22.895    0.326    0.273  224.776   76.203
  199.750   22.912    0.341    0.285  225.272   76.500
  200.000   21.098    0.359    0.285  225.769   77.389
  200.250   20.159    0.375    0.279  226.265   79.757
  200.500   19.620    0.384    0.274  226.761   83.602
  200.750   18.235    0.384    0.271  226.766   83.014
  201.000   17.105    0.387    0.271  226.277   82.720
  201.250   16.494    0.387    0.273  226.280   83.905
  201.500   16.055    0.379    0.276  226.285   84.203
  201.750   15.916    0.366    0.277  226.288   84.205
  202.000   15.780    0.370    0.274  226.292   84.207
  202.250   15.938    0.383    0.269  226.790   83.618
  202.500   15.947    0.389    0.264  226.792   83.029
  202.750   14.959    0.402    0.251  227.289   81.554
  203.000   14.293    0.405    0.235  227.293   81.556
  203.250   13.784    0.392    0.207  227.297   84.219
  203.500   13.417    0.326    0.184  226.807   88.656
  203.750   13.425    0.325    0.201  225.826   86.588
  204.000   13.309    0.344    0.238  224.351   82.156
  204.250   13.074    0.366    0.252  223.370   79.202
  204.500   13.326    0.372    0.240  223.374   78.022
  204.750   12.734    0.381    0.241  225.349   78.320
  205.000   10.991    0.396    0.259  226.831   78.322
  205.250    8.260    0.412    0.275  227.328   78.620
  205.500    6.381    0.425    0.271  227.824   81.579
  205.750    4.752    0.454    0.266  227.827   84.241
  206.000    4.375    0.471    0.258  227.339   90.157
  206.250    4.758    0.393    0.246  226.358   91.046
  206.500    5.468    0.363    0.225  226.361   88.683
  206.750    6.767    0.345    0.206  226.857   84.842
  207.000    7.997    0.343    0.214  226.861   80.410
  207.250   10.655    0.349    0.229  226.864   74.500
  207.500   12.591    0.357    0.256  226.868   73.024
  207.750   14.743    0.385    0.265  226.872   74.504
  208.000   15.027    0.397    0.261  227.369   75.689
  208.250   14.898    0.392    0.246  227.373   75.691
  208.500   14.104    0.389    0.239  227.377   76.285
  208.750   12.869    0.404    0.244  227.873   76.878
  209.000   12.410    0.414    0.256  229.355   76.289
  209.250   12.304    0.410    0.261  229.851   77.770
  209.500   12.426    0.405    0.255  230.348   79.841
  209.750   12.901    0.399    0.249  229.860   81.026
  210.000   14.030    0.389    0.238  229.371   81.324
  210.250   15.831    0.371    0.226  228.882   82.213
  210.500   17.861    0.354    0.192  227.900   81.920
  210.750   21.899    0.332    0.148  227.411   79.853
  211.000   27.352    0.311    0.129  226.429   70.395
  211.250   32.322    0.297    0.145  225.448   65.076
  211.500   39.267    0.297    0.170  224.466   64.783
  211.750   50.889    0.294    0.183  223.977   65.081
  212.000   46.867    0.289    0.173  223.981   60.944
  212.250   51.431    0.294    0.209  224.477   57.694
  212.500   47.799    0.318    0.258  224.974   56.218
  212.750   35.590    0.317    0.267  224.978   58.290
  213.000   37.995    0.301    0.239  224.982   65.092
  213.250   41.698    0.290    0.148  224.986   68.346
  213.500   50.653    0.254    0.117  225.482   64.801
  213.750   59.317    0.229    0.131  225.486   60.664
  214.000   58.264    0.231    0.184  225.982   60.667
  214.250   54.647    0.256    0.258  226.479   61.261
  214.500   46.306    0.281    0.294  226.483   63.628
  214.750   33.228    0.375    0.314  226.487   67.177
  215.000   23.625    0.375    0.308  225.505   71.614
  215.250   21.159    0.359    0.289  225.016   75.165
  215.500   23.008    0.347    0.263  225.020   74.871
  215.750   26.690    0.333    0.225  225.023   72.803
  216.000   29.291    0.309    0.189  225.027   71.032
  216.250   30.698    0.285    0.219  225.031   66.305
  216.500   31.581    0.288    0.233  225.036   62.168
  216.750   33.718    0.301    0.202  225.039   60.988
  217.000   34.050    0.303    0.159  224.550   62.173
  217.250   35.026    0.298    0.118  224.554   63.948
  217.500   35.705    0.291    0.095  225.051   66.316
  217.750   36.394    0.283    0.087  226.040   65.431
  218.000   37.099    0.287    0.111  226.044   64.843
  218.250   36.109    0.295    0.153  226.048   64.549
  218.500   33.558    0.302    0.170  225.558   64.551
  218.750   30.054    0.315    0.168  225.069   67.214
  219.000   27.420    0.334    0.185  224.581   74.016
  219.250   23.888    0.343    0.212  224.585   75.201
  219.500   19.871    0.367    0.264  224.097   74.316
  219.750   17.634    0.375    0.268  223.607   78.457
  220.000   16.090    0.373    0.266  223.610   82.303
  220.250   14.954    0.368    0.262  223.614   84.079
  220.500   14.155    0.365    0.261  224.111   84.377
  220.750   13.652    0.369    0.262  225.100   84.379
  221.000   13.536    0.385    0.264  225.596   84.973
  221.250   13.671    0.386    0.265  226.093   85.567
  221.500   13.806    0.377    0.264  226.591   84.977
  221.750   14.072    0.377    0.266  227.086   84.684
  222.000   14.343    0.389    0.271  227.583   84.982
  222.250   14.621    0.399    0.274  227.587   84.984
  222.500   14.630    0.400    0.273  227.590   84.395
  222.750   14.372    0.390    0.266  228.087   82.919
  223.000   14.248    0.381    0.256  228.583   82.922
  223.250   14.260    0.383    0.240  228.588   83.811
  223.500   14.267    0.384    0.228  228.592   82.926
  223.750   14.409    0.370    0.226  228.595   81.450
  224.000   14.687    0.361    0.242  228.599   79.088
  224.250   14.970    0.360    0.252  228.603   78.795
  224.500   15.120    0.365    0.232  228.114   79.388
  224.750   15.413    0.374    0.208  227.626   80.573
  225.000   15.858    0.368    0.197  227.136   78.506
  225.250   16.013    0.347    0.187  227.140   78.212
  225.500   16.473    0.342    0.175  227.144   79.101
  225.750   16.791    0.348    0.211  228.133   78.217
  226.000   17.437    0.360    0.220  228.137   78.219
  226.250   17.608    0.371    0.213  228.633   81.473
  226.500   17.140    0.368    0.203  228.637   85.319
  226.750   16.992    0.357    0.220  228.641   87.686
  227.000   17.003    0.354    0.230  228.644   88.279
  227.250   17.014    0.363    0.237  229.141   86.508
  227.500   17.026    0.385    0.206  229.145   84.441
  227.750   16.270    0.382    0.168  230.135   84.444
  228.000   15.259    0.360    0.160  230.139   87.106
  228.250   14.445    0.364    0.199  230.142   87.109
  228.500   13.931    0.371    0.220  230.146   86.520
  228.750   13.685    0.371    0.210  230.150   88.296
  229.000   13.444    0.353    0.195  230.153   90.663
  229.250   13.329    0.335    0.202  229.664   89.187
  229.500   13.460    0.338    0.223  229.668   87.416
  229.750   13.595    0.351    0.235  229.180   87.714
  230.000   13.857    0.359    0.243  229.183   94.515
  230.250   13.996    0.357    0.247  229.187   99.543
  230.500   14.399    0.362    0.241  228.205   96.589
  230.750   15.089    0.364    0.232  228.209   92.748
  231.000   15.811    0.345    0.220  228.213   90.681
  231.250   17.676    0.327    0.177  228.217   89.501
  231.500   21.277    0.289    0.074  228.713   87.138
  231.750   25.611    0.262    0.155  229.210   83.297
  232.000   27.094    0.277    0.199  229.706   80.048
  232.250   26.611    0.335    0.228  229.710   76.798
