~VERSION INFORMATION
 VERS.                 2.0:   CWLS LOG ASCII STANDARD -VERSION 2.0
 WRAP.                  NO:   ONE LINE PER DEPTH STEP
~WELL INFORMATION BLOCK
#MNEM.UNIT           DATA                    DESCRIPTION OF MNEMONIC
#---------    -------------------            -------------------------------
# Generated from Intellog Unique Number	CN_94_101/WELL/3811
WELL.         11-09-096-17W4                 : Well_name    - WELL
LOC .         00/11-09-096-17W4/0            : Location     - LOCATION
UWI .         00/11-09-096-17W400            : Uwi          - UNIQUE WELL ID
ENTR.         T                              : Entered      - ENTERED BY
SRVC.         SCHLUMBERGER                   : Scn          - SERVICE COMPANY
DATE.         07/31/92                       : Date         - LOG DATE
STRT.M        300                            : top_depth    - START DEPTH
STOP.M        475                            : bot_depth    - STOP DEPTH
STEP.M        0.25                           : increment    - STEP LENGTH
 NULL. -999.2500:NULL Value
~CURVE INFORMATION BLOCK
#MNEM UNIT       ERCB CURVE CODE    CURVE DESCRIPTION
#-----------   ------------------   ----------------------------------
DEPT.M        00 001 00 00         : DEPTH        - DEPTH
GR  .API      00 310 00 00         : GR           - GAMMA RAY
CALI.MM       00 280 01 00         : CAL          - CALIPER
NPHI.V/V      00 330 00 00         : PHIN         - NEUTRON POROSITY (SANDSTONE)
DPHI.V/V      00 890 00 00         : PHID         - DENSITY POROSITY (SANDSTONE)
ILD .OHMM     00 120 00 00         : RESD         - DEEP RESISTIVITY (DIL)
~PARAMETER INFORMATION
#MNEM.UNIT           DATA             DESCRIPTION OF MNEMONIC
#---------         -----------     ------------------------------
GL  .M        743                  : gl           - GROUND LEVEL ELEVATION
EREF.M        747.4                : kb           - ELEVATION OF DEPTH REFERENCE
DATM.M        747.4                : datum        - DATUM ELEVATION
TDD .M        482                  : tdd          - TOTAL DEPTH DRILLER
RUN .         0.000000             : Run          - RUN NUMBER
MUD .         GEL                  : Mud_type     - MUD TYPE
MATR.         SANDSTONE            : Logunit      - NEUTRON MATRIX
TMAX.C        0                    : BHT          - MAXIMUM RECORDED TEMPERATURE
BHTD.M        103.632              : BHTDEP       - MAXIMUM RECORDED TEMPERATURE
RMT .C        -1.11111             : MDTP         - TEMPERATURE OF MUD
MUDD.KG/M     8900                 : MWT          - MUD DENSITY
NEUT.         1                    : NEUTRON      - NEUTRON TYPE
RESI.         0                    : RESIST       - RESISTIVITY TYPE
RM  .OHMM     3.69                 : RM           - RESISTIVITY OF MUD
RMC .OHMM     3.69                 : RMC          - RESISTIVITY OF MUD CAKE
RMF .OHMM     0                    : RMF          - RESISTIVITY OF MUD FILTRATE
SUFT.C        -15                  : SUFT         - SURFACE TEMPERATURE
BTZC.MM       0                    : BITZC        - BIT SIZE CONSTANT
MDW .KG/M     0                    : MDW          - MUD WEIGHT
~A  DEPTH       GR      CAL     PHIN     PHID     RESD
# ...
  336.500  109.958  155.242    0.465    0.265    7.021
  336.750  108.051  155.242    0.480    0.261    7.021
  337.000  108.686  153.226    0.476    0.250    6.871
  337.250  108.686  153.226    0.466    0.250    6.871
  337.500  104.237  153.226    0.472    0.253    7.021
  337.750  105.508  153.226    0.501    0.239    7.332
  338.000  111.229  154.234    0.505    0.236    7.492
  338.250  111.864  154.234    0.498    0.218    8.170
  338.500   99.788  154.234    0.443    0.180    7.995
  338.750   83.898  154.234    0.442    0.158    8.170
  339.000   76.907  154.234    0.470    0.187    8.170
  339.250   91.525  154.234    0.512    0.227    7.332
  339.500  106.780  155.242    0.505    0.232    6.166
  339.750  113.771  155.242    0.493    0.242    6.166
  340.000  113.136  155.242    0.477    0.255    6.300
  340.250  108.686  155.242    0.508    0.256    6.438
  340.500  108.051  155.242    0.515    0.251    6.579
  340.750  111.864  155.242    0.494    0.246    7.175
  341.000  109.958  155.242    0.488    0.245    7.175
  341.250  106.144  155.242    0.541    0.228    7.656
  341.500  101.059  155.242    0.443    0.185    7.995
  341.750   89.619  155.242    0.409    0.127    8.349
  342.000   89.619  155.242    0.402    0.150    8.170
  342.250   95.975  155.242    0.446    0.203    7.995
  342.500  105.508  155.242    0.486    0.238    7.774
  342.750  105.508  155.242    0.495    0.237    6.401
  343.000  106.144  155.242    0.503    0.237    6.978
  343.250  107.415  155.242    0.489    0.241    6.683
  343.500  108.051  155.242    0.485    0.258    6.683
  343.750  105.508  156.250    0.504    0.263    6.683
  344.000  106.144  156.250    0.525    0.265    8.117
  344.250  108.051  156.250    0.510    0.257    7.774
  344.500  108.051  155.242    0.495    0.246    7.445
  344.750  108.051  155.242    0.499    0.242    6.829
  345.000  108.686  155.242    0.498    0.246    6.264
  345.250  111.229  155.242    0.494    0.250    6.000
  345.500  108.051  155.242    0.504    0.251    7.943
  345.750  104.873  154.234    0.528    0.255    6.829
  346.000  102.331  154.234    0.525    0.263    6.541
  346.250   99.788  154.234    0.501    0.270    6.541
  346.500   97.881  154.234    0.475    0.279    9.239
  346.750   98.517  155.242    0.446    0.285    7.445
  347.000  100.424  156.250    0.442    0.275    6.264
  347.250  104.237  157.258    0.450    0.255    6.000
  347.500  106.780  157.258    0.472    0.252    5.746
  347.750  112.500  158.266    0.477    0.246    5.872
  348.000  117.585  159.274    0.479    0.246    5.623
  348.250  118.220  160.282    0.483    0.253    5.623
  348.500  115.042  160.282    0.490    0.260    5.386
  348.750  112.025  161.290    0.509    0.261    5.271
  349.000  110.759  162.298    0.527    0.260    5.271
  349.250  111.392  162.298    0.525    0.258    5.158
  349.500  111.392  162.298    0.514    0.255    5.048
  349.750  111.392  162.298    0.503    0.248    5.048
  350.000  112.025  162.298    0.493    0.260    4.835
  350.250  111.392  162.298    0.495    0.277    5.271
  350.500  106.962  161.290    0.496    0.271    5.746
  350.750  100.633  161.290    0.475    0.262    6.401
  351.000   96.203  161.290    0.477    0.239    6.541
  351.250  100.000  161.290    0.507    0.239    5.746
  351.500  113.291  161.290    0.557    0.248    5.158
  351.750  124.684  161.290    0.551    0.255    4.630
  352.000  127.848  161.290    0.548    0.255    4.435
  352.250  127.215  161.290    0.549    0.255    4.247
  352.500  124.051  160.282    0.553    0.247    3.981
  352.750  123.418  160.282    0.565    0.238    4.068
  353.000  126.582  160.282    0.570    0.237    4.340
  353.250  129.747  160.282    0.548    0.236    4.532
  353.500  129.114  160.282    0.542    0.237    4.532
  353.750  127.848  160.282    0.546    0.239    6.541
  354.000  125.949  160.282    0.553    0.242    4.732
  354.250  122.152  160.282    0.580    0.229    4.940
  354.500  114.557  159.274    0.575    0.208    4.940
  354.750  113.291  159.274    0.558    0.214    4.732
  355.000  115.190  159.274    0.553    0.233    6.683
  355.250  125.316  159.274    0.557    0.241    4.630
  355.500  126.582  158.266    0.549    0.253    4.068
  355.750  120.886  159.274    0.527    0.258    4.247
  356.000  116.456  160.282    0.515    0.262    4.340
  356.250  114.557  161.290    0.505    0.256    4.532
  356.500  112.025  161.290    0.493    0.248    4.630
  356.750  110.127  158.266    0.496    0.234    4.835
  357.000  117.089  158.266    0.533    0.234    5.048
  357.250  120.886  158.266    0.552    0.237    5.158
  357.500  117.722  157.258    0.544    0.246    5.386
  357.750  115.823  157.258    0.517    0.252    5.503
  358.000  114.557  157.258    0.508    0.262    5.746
  358.250  109.494  158.266    0.505    0.270    5.872
  358.500   97.468  159.274    0.475    0.262    6.000
  358.750   96.203  159.274    0.474    0.216    6.000
  359.000  101.266  162.298    0.503    0.170    6.000
  359.250  110.759  165.323    0.505    0.195    5.872
  359.500  113.924  175.403    0.507    0.233    5.746
  359.750  112.025  175.403    0.508    0.242    5.872
  360.000  111.392  175.403    0.508    0.258    5.872
  360.250  105.063  174.395    0.479    0.266    6.000
  360.500  101.266  175.403    0.466    0.261    6.000
  360.750  100.633  176.411    0.480    0.241    5.386
  361.000  107.595  173.387    0.493    0.207    4.835
  361.250  112.185  168.347    0.479    0.161    4.630
  361.500  112.185  171.371    0.486    0.159    4.532
  361.750  117.227  162.298    0.531    0.193    4.340
  362.000  127.941  158.266    0.536    0.222    4.247
  362.250  131.723  158.266    0.539    0.221    4.157
  362.500  128.571  158.266    0.547    0.212    4.068
  362.750  126.050  158.266    0.561    0.213    3.981
  363.000  125.420  159.274    0.553    0.231    4.157
  363.250  131.646  159.274    0.539    0.252    4.247
  363.500  131.646  159.274    0.546    0.257    4.435
  363.750  126.582  159.274    0.541    0.252    4.532
  364.000  122.785  156.250    0.532    0.247    4.835
  364.250  120.253  155.242    0.521    0.245    4.835
  364.500  114.557  157.258    0.523    0.248    4.532
  364.750  118.354  158.266    0.538    0.247    4.435
  365.000  122.785  156.250    0.550    0.243    4.340
  365.250  125.949  155.242    0.541    0.244    4.340
  365.500  124.684  156.250    0.534    0.245    4.435
  365.750  120.886  157.258    0.514    0.242    4.835
  366.000  118.354  150.202    0.503    0.248    5.158
  366.250  113.924  150.202    0.508    0.268    5.623
  366.500  111.392  151.210    0.504    0.291    6.000
  366.750  105.063  153.226    0.474    0.294    6.541
  367.000   96.835  155.242    0.454    0.277    7.131
  367.250   97.468  156.250    0.451    0.249    7.774
  367.500  103.992  156.250    0.474    0.144    7.774
  367.750  110.924  157.258    0.495    0.141    7.943
  368.000  114.706  155.242    0.503    0.151    7.943
  368.250  113.445  158.266    0.420    0.130    7.774
  368.500   97.059  158.266    0.330    0.084    7.608
  368.750   86.975  158.266    0.359    0.107    7.608
  369.000  103.992  158.266    0.446    0.188    7.286
  369.250  121.008  157.258    0.522    0.192    7.131
  369.500  126.050  156.250    0.512    0.173    6.264
  369.750  126.681  156.250    0.512    0.142    5.271
  370.000  127.311  154.234    0.514    0.158    4.435
  370.250  128.571  156.250    0.521    0.213    4.247
  370.500  134.244  148.185    0.524    0.234    3.981
  370.750  136.134  149.194    0.531    0.239    3.731
  371.000  129.832  149.194    0.539    0.250    3.497
  371.250  126.050  148.185    0.552    0.260    3.423
  371.500  122.785  156.250    0.560    0.262    3.208
  371.750  122.152  155.242    0.580    0.259    3.208
  372.000  118.987  153.226    0.584    0.255    3.140
  372.250  117.722  150.202    0.570    0.262    2.943
  372.500  118.987  154.234    0.562    0.269    2.880
  372.750  118.354  156.250    0.556    0.273    2.880
