~VERSION INFORMATION
 VERS.                 2.0:   CWLS LOG ASCII STANDARD -VERSION 2.0
 WRAP.                  NO:   ONE LINE PER DEPTH STEP
~WELL INFORMATION BLOCK
#MNEM.UNIT           DATA                    DESCRIPTION OF MNEMONIC
#---------    -------------------            -------------------------------
# Generated from Intellog Unique Number	CW_82_90/WELL/1034
WELL.         14-09-083-23W4                 : Well_name    - WELL
LOC .         00/14-09-083-23W4/0            : Location     - LOCATION
UWI .         00/14-09-083-23W4/0            : Uwi          - UNIQUE WELL ID
ENTR.         JAYE                           : Entered      - ENTERED BY
SRVC.         SCHLUMBERGER                   : Scn          - SERVICE COMPANY
DATE.         05 FEB 86                      : Date         - LOG DATE
STRT.M        225                            : top_depth    - START DEPTH
STOP.M        435                            : bot_depth    - STOP DEPTH
STEP.M        0.25                           : increment    - STEP LENGTH
 NULL. -999.2500:NULL Value
~CURVE INFORMATION BLOCK
#MNEM UNIT       ERCB CURVE CODE    CURVE DESCRIPTION
#-----------   ------------------   ----------------------------------
DEPT.M        00 001 00 00         : DEPTH        - DEPTH
CALI.MM       00 280 01 00         : CAL          - CALIPER
GR  .API      00 310 00 00         : GR           - GAMMA RAY
NPHI.V/V      00 330 00 00         : PHIN         - NEUTRON POROSITY (SANDSTONE)
DPHI.V/V      00 890 00 00         : PHID         - DENSITY POROSITY (SANDSTONE)
ILD .OHMM     00 120 00 00         : RESD         - DEEP RESISTIVITY (DIL)
~PARAMETER INFORMATION
#MNEM.UNIT           DATA             DESCRIPTION OF MNEMONIC
#---------         -----------     ------------------------------
GL  .M        597.8                : gl           - GROUND LEVEL ELEVATION
EREF.M        601.4                : kb           - ELEVATION OF DEPTH REFERENCE
DATM.M        597.8                : datum        - DATUM ELEVATION
TDD .M        437                  : tdd          - TOTAL DEPTH DRILLER
RUN .         ONE                  : Run          - RUN NUMBER
ENG .         PATTERSON            : Engineer     - RECORDING ENGINEER
WIT .         WHALLEY              : Witness      - WITNESSED BY
BASE.         RD                   : Branch       - HOME BASE OF LOGGING UNIT
MUD .         GEL CHEM             : Mud_type     - MUD TYPE
MATR.         SANDSTONE            : Logunit      - NEUTRON MATRIX
TMAX.C        20                   : BHT          - MAXIMUM RECORDED TEMPERATURE
BHTD.M        437                  : BHTDEP       - MAXIMUM RECORDED TEMPERATURE
RMT .C        12                   : MDTP         - TEMPERATURE OF MUD
MUDD.KG/M     1080                 : MWT          - MUD DENSITY
NEUT.         1                    : NEUTRON      - NEUTRON TYPE
RESI.         0                    : RESIST       - RESISTIVITY TYPE
RM  .OHMM     3.55                 : RM           - RESISTIVITY OF MUD
RMC .OHMM     0                    : RMC          - RESISTIVITY OF MUD CAKE
RMF .OHMM     3.19                 : RMF          - RESISTIVITY OF MUD FILTRATE
SUFT.C        0                    : SUFT         - SURFACE TEMPERATURE
~A  DEPTH      CAL       GR     PHIN     PHID     RESD
# ...
  261.500  250.973   53.601    0.438    0.349   25.422
  261.750  251.002   52.761    0.466    0.352   25.448
  262.000  251.052   52.106    0.458    0.354   25.386
  262.250  250.994   52.253    0.444    0.359   25.556
  262.500  251.129   52.401    0.446    0.363   25.729
  262.750  251.378   51.562    0.462    0.361   26.004
  263.000  252.044   49.295    0.478    0.354   26.178
  263.250  252.087   47.895    0.452    0.349   25.767
  263.500  252.126   51.144    0.419    0.352   25.221
  263.750  252.487   55.251    0.400    0.353   24.872
  264.000  252.518   56.455    0.401    0.352   25.041
  264.250  252.880   55.365    0.429    0.349   25.551
  264.500  253.020   55.327    0.476    0.347   26.360
  264.750  252.340   58.204    0.482    0.344   27.249
  265.000  251.969   58.968    0.487    0.341   29.191
  265.250  251.289   58.437    0.473    0.334   33.032
  265.500  250.813   57.041    0.390    0.286   35.331
  265.750  253.953   54.030    0.288    0.167   34.640
  266.000  256.369   57.274    0.300    0.104   32.900
  266.250  252.076   57.176    0.402    0.114   30.427
  266.500  245.412   54.541    0.489    0.306   29.728
  266.750  244.833   53.327    0.486    0.328   27.189
  267.000  244.978   55.276    0.482    0.335   25.343
  267.250  245.644   55.423    0.462    0.345   24.524
  267.500  246.097   54.084    0.459    0.346   23.918
  267.750  247.182   51.450    0.462    0.341   23.542
  268.000  247.633   49.987    0.460    0.339   23.393
  268.250  247.770   48.528    0.462    0.345   23.375
  268.500  247.605   47.191    0.455    0.339   23.313
  268.750  247.646   48.456    0.451    0.338   23.119
  269.000  247.799   50.586    0.463    0.341   22.973
  269.250  247.843   50.674    0.459    0.341   23.043
  269.500  249.020   48.346    0.465    0.341   23.026
  269.750  250.510   46.266    0.478    0.341   23.092
  270.000  250.545   47.901    0.467    0.340   22.998
  270.250  250.687   47.369    0.471    0.341   22.974
  270.500  250.318   46.711    0.490    0.344   22.910
  270.750  247.781   45.811    0.524    0.351   22.936
  271.000  245.346   48.932    0.504    0.359   23.138
  271.250  243.326   51.801    0.493    0.358   23.257
  271.500  240.795   50.527    0.485    0.358   23.375
  271.750  239.074   44.363    0.480    0.365   23.531
  272.000  236.948   41.541    0.481    0.370   23.597
  272.250  234.621   42.002    0.487    0.370   23.582
  272.500  232.397   44.562    0.502    0.370   23.127
  272.750  231.097   48.242    0.493    0.371   22.549
  273.000  233.414   51.113    0.494    0.376   22.317
  273.250  236.033   54.359    0.506    0.376   23.333
  273.500  238.858   53.268    0.483    0.365   24.303
  273.750  239.102   48.031    0.446    0.345   24.750
  274.000  238.421   46.325    0.468    0.337   24.960
  274.250  241.458   47.718    0.481    0.356   24.757
  274.500  246.869   49.227    0.476    0.372   23.826
  274.750  248.669   49.062    0.480    0.371   22.926
  275.000  248.808   47.788    0.464    0.371   22.147
  275.250  248.232   46.451    0.449    0.375   21.802
  275.500  247.548   46.231    0.467    0.377   21.703
  275.750  247.383   46.997    0.491    0.370   21.849
  276.000  247.426   46.961    0.505    0.366   22.161
  276.250  247.270   49.091    0.481    0.369   22.565
  276.500  247.003   53.575    0.480    0.376   23.461
  276.750  246.626   53.105    0.484    0.376   24.665
  277.000  246.051   49.785    0.464    0.383   26.332
  277.250  246.614   46.654    0.459    0.387   27.472
  277.500  246.854   47.795    0.407    0.275   29.380
  277.750  249.694   48.192    0.320    0.240   31.712
  278.000  252.719   47.224    0.280    0.121   36.704
  278.250  254.515   47.065    0.308    0.109   39.320
  278.500  251.360   47.956    0.437    0.286   35.760
  278.750  246.966   52.811    0.512    0.324   28.135
  279.000  244.737   58.841    0.541    0.372   24.642
  279.250  242.715   60.908    0.516    0.373   21.378
  279.500  241.214   57.096    0.496    0.368   20.001
  279.750  239.503   57.683    0.499    0.359   19.648
  280.000  240.680   58.695    0.511    0.360   19.378
  280.250  242.166   58.906    0.521    0.361   19.438
  280.500  242.826   56.767    0.519    0.358   19.458
  280.750  245.448   55.679    0.501    0.357   19.300
  281.000  248.482   56.755    0.509    0.353   18.748
  281.250  248.520   57.277    0.526    0.343   17.908
  281.500  247.744   58.785    0.537    0.343   17.263
  281.750  246.337   61.659    0.528    0.350   16.091
  282.000  243.281   63.169    0.500    0.355   15.569
  282.250  240.646   65.051    0.498    0.353   15.184
  282.500  241.612   64.272    0.497    0.346   15.200
  282.750  245.887   63.742    0.488    0.334   15.477
  283.000  247.172   65.006    0.458    0.332   16.030
  283.250  247.731   65.897    0.442    0.348   16.414
  283.500  248.074   63.816    0.444    0.353   16.746
  283.750  248.122   58.393    0.482    0.345   16.893
  284.000  247.853   58.419    0.486    0.324   17.170
  284.250  248.208   59.995    0.491    0.311   17.448
  284.500  248.863   60.019    0.477    0.322   17.802
  284.750  248.908   59.923    0.478    0.344   18.057
  285.000  249.061   59.759    0.467    0.339   19.023
  285.250  249.199   49.261    0.287    0.289   19.513
  285.500  249.447   49.722    0.311    0.115   18.995
  285.750  249.385   53.276    0.368    0.090   17.635
  286.000  249.015   61.160    0.461    0.293   16.282
  286.250  248.236   61.747    0.487    0.322   15.261
  286.500  247.655   64.865    0.479    0.327   14.908
  286.750  247.597   64.829    0.475    0.324   14.953
  287.000  247.643   57.239    0.477    0.317   15.111
  287.250  247.477   51.753    0.487    0.316   15.017
  287.500  248.236   54.940    0.482    0.324   14.182
  287.750  248.796   59.547    0.471    0.318   13.243
  288.000  249.254   65.883    0.463    0.309   12.248
  288.250  249.502   72.345    0.490    0.297   11.056
  288.500  249.751   75.222    0.490    0.281   10.169
  288.750  249.490   72.086    0.487    0.272    9.231
  289.000  249.021   71.246    0.482    0.266    7.919
  289.250  249.564   71.337    0.479    0.262    6.742
  289.500  250.334   74.022    0.489    0.261    5.839
  289.750  250.992   82.403    0.487    0.263    5.143
  290.000  251.959   80.266    0.495    0.267    4.748
  290.250  252.935   76.634    0.494    0.261    4.493
  290.500  253.905   73.071    0.479    0.255    4.275
  290.750  255.184   74.956    0.481    0.255    4.122
  291.000  256.156   79.375    0.511    0.260    4.065
  291.250  257.132   83.547    0.509    0.264    4.085
  291.500  257.268   76.080    0.516    0.268    4.120
  291.750  257.110   72.700    0.506    0.273    4.251
  292.000  256.735   72.171    0.491    0.279    4.520
  292.250  256.573   72.072    0.488    0.286    4.843
  292.500  255.580   67.391    0.494    0.290    5.438
  292.750  252.945   64.013    0.516    0.292    6.142
  293.000  251.127   62.800    0.530    0.294    6.885
  293.250  249.518   62.886    0.506    0.300    7.601
  293.500  248.322   66.316    0.491    0.301    8.411
  293.750  248.676   67.579    0.500    0.291    8.792
  294.000  248.716   68.471    0.480    0.286    8.970
  294.250  249.273   73.575    0.473    0.284    8.422
  294.500  249.937   71.868    0.499    0.279    7.835
  294.750  250.597   72.886    0.496    0.268    7.483
  295.000  251.573   76.995    0.493    0.261    7.311
  295.250  251.512   77.394    0.503    0.254    7.196
  295.500  252.168   75.372    0.480    0.238    7.260
  295.750  253.139   75.462    0.484    0.227    7.447
  296.000  253.495   78.579    0.528    0.219    7.584
  296.250  253.226   83.063    0.511    0.220    7.578
  296.500  252.961   85.625    0.480    0.229    7.460
  296.750  252.692   83.858    0.463    0.234    7.369
  297.000  252.217   80.728    0.488    0.237    7.185
  297.250  251.228   79.203    0.521    0.248    6.825
  297.500  250.136   79.603    0.523    0.262    6.349
  297.750  249.559   80.742    0.522    0.276    5.828
