~VERSION INFORMATION
 VERS.                 2.0:   CWLS LOG ASCII STANDARD -VERSION 2.0
 WRAP.                  NO:   ONE LINE PER DEPTH STEP
~WELL INFORMATION BLOCK
#MNEM.UNIT           DATA                    DESCRIPTION OF MNEMONIC
#---------    -------------------            -------------------------------
# Generated from Intellog Unique Number	CS_71_72/WELL/897
WELL.         AMOCO AEC IPAITIK              : Well_name    - WELL
LOC .         00/11-15-072-04W4/0            : Location     - LOCATION
UWI .         00/11-15-072-04W4/0            : Uwi          - UNIQUE WELL ID
ENTR.         SP                             : Entered      - ENTERED BY
SRVC.         SCHLUMBERGER                   : Scn          - SERVICE COMPANY
STRT.M        305                            : top_depth    - START DEPTH
STOP.M        500                            : bot_depth    - STOP DEPTH
STEP.M        0.25                           : increment    - STEP LENGTH
 NULL. -999.2500:NULL Value
~CURVE INFORMATION BLOCK
#MNEM UNIT       ERCB CURVE CODE    CURVE DESCRIPTION
#-----------   ------------------   ----------------------------------
DEPT.M        00 001 00 00         : DEPTH        - DEPTH
DPHI.V/V      00 890 00 00         : PHID         - DENSITY POROSITY (LIMESTONE)
NPHI.V/V      00 330 00 00         : PHIN         - NEUTRON POROSITY (LIMESTONE)
GR  .API      00 310 00 00         : GR           - GAMMA RAY
ILD .OHMM     00 120 00 00         : RESD         - DEEP RESISTIVITY (DIL)
~PARAMETER INFORMATION
#MNEM.UNIT           DATA             DESCRIPTION OF MNEMONIC
#---------         -----------     ------------------------------
GL  .M        680.6                : gl           - GROUND LEVEL ELEVATION
EREF.M        685.31               : kb           - ELEVATION OF DEPTH REFERENCE
DATM.M        680.6                : datum        - DATUM ELEVATION
TDD .M        524                  : tdd          - TOTAL DEPTH DRILLER
RUN .         ONE                  : Run          - RUN NUMBER
ENG .         BILL                 : Engineer     - RECORDING ENGINEER
WIT .         JIM                  : Witness      - WITNESSED BY
MUD .         GEL                  : Mud_type     - MUD TYPE
MATR.         LIMESTONE            : Logunit      - NEUTRON MATRIX
TMAX.C        25                   : BHT          - MAXIMUM RECORDED TEMPERATURE
BHTD.M        524                  : BHTDEP       - MAXIMUM RECORDED TEMPERATURE
MATR.         1                    : LOGUNIT      - NEUTRON MATRIX
RMT .C        25                   : MDTP         - TEMPERATURE OF MUD
NEUT.         1                    : NEUTRON      - NEUTRON TYPE
RESI.         0                    : RESIST       - RESISTIVITY TYPE
RMC .OHMM     0.25                 : RMC          - RESISTIVITY OF MUD CAKE
RMF .OHMM     0.25                 : RMF          - RESISTIVITY OF MUD FILTRATE
SUFT.C        15                   : SUFT         - SURFACE TEMPERATURE
~A  DEPTH     PHID     PHIN       GR     RESD
# ...
  435.500    0.272    0.433   81.469    5.808
  435.750    0.266    0.423   81.482    5.701
  436.000    0.248    0.418   80.282    5.392
  436.250    0.231    0.445   77.875    5.292
  436.500    0.220    0.463   73.660    5.099
  436.750    0.249    0.447   72.457    5.004
  437.000    0.279    0.441   70.654    5.004
  437.250    0.303    0.439   69.461    5.003
  437.500    0.302    0.455   69.471    5.002
  437.750    0.291    0.447   69.483    5.002
  438.000    0.277    0.445   68.889    4.909
  438.250    0.271    0.464   68.911    4.818
  438.500    0.266    0.490   69.523    4.558
  438.750    0.263    0.499   71.352    3.857
  439.000    0.266    0.504   72.567    3.146
  439.250    0.275    0.515   74.395    2.867
  439.500    0.279    0.532   75.013    2.763
  439.750    0.273    0.512   76.237    2.565
  440.000    0.261    0.509   78.068    2.518
  440.250    0.251    0.510   78.681    2.761
  440.500    0.256    0.544   79.902    3.086
  440.750    0.261    0.564   78.100    3.384
  441.000    0.263    0.554   75.093    3.712
  441.250    0.256    0.485   73.890    4.072
  441.500    0.244    0.447   73.297    4.466
  441.750    0.230    0.480   72.705    4.549
  442.000    0.223    0.493   72.723    4.633
  442.250    0.235    0.477   72.730    4.897
  442.500    0.242    0.466   71.532    5.081
  442.750    0.246    0.459   67.311    5.678
  443.000    0.271    0.455   63.693    6.002
  443.250    0.297    0.470   59.470    6.959
  443.500    0.306    0.452   56.464    7.355
  443.750    0.321    0.394   58.289    8.218
  444.000    0.309    0.396   60.114    8.687
  444.250    0.296    0.425   61.940    9.182
  444.500    0.275    0.438   60.139    9.527
  444.750    0.259    0.406   58.336    9.885
  445.000    0.224    0.383   55.327   10.068
  445.250    0.168    0.408   54.125   10.255
  445.500    0.202    0.421   57.770   10.445
  445.750    0.229    0.419   60.208   10.444
  446.000    0.281    0.432   60.819   10.442
  446.250    0.271    0.450   60.833   10.249
  446.500    0.241    0.442   60.237    9.341
  446.750    0.220    0.438   62.672    8.204
  447.000    0.209    0.439   64.497    7.760
  447.250    0.244    0.454   66.927    7.477
  447.500    0.265    0.468   70.574    6.690
  447.750    0.281    0.461   71.793    6.211
  448.000    0.264    0.454   72.409    5.355
  448.250    0.255    0.462   75.452    4.791
  448.500    0.264    0.489   77.275    4.131
  448.750    0.246    0.504   79.711    3.496
  449.000    0.232    0.518   80.324    3.014
  449.250    0.224    0.503   80.336    2.697
  449.500    0.221    0.515   82.167    2.647
  449.750    0.224    0.536   83.991    2.696
  450.000    0.230    0.548   85.211    2.746
  450.250    0.233    0.534   87.038    2.797
  450.500    0.233    0.524   82.821    2.797
  450.750    0.230    0.502   80.412    2.745
  451.000    0.228    0.508   78.003    2.694
  451.250    0.228    0.516   75.596    2.645
  451.500    0.227    0.505   77.421    2.694
  451.750    0.226    0.496   81.065    2.744
  452.000    0.223    0.485   79.871    2.900
  452.250    0.225    0.505   79.273    3.065
  452.500    0.240    0.537   78.680    3.180
  452.750    0.233    0.514   76.274    3.553
  453.000    0.234    0.468   73.263    4.197
  453.250    0.250    0.400   67.831    4.690
  453.500    0.261    0.360   64.820    5.643
  453.750    0.270    0.341   64.833    6.791
  454.000    0.274    0.338   66.659    8.479
  454.250    0.280    0.347   67.881    9.130
  454.500    0.259    0.355   64.867    9.128
  454.750    0.256    0.368   61.855    8.795
  455.000    0.267    0.373   63.683    8.166
  455.250    0.281    0.386   62.484    7.443
  455.500    0.290    0.402   57.664    7.172
  455.750    0.293    0.400   60.702    6.658
  456.000    0.302    0.415   63.736    6.536
  456.250    0.315    0.424   67.376    6.415
  456.500    0.322    0.437   69.804    6.780
  456.750    0.300    0.441   72.844    7.575
  457.000    0.286    0.444   70.437    8.007
  457.250    0.277    0.426   68.631    8.463
  457.500    0.265    0.389   65.620    8.946
  457.750    0.251    0.370   68.055    9.282
  458.000    0.223    0.367   71.693    9.454
  458.250    0.200    0.378   77.152    9.630
  458.500    0.219    0.401   79.582    9.628
  458.750    0.232    0.413   75.964    9.806
  459.000    0.232    0.428   78.397    9.988
  459.250    0.232    0.439   69.942   10.755
  459.500    0.264    0.449   51.202   11.367
  459.750    0.292    0.409   31.254   12.015
  460.000    0.304    0.382   24.007   12.238
  460.250    0.299    0.362   24.020   12.237
  460.500    0.318    0.367   24.638   12.235
  460.750    0.316    0.354   23.443   11.788
  461.000    0.304    0.341   23.457   11.571
  461.250    0.299    0.339   24.070   11.357
  461.500    0.299    0.336   35.579   11.355
  461.750    0.282    0.336   45.269   11.566
  462.000    0.261    0.364   53.746   11.780
  462.250    0.243    0.414   62.227   11.999
  462.500    0.232    0.429   67.080   13.657
  462.750    0.251    0.440   59.226   16.434
  463.000    0.295    0.451   45.327   20.904
  463.250    0.317    0.418   36.873   26.590
  463.500    0.313    0.382   40.516   35.099
  463.750    0.306    0.382   42.341   40.697
  464.000    0.274    0.401   43.561   42.229
  464.250    0.188    0.410   47.811   33.808
  464.500    0.156    0.389   50.845   28.614
  464.750    0.167    0.413   46.022   26.079
  465.000    0.231    0.439   43.006   25.128
  465.250    0.288    0.415   44.836   25.592
  465.500    0.297    0.415   49.080   25.119
  465.750    0.298    0.424   55.143   24.656
  466.000    0.300    0.408   58.177   23.757
  466.250    0.292    0.398   60.612   20.865
  466.500    0.273    0.395   61.833   19.373
  466.750    0.251    0.397   64.870   16.702
  467.000    0.241    0.391   67.911   16.093
  467.250    0.234    0.378   69.128   14.398
  467.500    0.223    0.370   69.139   13.873
  467.750    0.220    0.378   61.291   13.367
  468.000    0.223    0.401   55.252   14.662
  468.250    0.249    0.417   49.216   20.459
  468.500    0.273    0.408   50.443   25.079
  468.750    0.292    0.386   54.688   26.508
  469.000    0.307    0.374   59.539   25.540
  469.250    0.291    0.382   66.202   21.220
  469.500    0.265    0.385   78.314   16.371
  469.750    0.235    0.380   87.401   12.171
  470.000    0.216    0.375   90.434   11.093
  470.250    0.200    0.384   88.635   10.111
  470.500    0.193    0.373   81.992    9.563
  470.750    0.199    0.369   65.067    9.386
  471.000    0.212    0.397   54.193    9.385
  471.250    0.233    0.419   46.342   11.937
  471.500    0.252    0.445   42.117   13.842
  471.750    0.286    0.447   47.575   17.607
  472.000    0.311    0.407   57.265   19.673
  472.250    0.345    0.386   64.535   20.038
  472.500    0.369    0.512   59.713   18.604
  472.750    0.326    0.542   53.073   17.926
  473.000    0.283    0.445   50.055   17.595
  473.250    0.275    0.398   47.044   20.027
  473.500    0.292    0.422   45.241   27.433
  473.750    0.299    0.414   45.255   38.996
  474.000    0.302    0.387   45.874   52.437
  474.250    0.305    0.393   47.096   66.700
  474.500    0.307    0.397   48.922   75.924
  474.750    0.311    0.399   50.142   83.279
  475.000    0.314    0.414   52.576   77.319
  475.250    0.314    0.421   53.797   64.237
  475.500    0.310    0.438   52.599   56.422
  475.750    0.308    0.441   51.404   49.556
  476.000    0.308    0.434   55.048   41.169
  476.250    0.297    0.434   57.476   38.226
  476.500    0.280    0.428   62.329   34.201
  476.750    0.273    0.426   59.921   30.039
  477.000    0.282    0.434   55.095   26.877
  477.250    0.291    0.438   54.504   23.605
  477.500    0.308    0.448   55.722   25.416
  477.750    0.324    0.456   56.946   27.366
  478.000    0.332    0.432   56.957   28.396
  478.250    0.313    0.396   59.995   27.359
  478.500    0.279    0.410   63.639   19.601
  478.750    0.273    0.429   65.465   14.845
