~VERSION INFORMATION
 VERS.                 2.0:   CWLS LOG ASCII STANDARD -VERSION 2.0
 WRAP.                  NO:   ONE LINE PER DEPTH STEP
~WELL INFORMATION BLOCK
#MNEM.UNIT           DATA                    DESCRIPTION OF MNEMONIC
#---------    -------------------            -------------------------------
# Generated from Intellog Unique Number	CS_73_76/WELL/2189
WELL.         AMOCO KIRBY                    : Well_name    - WELL
LOC .         00/10-15-074-06W4/0            : Location     - LOCATION
UWI .         00/10-15-074-06W4/0            : Uwi          - UNIQUE WELL ID
ENTR.         SP                             : Entered      - ENTERED BY
SRVC.         SCHLUMBERGER                   : Scn          - SERVICE COMPANY
STRT.M        235                            : top_depth    - START DEPTH
STOP.M        455                            : bot_depth    - STOP DEPTH
STEP.M        0.25                           : increment    - STEP LENGTH
 NULL. -999.2500:NULL Value
~CURVE INFORMATION BLOCK
#MNEM UNIT       ERCB CURVE CODE    CURVE DESCRIPTION
#-----------   ------------------   ----------------------------------
DEPT.M        00 001 00 00         : DEPTH        - DEPTH
DPHI.V/V      00 890 00 00         : PHID         - DENSITY POROSITY (LIMESTONE)
ILD .OHMM     00 120 00 00         : RESD         - DEEP RESISTIVITY (DIL)
NPHI.V/V      00 330 00 00         : PHIN         - NEUTRON POROSITY (LIMESTONE)
GR  .API      00 310 00 00         : GR           - GAMMA RAY
~PARAMETER INFORMATION
#MNEM.UNIT           DATA             DESCRIPTION OF MNEMONIC
#---------         -----------     ------------------------------
GL  .M        627.32               : gl           - GROUND LEVEL ELEVATION
EREF.M        631.57               : kb           - ELEVATION OF DEPTH REFERENCE
DATM.M        627.32               : datum        - DATUM ELEVATION
TDD .M        464                  : tdd          - TOTAL DEPTH DRILLER
RUN .         ONE                  : Run          - RUN NUMBER
ENG .         BILL                 : Engineer     - RECORDING ENGINEER
WIT .         JIM                  : Witness      - WITNESSED BY
MUD .         GEL                  : Mud_type     - MUD TYPE
MATR.         LIMESTONE            : Logunit      - NEUTRON MATRIX
TMAX.C        23                   : BHT          - MAXIMUM RECORDED TEMPERATURE
BHTD.M        464                  : BHTDEP       - MAXIMUM RECORDED TEMPERATURE
MATR.         1                    : LOGUNIT      - NEUTRON MATRIX
RMT .C        25                   : MDTP         - TEMPERATURE OF MUD
NEUT.         1                    : NEUTRON      - NEUTRON TYPE
RESI.         0                    : RESIST       - RESISTIVITY TYPE
RMC .OHMM     0.25                 : RMC          - RESISTIVITY OF MUD CAKE
RMF .OHMM     0.25                 : RMF          - RESISTIVITY OF MUD FILTRATE
SUFT.C        15                   : SUFT         - SURFACE TEMPERATURE
~A  DEPTH     PHID     RESD     PHIN       GR
# ...
  409.000    0.220   10.440    0.372   85.506
  409.250    0.210    9.517    0.383   84.305
  409.500    0.217    9.002    0.389   84.318
  409.750    0.233    8.205    0.377   90.408
  410.000    0.217    7.619    0.374   96.493
  410.250    0.186    7.343    0.392   94.076
  410.500    0.187    7.076    0.401   88.627
  410.750    0.198    6.947    0.418   87.424
  411.000    0.223    6.820    0.399   90.475
  411.250    0.189    6.822    0.388   92.918
  411.500    0.180    6.951    0.387   90.507
  411.750    0.161    7.082    0.379   88.698
  412.000    0.161    7.216    0.374   88.710
  412.250    0.164    7.217    0.365   88.721
  412.500    0.164    7.491    0.362   84.484
  412.750    0.164    7.776    0.357   80.250
  413.000    0.184    8.535    0.358   77.226
  413.250    0.195    9.194    0.362   76.023
  413.500    0.201    9.722    0.365   77.256
  413.750    0.212   11.074    0.368   76.657
  414.000    0.223   14.099    0.370   71.817
  414.250    0.242   18.981    0.375   70.616
  414.500    0.266   25.082    0.385   69.413
  414.750    0.278   31.347    0.401   68.212
  415.000    0.298   39.178    0.414   64.581
  415.250    0.315   44.623    0.426   60.344
  415.500    0.316   45.468    0.422   60.361
  415.750    0.330   45.477    0.432   62.196
  416.000    0.333   42.227    0.435   62.813
  416.250    0.330   37.781    0.438   64.654
  416.500    0.318   35.083    0.432   68.310
  416.750    0.299   34.444    0.427   71.966
  417.000    0.291   34.449    0.433   75.016
  417.250    0.291   35.758    0.438   76.246
  417.500    0.300   38.525    0.445   73.829
  417.750    0.306   39.251    0.446   70.808
  418.000    0.310   37.828    0.437   68.390
  418.250    0.301   33.843    0.435   67.193
  418.500    0.305   26.100    0.434   67.813
  418.750    0.295   20.507    0.437   69.042
  419.000    0.295   18.691    0.435   71.483
  419.250    0.278   16.723    0.427   73.925
  419.500    0.272   14.417    0.418   76.367
  419.750    0.263   12.201    0.423   78.811
  420.000    0.247   11.329    0.426   81.863
  420.250    0.230    9.410    0.430   85.519
  420.500    0.234    8.113    0.431   94.038
  420.750    0.231    7.125    0.396  103.163
  421.000    0.211    6.616    0.384  107.423
  421.250    0.209    6.259    0.377  114.117
  421.500    0.205    6.145    0.402  117.167
  421.750    0.191    6.261    0.417  115.966
  422.000    0.204    6.262    0.428  111.731
  422.250    0.221    6.263    0.434  105.673
  422.500    0.223    6.036    0.430  105.685
  422.750    0.187    5.816    0.421  112.986
  423.000    0.176    5.401    0.458  120.287
  423.250    0.180    5.205    0.479  122.729
  423.500    0.176    5.110    0.465  122.139
  423.750    0.174    5.111    0.471  120.331
  424.000    0.180    5.305    0.493  117.916
  424.250    0.171    5.611    0.508  115.500
  424.500    0.169    6.044    0.511  111.263
  424.750    0.174    6.512    0.482  103.378
  425.000    0.185    6.759    0.413   95.500
  425.250    0.203    7.015    0.384   93.084
  425.500    0.215    7.148    0.361   90.666
  425.750    0.220    7.283    0.383   85.823
  426.000    0.240    7.150    0.379   86.444
  426.250    0.252    6.891    0.366   92.533
  426.500    0.221    6.765    0.374  101.052
  426.750    0.169    6.520    0.386  106.527
  427.000    0.155    6.401    0.401  111.397
  427.250    0.149    6.284    0.410  108.378
  427.500    0.140    6.403    0.420  104.745
  427.750    0.163    6.646    0.416   97.474
  428.000    0.182    6.899    0.408   93.233
  428.250    0.196    7.162    0.403   88.996
  428.500    0.204    7.434    0.393   85.371
  428.750    0.210    7.575    0.384   84.166
  429.000    0.208    7.717    0.377   82.966
  429.250    0.182    8.011    0.374   82.373
  429.500    0.204    8.162    0.374   80.564
  429.750    0.234    8.316    0.376   77.539
  430.000    0.243    8.474    0.380   76.338
  430.250    0.253    8.475    0.377   77.571
  430.500    0.252    8.476    0.379   80.623
  430.750    0.242    8.479    0.382   83.065
  431.000    0.248    8.323    0.379   83.682
  431.250    0.211    8.325    0.380   84.915
  431.500    0.190    8.483    0.389   86.141
  431.750    0.205    8.643    0.392   87.368
  432.000    0.211    8.972    0.381   83.738
  432.250    0.219    9.312    0.393   77.681
  432.500    0.235   10.412    0.404   72.227
  432.750    0.258   11.642    0.409   68.595
  433.000    0.275   12.541    0.395   71.039
  433.250    0.277   13.261    0.406   68.016
  433.500    0.268   14.023    0.422   66.818
  433.750    0.281   14.829    0.408   65.006
  434.000    0.279   15.975    0.390   56.518
  434.250    0.239   19.966    0.386   49.851
  434.500    0.295   25.421    0.445   43.793
  434.750    0.323   37.552    0.442   45.028
  435.000    0.341   51.499    0.424   46.251
  435.250    0.331   60.880    0.425   47.480
  435.500    0.326   62.028    0.425   49.922
  435.750    0.319   58.682    0.422   51.755
  436.000    0.315   54.486    0.422   47.518
  436.250    0.308   36.220    0.411   44.496
  436.500    0.290   22.353    0.382   64.551
  436.750    0.228   16.611    0.362   90.072
  437.000    0.179   13.797    0.354   98.588
  437.250    0.155   10.840    0.379   97.388
  437.500    0.146    9.699    0.383   94.366
  437.750    0.161    9.347    0.372   94.381
  438.000    0.143    9.176    0.372   98.647
  438.250    0.151    9.010    0.384  100.481
  438.500    0.167    9.011    0.395   97.459
  438.750    0.170    9.013    0.404   93.828
  439.000    0.155    9.015    0.392   93.233
  439.250    0.158    9.016    0.382   95.681
  439.500    0.159    9.186    0.375   97.513
  439.750    0.152    9.188    0.374   98.740
  440.000    0.138    9.361    0.384   98.755
  440.250    0.153    9.363    0.395   96.946
  440.500    0.170    9.541    0.398   91.495
  440.750    0.180    9.721    0.375   86.650
  441.000    0.183    9.722    0.367   83.627
  441.250    0.169    9.724    0.356   82.428
  441.500    0.177    9.908    0.367   80.620
  441.750    0.197    9.909    0.372   78.808
  442.000    0.199    9.911    0.372   81.252
  442.250    0.186   10.099    0.369   81.874
  442.500    0.186   10.289    0.379   75.211
  442.750    0.199   10.291    0.373   70.364
  443.000    0.222   10.486    0.361   67.338
  443.250    0.215   11.088    0.356   62.496
  443.500    0.223   12.169    0.357   58.863
  443.750    0.240   14.655    0.372   46.736
  444.000    0.271   17.648    0.434   42.495
  444.250    0.299   22.056    0.455   38.865
  444.500    0.334   29.146    0.460   34.020
  444.750    0.362   37.111    0.456   32.210
  445.000    0.329   40.727    0.452   31.621
  445.250    0.319   43.069    0.440   31.638
  445.500    0.310   41.506    0.423   32.861
  445.750    0.321   37.835    0.422   33.480
  446.000    0.323   35.791    0.426   35.323
  446.250    0.323   34.490    0.418   36.548
  446.500    0.325   36.470    0.414   37.167
  446.750    0.333   43.117    0.415   36.572
  447.000    0.357   45.592    0.414   34.160
  447.250    0.353   46.452    0.406   34.170
  447.500    0.341   42.341    0.404   36.614
  447.750    0.328   37.883    0.401   40.273
  448.000    0.289   29.216    0.400   43.930
  448.250    0.240   26.629    0.389   45.766
  448.500    0.155   25.663    0.345   46.397
  448.750    0.086   25.669    0.275   46.408
  449.000    0.027   26.152    0.221   45.810
  449.250    0.016   26.157    0.207   45.212
  449.500    0.026   30.352    0.194   47.048
  449.750    0.022   35.218    0.210   51.921
  450.000    0.019   44.843    0.194   50.719
  450.250    0.027   56.046    0.163   40.410
  450.500    0.012   70.047    0.134   32.529
  450.750    0.011   75.463    0.130   33.151
  451.000    0.027   76.886    0.123   32.554
  451.250    0.038   72.731    0.119   32.569
  451.500    0.046   56.092    0.114   37.445
  451.750    0.034   44.896    0.110   43.533
  452.000    0.033   39.429    0.115   49.010
  452.250    0.014   33.993    0.146   55.097
