~VERSION INFORMATION
 VERS.                 2.0:   CWLS LOG ASCII STANDARD -VERSION 2.0
 WRAP.                  NO:   ONE LINE PER DEPTH STEP
~WELL INFORMATION BLOCK
#MNEM.UNIT           DATA                    DESCRIPTION OF MNEMONIC
#---------    -------------------            -------------------------------
# Generated from Intellog Unique Number	CS_77_79/WELL/1015
WELL.         H. B. LEISMER                  : Well_name    - WELL
LOC .         00/12-30-078-11W4/0            : Location     - LOCATION
UWI .         00/12-30-078-11W4/0            : Uwi          - UNIQUE WELL ID
ENTR.         JHS                            : Entered      - ENTERED BY
SRVC.         SCHLUMBERGER                   : Scn          - SERVICE COMPANY
STRT.M        245                            : top_depth    - START DEPTH
STOP.M        485                            : bot_depth    - STOP DEPTH
STEP.M        0.25                           : increment    - STEP LENGTH
 NULL. -999.2500:NULL Value
~CURVE INFORMATION BLOCK
#MNEM UNIT       ERCB CURVE CODE    CURVE DESCRIPTION
#-----------   ------------------   ----------------------------------
DEPT.M        00 001 00 00         : DEPTH        - DEPTH
DPHI.V/V      00 890 00 00         : PHID         - DENSITY POROSITY (LIMESTONE)
NPHI.V/V      00 330 00 00         : PHIN         - NEUTRON POROSITY (LIMESTONE)
GR  .API      00 310 00 00         : GR           - GAMMA RAY
ILD .OHMM     00 120 00 00         : RESD         - DEEP RESISTIVITY (DIL)
RHOB.KG/M3    00 350 00 00         : DENS         - BULK DENSITY
~PARAMETER INFORMATION
#MNEM.UNIT           DATA             DESCRIPTION OF MNEMONIC
#---------         -----------     ------------------------------
GL  .M        683                  : gl           - GROUND LEVEL ELEVATION
EREF.M        687.9                : kb           - ELEVATION OF DEPTH REFERENCE
DATM.M        687.9                : datum        - DATUM ELEVATION
TDD .M        488                  : tdd          - TOTAL DEPTH DRILLER
RUN .         ONE                  : Run          - RUN NUMBER
ENG .         BILL                 : Engineer     - RECORDING ENGINEER
WIT .         JIM                  : Witness      - WITNESSED BY
MUD .         GEL                  : Mud_type     - MUD TYPE
MATR.         LIMESTONE            : Logunit      - NEUTRON MATRIX
TMAX.C        27.8                 : BHT          - MAXIMUM RECORDED TEMPERATURE
BHTD.M        488                  : BHTDEP       - MAXIMUM RECORDED TEMPERATURE
MATR.         1                    : LOGUNIT      - NEUTRON MATRIX
RMT .C        25                   : MDTP         - TEMPERATURE OF MUD
NEUT.         1                    : NEUTRON      - NEUTRON TYPE
RESI.         0                    : RESIST       - RESISTIVITY TYPE
RMC .OHMM     0.25                 : RMC          - RESISTIVITY OF MUD CAKE
RMF .OHMM     0.25                 : RMF          - RESISTIVITY OF MUD FILTRATE
SUFT.C        15                   : SUFT         - SURFACE TEMPERATURE
~A  DEPTH     PHID     PHIN       GR     RESD     DENS
# ...
  464.000    0.327    0.414   33.817   25.566 2150.760
  464.250    0.326    0.416   34.446   18.897 2152.920
  464.500    0.318    0.397   39.377   14.508 2165.580
  464.750    0.302    0.385   48.614   12.716 2192.960
  465.000    0.254    0.369   59.694   11.796 2275.000
  465.250    0.222    0.376   68.928   11.582 2329.710
  465.500    0.208    0.404   70.787   11.589 2355.000
  465.750    0.204    0.412   70.802   12.043 2361.370
  466.000    0.208    0.414   68.359   12.756 2355.100
  466.250    0.216    0.419   67.143   13.254 2340.430
  466.500    0.231    0.397   67.156   13.266 2315.260
  466.750    0.238    0.382   65.942   13.271 2302.690
  467.000    0.210    0.396   63.498   13.792 2351.090
  467.250    0.179    0.402   65.971   13.542 2403.700
  467.500    0.158    0.403   67.217   12.804 2439.490
  467.750    0.222    0.408   66.002   12.334 2330.210
  468.000    0.253    0.403   66.629   12.110 2277.700
  468.250    0.232    0.413   69.103   11.669 2313.490
  468.500    0.281    0.388   71.576   11.675 2229.440
  468.750    0.256    0.372   73.436   11.908 2271.540
  469.000    0.239    0.408   74.680   12.141 2301.030
  469.250    0.265    0.393   74.694   12.149 2256.920
  469.500    0.199    0.401   73.482   12.390 2370.510
  469.750    0.261    0.426   72.879   12.394 2263.320
  470.000    0.254    0.432   72.893   12.639 2275.990
  470.250    0.244    0.422   70.449   12.647 2292.860
  470.500    0.230    0.412   68.004   13.145 2316.050
  470.750    0.227    0.414   66.172   13.152 2322.400
  471.000    0.220    0.411   64.958   13.160 2332.960
  471.250    0.244    0.393   63.744   12.677 2293.060
  471.500    0.230    0.375   62.528   12.215 2316.240
  471.750    0.209    0.400   67.459   11.768 2352.020
  472.000    0.247    0.397   71.164   11.339 2286.900
  472.250    0.238    0.381   77.941   11.134 2303.770
  472.500    0.218    0.376   81.642   11.138 2337.460
  472.750    0.226    0.378   81.045   11.575 2322.790
  473.000    0.226    0.370   77.983   12.260 2322.840
  473.250    0.247    0.363   71.237   13.486 2287.140
  473.500    0.258    0.373   67.560   14.280 2268.280
  473.750    0.256    0.374   63.891   15.127 2272.530
  474.000    0.247    0.373   63.902   15.136 2287.290
  474.250    0.237    0.379   65.146   14.309 2304.160
  474.500    0.227    0.403   65.163   13.787 2321.030
  474.750    0.247    0.395   64.559   13.032 2287.450
  475.000    0.251    0.382   68.261   12.319 2281.190
  475.250    0.245    0.369   73.198   11.646 2291.740
  475.500    0.229    0.364   75.670   11.655 2319.130
  475.750    0.217    0.371   75.072   11.664 2338.110
  476.000    0.211    0.380   73.853   11.892 2348.660
  476.250    0.213    0.388   70.795   12.835 2346.610
  476.500    0.221    0.383   67.737   13.852 2331.940
  476.750    0.238    0.387   64.675   14.669 2302.560
  477.000    0.243    0.385   61.001   15.836 2294.190
  477.250    0.248    0.377   58.556   16.768 2285.830
  477.500    0.265    0.383   55.497   18.445 2256.440
  477.750    0.280    0.396   50.594   20.286 2231.260
  478.000    0.282    0.397   50.606   21.897 2227.120
  478.250    0.271    0.389   48.779   22.752 2246.090
  478.500    0.287    0.389   43.258   25.503 2218.810
  478.750    0.297    0.386   38.970   28.591 2202.030
  479.000    0.308    0.393   46.365   29.713 2183.160
  479.250    0.318    0.389   44.535   30.302 2166.390
  479.500    0.304    0.379   40.244   31.486 2189.570
  479.750    0.283    0.374   35.341   33.979 2225.350
  480.000    0.226    0.389   34.126   35.987 2324.220
  480.250    0.163    0.366   31.680   38.116    0.000
  480.500    0.062    0.212   26.162   40.370    0.000
  480.750    0.005    0.191   20.645   41.164    0.000
  481.000    0.031    0.185   20.049   41.184    0.000
  481.250    0.046    0.180   20.056   40.443    0.000
  481.500    0.052    0.177   20.070   38.967    0.000
  481.750    0.061    0.184   20.089   37.538    0.000
  482.000    0.054    0.193   20.101   36.852    0.000
  482.250    0.054    0.203   18.887   36.879    0.000
  482.500    0.065    0.206   18.284   37.604    0.000
  482.750    0.070    0.190   18.302   39.088    0.000
  483.000    0.058    0.180   19.546   39.110    0.000
  483.250    0.051    0.176   20.789   39.130    0.000
  483.500    0.048    0.183   21.419   37.708    0.000
  483.750    0.057    0.193   21.429   37.011    0.000
  484.000    0.060    0.197   21.444   35.661    0.000
  484.250    0.055    0.196   21.458   35.680    0.000
  484.500    0.052    0.193   22.088   35.701    0.000
  484.750    0.060    0.192   21.487   36.423    0.000
  485.000    0.068    0.199   21.502   35.752    0.000
