~VERSION INFORMATION
 VERS.                 2.0:   CWLS LOG ASCII STANDARD -VERSION 2.0
 WRAP.                  NO:   ONE LINE PER DEPTH STEP
~WELL INFORMATION BLOCK
#MNEM.UNIT           DATA                    DESCRIPTION OF MNEMONIC
#---------    -------------------            -------------------------------
# Generated from Intellog Unique Number	CS_73_76/WELL/3276
WELL.         CWWE HARDY                     : Well_name    - WELL
LOC .         00/13-32-076-04W4/0            : Location     - LOCATION
UWI .         00/13-32-076-04W4/0            : Uwi          - UNIQUE WELL ID
ENTR.         SP                             : Entered      - ENTERED BY
SRVC.         SCHLUMBERGER                   : Scn          - SERVICE COMPANY
STRT.M        165                            : top_depth    - START DEPTH
STOP.M        425                            : bot_depth    - STOP DEPTH
STEP.M        0.25                           : increment    - STEP LENGTH
 NULL. -999.2500:NULL Value
~CURVE INFORMATION BLOCK
#MNEM UNIT       ERCB CURVE CODE    CURVE DESCRIPTION
#-----------   ------------------   ----------------------------------
DEPT.M        00 001 00 00         : DEPTH        - DEPTH
DPHI.V/V      00 890 00 00         : PHID         - DENSITY POROSITY (LIMESTONE)
NPHI.V/V      00 330 00 00         : PHIN         - NEUTRON POROSITY (LIMESTONE)
GR  .API      00 310 00 00         : GR           - GAMMA RAY
ILD .OHMM     00 120 00 00         : RESD         - DEEP RESISTIVITY (DIL)
~PARAMETER INFORMATION
#MNEM.UNIT           DATA             DESCRIPTION OF MNEMONIC
#---------         -----------     ------------------------------
GL  .M        580.54               : gl           - GROUND LEVEL ELEVATION
EREF.M        583.04               : kb           - ELEVATION OF DEPTH REFERENCE
DATM.M        580.54               : datum        - DATUM ELEVATION
TDD .M        428                  : tdd          - TOTAL DEPTH DRILLER
RUN .         ONE                  : Run          - RUN NUMBER
ENG .         BILL                 : Engineer     - RECORDING ENGINEER
WIT .         JIM                  : Witness      - WITNESSED BY
MUD .         GEL                  : Mud_type     - MUD TYPE
MATR.         LIMESTONE            : Logunit      - NEUTRON MATRIX
TMAX.C        60                   : BHT          - MAXIMUM RECORDED TEMPERATURE
BHTD.M        428                  : BHTDEP       - MAXIMUM RECORDED TEMPERATURE
MATR.         1                    : LOGUNIT      - NEUTRON MATRIX
RMT .C        25                   : MDTP         - TEMPERATURE OF MUD
NEUT.         1                    : NEUTRON      - NEUTRON TYPE
RESI.         0                    : RESIST       - RESISTIVITY TYPE
RMC .OHMM     0.25                 : RMC          - RESISTIVITY OF MUD CAKE
RMF .OHMM     0.25                 : RMF          - RESISTIVITY OF MUD FILTRATE
SUFT.C        15                   : SUFT         - SURFACE TEMPERATURE
~A  DEPTH     PHID     PHIN       GR     RESD
# ...
  339.000    0.213    0.267   86.362   12.350
  339.250    0.190    0.298   93.684   11.250
  339.500    0.170    0.310   90.640   10.840
  339.750    0.175    0.316   86.377   10.844
  340.000    0.191    0.320   82.723   11.261
  340.250    0.211    0.319   79.679   11.477
  340.500    0.217    0.313   75.416   12.373
  340.750    0.208    0.313   74.810   14.376
  341.000    0.198    0.313   83.962   16.704
  341.250    0.196    0.292   79.698   18.008
  341.500    0.256    0.270   74.827   21.722
  341.750    0.274    0.244   72.391   26.201
  342.000    0.272    0.228   69.349   32.810
  342.250    0.282    0.211   71.181   39.577
  342.500    0.287    0.175   79.725   47.738
  342.750    0.292    0.177   91.315   54.440
  343.000    0.288    0.179   98.026   60.931
  343.250    0.295    0.176   91.324   68.192
  343.500    0.301    0.179   80.353   73.519
  343.750    0.306    0.185   57.187   76.344
  344.000    0.317    0.176   49.874   82.306
  344.250    0.331    0.170   42.562   87.092
  344.500    0.338    0.167   37.688   90.439
  344.750    0.344    0.161   35.255   93.921
  345.000    0.347    0.159   34.040   93.942
  345.250    0.331    0.165   34.655   93.971
  345.500    0.316    0.171   36.489   92.258
  345.750    0.315    0.185   37.103   88.902
  346.000    0.324    0.187   38.327   85.662
  346.250    0.330    0.176   39.553   82.531
  346.500    0.332    0.191   38.338   73.787
  346.750    0.333    0.267   35.904   68.481
  347.000    0.323    0.279   32.859   63.560
  347.250    0.293    0.288   30.425   62.403
  347.500    0.284    0.287   31.040   64.803
  347.750    0.290    0.293   32.265   67.298
  348.000    0.300    0.294   35.318   67.313
  348.250    0.299    0.291   37.152   67.342
  348.500    0.290    0.304   36.548   67.354
  348.750    0.309    0.310   34.725   67.377
  349.000    0.320    0.306   35.337   66.147
  349.250    0.305    0.296   39.002   67.416
  349.500    0.350    0.305   39.007   74.059
  349.750    0.389    0.327   35.963   78.358
  350.000    0.386    0.302   30.613   87.719
  350.250    0.314    0.312   36.128   96.332
  350.500    0.307    0.330   41.030  105.790
  350.750    0.306    0.330   39.810  107.796
  351.000    0.309    0.340   34.916  111.915
  351.250    0.311    0.340   31.858  105.810
  351.500    0.312    0.318   29.413   94.575
  351.750    0.304    0.297   37.989   89.415
  352.000    0.296    0.296   50.238   86.134
  352.250    0.304    0.306   47.793   79.925
  352.500    0.312    0.315   39.838   79.932
  352.750    0.294    0.320   35.556   79.936
  353.000    0.288    0.314   33.723   78.458
  353.250    0.288    0.303   42.911   75.579
  353.500    0.283    0.307   47.201   74.183
  353.750    0.285    0.305   40.470   72.811
  354.000    0.292    0.303   32.515   70.140
  354.250    0.295    0.308   30.070   67.566
  354.500    0.299    0.313   32.523   63.881
  354.750    0.315    0.319   36.813   61.537
  355.000    0.318    0.355   44.164   59.279
  355.250    0.319    0.370   42.944   55.006
  355.500    0.321    0.350   30.703   51.041
  355.750    0.321    0.318   27.033   46.483
  356.000    0.313    0.313   28.262   40.776
  356.250    0.305    0.294   34.388   32.574
  356.500    0.284    0.281   44.188   26.022
  356.750    0.242    0.304   62.560   22.827
  357.000    0.257    0.353   57.666   20.789
  357.250    0.281    0.372   47.874   19.290
  357.500    0.297    0.329   66.246   18.238
  357.750    0.268    0.336   79.720   16.610
  358.000    0.227    0.340   87.683   15.412
  358.250    0.211    0.342   87.075   13.775
  358.500    0.217    0.384   78.508   12.545
  358.750    0.286    0.403   49.123   11.425
  359.000    0.312    0.376   35.657   15.707
  359.250    0.317    0.332   30.151   22.841
  359.500    0.318    0.315   29.543   31.996
  359.750    0.334    0.331   35.670   43.988
  360.000    0.340    0.356   41.796   51.097
  360.250    0.338    0.372   50.984   55.074
  360.500    0.328    0.346   48.539   53.053
  360.750    0.322    0.323   44.258   45.678
  361.000    0.319    0.372   50.996   37.881
  361.250    0.313    0.401   52.837   33.231
  361.500    0.319    0.387   41.208   30.835
  361.750    0.321    0.351   31.416   37.889
  362.000    0.321    0.339   28.971   46.555
  362.250    0.313    0.336   36.323   55.102
  362.500    0.309    0.340   41.224   68.984
  362.750    0.317    0.352   40.004   81.648
  363.000    0.324    0.342   34.498   81.655
  363.250    0.333    0.332   33.890   80.144
  363.500    0.333    0.326   35.731   83.207
  363.750    0.320    0.331   34.510   80.154
  364.000    0.313    0.342   30.841   77.215
  364.250    0.324    0.350   29.008   78.680
  364.500    0.330    0.358   29.624   78.684
  364.750    0.333    0.367   32.077   77.229
  365.000    0.335    0.352   33.918   74.396
  365.250    0.343    0.347   34.534   71.665
  365.500    0.346    0.356   31.477   70.341
  365.750    0.347    0.353   30.869   70.345
  366.000    0.349    0.363   32.710   71.679
  366.250    0.349    0.363   32.102   71.683
  366.500    0.334    0.356   31.493   73.042
  366.750    0.324    0.355   30.273   75.833
  367.000    0.320    0.356   31.502   75.838
  367.250    0.320    0.343   33.955   74.436
  367.500    0.313    0.339   36.407   62.899
  367.750    0.308    0.341   40.085   56.220
  368.000    0.294    0.341   43.151   50.250
  368.250    0.286    0.342   46.216   45.763
  368.500    0.278    0.351   44.995   44.917
  368.750    0.291    0.346   41.326   47.515
  369.000    0.297    0.335   35.819   49.330
  369.250    0.307    0.325   30.313   55.198
  369.500    0.319    0.329   27.868   60.617
  369.750    0.331    0.319   28.485   60.621
  370.000    0.320    0.329   30.938   55.209
  370.250    0.309    0.353   39.514   53.182
  370.500    0.303    0.383   46.252   50.281
  370.750    0.314    0.375   48.706   50.284
  371.000    0.323    0.350   45.036   47.541
  371.250    0.321    0.329   45.652   46.662
  371.500    0.292    0.315   48.718   43.298
  371.750    0.265    0.308   56.069   38.701
  372.000    0.235    0.314   64.645   34.591
  372.250    0.216    0.316   68.322   30.345
  372.500    0.212    0.317   68.326   27.635
  372.750    0.214    0.316   68.330   25.167
  373.000    0.227    0.331   65.885   28.161
  373.250    0.254    0.351   53.644   30.352
  373.500    0.287    0.352   45.076   33.332
  373.750    0.303    0.347   43.243   36.605
  374.000    0.299    0.333   45.697   40.200
  374.250    0.289    0.349   44.476   44.981
  374.500    0.294    0.366   40.807   49.398
  374.750    0.313    0.364   34.076   53.242
  375.000    0.319    0.372   30.407   58.470
  375.250    0.315    0.370   31.023   64.211
  375.500    0.308    0.354   37.150   69.208
  375.750    0.307    0.347   41.439   71.853
  376.000    0.309    0.336   40.219   69.217
  376.250    0.315    0.324   39.611   66.677
  376.500    0.318    0.330   40.839   66.682
  376.750    0.315    0.330   41.456   67.946
  377.000    0.306    0.325   40.848   70.542
  377.250    0.298    0.314   40.239   73.238
  377.500    0.309    0.325   38.407   77.474
  377.750    0.321    0.345   35.349   81.954
  378.000    0.332    0.364   31.067   88.332
  378.250    0.331    0.367   28.623   97.005
  378.500    0.327    0.346   29.852  102.616
  378.750    0.332    0.311   31.080  104.564
  379.000    0.340    0.320   31.084  106.543
  379.250    0.343    0.331   29.864  108.563
  379.500    0.331    0.332   29.255  108.571
  379.750    0.320    0.306   29.259  108.578
  380.000    0.309    0.294   29.875  108.583
  380.250    0.298    0.299   32.329  106.577
  380.500    0.287    0.299   36.006  102.668
  380.750    0.285    0.294   39.071  100.769
  381.000    0.285    0.298   36.627   97.072
  381.250    0.293    0.309   36.630   93.510
  381.500    0.304    0.320   34.185   88.408
  381.750    0.314    0.325   29.904   79.022
  382.000    0.324    0.320   29.908   77.561
  382.250    0.312    0.301   37.259   74.715
