~VERSION INFORMATION
 VERS.                 2.0:   CWLS LOG ASCII STANDARD -VERSION 2.0
 WRAP.                  NO:   ONE LINE PER DEPTH STEP
~WELL INFORMATION BLOCK
#MNEM.UNIT           DATA                    DESCRIPTION OF MNEMONIC
#---------    -------------------            -------------------------------
# Generated from Intellog Unique Number	CN_91_93/WELL/3217
WELL.         UNIVERSAL GAS CO.LTD.          : Well_name    - WELL
LOC .         00/11-30-092-19W4/0            : Location     - LOCATION
UWI .         00/11-30-092-19W4/0            : Uwi          - UNIQUE WELL ID
ENTR.         JOETTE                         : Entered      - ENTERED BY
SRVC.         SCHLUMBERGER                   : Scn          - SERVICE COMPANY
DATE.         04/14/92                       : Date         - LOG DATE
STRT.M        100                            : top_depth    - START DEPTH
STOP.M        255                            : bot_depth    - STOP DEPTH
STEP.M        0.25                           : increment    - STEP LENGTH
 NULL. -999.2500:NULL Value
~CURVE INFORMATION BLOCK
#MNEM UNIT       ERCB CURVE CODE    CURVE DESCRIPTION
#-----------   ------------------   ----------------------------------
DEPT.M        00 001 00 00         : DEPTH        - DEPTH
CALI.MM       00 280 01 00         : CAL          - CALIPER
GR  .API      00 310 00 00         : GR           - GAMMA RAY
NPHI.V/V      00 330 00 00         : PHIN         - NEUTRON POROSITY (SANDSTONE)
DPHI.V/V      00 890 00 00         : PHID         - DENSITY POROSITY (SANDSTONE)
ILD .OHMM     00 120 00 00         : RESD         - DEEP RESISTIVITY (DIL)
~PARAMETER INFORMATION
#MNEM.UNIT           DATA             DESCRIPTION OF MNEMONIC
#---------         -----------     ------------------------------
GL  .M        529                  : gl           - GROUND LEVEL ELEVATION
EREF.M        532                  : kb           - ELEVATION OF DEPTH REFERENCE
DATM.M        532                  : datum        - DATUM ELEVATION
TDD .M        306                  : tdd          - TOTAL DEPTH DRILLER
RUN .         ONE                  : Run          - RUN NUMBER
ENG .         BILL                 : Engineer     - RECORDING ENGINEER
WIT .         JIM                  : Witness      - WITNESSED BY
MUD .         GEL                  : Mud_type     - MUD TYPE
MATR.         SANDSTONE            : Logunit      - NEUTRON MATRIX
TMAX.C        20.5                 : BHT          - MAXIMUM RECORDED TEMPERATURE
BHTD.M        306                  : BHTDEP       - MAXIMUM RECORDED TEMPERATURE
RMT .C        23.8                 : MDTP         - TEMPERATURE OF MUD
MUDD.KG/M     1140                 : MWT          - MUD DENSITY
NEUT.         1                    : NEUTRON      - NEUTRON TYPE
RESI.         0                    : RESIST       - RESISTIVITY TYPE
RM  .OHMM     2.94                 : RM           - RESISTIVITY OF MUD
RMC .OHMM     2.94                 : RMC          - RESISTIVITY OF MUD CAKE
RMF .OHMM     2.7                  : RMF          - RESISTIVITY OF MUD FILTRATE
SUFT.C        4                    : SUFT         - SURFACE TEMPERATURE
~A  DEPTH      CAL       GR     PHIN     PHID     RESD
# ...
  173.000  228.973   76.078    0.470    0.338   12.700
  173.250  229.994   81.673    0.493    0.363   11.114
  173.500  229.981   81.665    0.487    0.395   10.298
  173.750  231.005   81.032    0.479    0.392    9.185
  174.000  232.029   80.400    0.484    0.391    7.737
  174.250  233.054   82.884    0.497    0.405    6.771
  174.500  235.115   88.478    0.501    0.395    5.926
  174.750  237.174   92.828    0.514    0.391    5.596
  175.000  238.198   98.422    0.532    0.406    6.393
  175.250  238.185   99.659    0.555    0.407    9.179
  175.500  236.097   86.579    0.593    0.421   11.983
  175.750  234.008   77.234    0.576    0.441   17.536
  176.000  235.036   67.889    0.538    0.449   20.812
  176.250  233.982   60.409    0.503    0.429   20.032
  176.500  230.856   57.911    0.493    0.355   15.343
  176.750  228.765   56.038    0.475    0.239   11.529
  177.000  227.718   57.275    0.435    0.225    8.664
  177.250  226.670   62.870    0.372    0.355    8.027
  177.500  226.654   69.085    0.357    0.375    8.026
  177.750  226.637   74.679    0.496    0.388    8.026
  178.000  226.627   80.273    0.507    0.390    8.497
  178.250  226.611   83.378    0.516    0.383    9.168
  178.500  227.635   87.723    0.532    0.384   10.083
  178.750  229.697   88.964    0.543    0.378   11.089
  179.000  230.724   90.824    0.518    0.371   11.966
  179.250  231.749   89.571    0.514    0.362   13.671
  179.500  229.660   74.623    0.519    0.340   15.324
  179.750  228.610   70.256    0.505    0.302   19.256
  180.000  227.559   71.493    0.485    0.303   24.198
  180.250  226.508   67.130    0.510    0.356   29.270
  180.500  226.495   63.387    0.461    0.291   28.174
  180.750  227.513   60.889    0.362    0.161   25.130
  181.000  227.503   60.257    0.398    0.190   19.617
  181.250  228.527   79.546    0.478    0.317   15.908
  181.500  229.548   90.120    0.492    0.346   12.900
  181.750  230.572   96.957    0.497    0.347   11.953
  182.000  230.559   93.215    0.502    0.345   12.181
  182.250  228.471   91.964    0.508    0.345   12.180
  182.500  226.380   90.086    0.498    0.417   11.948
  182.750  226.373   86.346    0.488    0.439   11.723
  183.000  226.350   83.846    0.469    0.443   10.862
  183.250  225.306   84.460    0.465    0.427   10.257
  183.500  225.293   87.565    0.502    0.403   10.256
  183.750  225.279   88.802    0.492    0.381   10.452
  184.000  226.307   86.306    0.466    0.360   10.255
  184.250  226.294   75.716    0.459    0.207    9.684
  184.500  228.352   80.688    0.461    0.222    9.146
  184.750  229.373   86.904    0.493    0.349    8.157
  185.000  231.435   94.366    0.509    0.365    7.415
  185.250  232.459  102.451    0.513    0.373    7.275
  185.500  233.487  105.553    0.519    0.377    7.850
  185.750  232.436   99.943    0.528    0.378    9.317
  186.000  231.385   94.333    0.524    0.371   11.057
  186.250  229.297   88.100    0.492    0.365   13.122
  186.500  227.209   89.337    0.465    0.356   13.631
  186.750  228.227   95.554    0.449    0.365   14.430
  187.000  228.220  101.148    0.459    0.370   14.430
  187.250  229.244   96.159    0.469    0.376   14.988
  187.500  231.303   93.663    0.468    0.373   16.801
  187.750  232.330   91.165    0.467    0.364   19.564
  188.000  232.314   78.707    0.436    0.345   19.192
  188.250  230.219   75.587    0.398    0.299   17.119
  188.500  229.175   74.955    0.387    0.245   13.111
  188.750  228.124   80.549    0.445    0.354   12.149
  189.000  227.070   89.878    0.496    0.370   12.147
  189.250  227.060   94.848    0.507    0.371   12.146
  189.500  227.041   96.708    0.509    0.365   12.378
  189.750  227.034   97.943    0.518    0.359   12.377
  190.000  227.017   98.559    0.513    0.356   11.913
  190.250  227.004   97.306    0.507    0.358   11.467
  190.500  226.988   96.053    0.500    0.360   11.037
  190.750  226.978   97.290    0.510    0.365   10.828
  191.000  228.002   99.148    0.516    0.370   11.908
  191.250  229.030  100.389    0.513    0.366   12.370
  191.500  231.091   99.759    0.499    0.364   14.680
  191.750  231.078   89.791    0.497    0.354   16.146
  192.000  227.949   81.068    0.478    0.342   17.422
  192.250  224.820   77.322    0.402    0.325   18.444
  192.500  224.804   80.426    0.435    0.344   18.094
  192.750  224.797   84.775    0.426    0.355   17.416
  193.000  224.784   87.260    0.423    0.315   15.534
  193.250  224.771   89.119    0.445    0.376   13.855
  193.500  224.758   89.111    0.467    0.386   12.838
  193.750  224.741   87.236    0.468    0.385   13.084
  194.000  225.762   86.605    0.466    0.383   13.852
  194.250  225.752   86.597    0.463    0.385   14.388
  194.500  225.742   90.324    0.474    0.379   14.663
  194.750  225.726   94.674    0.482    0.372   14.385
  195.000  225.716   98.399    0.483    0.361   13.585
  195.250  225.699  100.881    0.486    0.357   13.584
  195.500  225.683  100.873    0.490    0.359   14.381
  195.750  225.673   98.375    0.488    0.354   13.841
  196.000  225.656   95.879    0.484    0.344   12.113
  196.250  225.643   90.887    0.479    0.317   10.804
  196.500  226.667   91.502    0.469    0.326   11.011
  196.750  228.729   94.606    0.500    0.358   12.342
  197.000  231.828   97.088    0.509    0.366   13.318
  197.250  235.968  100.815    0.515    0.368   14.370
  197.500  238.023   99.564    0.523    0.368   14.369
  197.750  236.976   88.974    0.507    0.328   13.831
  198.000  232.813   86.475    0.444    0.221   13.568
  198.250  230.728   91.448    0.439    0.352   14.923
  198.500  228.637   97.041    0.461    0.370   15.208
  198.750  227.586   93.300    0.478    0.381    8.589
  199.000  226.535   88.933    0.477    0.381    5.868
  199.250  224.447   93.907    0.471    0.379    4.850
  199.500  224.434  101.368    0.468    0.380    7.514
  199.750  227.533  108.830    0.485    0.382    8.750
  200.000  230.632  113.176    0.510    0.401    9.997
  200.250  230.619  107.568    0.548    0.397   10.994
  200.500  227.494  101.335    0.595    0.389   12.802
  200.750  225.399   95.102    0.568    0.385   13.553
  201.000  225.392   88.869    0.523    0.371   13.297
  201.250  225.379   87.617    0.508    0.347   12.557
  201.500  226.403   90.098    0.519    0.347   11.635
  201.750  229.502   94.446    0.522    0.356   10.988
  202.000  231.564   95.683    0.519    0.364   10.986
  202.250  234.663   94.432    0.510    0.369   10.985
  202.500  235.688   89.442    0.504    0.370   11.630
  202.750  234.634   93.169    0.511    0.370   12.549
  203.000  233.583   95.031    0.521    0.370   14.338
  203.250  231.491  100.623    0.525    0.365   20.981
  203.500  232.519  102.483    0.525    0.362   22.640
  203.750  234.581   93.138    0.516    0.352   25.378
  204.000  235.605   82.547    0.421    0.291   26.868
  204.250  233.514   80.050    0.446    0.247   25.860
  204.500  230.388   75.062    0.464    0.299   23.961
  204.750  229.334   70.072    0.449    0.234   20.185
  205.000  229.324   69.444    0.402    0.222   17.331
  205.250  229.311   87.488    0.364    0.305   15.756
  205.500  229.301   93.704    0.383    0.332   14.879
  205.750  229.301   92.450    0.400    0.350   14.877
  206.000  227.190   91.819    0.435    0.357   14.876
  206.250  228.224   94.926    0.443    0.357   15.452
  206.500  229.245   96.161    0.465    0.355   16.994
  206.750  229.228   96.153    0.470    0.356   18.338
  207.000  230.256   92.410    0.461    0.336   20.950
  207.250  230.243   86.798    0.448    0.280   23.935
  207.500  230.226   88.033    0.426    0.250   25.827
  207.750  230.213   88.651    0.409    0.254   25.337
  208.000  229.162   88.643    0.424    0.303   23.476
  208.250  229.149   86.146    0.438    0.290   22.597
  208.500  229.133   84.268    0.433    0.271   22.169
  208.750  228.085   83.640    0.415    0.247   22.166
  209.000  228.069   84.254    0.398    0.255   21.746
  209.250  227.021   86.736    0.416    0.306   19.769
