~VERSION INFORMATION
 VERS.                 2.0:   CWLS LOG ASCII STANDARD -VERSION 2.0
 WRAP.                  NO:   ONE LINE PER DEPTH STEP
~WELL INFORMATION BLOCK
#MNEM.UNIT           DATA                    DESCRIPTION OF MNEMONIC
#---------    -------------------            -------------------------------
# Generated from Intellog Unique Number	CS_71_72/WELL/867
WELL.         PEX PHILLIPS AEC GRIST         : Well_name    - WELL
LOC .         00/10-23-071-08W4/0            : Location     - LOCATION
UWI .         00/10-23-071-08W4/0            : Uwi          - UNIQUE WELL ID
ENTR.         SP                             : Entered      - ENTERED BY
SRVC.         SCHLUMBERGER                   : Scn          - SERVICE COMPANY
STRT.M        310                            : top_depth    - START DEPTH
STOP.M        530                            : bot_depth    - STOP DEPTH
STEP.M        0.25                           : increment    - STEP LENGTH
 NULL. -999.2500:NULL Value
~CURVE INFORMATION BLOCK
#MNEM UNIT       ERCB CURVE CODE    CURVE DESCRIPTION
#-----------   ------------------   ----------------------------------
DEPT.M        00 001 00 00         : DEPTH        - DEPTH
ILD .OHMM     00 120 00 00         : RESD         - DEEP RESISTIVITY (DIL)
DPHI.V/V      00 890 00 00         : PHID         - DENSITY POROSITY (LIMESTONE)
NPHI.V/V      00 330 00 00         : PHIN         - NEUTRON POROSITY (LIMESTONE)
GR  .API      00 310 00 00         : GR           - GAMMA RAY
~PARAMETER INFORMATION
#MNEM.UNIT           DATA             DESCRIPTION OF MNEMONIC
#---------         -----------     ------------------------------
GL  .M        670.2                : gl           - GROUND LEVEL ELEVATION
EREF.M        674                  : kb           - ELEVATION OF DEPTH REFERENCE
DATM.M        670.2                : datum        - DATUM ELEVATION
TDD .M        540                  : tdd          - TOTAL DEPTH DRILLER
RUN .         ONE                  : Run          - RUN NUMBER
ENG .         BILL                 : Engineer     - RECORDING ENGINEER
WIT .         JIM                  : Witness      - WITNESSED BY
MUD .         GEL                  : Mud_type     - MUD TYPE
MATR.         LIMESTONE            : Logunit      - NEUTRON MATRIX
TMAX.C        23                   : BHT          - MAXIMUM RECORDED TEMPERATURE
BHTD.M        540                  : BHTDEP       - MAXIMUM RECORDED TEMPERATURE
MATR.         1                    : LOGUNIT      - NEUTRON MATRIX
RMT .C        25                   : MDTP         - TEMPERATURE OF MUD
NEUT.         1                    : NEUTRON      - NEUTRON TYPE
RESI.         0                    : RESIST       - RESISTIVITY TYPE
RMC .OHMM     0.25                 : RMC          - RESISTIVITY OF MUD CAKE
RMF .OHMM     0.25                 : RMF          - RESISTIVITY OF MUD FILTRATE
SUFT.C        15                   : SUFT         - SURFACE TEMPERATURE
~A  DEPTH     RESD     PHID     PHIN       GR
# ...
  484.000    5.683    0.160    0.399   85.380
  484.250    5.558    0.182    0.412   85.195
  484.500    5.653    0.180    0.408   80.932
  484.750    5.826    0.157    0.363   82.815
  485.000    6.026    0.153    0.365   86.098
  485.250    6.210    0.174    0.381   88.225
  485.500    6.305    0.197    0.409   79.337
  485.750    6.342    0.223    0.424   73.857
  486.000    6.331    0.225    0.376   74.949
  486.250    6.320    0.233    0.361   75.494
  486.500    6.334    0.239    0.376   76.160
  486.750    6.323    0.183    0.379   81.450
  487.000    6.013    0.192    0.412   86.923
  487.250    5.870    0.259    0.451   72.742
  487.500    6.095    0.289    0.499   59.717
  487.750    6.399    0.310    0.378   43.223
  488.000    7.281    0.303    0.358   44.558
  488.250    8.471    0.270    0.358   58.186
  488.500    9.320    0.245    0.357   67.492
  488.750    9.767    0.239    0.348   69.376
  489.000    9.953    0.254    0.343   66.207
  489.250    9.955    0.266    0.360   69.794
  489.500   10.051    0.273    0.377   74.720
  489.750   10.572    0.255    0.393   77.394
  490.000   12.487    0.239    0.389   67.412
  490.250   17.709    0.272    0.388   55.664
  490.500   25.782    0.296    0.383   43.369
  490.750   35.291    0.308    0.373   37.768
  491.000   42.229    0.317    0.365   40.320
  491.250   45.259    0.321    0.374   45.307
  491.500   39.499    0.319    0.386   49.745
  491.750   28.706    0.299    0.394   55.036
  492.000   22.862    0.266    0.376   63.125
  492.250   18.865    0.245    0.358   69.572
  492.500   15.422    0.237    0.353   74.741
  492.750   13.560    0.231    0.347   78.146
  493.000   12.377    0.228    0.343   78.812
  493.250   11.881    0.233    0.346   76.192
  493.500   12.244    0.246    0.374   74.424
  493.750   12.784    0.270    0.402   66.632
  494.000   13.076    0.293    0.412   54.823
  494.250   11.433    0.299    0.394   49.770
  494.500    9.811    0.298    0.383   51.592
  494.750    8.280    0.292    0.375   55.544
  495.000    7.501    0.284    0.362   58.644
  495.250    6.962    0.283    0.360   60.770
  495.500    6.499    0.292    0.368   59.672
  495.750    6.452    0.300    0.364   58.512
  496.000    6.838    0.299    0.363   61.673
  496.250    7.139    0.295    0.377   65.685
  496.500    7.482    0.293    0.384   67.873
  496.750    7.683    0.283    0.360   70.060
  497.000    7.669    0.243    0.349   71.700
  497.250    7.613    0.230    0.362   72.366
  497.500    7.488    0.227    0.380   73.337
  497.750    7.242    0.213    0.368   77.714
  498.000    7.004    0.195    0.354   83.127
  498.250    6.748    0.211    0.367   91.095
  498.500    6.514    0.229    0.389   97.055
  498.750    6.127    0.208    0.392  101.433
  499.000    5.980    0.195    0.372  104.350
  499.250    5.720    0.197    0.369  103.130
  499.500    5.636    0.209    0.375   87.488
  499.750    5.553    0.217    0.326   78.053
  500.000    5.513    0.180    0.311   82.978
  500.250    5.524    0.100    0.377   89.060
  500.500    5.546    0.078    0.409   91.674
  500.750    5.557    0.128    0.425   92.948
  501.000    5.611    0.152    0.395   89.537
  501.250    5.675    0.159    0.387   84.909
  501.500    5.730    0.166    0.394   85.392
  501.750    5.741    0.174    0.388   89.405
  502.000    5.732    0.178    0.394   92.931
  502.250    5.679    0.188    0.402   93.963
  502.500    5.638    0.179    0.394   92.803
  502.750    5.577    0.163    0.375   96.451
  503.000    5.516    0.152    0.364  101.011
  503.250    5.465    0.169    0.374  104.720
  503.500    5.395    0.168    0.387  106.481
  503.750    5.307    0.160    0.388  106.661
  504.000    5.248    0.166    0.398  102.215
  504.250    5.162    0.173    0.407   98.926
  504.500    5.077    0.170    0.394   99.714
  504.750    5.003    0.165    0.404  102.205
  505.000    4.948    0.156    0.435  102.506
  505.250    4.949    0.147    0.456  100.921
  505.500    4.968    0.158    0.461   99.274
  505.750    5.016    0.173    0.447   98.723
  506.000    5.111    0.160    0.427  103.162
  506.250    5.816    0.170    0.428   98.291
  506.500    6.779    0.205    0.458   83.988
  506.750    8.127    0.253    0.471   67.129
  507.000    9.369    0.270    0.414   55.686
  507.250   10.116    0.245    0.363   62.923
  507.500   10.742    0.223    0.376   66.085
  507.750   11.194    0.217    0.397   64.195
  508.000   10.198    0.240    0.413   58.715
  508.250   10.828    0.265    0.402   53.600
  508.500   11.714    0.283    0.389   47.329
  508.750   12.231    0.299    0.385   42.945
  509.000    9.614    0.310    0.397   39.656
  509.250    7.159    0.318    0.384   36.488
  509.500    5.617    0.323    0.352   38.128
  509.750    4.731    0.266    0.337   48.408
  510.000    4.183    0.277    0.374   51.630
  510.250    3.890    0.295    0.394   46.394
  510.500    3.791    0.310    0.373   43.287
  510.750    3.777    0.279    0.367   45.474
  511.000    3.792    0.257    0.372   52.712
  511.250    3.800    0.232    0.362   58.976
  511.500    3.786    0.253    0.376   57.026
  511.750    3.766    0.275    0.362   47.043
  512.000    3.760    0.294    0.344   42.841
  512.250    3.761    0.279    0.365   50.931
  512.500    3.768    0.254    0.355   56.465
  512.750    3.769    0.237    0.365   55.488
  513.000    3.721    0.248    0.377   51.225
  513.250    3.585    0.259    0.387   47.632
  513.500    3.500    0.267    0.373   43.734
  513.750    3.335    0.282    0.363   39.958
  514.000    3.261    0.290    0.353   39.772
  514.250    3.405    0.286    0.352   39.830
  514.500    3.275    0.322    0.375   37.697
  514.750    3.167    0.338    0.405   35.624
  515.000    3.121    0.328    0.397   37.629
  515.250    3.081    0.317    0.394   40.364
  515.500    3.053    0.326    0.401   38.292
  515.750    3.042    0.324    0.382   39.019
  516.000    3.065    0.300    0.362   49.117
  516.250    3.195    0.269    0.341   51.121
  516.500    3.323    0.249    0.366   47.224
  516.750    3.399    0.301    0.382   35.415
  517.000    3.356    0.320    0.367   27.380
  517.250    3.126    0.302    0.358   23.543
  517.500    2.913    0.278    0.354   22.383
  517.750    2.724    0.282    0.359   21.833
  518.000    2.600    0.307    0.362   24.446
  518.250    2.557    0.341    0.369   30.345
  518.500    2.558    0.343    0.385   40.443
  518.750    2.681    0.327    0.411   39.101
  519.000    2.873    0.319    0.415   36.481
  519.250    2.868    0.327    0.401   29.905
  519.500    2.743    0.332    0.369   27.103
  519.750    2.618    0.333    0.358   26.066
  520.000    2.504    0.329    0.363   25.941
  520.250    2.422    0.320    0.368   27.276
  520.500    2.427    0.307    0.367   37.495
  520.750    2.543    0.289    0.351   55.382
  521.000    2.626    0.263    0.356   62.072
  521.250    2.804    0.264    0.388   55.437
  521.500    2.971    0.281    0.403   44.724
  521.750    3.209    0.232    0.378   70.886
  522.000    3.227    0.222    0.369   72.647
  522.250    3.319    0.243    0.376   60.900
  522.500    3.320    0.283    0.397   50.369
  522.750    3.187    0.315    0.411   38.683
  523.000    2.986    0.322    0.387   33.812
  523.250    2.808    0.324    0.343   31.130
  523.500    2.681    0.316    0.369   30.701
  523.750    2.691    0.231    0.380   30.394
  524.000    2.763    0.009    0.304   28.078
  524.250    3.011   -0.004    0.244   20.651
  524.500    4.130    0.011    0.149   15.171
  524.750    6.057    0.021    0.141   12.734
  525.000    9.627    0.014    0.134   13.096
  525.250   22.948    0.007    0.125   13.275
  525.500   30.259   -0.002    0.118   13.576
  525.750   31.476   -0.007    0.114   14.303
  526.000   31.365   -0.001    0.132   22.515
  526.250   24.426    0.008    0.223   35.655
  526.500   18.019    0.020    0.251   57.679
  526.750   14.703    0.028    0.279   65.769
  527.000   12.384    0.030    0.307   67.226
  527.250   11.053    0.036    0.296   65.458
