~VERSION INFORMATION
 VERS.                 2.0:   CWLS LOG ASCII STANDARD -VERSION 2.0
 WRAP.                  NO:   ONE LINE PER DEPTH STEP
~WELL INFORMATION BLOCK
#MNEM.UNIT           DATA                    DESCRIPTION OF MNEMONIC
#---------    -------------------            -------------------------------
# Generated from Intellog Unique Number	CC_80_83/WELL/2443
NULL.         -999.25                        : NULL_VALUE
WELL.         SUNCOR GRAHAM                  : WELL_NAME
LOC .         16-15-080-05W4                 : Location     - LOCATION          
UWI .         00/16-15-080-05W400            : Uwi          - UNIQUE WELL ID    
ENTR.         DW                             : Entered      - ENTERED BY        
SRVC.         SCHLUMBERGER                   : Scn          - SERVICE COMPANY   
DATE.         24 NOV 77                      : Date         - LOG DATE
STRT.M        85                             : top_depth    - START DEPTH       
STOP.M        289.9                          : bot_depth    - STOP DEPTH        
STEP.M        0.3                            : increment    - STEP LENGTH       
~CURVE INFORMATION BLOCK
#MNEM UNIT       ERCB CURVE CODE    CURVE DESCRIPTION
#-----------   ------------------   ----------------------------------
DEPT.M        00 001 00 00         : DEPTH        - DEPTH                       
DPHI.V/V      00 890 00 00         : PHID         - DENSITY POROSITY (LIMESTONE)
NPHI.V/V      00 330 00 00         : PHIN         - NEUTRON POROSITY (LIMESTONE)
GR  .API      00 310 00 00         : GR           - GAMMA RAY                   
ILD .OHMM     00 120 00 00         : RESD         - DEEP RESISTIVITY (DIL)      
~PARAMETER INFORMATION       
#MNEM.UNIT           DATA             DESCRIPTION OF MNEMONIC
#---------         -----------     ------------------------------
GL  .M        465.7                : gl           - GROUND LEVEL ELEVATION      
EREF.M        468.7                : kb           - ELEVATION OF DEPTH REFERENCE
DATM.M        468.7                : datum        - DATUM ELEVATION             
TDD .M        298                  : tdd          - TOTAL DEPTH DRILLER         
RUN .         ONE                  : Run          - RUN NUMBER                  
ENG .         BILL                 : Engineer     - RECORDING ENGINEER          
WIT .         JIM                  : Witness      - WITNESSED BY                
MUD .         GEL                  : Mud_type     - MUD TYPE                    
MATR.         LIMESTONE            : Logunit      - NEUTRON MATRIX              
TMAX.C        22                   : BHT          - MAXIMUM RECORDED TEMPERATURE
BHTD.M        298                  : BHTDEP       - MAXIMUM RECORDED TEMPERATURE
MATR.         1                    : LOGUNIT      - NEUTRON MATRIX              
RMT .C        25                   : MDTP         - TEMPERATURE OF MUD          
NEUT.         1                    : NEUTRON      - NEUTRON TYPE                
RESI.         0                    : RESIST       - RESISTIVITY TYPE            
RMC .OHMM     0.25                 : RMC          - RESISTIVITY OF MUD CAKE     
RMF .OHMM     0.25                 : RMF          - RESISTIVITY OF MUD FILTRATE 
SUFT.C        15                   : SUFT         - SURFACE TEMPERATURE         
~A  DEPTH     PHID     PHIN       GR     RESD
# ...
  137.201    0.249    0.445  100.513    9.687
  137.501    0.250    0.456   96.723    9.504
  137.801    0.247    0.448   97.398    9.504
  138.101    0.237    0.435   98.074    9.504
  138.401    0.233    0.438   99.401    9.504
  138.701    0.228    0.447   98.156    9.504
  139.001    0.224    0.442   95.641    9.687
  139.301    0.228    0.435   96.954    9.504
  139.601    0.252    0.430   98.279    9.504
  139.901    0.255    0.434   96.401    9.324
  140.201    0.239    0.453   95.160    9.324
  140.501    0.262    0.466  100.965    8.975
  140.801    0.272    0.469  103.568    8.805
  141.101    0.271    0.464  103.605    8.805
  141.401    0.243    0.430  101.080    8.805
  141.701    0.248    0.395   96.002    8.805
  142.001    0.262    0.400   94.766    8.975
  142.301    0.248    0.415   96.741    9.148
  142.601    0.234    0.427   96.135    9.148
  142.901    0.244    0.438   94.884    9.148
  143.201    0.240    0.452   91.087    9.148
  143.501    0.233    0.457   92.415    9.148
  143.801    0.231    0.452   93.096    8.975
  144.101    0.232    0.434   91.844    8.975
  144.401    0.242    0.446   96.370    8.975
  144.701    0.247    0.468   92.567    8.975
  145.001    0.235    0.487   90.686    8.975
  145.301    0.258    0.469   91.366    8.975
  145.601    0.258    0.459   90.768    8.805
  145.901    0.247    0.461   91.456    8.316
  146.201    0.232    0.447   94.702    7.704
  146.501    0.227    0.435   97.289    7.704
  146.801    0.238    0.451   99.892    8.158
  147.101    0.244    0.442  101.218    8.805
  147.401    0.250    0.434   92.292    8.975
  147.701    0.261    0.427   89.128    8.975
  148.001    0.265    0.426   93.023    8.975
  148.301    0.264    0.442   91.775    8.805
  148.601    0.261    0.454   87.972    8.639
  148.901    0.254    0.453   90.572    8.476
  149.201    0.256    0.443   95.105    8.316
  149.501    0.251    0.434   96.416    8.004
  149.801    0.250    0.424   88.773    7.853
  150.101    0.257    0.454   83.694    7.416
  150.401    0.274    0.440   92.062    7.276
  150.701    0.260    0.434   95.296    7.003
  151.001    0.255    0.447   96.622    6.489
  151.301    0.237    0.453   91.544    6.012
  151.601    0.227    0.463   89.656    5.570
  151.901    0.265    0.474   96.099    5.465
  152.201    0.321    0.498  102.544    5.361
  152.501    0.304    0.516  100.671    5.260
  152.801    0.295    0.521   96.862    5.260
  153.101    0.296    0.499   98.822    5.361
  153.401    0.305    0.490   98.224    5.361
  153.701    0.303    0.522   91.224    5.361
  154.001    0.284    0.514   86.141    5.361
  154.301    0.276    0.494   89.386    5.677
  154.601    0.273    0.486   88.144    6.246
  154.901    0.275    0.477   82.432    6.614
  155.201    0.273    0.463   81.185    6.871
  155.501    0.270    0.430   84.430    6.871
  155.801    0.267    0.446   84.465    6.871
  156.101    0.270    0.452   84.504    7.276
  156.401    0.278    0.441   84.553    8.805
  156.701    0.316    0.452   81.387    9.874
  157.001    0.331    0.448   69.273   10.862
  157.301    0.341    0.424   66.746   11.950
  157.601    0.342    0.424   66.795   12.653
  157.901    0.324    0.443   68.109   12.653
  158.201    0.314    0.433   70.075   13.146
  158.501    0.312    0.421   67.552   13.657
  158.801    0.317    0.424   67.602   14.462
  159.101    0.320    0.439   68.269   15.609
  159.401    0.323    0.436   68.322   17.502
  159.701    0.324    0.427   67.080   22.430
  160.001    0.270    0.339   65.829   23.752
  160.301    0.089    0.276   60.752   20.003
  160.601    0.115    0.281   56.309   16.528
  160.901    0.270    0.367   57.636   13.399
  161.201    0.319    0.403   61.509   13.399
  161.501    0.327    0.417   67.318   13.657
  161.801    0.330    0.418   67.997   13.657
  162.101    0.328    0.412   66.753   13.657
  162.401    0.327    0.412   66.803   13.920
  162.701    0.329    0.418   68.756   13.920
  163.001    0.334    0.423   68.154   14.188
  163.301    0.337    0.427   63.085   14.462
  163.601    0.339    0.427   65.690   14.462
  163.901    0.341    0.425   68.286   14.462
  164.201    0.341    0.447   67.043   14.462
  164.501    0.330    0.447   66.442   14.188
  164.801    0.320    0.408   70.335   13.920
  165.101    0.317    0.398   71.650   13.920
  165.401    0.322    0.406   71.684   13.657
  165.701    0.327    0.428   69.811   13.146
  166.001    0.326    0.438   68.566   13.146
  166.301    0.323    0.440   71.805   12.897
  166.601    0.325    0.437   72.483   12.897
  166.901    0.332    0.424   69.330   12.897
  167.201    0.337    0.420   69.377   13.146
  167.501    0.333    0.423   70.698   13.146
  167.801    0.330    0.431   71.376   13.657
  168.101    0.333    0.444   70.127   13.657
  168.401    0.331    0.424   68.258   14.188
  168.701    0.330    0.412   67.013   14.188
  169.001    0.328    0.416   65.126   14.462
  169.301    0.330    0.428   62.615   14.462
  169.601    0.332    0.427   61.374   14.462
  169.901    0.325    0.422   62.064   14.188
  170.201    0.331    0.417   63.371   13.920
  170.501    0.337    0.406   65.990   13.920
  170.801    0.331    0.415   66.011   13.657
  171.101    0.327    0.428   65.410   13.657
  171.401    0.318    0.420   68.017   13.399
  171.701    0.319    0.428   69.340   13.146
  172.001    0.319    0.435   68.097   12.653
  172.301    0.314    0.429   64.935   12.414
  172.601    0.309    0.416   61.140   11.950
  172.901    0.307    0.412   63.092   11.724
  173.201    0.308    0.411   69.539   11.502
  173.501    0.313    0.422   68.933   10.657
  173.801    0.300    0.448   74.739    8.975
  174.101    0.286    0.471   86.298    5.898
  174.401    0.279    0.477   94.662    5.063
  174.701    0.276    0.493   93.429    4.691
  175.001    0.275    0.508   92.836    4.515
  175.301    0.274    0.499   94.143    4.430
  175.601    0.277    0.480   93.546    4.104
  175.901    0.290    0.497   97.431    3.591
  176.201    0.309    0.522  104.507    2.911
  176.501    0.325    0.533  104.555    2.749
  176.801    0.323    0.592  101.389    2.547
  177.101    0.327    0.588   98.886    2.547
  177.401    0.325    0.574   99.549    2.596
  177.701    0.305    0.550  100.235    2.646
  178.001    0.280    0.529  100.912    2.749
  178.301    0.265    0.530  100.308    2.856
  178.601    0.266    0.527   99.077    3.083
  178.901    0.271    0.514   98.478    3.803
  179.201    0.276    0.490   97.239    4.515
  179.501    0.276    0.480   94.710    5.161
  179.801    0.280    0.493   90.925    5.787
  180.101    0.286    0.494   89.682    5.677
  180.401    0.270    0.492   89.078    5.161
  180.701    0.271    0.495   87.842    4.967
  181.001    0.298    0.480   85.958    4.874
  181.301    0.313    0.442   82.791    5.465
  181.601    0.288    0.442   73.232    6.871
  181.901    0.190    0.481   66.234    8.004
  182.201    0.197    0.492   64.995    8.805
  182.501    0.329    0.476   72.070    8.975
  182.801    0.335    0.453   82.993    8.975
  183.101    0.336    0.448   84.321    8.639
  183.401    0.334    0.485   80.526    8.316
  183.701    0.320    0.474   79.279    7.853
  184.001    0.290    0.434   85.089    7.853
  184.301    0.298    0.442   85.122    8.158
  184.601    0.312    0.471   80.046    8.805
  184.901    0.323    0.486   78.162    9.148
  185.201    0.332    0.487   78.844    9.148
  185.501    0.323    0.459   77.602    9.324
  185.801    0.307    0.464   81.479    9.324
  186.101    0.295    0.462   75.763    9.148
  186.401    0.298    0.460   73.238    8.975
  186.701    0.299    0.450   85.443    8.975
  187.001    0.290    0.443   88.046    8.805
  187.301    0.270    0.428   91.923    8.639
  187.601    0.261    0.428   90.683    8.476
  187.901    0.269    0.437   88.175    8.158
  188.201    0.286    0.449   88.854    7.704
  188.501    0.291    0.463   91.459    7.276
  188.801    0.286    0.478   94.694    6.128
  189.101    0.278    0.466   97.927    6.128
