~VERSION INFORMATION
 VERS.                 2.0:   CWLS LOG ASCII STANDARD -VERSION 2.0
 WRAP.                  NO:   ONE LINE PER DEPTH STEP
~WELL INFORMATION BLOCK
#MNEM.UNIT           DATA                    DESCRIPTION OF MNEMONIC
#---------    -------------------            -------------------------------
# Generated from Intellog Unique Number	CS_69_70/WELL/2903
WELL.         HUSKY OIL OPERATIONS LTD.      : Well_name    - WELL
LOC .         00/12-31-069-08W4/0            : Location     - LOCATION
UWI .         00/12-31-069-08W4/0            : Uwi          - UNIQUE WELL ID
ENTR.         JOETTE                         : Entered      - ENTERED BY
SRVC.         SCHLUMBERGER                   : Scn          - SERVICE COMPANY
DATE.         05/15/92                       : Date         - LOG DATE
STRT.M        350                            : top_depth    - START DEPTH
STOP.M        560                            : bot_depth    - STOP DEPTH
STEP.M        0.25                           : increment    - STEP LENGTH
 NULL. -999.2500:NULL Value
~CURVE INFORMATION BLOCK
#MNEM UNIT       ERCB CURVE CODE    CURVE DESCRIPTION
#-----------   ------------------   ----------------------------------
DEPT.M        00 001 00 00         : DEPTH        - DEPTH
GR  .API      00 310 00 00         : GR           - GAMMA RAY
NPHI.V/V      00 330 00 00         : PHIN         - NEUTRON POROSITY (SANDSTONE)
DPHI.V/V      00 890 00 00         : PHID         - DENSITY POROSITY (SANDSTONE)
ILD .OHMM     00 120 00 00         : RESD         - DEEP RESISTIVITY (DIL)
CALI.MM       00 280 01 00         : CAL          - CALIPER
~PARAMETER INFORMATION
#MNEM.UNIT           DATA             DESCRIPTION OF MNEMONIC
#---------         -----------     ------------------------------
GL  .M        683.4                : gl           - GROUND LEVEL ELEVATION
EREF.M        687.1                : kb           - ELEVATION OF DEPTH REFERENCE
DATM.M        687.1                : datum        - DATUM ELEVATION
TDD .M        561.7                : tdd          - TOTAL DEPTH DRILLER
RUN .         ONE                  : Run          - RUN NUMBER
ENG .         BILL                 : Engineer     - RECORDING ENGINEER
WIT .         JIM                  : Witness      - WITNESSED BY
MUD .         GEL                  : Mud_type     - MUD TYPE
MATR.         SANDSTONE            : Logunit      - NEUTRON MATRIX
TMAX.C        23                   : BHT          - MAXIMUM RECORDED TEMPERATURE
BHTD.M        561.7                : BHTDEP       - MAXIMUM RECORDED TEMPERATURE
RMT .C        14.4                 : MDTP         - TEMPERATURE OF MUD
MUDD.KG/M     1100                 : MWT          - MUD DENSITY
NEUT.         1                    : NEUTRON      - NEUTRON TYPE
RESI.         0                    : RESIST       - RESISTIVITY TYPE
RM  .OHMM     4.51                 : RM           - RESISTIVITY OF MUD
RMC .OHMM     5.23                 : RMC          - RESISTIVITY OF MUD CAKE
RMF .OHMM     5.23                 : RMF          - RESISTIVITY OF MUD FILTRATE
SUFT.C        4                    : SUFT         - SURFACE TEMPERATURE
~A  DEPTH       GR     PHIN     PHID     RESD      CAL
# ...
  496.000   84.429    0.453    0.228    3.150  158.070
  496.250   86.315    0.465    0.242    3.099  160.223
  496.500   87.596    0.438    0.253    2.997  162.324
  496.750   88.231    0.398    0.256    2.900  166.508
  497.000   90.117    0.398    0.236    2.854  168.609
  497.250   90.784    0.424    0.228    2.806  168.696
  497.500   83.447    0.452    0.241    2.761  167.757
  497.750   84.103    0.474    0.254    2.625  166.767
  498.000   89.063    0.489    0.256    2.497  164.820
  498.250   90.334    0.500    0.260    2.455  164.889
  498.500   87.926    0.487    0.265    2.589  164.924
  498.750   89.802    0.459    0.274    2.824  165.027
  499.000   93.532    0.429    0.263    2.976  165.079
  499.250   96.658    0.412    0.252    3.084  165.165
  499.500   96.095    0.395    0.245    3.195  164.209
  499.750   96.751    0.401    0.241    3.253  164.278
  500.000   97.407    0.409    0.233    3.256  164.346
  500.250   95.593    0.388    0.190    3.205  164.415
  500.500   88.257    0.376    0.160    3.099  164.467
  500.750   88.319    0.375    0.193    2.997  164.536
  501.000   88.954    0.399    0.221    2.706  164.622
  501.250   81.003    0.448    0.233    2.320  163.649
  501.500   90.881    0.501    0.231    2.096  165.801
  501.750  103.844    0.522    0.234    2.063  169.952
  502.000  107.585    0.500    0.237    2.065  173.095
  502.250  111.305    0.501    0.232    2.066  171.114
  502.500  113.816    0.496    0.232    2.068  165.052
  502.750  110.158    0.487    0.241    2.035  162.064
  503.000  112.054    0.485    0.239    2.036  161.091
  503.250  113.939    0.498    0.239    2.004  159.128
  503.500  111.521    0.525    0.240    1.972  159.179
  503.750  113.407    0.525    0.243    1.875  158.206
  504.000  116.543    0.515    0.241    1.813  159.334
  504.250  115.345    0.519    0.240    1.878  160.410
  504.500  112.916    0.522    0.240    2.015  161.504
  504.750  104.350    0.521    0.249    2.198  161.590
  505.000   93.325    0.491    0.241    2.438  160.617
  505.250   83.529    0.461    0.228    2.949  158.654
  505.500   74.963    0.402    0.205    3.445  157.698
  505.750   69.481    0.376    0.185    4.097  156.742
  506.000   68.907    0.354    0.185    4.546  156.793
  506.250   72.013    0.384    0.215    5.045  157.904
  506.500   81.276    0.419    0.219    5.410  159.015
  506.750   86.236    0.402    0.200    5.701  160.108
  507.000   80.744    0.384    0.181    6.011  161.202
  507.250   72.178    0.368    0.196    6.227  161.271
  507.500   67.915    0.376    0.219    6.341  161.357
  507.750   65.497    0.395    0.272    6.569  161.391
  508.000   66.768    0.394    0.283    6.692  160.470
  508.250   64.371    0.392    0.280    6.813  160.504
  508.500   63.183    0.428    0.276    6.938  160.573
  508.750   63.214    0.424    0.263    7.065  159.669
  509.000   63.265    0.415    0.226    7.073  159.703
  509.250   63.306    0.427    0.199    7.080  159.789
  509.500   65.797    0.452    0.226    6.851  158.816
  509.750   70.142    0.460    0.257    6.739  158.902
  510.000   71.423    0.453    0.267    6.517  158.954
  510.250   68.995    0.442    0.266    6.306  159.023
  510.500   67.827    0.426    0.259    6.310  159.092
  510.750   67.264    0.397    0.224    6.652  159.178
  511.000   67.284    0.374    0.193    7.133  159.247
  511.250   64.867    0.283    0.127    7.136  159.315
  511.500   61.834    0.351    0.093    6.789  159.384
  511.750   63.719    0.372    0.143    6.451  159.487
  512.000   69.919    0.360    0.218    5.926  159.539
  512.250   75.494    0.356    0.223    5.262  159.608
  512.500   77.380    0.372    0.232    5.175  159.694
  512.750   82.965    0.407    0.246    5.454  159.728
  513.000   87.914    0.406    0.262    5.848  158.790
  513.250   91.040    0.404    0.274    6.270  158.876
  513.500   92.926    0.415    0.282    6.725  158.910
  513.750   89.883    0.380    0.281    6.847  159.013
  514.000   77.638    0.351    0.260    5.205  160.124
  514.250   80.138    0.331    0.241    4.465  160.176
  514.500   86.328    0.362    0.208    4.171  160.245
  514.750   98.051    0.377    0.185    3.899  160.313
  515.000  112.858    0.413    0.189    3.836  160.382
  515.250  120.892    0.466    0.199    4.045  160.451
  515.500  122.163    0.411    0.213    4.189  160.520
  515.750  106.219    0.365    0.233    4.491  160.589
  516.000   81.657    0.359    0.267    4.985  160.658
  516.250   73.101    0.372    0.292    5.345  160.726
  516.500   78.051    0.360    0.298    5.829  160.795
  516.750   87.335    0.350    0.303    6.583  160.864
  517.000   91.055    0.384    0.308    7.307  160.950
  517.250   89.877    0.379    0.293    7.971  161.019
  517.500   89.303    0.375    0.281    8.256  161.071
  517.750   91.179    0.385    0.293    8.127  161.157
  518.000   93.680    0.398    0.314    7.858  161.226
  518.250   86.958    0.399    0.313    7.341  160.287
  518.500   80.236    0.394    0.306    6.628  160.356
  518.750   86.426    0.389    0.308    5.783  160.425
  519.000   98.774    0.383    0.304    4.791  160.493
  519.250  106.193    0.469    0.293    4.253  160.579
  519.500  116.696    0.487    0.239    4.113  160.631
  519.750  117.352    0.425    0.141    4.336  160.683
  520.000  111.246    0.392    0.217    4.650  160.786
  520.250  110.672    0.376    0.254    4.985  160.838
  520.500  108.869    0.356    0.260    5.253  159.882
  520.750   91.685    0.344    0.255    5.635  157.901
  521.000   80.045    0.375    0.236    5.641  155.921
  521.250   88.704    0.382    0.183    5.645  157.049
  521.500   92.444    0.340    0.099    5.553  158.108
  521.750   77.094    0.284    0.020    5.190  158.194
  522.000   64.839    0.288    0.114    4.851  159.270
  522.250   85.795    0.412    0.225    4.381  159.373
  522.500   99.362    0.409    0.245    4.164  159.425
  522.750   90.181    0.400    0.257    3.890  159.477
  523.000   66.859    0.377    0.268    3.635  158.521
  523.250   55.834    0.344    0.269    3.340  153.500
  523.500   51.572    0.341    0.252    3.230  152.545
  523.750   59.605    0.395    0.231    3.124  154.663
  524.000   68.254    0.404    0.212    3.181  155.739
  524.250   82.447    0.375    0.239    3.353  157.875
  524.500   97.859    0.356    0.236    3.473  158.968
  524.750   77.611    0.351    0.223    3.662  159.037
  525.000   83.800    0.394    0.223    3.928  159.106
  525.250  102.922    0.393    0.225    4.067  159.157
  525.500  105.422    0.381    0.220    4.363  159.243
  525.750  105.453    0.370    0.224    4.363  160.371
  526.000  107.954    0.377    0.258    5.282  160.423
  526.250  100.002    0.412    0.269    5.282  161.517
  526.500   94.531    0.453    0.194    5.203  161.585
  526.750   94.552    0.532    0.129    4.777  161.654
  527.000   96.437    0.524    0.061    4.622  161.706
  527.250  105.711    0.475   -0.003    4.031  161.792
  527.500  119.279    0.416    0.216    3.457  161.878
  527.750   93.487    0.369    0.255    3.286  160.888
  528.000   70.165    0.379    0.281    3.071  159.966
  528.250   61.599    0.370    0.306    2.920  161.060
  528.500   53.033    0.357    0.322    2.872  161.129
  528.750   48.156    0.355    0.331    2.778  161.197
  529.000   48.812    0.364    0.331    2.688  160.259
  529.250   52.542    0.378    0.325    2.689  161.318
  529.500   54.428    0.390    0.325    2.693  161.404
  529.750   53.854    0.382    0.328    2.790  161.490
  530.000   53.906    0.375    0.331    2.841  161.542
  530.250   53.947    0.379    0.327    3.100  161.611
  530.500   55.228    0.386    0.314    3.211  160.672
  530.750   56.499    0.374    0.298    3.442  159.699
  531.000   57.760    0.357    0.287    3.691  159.802
  531.250   61.511    0.340    0.275    3.957  159.854
  531.500   64.616    0.343    0.258    4.318  159.905
  531.750   68.336    0.345    0.239    4.551  159.974
  532.000   76.995    0.332    0.226    4.716  159.053
  532.250   81.340    0.327    0.228    4.720  159.087
