~VERSION INFORMATION
 VERS.                 2.0:   CWLS LOG ASCII STANDARD -VERSION 2.0
 WRAP.                  NO:   ONE LINE PER DEPTH STEP
~WELL INFORMATION BLOCK
#MNEM.UNIT           DATA                    DESCRIPTION OF MNEMONIC
#---------    -------------------            -------------------------------
# Generated from Intellog Unique Number	CW_73_75/WELL/1045
WELL.         L56 ET AL MARTIN 11-28         : Well_name    - WELL
LOC .         00/11-28-074-23W4/0            : Location     - LOCATION
UWI .         00/11-28-074-23W4/0            : Uwi          - UNIQUE WELL ID
ENTR.         JAYE                           : Entered      - ENTERED BY
SRVC.         SCHLUMBERGER                   : Scn          - SERVICE COMPANY
DATE.         1 JAN 76                       : Date         - LOG DATE
STRT.M        396.24                         : top_depth    - START DEPTH
STOP.M        624.74                         : bot_depth    - STOP DEPTH
STEP.M        0.25                           : increment    - STEP LENGTH
 NULL. -999.2500:NULL Value
~CURVE INFORMATION BLOCK
#MNEM UNIT       ERCB CURVE CODE    CURVE DESCRIPTION
#-----------   ------------------   ----------------------------------
DEPT.M        00 001 00 00         : DEPTH        - DEPTH
ILD .OHMM     00 120 00 00         : RESD         - DEEP RESISTIVITY (DIL)
DPHI.V/V      00 890 00 00         : PHID         - DENSITY POROSITY (SANDSTONE)
NPHI.V/V      00 330 00 00         : PHIN         - NEUTRON POROSITY (SANDSTONE)
GR  .API      00 310 00 00         : GR           - GAMMA RAY
CALI.MM       00 280 01 00         : CAL          - CALIPER
~PARAMETER INFORMATION
#MNEM.UNIT           DATA             DESCRIPTION OF MNEMONIC
#---------         -----------     ------------------------------
GL  .M        691.896              : gl           - GROUND LEVEL ELEVATION
EREF.M        695.249              : kb           - ELEVATION OF DEPTH REFERENCE
DATM.M        691.896              : datum        - DATUM ELEVATION
TDD .M        636.422              : tdd          - TOTAL DEPTH DRILLER
RUN .         ONE                  : Run          - RUN NUMBER
MATR.         SANDSTONE            : Logunit      - NEUTRON MATRIX
TMAX.C        22.2222              : BHT          - MAXIMUM RECORDED TEMPERATURE
BHTD.M        637.032              : BHTDEP       - MAXIMUM RECORDED TEMPERATURE
RMT .C        26.6667              : MDTP         - TEMPERATURE OF MUD
MUDD.KG/M     0                    : MWT          - MUD DENSITY
NEUT.         1                    : NEUTRON      - NEUTRON TYPE
RESI.         0                    : RESIST       - RESISTIVITY TYPE
RM  .OHMM     1.11                 : RM           - RESISTIVITY OF MUD
RMC .OHMM     0                    : RMC          - RESISTIVITY OF MUD CAKE
RMF .OHMM     1.02                 : RMF          - RESISTIVITY OF MUD FILTRATE
SUFT.C        -17.7778             : SUFT         - SURFACE TEMPERATURE
~A  DEPTH     RESD     PHID     PHIN       GR      CAL
  396.240    5.437    0.248    0.388   61.855  158.917
  396.490    5.458    0.240    0.389   60.734  156.194
  396.740    5.371    0.247    0.395   60.349  153.269
  396.990    5.315    0.263    0.401   62.097  154.366
  397.240    5.220    0.236    0.394   65.371  157.537
  397.490    5.090    0.235    0.400   65.471  158.534
  397.740    4.946    0.229    0.409   65.999  155.193
  397.990    4.591    0.214    0.412   70.188  152.990
  398.240    4.163    0.208    0.420   83.038  153.985
  398.490    3.726    0.232    0.430   90.032  155.290
  398.740    3.360    0.201    0.439   94.220  156.912
  398.990    3.108    0.185    0.471   95.907  159.769
  399.240    2.906    0.181    0.498   94.241  165.207
  399.490    2.819    0.191    0.499   93.487  168.066
  399.740    2.779    0.176    0.501   97.553  164.000
  399.990    2.739    0.184    0.514   95.581  161.072
  400.240    2.628    0.181    0.497   94.339  160.626
  400.490    2.512    0.188    0.485   97.613  160.175
  400.740    2.418    0.197    0.477  100.031  161.278
  400.990    2.307    0.205    0.493  100.560  165.684
  401.240    2.201    0.206    0.512  102.918  171.949
  401.490    2.085    0.219    0.526  103.142  178.526
  401.740    2.007    0.227    0.521   97.387  180.451
  401.990    1.961    0.223    0.523   95.049  176.389
  402.240    1.965    0.226    0.528   94.599  178.727
  402.490    1.987    0.237    0.531   96.347  180.966
  402.740    1.991    0.228    0.548   99.377  178.139
  402.990    2.007    0.236    0.568  100.882  172.424
  403.240    2.033    0.241    0.557  100.066  167.743
  403.490    2.075    0.238    0.537  101.145  170.494
  403.740    2.090    0.220    0.542  101.551  176.244
  403.990    2.061    0.230    0.537   98.846  181.582
  404.240    2.010    0.249    0.518   98.764  170.286
  404.490    2.003    0.231    0.533  100.452  163.434
  404.740    2.026    0.226    0.565   99.821  174.347
  404.990    2.094    0.232    0.553   95.896  181.233
  405.240    2.148    0.230    0.536   91.544  187.602
  405.490    2.192    0.238    0.521   90.974  189.841
  405.740    2.238    0.231    0.526   95.039  178.339
  405.990    2.300    0.202    0.549   96.118  179.128
  406.240    2.318    0.244    0.529   94.937  185.396
  406.490    2.281    0.232    0.517   96.625  186.083
  406.740    2.281    0.249    0.511  100.814  172.001
  406.990    2.299    0.196    0.534   99.329  166.796
  407.240    2.312    0.214    0.542   97.965  168.933
  407.490    2.355    0.218    0.531   97.578  172.719
  407.740    2.360    0.236    0.513   95.240  166.280
  407.990    2.387    0.189    0.526   93.450  161.906
  408.240    2.427    0.165    0.558   95.929  168.069
  408.490    2.490    0.186    0.562   99.264  180.842
  408.740    2.546    0.188    0.524   99.303  185.457
  408.990    2.575    0.186    0.502   98.978  183.974
  409.240    2.590    0.179    0.493   99.872  183.939
  409.490    2.629    0.175    0.499  100.522  186.590
  409.740    2.683    0.176    0.533   99.038  183.041
  409.990    2.693    0.170    0.524   95.478  180.632
  410.240    2.694    0.164    0.519   95.458  187.412
  410.490    2.651    0.181    0.525   91.412  186.243
  410.740    2.642    0.203    0.514   87.914  162.140
  410.990    2.648    0.218    0.520   98.560  157.146
  411.240    2.531    0.211    0.517  100.439  178.389
  411.490    2.495    0.196    0.510  103.223  189.715
  411.740    2.487    0.188    0.524  103.812  188.958
  411.990    2.566    0.191    0.544  102.633  186.855
  412.240    2.662    0.189    0.540  100.538  181.967
  412.490    2.711    0.183    0.531  103.446  180.587
  412.740    2.757    0.188    0.549  105.438  168.468
  412.990    2.793    0.169    0.556   99.134  166.572
  413.240    2.814    0.218    0.537   97.465  175.111
  413.490    2.826    0.219    0.515   95.431  175.697
  413.740    2.847    0.178    0.497   92.178  175.348
  413.990    2.832    0.187    0.469   87.337  180.583
  414.240    2.707    0.100    0.458   84.572  172.491
  414.490    2.573    0.031    0.454   80.281  159.957
  414.740    2.415   -0.002    0.473   75.136  162.091
  414.990    2.246    0.281    0.590   77.738  188.497
  415.240    2.151    0.285    0.617   78.814  194.144
  415.490    2.191    0.324    0.526   77.209  189.874
  415.740    2.445    0.326    0.446   72.978  172.900
  415.990    2.839    0.199    0.433   61.733  158.090
  416.240    3.407    0.215    0.457   58.114  158.365
  416.490    4.015    0.250    0.457   58.825  157.505
  416.740    4.663    0.255    0.440   58.315  151.580
  416.990    5.416    0.270    0.459   58.418  150.303
  417.240    6.142    0.290    0.469   56.628  150.063
  417.490    6.407    0.299    0.462   55.752  150.752
  417.740    6.293    0.303    0.438   57.013  151.333
  417.990    6.015    0.232    0.412   61.140  152.231
  418.240    5.760    0.206    0.421   63.986  153.437
  418.490    5.485    0.190    0.423   62.379  155.364
  418.740    5.252    0.154    0.406   65.286  155.018
  418.990    5.011    0.143    0.420   71.549  152.712
  419.240    4.763    0.239    0.421   74.578  154.119
  419.490    4.544    0.216    0.442   74.680  159.148
  419.740    4.351    0.206    0.454   75.268  176.052
  419.990    4.159    0.265    0.457   78.297  186.864
  420.240    4.004    0.271    0.467   79.802  179.702
  420.490    3.800    0.266    0.438   80.757  162.520
  420.740    3.586    0.197    0.440   85.617  156.493
  420.990    3.415    0.207    0.463   97.064  168.854
  421.240    3.282    0.190    0.467  105.095  172.330
  421.490    3.343    0.129    0.477  104.952  160.311
  421.740    3.506    0.178    0.470   98.404  160.686
  421.990    3.912    0.209    0.416   87.647  161.372
  422.240    4.389    0.231    0.388   81.588  159.895
  422.490    5.032    0.223    0.401   77.053  157.792
  422.740    5.503    0.236    0.421   73.799  155.487
  422.990    5.658    0.196    0.401   71.703  153.075
  423.240    5.701    0.182    0.387   70.341  151.903
  423.490    5.713    0.163    0.396   68.611  152.383
  423.740    5.715    0.198    0.405   70.970  154.308
  423.990    5.644    0.224    0.402   77.537  155.621
  424.240    5.554    0.223    0.400   81.542  156.308
  424.490    5.396    0.225    0.400   86.829  156.583
  424.740    5.195    0.211    0.397   90.406  156.960
  424.990    5.039    0.202    0.383   94.107  157.750
  425.240    4.851    0.190    0.389   97.990  158.953
  425.490    4.670    0.177    0.418  101.752  159.437
  425.740    4.505    0.184    0.430  104.780  159.919
  425.990    4.353    0.177    0.454  106.651  162.258
  426.240    4.442    0.197    0.471  101.933  165.013
  426.490    4.693    0.232    0.456   78.298  166.936
  426.740    5.086    0.288    0.419   62.485  167.215
  426.990    5.572    0.238    0.390   56.547  163.977
  427.240    5.952    0.195    0.348   59.027  156.608
  427.490    5.997    0.128    0.342   68.339  153.986
  427.740    5.869    0.154    0.384   78.262  153.954
  427.990    5.671    0.211    0.390   80.925  154.226
  428.240    5.411    0.185    0.407   84.747  155.223
  428.490    5.106    0.214    0.423   88.569  156.431
  428.740    4.792    0.259    0.454   87.755  158.667
  428.990    4.572    0.251    0.491   85.477  159.562
  429.240    4.541    0.273    0.468   81.797  159.008
  429.490    4.608    0.226    0.440   75.798  158.356
  429.740    4.738    0.268    0.418   65.834  157.287
  429.990    4.844    0.244    0.406   64.532  155.495
  430.240    4.925    0.222    0.411   64.022  153.603
  430.490    4.927    0.230    0.423   63.087  152.636
  430.740    4.883    0.238    0.409   65.995  152.187
  430.990    4.805    0.247    0.412   72.500  152.258
  431.240    4.833    0.220    0.416   84.254  153.049
  431.490    4.924    0.182    0.399   92.040  154.457
  431.740    5.117    0.216    0.401   93.238  156.385
  431.990    5.455    0.228    0.402   90.107  158.623
  432.240    5.774    0.213    0.376   83.987  160.239
  432.490    6.078    0.201    0.372   77.256  160.619
