~VERSION INFORMATION
 VERS.                 2.0:   CWLS LOG ASCII STANDARD -VERSION 2.0
 WRAP.                  NO:   ONE LINE PER DEPTH STEP
~WELL INFORMATION BLOCK
#MNEM.UNIT           DATA                    DESCRIPTION OF MNEMONIC
#---------    -------------------            -------------------------------
# Generated from Intellog Unique Number	CC_80_83/WELL/2442
NULL.         -999.25                        : NULL_VALUE
WELL.         GULF RESDELN                   : Well_name    - WELL              
LOC .         16-03-083-07W4                 : Location     - LOCATION          
UWI .         00/16-03-083-07W4/0            : Uwi          - UNIQUE WELL ID    
ENTR.         DW                             : Entered      - ENTERED BY        
SRVC.         SCHLUMBERGER                   : Scn          - SERVICE COMPANY   
DATE.         08 MAR 81                      : Date         - LOG DATE
STRT.M        210                            : top_depth    - START DEPTH       
STOP.M        459.892                        : bot_depth    - STOP DEPTH        
STEP.M        0.3                            : increment    - STEP LENGTH       
~CURVE INFORMATION BLOCK
#MNEM UNIT       ERCB CURVE CODE    CURVE DESCRIPTION
#-----------   ------------------   ----------------------------------
DEPT.M        00 001 00 00         : DEPTH        - DEPTH                       
DPHI.V/V      00 890 00 00         : PHID         - DENSITY POROSITY (LIMESTONE)
NPHI.V/V      00 330 00 00         : PHIN         - NEUTRON POROSITY (LIMESTONE)
GR  .API      00 310 00 00         : GR           - GAMMA RAY                   
ILD .OHMM     00 120 00 00         : RESD         - DEEP RESISTIVITY (DIL)      
~PARAMETER INFORMATION       
#MNEM.UNIT           DATA             DESCRIPTION OF MNEMONIC
#---------         -----------     ------------------------------
GL  .M        670.8                : gl           - GROUND LEVEL ELEVATION      
EREF.M        675.45               : kb           - ELEVATION OF DEPTH REFERENCE
DATM.M        675.45               : datum        - DATUM ELEVATION             
TDD .M        505                  : tdd          - TOTAL DEPTH DRILLER         
RUN .         ONE                  : Run          - RUN NUMBER                  
ENG .         BILL                 : Engineer     - RECORDING ENGINEER          
WIT .         JIM                  : Witness      - WITNESSED BY                
MUD .         GEL                  : Mud_type     - MUD TYPE                    
MATR.         LIMESTONE            : Logunit      - NEUTRON MATRIX              
TMAX.C        18                   : BHT          - MAXIMUM RECORDED TEMPERATURE
BHTD.M        505                  : BHTDEP       - MAXIMUM RECORDED TEMPERATURE
MATR.         1                    : LOGUNIT      - NEUTRON MATRIX              
RMT .C        25                   : MDTP         - TEMPERATURE OF MUD          
NEUT.         1                    : NEUTRON      - NEUTRON TYPE                
RESI.         0                    : RESIST       - RESISTIVITY TYPE            
RMC .OHMM     0.25                 : RMC          - RESISTIVITY OF MUD CAKE     
RMF .OHMM     0.25                 : RMF          - RESISTIVITY OF MUD FILTRATE 
SUFT.C        4                    : SUFT         - SURFACE TEMPERATURE         
~A  DEPTH     PHID     PHIN       GR     RESD
# ...
  262.200    0.191    0.430   74.560   10.332
  262.500    0.189    0.418   69.623   11.574
  262.800    0.212    0.421   63.453   13.217
  263.100    0.218    0.425   56.045   15.095
  263.400    0.278    0.411   53.585   16.586
  263.700    0.290    0.386   53.606   17.201
  264.000    0.288    0.384   53.632   17.852
  264.300    0.289    0.386   54.901   18.168
  264.600    0.301    0.401   56.167   17.799
  264.900    0.279    0.421   56.795   16.778
  265.200    0.288    0.449   59.917   16.431
  265.500    0.308    0.456   59.946   17.048
  265.800    0.296    0.450   59.961   19.091
  266.100    0.300    0.425   58.123   20.579
  266.400    0.287    0.420   55.674   21.359
  266.700    0.300    0.433   54.458   21.318
  267.000    0.304    0.462   54.476   20.879
  267.300    0.285    0.443   53.879   20.446
  267.600    0.290    0.438   50.187   19.657
  267.900    0.293    0.436   51.446   17.833
  268.200    0.295    0.434   53.950   14.981
  268.500    0.287    0.439   56.447   12.832
  268.800    0.296    0.446   60.191   11.416
  269.100    0.303    0.452   62.069   11.622
  269.400    0.287    0.453   61.474   13.014
  269.700    0.275    0.442   59.016   14.863
  270.000    0.293    0.420   55.326   17.303
  270.300    0.279    0.417   54.723   17.610
  270.600    0.276    0.430   54.134   15.969
  270.900    0.296    0.498   55.398   14.765
  271.200    0.314    0.461   56.036   14.188
  271.500    0.302    0.460   57.294   14.162
  271.800    0.297    0.433   59.180   14.151
  272.100    0.283    0.414   59.816   14.397
  272.400    0.262    0.419   60.456   14.377
  272.700    0.272    0.449   59.865   14.083
  273.000    0.283    0.461   58.032   13.270
  273.300    0.291    0.460   57.427   12.513
  273.600    0.275    0.455   59.934   11.345
  273.900    0.283    0.471   64.295   11.111
  274.200    0.291    0.442   64.315   11.101
  274.500    0.288    0.440   62.473   11.509
  274.800    0.289    0.462   60.022   12.179
  275.100    0.292    0.447   58.182   14.727
  275.400    0.291    0.438   55.728   16.822
  275.700    0.265    0.448   54.513   16.466
  276.000    0.254    0.460   53.918   16.447
  276.300    0.297    0.448   54.558   17.067
  276.600    0.311    0.442   55.206   18.399
  276.900    0.292    0.458   54.604   20.612
  277.200    0.308    0.464   52.145   22.220
  277.500    0.302    0.448   48.454   22.608
  277.800    0.295    0.448   47.242   22.147
  278.100    0.288    0.459   47.876   20.874
  278.400    0.298    0.458   50.386   20.058
  278.700    0.309    0.462   52.883   18.897
  279.000    0.314    0.459   54.763   18.162
  279.300    0.307    0.465   56.023   18.133
  279.600    0.323    0.484   57.905   18.099
  279.900    0.333    0.478   57.306   17.737
  280.199    0.302    0.426   54.849   16.090
  280.499    0.284    0.423   56.734   14.880
  280.799    0.294    0.433   58.616   14.299
  281.099    0.299    0.454   58.022   14.553
  281.399    0.292    0.443   55.564   15.098
  281.699    0.272    0.434   54.968   15.968
  281.999    0.265    0.436   56.229   16.246
  282.299    0.269    0.446   56.247   15.912
  282.599    0.280    0.452   55.650   15.887
  282.899    0.295    0.452   53.198   16.802
  283.199    0.294    0.447   51.360   18.113
  283.499    0.301    0.436   48.290   20.293
  283.799    0.270    0.425   47.073   22.307
  284.099    0.262    0.406   47.092   21.023
  284.399    0.267    0.398   48.352   17.322
  284.699    0.271    0.410   53.332   16.025
  284.999    0.287    0.457   57.070   14.533
  285.299    0.295    0.467   61.429   13.185
  285.599    0.293    0.452   67.034   13.164
  285.899    0.252    0.441   67.671   14.742
  286.199    0.236    0.461   67.080   16.203
  286.499    0.266    0.479   66.478   17.471
  286.799    0.282    0.479   64.644   18.834
  287.099    0.291    0.477   62.803   19.919
  287.399    0.283    0.467   59.112   20.651
  287.699    0.307    0.445   56.034   20.632
  287.999    0.297    0.447   56.069   20.595
  288.299    0.298    0.454   56.703   20.568
  288.599    0.305    0.454   57.342   19.752
  288.899    0.317    0.461   58.604   18.983
  289.199    0.315    0.458   60.486   18.956
  289.499    0.315    0.451   62.364   18.561
  289.799    0.322    0.430   59.296   16.847
  290.099    0.321    0.430   57.463   15.280
  290.399    0.303    0.459   57.483   14.676
  290.699    0.286    0.480   58.739   14.651
  290.999    0.301    0.466   63.099   14.920
  291.299    0.296    0.464   68.077   15.482
  291.599    0.258    0.465   66.247   17.009
  291.899    0.258    0.498   63.786   18.689
  292.199    0.299    0.473   60.097   19.768
  292.499    0.314    0.473   59.502   20.505
  292.799    0.311    0.468   59.524   20.873
  293.099    0.322    0.453   59.540   20.841
  293.399    0.325    0.442   59.564   20.413
  293.699    0.323    0.457   60.204   20.379
  293.999    0.321    0.461   59.609   20.341
  294.299    0.325    0.476   59.634   20.693
  294.599    0.321    0.468   60.896   20.675
  294.899    0.322    0.459   61.537   21.037
  295.199    0.318    0.470   61.559   21.012
  295.499    0.328    0.474   60.958   21.375
  295.799    0.321    0.477   59.748   21.351
  296.099    0.328    0.458   59.770   21.311
  296.399    0.323    0.459   59.787   21.278
  296.699    0.332    0.465   59.810   20.847
  296.999    0.325    0.456   61.694   20.418
  297.299    0.330    0.448   62.334   20.003
  297.599    0.329    0.444   63.604   20.350
  297.899    0.325    0.441   64.241   20.711
  298.199    0.308    0.438   66.119   21.077
  298.499    0.314    0.454   67.379   21.048
  298.799    0.316    0.477   67.408   20.621
  299.099    0.321    0.487   67.426   18.707
  299.399    0.318    0.487   69.929   15.719
  299.699    0.304    0.474   73.045   12.230
  299.999    0.318    0.444   78.026   10.276
  300.299    0.333    0.439   82.388    8.799
  300.599    0.320    0.446   84.886    8.135
  300.899    0.283    0.468   86.766    7.816
  301.199    0.241    0.481   86.787    7.955
  301.499    0.221    0.490   88.056    8.098
  301.799    0.218    0.478   89.317    7.929
  302.099    0.184    0.451   91.195    8.072
  302.399    0.206    0.459   93.075    8.375
  302.699    0.215    0.469   93.719    9.025
  302.999    0.211    0.458   94.363    9.188
  303.299    0.211    0.458   96.240    8.829
  303.599    0.197    0.474   98.121    8.983
  303.899    0.206    0.473   94.425    9.321
  304.199    0.171    0.452   89.492    9.308
  304.499    0.181    0.468   89.513    7.821
  304.798    0.202    0.437   94.493    2.119
  305.098    0.210    0.435  101.949    1.285
  305.398    0.201    0.453  112.503    1.211
  305.698    0.206    0.486  115.007    1.256
  305.998    0.177    0.519  113.168    1.673
  306.298    0.158    0.533  110.712    3.462
  306.598    0.174    0.516  107.641    3.805
  306.898    0.169    0.506  107.040    4.022
  307.198    0.179    0.514  106.446    4.014
  307.498    0.185    0.524  105.853    4.010
  307.798    0.184    0.535  105.875    3.928
  308.098    0.173    0.550  104.042    3.921
  308.398    0.183    0.548  101.587    3.915
  308.698    0.197    0.538  100.362    4.221
  308.998    0.197    0.557   99.770    4.639
  309.298    0.208    0.573   98.548    5.099
  309.598    0.199    0.569   91.137    5.497
  309.898    0.215    0.558   89.302    5.702
  310.198    0.216    0.538   90.564    5.916
  310.498    0.235    0.518   91.824    5.906
  310.798    0.206    0.491   89.374    5.897
  311.098    0.217    0.494   89.396    5.557
  311.398    0.224    0.523   91.897    4.852
  311.698    0.247    0.542   95.020    3.999
  311.998    0.221    0.505   96.894    2.938
  312.298    0.212    0.507   98.163    2.563
  312.598    0.237    0.523   98.808    2.560
  312.898    0.203    0.527   98.829    2.605
  313.198    0.215    0.564   98.844    2.702
  313.498    0.218    0.555   95.768    2.805
  313.798    0.223    0.541   90.219    3.083
  314.098    0.222    0.571   87.760    3.453
