~VERSION INFORMATION
 VERS.                 2.0:   CWLS LOG ASCII STANDARD -VERSION 2.0
 WRAP.                  NO:   ONE LINE PER DEPTH STEP
~WELL INFORMATION BLOCK
#MNEM.UNIT           DATA                    DESCRIPTION OF MNEMONIC
#---------    -------------------            -------------------------------
# Generated from Intellog Unique Number	CN_91_93/WELL/1167
WELL.         COSEKA RESOURCES LTD.          : Well_name    - WELL
LOC .         00/11-12-091-21W4/0            : Location     - LOCATION
UWI .         00/11-12-091-21W4/0            : Uwi          - UNIQUE WELL ID
ENTR.         JOETTE                         : Entered      - ENTERED BY
SRVC.         COMPUTALOG                     : Scn          - SERVICE COMPANY
DATE.         02/04/92                       : Date         - LOG DATE
STRT.F        557.743                        : top_depth    - START DEPTH
STOP.F        738.189                        : bot_depth    - STOP DEPTH
STEP.F        0.82                           : increment    - STEP LENGTH
 NULL. -999.2500:NULL Value
~CURVE INFORMATION BLOCK
#MNEM UNIT       ERCB CURVE CODE    CURVE DESCRIPTION
#-----------   ------------------   ----------------------------------
DEPT.F        00 001 00 00         : DEPTH        - DEPTH
ILD .OHMM     00 120 00 00         : RESD         - DEEP RESISTIVITY (DIL)
DPHI.V/V      00 890 00 00         : PHID         - DENSITY POROSITY (SANDSTONE)
NPHI.V/V      00 330 00 00         : PHIN         - NEUTRON POROSITY (SANDSTONE)
CALI.IN       00 280 01 00         : CAL          - CALIPER
GR  .API      00 310 00 00         : GR           - GAMMA RAY
~PARAMETER INFORMATION
#MNEM.UNIT           DATA             DESCRIPTION OF MNEMONIC
#---------         -----------     ------------------------------
GL  .F        1649.93              : gl           - GROUND LEVEL ELEVATION
EREF.F        1660.43              : kb           - ELEVATION OF DEPTH REFERENCE
DATM.F        1660.43              : datum        - DATUM ELEVATION
TDD .F        800.525              : tdd          - TOTAL DEPTH DRILLER
RUN .         ONE                  : Run          - RUN NUMBER
ENG .         BILL                 : Engineer     - RECORDING ENGINEER
WIT .         JIM                  : Witness      - WITNESSED BY
MUD .         GEL                  : Mud_type     - MUD TYPE
MATR.         SANDSTONE            : Logunit      - NEUTRON MATRIX
TMAX.F        69.8                 : BHT          - MAXIMUM RECORDED TEMPERATURE
BHTD.F        800.525              : BHTDEP       - MAXIMUM RECORDED TEMPERATURE
RMT .F        47                   : MDTP         - TEMPERATURE OF MUD
MUDD.LB/G     10                   : MWT          - MUD DENSITY
NEUT.         1                    : NEUTRON      - NEUTRON TYPE
RESI.         0                    : RESIST       - RESISTIVITY TYPE
RM  .OHMM     2.8                  : RM           - RESISTIVITY OF MUD
RMC .OHMM     7.42                 : RMC          - RESISTIVITY OF MUD CAKE
RMF .OHMM     2.28                 : RMF          - RESISTIVITY OF MUD FILTRATE
SUFT.F        39.2                 : SUFT         - SURFACE TEMPERATURE
~A  DEPTH     RESD     PHID     PHIN      CAL       GR
  557.743   87.773    0.136    0.388    6.301   83.604
  558.563   46.786    0.057    0.258    6.362   83.070
  559.383   14.293    0.020    0.225    6.447   91.642
  560.203    9.697    0.174    0.248    6.471  110.854
  561.024    9.985    0.178    0.262    6.475  112.143
  561.844   10.474    0.176    0.298    6.479  108.555
  562.664    9.925    0.162    0.378    6.464  111.962
  563.484    9.400    0.142    0.360    6.428  117.816
  564.304    9.152    0.150    0.385    6.432  119.696
  565.125    9.080    0.158    0.415    6.497  115.213
  565.945    9.178    0.160    0.404    6.501  113.448
  566.765    9.540    0.149    0.379    6.508  117.767
  567.585    9.464    0.179    0.377    6.490  119.360
  568.406    8.884    0.188    0.400    6.394  119.113
  569.226    8.573    0.190    0.404    6.378  124.655
  570.046    8.504    0.189    0.411    6.402  124.122
  570.866    9.609    0.195    0.418    6.407  120.222
  571.686   11.162    0.200    0.419    6.391  115.723
  572.507   12.150    0.198    0.395    6.375  110.928
  573.327   13.350    0.182    0.359    6.340  103.391
  574.147   15.364    0.173    0.327    6.345  103.153
  574.967   17.200    0.188    0.351    6.388  101.700
  575.787   17.072    0.172    0.356    6.373   92.653
  576.608   16.016    0.135    0.261    6.297   92.710
  577.428   14.619    0.108    0.281    6.202  107.365
  578.248   13.718    0.192    0.320    6.186  113.515
  579.068   13.118    0.205    0.342    6.190  116.314
  579.888   12.774    0.221    0.347    6.255  111.224
  580.709   12.441    0.226    0.357    6.399  109.147
  581.529   11.678    0.222    0.386    6.523  115.904
  582.349   11.587    0.210    0.391    6.627  122.661
  583.169   11.821    0.193    0.378    6.671  124.549
  583.990   12.174    0.190    0.374    6.675  123.096
  584.810   12.652    0.194    0.374    6.620  119.508
  585.630   13.023    0.173    0.373    6.545  112.587
  586.450   12.687    0.162    0.353    6.469  110.527
  587.270   11.794    0.180    0.351    6.414  110.888
  588.091   10.568    0.196    0.360    6.397  113.999
  588.911    9.827    0.201    0.364    6.441  119.837
  589.731    9.222    0.196    0.369    6.526  124.468
  590.551    9.408    0.196    0.398    6.571  122.399
  591.371   10.728    0.196    0.355    6.554  114.566
  592.192   11.464    0.147    0.313    6.499  110.978
  593.012   11.060    0.108    0.302    6.424  108.318
  593.832   10.875    0.117    0.314    6.368  110.510
  594.652   10.303    0.215    0.348    6.312  113.302
  595.472    9.402    0.238    0.353    6.277  113.072
  596.293    7.821    0.239    0.352    6.301  112.826
  597.113    6.269    0.234    0.420    6.405  122.629
  597.933    4.332    0.239    0.444    6.449  125.428
  598.753    4.067    0.237    0.498    6.434  129.443
  599.573    4.226    0.209    0.474    6.398  125.248
  600.394    5.486    0.191    0.433    6.323  118.023
  601.214    7.123    0.179    0.374    6.287  114.131
  602.034    8.995    0.170    0.376    6.271  112.999
  602.854   10.546    0.190    0.390    6.317  113.655
  603.675   13.193    0.196    0.423    6.317  112.219
  604.495   13.212    0.166    0.402    6.344  109.230
  605.315   11.513    0.095    0.381    6.428  101.390
  606.135   10.607    0.089    0.387    6.452  102.367
  606.955   10.237    0.143    0.400    6.416  111.554
  607.776   10.157    0.198    0.405    6.381  115.577
  608.596   10.170    0.178    0.396    6.306  113.812
  609.416   10.184    0.172    0.399    6.270  108.705
  610.236   10.107    0.188    0.398    6.335  111.817
  611.056   10.028    0.194    0.403    6.459  119.477
  611.877   10.053    0.200    0.407    6.542  122.276
  612.697   10.245    0.181    0.353    6.587  114.748
  613.517   13.547    0.127    0.311    6.570  101.743
  614.337   16.957    0.080    0.305    6.476  103.024
  615.157   17.137    0.122    0.308    6.380  111.899
  615.978   17.137    0.159    0.344    6.245  115.314
  616.798   17.838    0.215    0.355    6.169  112.351
  617.618   19.775    0.218    0.359    6.093  109.666
  618.438   21.930    0.235    0.354    6.098  106.710
  619.259   23.003    0.233    0.338    6.122  104.937
  620.079   21.997    0.224    0.332    6.206  106.530
  620.899   20.078    0.201    0.357    6.250  110.241
  621.719   19.019    0.190    0.370    6.235  109.387
  622.539   19.043    0.181    0.374    6.159  107.031
  623.360   20.730    0.171    0.360    6.085  104.050
  624.180   22.776    0.151    0.324    6.089  100.471
  625.000   23.456    0.148    0.336    6.092   97.499
  625.820   25.065    0.149    0.338    6.092   94.519
  626.640   29.665    0.112    0.271    6.121   90.627
  627.461   33.513    0.095    0.255    6.145   84.625
  628.281   37.165    0.079    0.250    6.130   80.726
  629.101   38.261    0.072    0.253    6.114   78.066
  629.921   40.134    0.061    0.273    6.099   76.005
  630.741   40.206    0.050    0.287    6.102   77.885
  631.562   40.257    0.047    0.295    6.067   78.567
  632.382   39.216    0.087    0.282    6.031   77.105
  633.202   35.789    0.110    0.279    5.976   76.563
  634.022   30.332    0.136    0.301    5.920   78.452
  634.843   23.860    0.165    0.333    5.925   88.255
  635.663   17.270    0.179    0.360    5.969   93.173
  636.483   18.630    0.142    0.389    6.012   97.795
  637.303   18.148    0.039    0.350    6.097   87.836
  638.123   16.407    0.028    0.360    6.141   78.477
  638.944   12.674    0.087    0.384    6.145   91.613
  639.764   11.251    0.146    0.396    6.090  102.926
  640.584   10.857    0.170    0.385    6.154  107.557
  641.404   11.283    0.147    0.385    6.238  107.935
  642.224   11.726    0.142    0.386    6.263  107.073
  643.045   11.851    0.136    0.384    6.247  107.138
  643.865   11.650    0.161    0.376    6.247  111.457
  644.685   11.348    0.173    0.387    6.238  117.918
  645.505   11.154    0.165    0.414    6.239  118.288
  646.325   11.487    0.114    0.382    6.244  110.135
  647.146   11.623    0.141    0.367    6.272  107.163
  647.966   11.738    0.162    0.371    6.273  108.748
  648.786   11.537    0.172    0.371    6.296  112.771
  649.606   11.030    0.178    0.380    6.324  112.828
  650.427   10.350    0.168    0.393    6.325  110.768
  651.247    9.804    0.142    0.406    6.350  107.492
  652.067    9.375    0.127    0.407    6.350  106.359
  652.887    9.302    0.129    0.410    6.379  109.758
  653.707    9.404    0.152    0.410    6.402  113.157
  654.528    9.329    0.160    0.407    6.402  112.311
  655.348    9.084    0.150    0.405    6.392  107.525
  656.168    8.851    0.147    0.407    6.395  105.144
  656.988    8.946    0.156    0.408    6.379  108.559
  657.808    9.209    0.152    0.407    6.384  113.182
  658.629    9.659    0.160    0.402    6.369  116.293
  659.449   10.132    0.174    0.417    6.333  115.152
  660.269   10.534    0.129    0.374    6.257  108.223
  661.089   11.052    0.084    0.357    6.122  103.716
  661.909   11.586    0.074    0.363    6.066  110.481
  662.730   12.156    0.101    0.380    6.070  123.305
  663.550   12.059    0.129    0.385    6.115  125.202
  664.370   11.009    0.135    0.387    6.119  124.652
  665.190    9.683    0.148    0.394    6.103  121.992
  666.010    8.919    0.174    0.415    6.107  131.466
  666.831    8.690    0.188    0.421    6.092  134.291
  667.651    8.864    0.150    0.382    6.097  132.821
  668.471    9.212    0.098    0.372    6.161  123.158
  669.291    9.398    0.122    0.385    6.224  113.191
  670.112    9.587    0.176    0.390    6.269  121.458
  670.932    9.511    0.177    0.400    6.253  128.215
  671.752    9.348    0.182    0.399    6.617  130.728
  672.572    9.191    0.195    0.384    6.760  129.258
  673.392    9.290    0.199    0.392    6.745  124.767
  674.213    9.388    0.199    0.399    6.610  119.365
  675.033   10.707    0.185    0.391    6.455  112.427
  675.853   12.672    0.157    0.352    6.458  105.810
  676.673   13.667    0.010    0.255    6.482  101.918
