~VERSION INFORMATION
 VERS.                 2.0:   CWLS LOG ASCII STANDARD -VERSION 2.0
 WRAP.                  NO:   ONE LINE PER DEPTH STEP
~WELL INFORMATION BLOCK
#MNEM.UNIT           DATA                    DESCRIPTION OF MNEMONIC
#---------    -------------------            -------------------------------
# Generated from Intellog Unique Number	CS_73_76/WELL/3232
WELL.         HOME OIL COMPANY LIMITED       : Well_name    - WELL
LOC .         00/10-08-076-06W4/0            : Location     - LOCATION
UWI .         00/10-08-076-06W4/0            : Uwi          - UNIQUE WELL ID
ENTR.         SP                             : Entered      - ENTERED BY
SRVC.         SCHLUMBERGER                   : Scn          - SERVICE COMPANY
STRT.M        173.736                        : top_depth    - START DEPTH
STOP.M        412.986                        : bot_depth    - STOP DEPTH
STEP.M        0.25                           : increment    - STEP LENGTH
 NULL. -999.2500:NULL Value
~CURVE INFORMATION BLOCK
#MNEM UNIT       ERCB CURVE CODE    CURVE DESCRIPTION
#-----------   ------------------   ----------------------------------
DEPT.M        00 001 00 00         : DEPTH        - DEPTH
GR  .API      00 310 00 00         : GR           - GAMMA RAY
DPHI.V/V      00 890 00 00         : PHID         - DENSITY POROSITY (SANDSTONE)
NPHI.V/V      00 330 00 00         : PHIN         - NEUTRON POROSITY (SANDSTONE)
ILD .OHMM     00 120 00 00         : RESD         - DEEP RESISTIVITY (DIL)
~PARAMETER INFORMATION
#MNEM.UNIT           DATA             DESCRIPTION OF MNEMONIC
#---------         -----------     ------------------------------
GL  .M        580.278              : gl           - GROUND LEVEL ELEVATION
EREF.M        584.119              : kb           - ELEVATION OF DEPTH REFERENCE
DATM.M        580.278              : datum        - DATUM ELEVATION
TDD .M        389.23               : tdd          - TOTAL DEPTH DRILLER
RUN .         ONE                  : Run          - RUN NUMBER
ENG .         BILL                 : Engineer     - RECORDING ENGINEER
WIT .         JIM                  : Witness      - WITNESSED BY
MUD .         GEL                  : Mud_type     - MUD TYPE
MATR.         SANDSTONE            : Logunit      - NEUTRON MATRIX
TMAX.C        16.6667              : BHT          - MAXIMUM RECORDED TEMPERATURE
BHTD.M        389.23               : BHTDEP       - MAXIMUM RECORDED TEMPERATURE
MATR.         1                    : LOGUNIT      - NEUTRON MATRIX
RMT .C        25                   : MDTP         - TEMPERATURE OF MUD
NEUT.         1                    : NEUTRON      - NEUTRON TYPE
RESI.         0                    : RESIST       - RESISTIVITY TYPE
RMC .OHMM     0.25                 : RMC          - RESISTIVITY OF MUD CAKE
RMF .OHMM     0.25                 : RMF          - RESISTIVITY OF MUD FILTRATE
SUFT.C        15                   : SUFT         - SURFACE TEMPERATURE
~A  DEPTH       GR     PHID     PHIN     RESD
# ...
  347.736   45.339    0.253    0.383   76.635
  347.986   46.702    0.249    0.358   83.717
  348.236   48.936    0.246    0.343   80.576
  348.486   50.718    0.245    0.352   65.929
  348.736   51.319    0.246    0.354   38.060
  348.986   62.736    0.228    0.357   21.884
  349.236   77.188    0.215    0.362   18.118
  349.486   91.608    0.213    0.385   16.977
  349.736   90.120    0.222    0.468   15.896
  349.986   87.195    0.231    0.462   16.206
  350.236   87.425    0.231    0.440   17.034
  350.486   89.469    0.223    0.412   16.540
  350.736   90.444    0.207    0.411   15.052
  350.986   89.732    0.214    0.404   14.144
  351.236   91.590    0.224    0.408   13.317
  351.486   98.548    0.238    0.418   12.250
  351.736  104.570    0.235    0.405   11.552
  351.986  115.753    0.225    0.400   10.962
  352.236  123.144    0.207    0.397   10.608
  352.486  128.687    0.183    0.399   10.297
  352.736  122.594    0.195    0.407   10.313
  352.986  113.828    0.205    0.415   10.336
  353.236  102.499    0.217    0.428   10.479
  353.486   92.540    0.228    0.414   10.937
  353.736   84.004    0.195    0.390   11.127
  353.986   81.944    0.180    0.354   11.255
  354.236   76.764    0.195    0.349   11.617
  354.486   75.637    0.211    0.353   11.993
  354.736   72.439    0.223    0.360   12.293
  354.986   69.855    0.241    0.367   12.474
  355.236   74.034    0.261    0.383   13.142
  355.486   75.141    0.239    0.389   13.562
  355.736   77.325    0.232    0.389   13.985
  355.986   80.304    0.202    0.388   14.674
  356.236   80.605    0.196    0.386   15.184
  356.486   75.333    0.190    0.374   15.322
  356.736   78.012    0.216    0.368   15.329
  356.986   81.621    0.224    0.360   15.328
  357.236   89.708    0.204    0.358   15.331
  357.486   95.089    0.189    0.360   14.856
  357.736   89.461    0.186    0.369   14.356
  357.986   81.234    0.211    0.411   13.490
  358.236   79.583    0.234    0.387   12.434
  358.486   83.820    0.237    0.376   11.747
  358.736   87.743    0.239    0.366   11.399
  358.986   97.068    0.225    0.361   11.376
  359.236  103.882    0.202    0.369   11.331
  359.486  107.382    0.178    0.370   11.124
  359.736  109.536    0.149    0.359   11.156
  359.986  111.556    0.140    0.353   11.413
  360.236  111.240    0.149    0.358   11.770
  360.486   97.251    0.153    0.391   12.140
  360.736   77.320    0.176    0.403   12.520
  360.986   73.996    0.196    0.408   12.744
  361.236   73.511    0.226    0.410   12.987
  361.486   77.107    0.266    0.412   12.356
  361.736   81.853    0.270    0.412   11.049
  361.986   85.107    0.244    0.405    9.855
  362.236   93.338    0.216    0.398    8.867
  362.486  102.605    0.195    0.392    8.191
  362.736  116.407    0.163    0.397    7.241
  362.986  121.135    0.128    0.409    6.983
  363.236  117.349    0.125    0.414    6.456
  363.486  115.607    0.112    0.397    6.154
  363.736  113.633    0.152    0.391    6.049
  363.986  110.516    0.128    0.370    6.078
  364.236  108.902    0.127    0.377    6.278
  364.486  111.173    0.139    0.393    6.830
  364.736  109.170    0.153    0.411    7.331
  364.986  106.646    0.142    0.417    8.392
  365.236  105.265    0.131    0.409    8.894
  365.486  103.040    0.116    0.398    9.180
  365.736  100.811    0.112    0.391    9.325
  365.986  103.041    0.106    0.383    9.272
  366.236  108.479    0.129    0.399    8.781
  366.486  110.361    0.127    0.419    7.977
  366.736  111.157    0.116    0.434    7.645
  366.986  110.082    0.131    0.433    7.317
  367.236  107.268    0.138    0.422    7.320
  367.486  107.951    0.153    0.413    7.320
  367.736  110.527    0.150    0.404    7.323
  367.986  112.632    0.145    0.400    7.388
  368.236  112.498    0.152    0.399    7.614
  368.486  109.416    0.148    0.405    7.605
  368.736  104.270    0.151    0.406    7.593
  368.986  104.752    0.137    0.405    7.762
  369.236  107.337    0.131    0.414    7.753
  369.486  107.529    0.130    0.422    7.757
  369.736  107.079    0.142    0.431    7.758
  369.986  109.990    0.160    0.437    7.765
  370.236  109.966    0.170    0.440    7.809
  370.486  107.043    0.160    0.434    7.909
  370.736  102.699    0.160    0.446    8.141
  370.986   97.690    0.169    0.449    8.580
  371.236   95.371    0.158    0.436    8.971
  371.486   95.426    0.176    0.428    9.730
  371.736   92.801    0.178    0.421   10.541
  371.986   88.325    0.201    0.425   11.025
  372.236   84.820    0.214    0.421   11.484
  372.486   86.859    0.205    0.430   11.954
  372.736   87.960    0.203    0.437   11.730
  372.986   87.503    0.203    0.442   11.746
  373.236   88.615    0.206    0.428   11.750
  373.486   89.852    0.227    0.428   11.603
  373.736   90.660    0.212    0.429   11.528
  373.986   91.010    0.210    0.432   11.750
  374.236   89.815    0.208    0.434   11.882
  374.486   85.763    0.218    0.424   11.956
  374.736   84.819    0.228    0.412   11.387
  374.986   86.731    0.220    0.422   11.027
  375.236   88.657    0.210    0.437   10.687
  375.486   90.094    0.188    0.434   10.519
  375.736   92.390    0.179    0.438   10.590
  375.986   94.057    0.182    0.446   10.941
  376.236   94.463    0.179    0.437   11.259
  376.486   91.179    0.187    0.433   11.866
  376.736   90.362    0.194    0.438   12.460
  376.986   89.254    0.199    0.444   12.880
  377.236   89.898    0.197    0.449   12.561
  377.486   90.931    0.201    0.442   11.232
  377.736   92.258    0.212    0.433   10.448
  377.986  101.955    0.221    0.427    9.697
  378.236  105.481    0.192    0.431    9.147
  378.486  112.477    0.181    0.432    8.669
  378.736  113.303    0.161    0.411    8.223
  378.986  111.935    0.153    0.399    7.206
  379.236  108.531    0.189    0.411    7.289
  379.486  107.335    0.198    0.428    7.264
  379.736  105.262    0.212    0.441    7.594
  379.986  104.138    0.207    0.440    7.871
  380.236  103.081    0.171    0.411    8.123
  380.486  102.588    0.165    0.407    8.298
  380.736  103.857    0.205    0.408    8.292
  380.986  110.867    0.168    0.406    8.246
  381.236  111.867    0.177    0.415    8.177
  381.486  114.210    0.192    0.423    7.923
  381.736  118.104    0.163    0.427    7.931
  381.986  116.278    0.153    0.421    7.985
  382.236  113.322    0.160    0.427    8.066
  382.486  110.941    0.176    0.431    8.064
  382.736  109.160    0.161    0.436    8.068
  382.986  108.602    0.159    0.440    7.907
  383.236  109.705    0.169    0.434    7.648
  383.486  109.882    0.178    0.428    7.574
  383.736  109.883    0.179    0.425    7.467
  383.986  110.720    0.174    0.427    7.318
  384.236  113.987    0.153    0.431    7.162
  384.486  115.889    0.159    0.436    7.293
  384.736  117.758    0.152    0.438    7.292
  384.986  121.071    0.134    0.442    7.458
  385.236  118.165    0.133    0.434    7.681
  385.486  118.034    0.137    0.433    7.907
  385.736  118.718    0.147    0.443    8.319
  385.986  120.927    0.153    0.444    8.862
  386.236  124.083    0.154    0.440    9.267
  386.486  126.939    0.185    0.430    9.796
  386.736  113.950    0.169    0.420   10.573
  386.986  110.580    0.181    0.413   11.690
  387.236  111.859    0.190    0.422   12.190
  387.486  114.410    0.195    0.430   12.999
  387.736  114.454    0.191    0.428   13.196
  387.986  111.434    0.203    0.424   12.792
  388.236  109.848    0.203    0.418   12.268
  388.486  115.718    0.210    0.400   11.754
  388.736  121.382    0.215    0.386   11.544
  388.986  115.826    0.185    0.401   11.656
  389.236  114.203    0.173    0.406   12.428
  389.486  108.787    0.190    0.397   13.336
  389.736  102.395    0.193    0.395   14.521
  389.986   94.956    0.202    0.404   14.946
  390.236   88.913    0.216    0.407   14.389
  390.486   83.652    0.222    0.400   13.162
  390.736   87.111    0.245    0.408   11.828
  390.986   95.299    0.240    0.416   10.657
