~VERSION INFORMATION
 VERS.                 2.0:   CWLS LOG ASCII STANDARD -VERSION 2.0
 WRAP.                  NO:   ONE LINE PER DEPTH STEP
~WELL INFORMATION BLOCK
#MNEM.UNIT           DATA                    DESCRIPTION OF MNEMONIC
#---------    -------------------            -------------------------------
# Generated from Intellog Unique Number	CN_91_93/WELL/2803
WELL.         PARAMOUNT RESOURCES LTD.       : Well_name    - WELL
LOC .         00/16-33-093-21W4/0            : Location     - LOCATION
UWI .         00/16-33-093-21W4/0            : Uwi          - UNIQUE WELL ID
ENTR.         JOETTE                         : Entered      - ENTERED BY
SRVC.         COMPUTALOG                     : Scn          - SERVICE COMPANY
DATE.         03/24/92                       : Date         - LOG DATE
STRT.M        190                            : top_depth    - START DEPTH
STOP.M        360                            : bot_depth    - STOP DEPTH
STEP.M        0.25                           : increment    - STEP LENGTH
 NULL. -999.2500:NULL Value
~CURVE INFORMATION BLOCK
#MNEM UNIT       ERCB CURVE CODE    CURVE DESCRIPTION
#-----------   ------------------   ----------------------------------
DEPT.M        00 001 00 00         : DEPTH        - DEPTH
CALI.MM       00 280 01 00         : CAL          - CALIPER
GR  .API      00 310 00 00         : GR           - GAMMA RAY
NPHI.V/V      00 330 00 00         : PHIN         - NEUTRON POROSITY (SANDSTONE)
DPHI.V/V      00 890 00 00         : PHID         - DENSITY POROSITY (SANDSTONE)
ILD .OHMM     00 120 00 00         : RESD         - DEEP RESISTIVITY (DIL)
~PARAMETER INFORMATION
#MNEM.UNIT           DATA             DESCRIPTION OF MNEMONIC
#---------         -----------     ------------------------------
GL  .M        445.9                : gl           - GROUND LEVEL ELEVATION
EREF.M        449.3                : kb           - ELEVATION OF DEPTH REFERENCE
DATM.M        449.3                : datum        - DATUM ELEVATION
TDD .M        359.4                : tdd          - TOTAL DEPTH DRILLER
RUN .         ONE                  : Run          - RUN NUMBER
ENG .         BILL                 : Engineer     - RECORDING ENGINEER
WIT .         JIM                  : Witness      - WITNESSED BY
MUD .         GEL                  : Mud_type     - MUD TYPE
MATR.         SANDSTONE            : Logunit      - NEUTRON MATRIX
TMAX.C        29                   : BHT          - MAXIMUM RECORDED TEMPERATURE
BHTD.M        359.4                : BHTDEP       - MAXIMUM RECORDED TEMPERATURE
RMT .C        11                   : MDTP         - TEMPERATURE OF MUD
MUDD.KG/M     1110                 : MWT          - MUD DENSITY
NEUT.         1                    : NEUTRON      - NEUTRON TYPE
RESI.         0                    : RESIST       - RESISTIVITY TYPE
RM  .OHMM     3.2                  : RM           - RESISTIVITY OF MUD
RMC .OHMM     3.2                  : RMC          - RESISTIVITY OF MUD CAKE
RMF .OHMM     3.2                  : RMF          - RESISTIVITY OF MUD FILTRATE
SUFT.C        4                    : SUFT         - SURFACE TEMPERATURE
~A  DEPTH      CAL       GR     PHIN     PHID     RESD
# ...
  299.500  159.679  125.343    0.427    0.222    5.351
  299.750  160.569  122.837    0.429    0.217    5.233
  300.000  161.540  119.085    0.426    0.207    5.530
  300.250  162.403  115.333    0.418    0.215    6.314
  300.500  163.373  106.649    0.407    0.226    6.808
  300.750  163.266  105.970    0.395    0.225    7.334
  301.000  165.153  111.437    0.419    0.221    7.173
  301.250  165.073  116.305    0.436    0.220    6.493
  301.500  164.939  118.698    0.440    0.218    6.350
  301.750  164.885  120.478    0.440    0.216    6.087
  302.000  163.726  121.012    0.439    0.213    5.839
  302.250  161.597  118.505    0.437    0.212    5.494
  302.500  157.366  114.753    0.427    0.217    5.695
  302.750  154.159  111.002    0.411    0.222    6.373
  303.000  154.106  103.563    0.402    0.212    7.010
  303.250  154.996   83.203    0.386    0.193    8.160
  303.500  155.939   84.966    0.376    0.146    9.324
  303.750  157.827   88.605    0.382    0.183   11.281
  304.000  157.773   87.926    0.377    0.251   12.634
  304.250  157.692   86.632    0.366    0.279   13.877
  304.500  159.553   88.395    0.364    0.281   13.572
  304.750  160.497   90.805    0.359    0.263    8.672
  305.000  161.467   95.058    0.393    0.241    5.327
  305.250  164.379  104.228    0.423    0.238    4.284
  305.500  166.347  113.382    0.428    0.235    4.193
  305.750  166.239  112.687    0.431    0.226    4.266
  306.000  166.159  110.180    0.440    0.205    4.685
  306.250  163.922  110.116    0.431    0.207    5.458
  306.500  162.844  108.208    0.417    0.207    6.354
  306.750  160.715  104.440    0.411    0.201    7.254
  307.000  159.557  106.219    0.408    0.180    8.438
  307.250  159.503  107.400    0.399    0.199    8.923
  307.500  158.345  109.179    0.397    0.209    9.423
  307.750  157.186  107.239    0.395    0.203    9.579
  308.000  157.106  105.961    0.378    0.190    9.559
  308.250  156.998  102.210    0.370    0.141    9.724
  308.500  156.918   99.089    0.371    0.139    9.879
  308.750  156.757  100.253    0.378    0.168   10.043
  309.000  157.700  103.860    0.387    0.185   10.210
  309.250  157.566  105.057    0.386    0.194   10.180
  309.500  158.510  106.836    0.386    0.191    9.964
  309.750  158.429  106.141    0.385    0.181    9.928
  310.000  159.319  103.602    0.384    0.185    9.899
  310.250  160.263  101.096    0.384    0.203    9.864
  310.500  160.102   97.344    0.383    0.246   10.035
  310.750  160.048   94.838    0.379    0.232   10.401
  311.000  159.914   92.283    0.375    0.231   11.206
  311.250  159.860   91.636    0.371    0.248   12.072
  311.500  159.726   89.712    0.367    0.274   13.251
  311.750  159.592   87.205    0.376    0.281   13.754
  312.000  159.538   84.068    0.382    0.235   15.381
  312.250  159.404   79.686    0.389    0.240   15.965
  312.500  160.320   75.934    0.382    0.265   16.547
  312.750  160.240   71.568    0.369    0.258   16.172
  313.000  161.130   70.258    0.355    0.205   15.502
  313.250  163.098   73.897    0.345    0.199   14.596
  313.500  166.009   78.151    0.341    0.229   13.743
  313.750  166.953   86.690    0.357    0.247   11.739
  314.000  166.873   95.860    0.420    0.251    9.639
  314.250  166.765  104.399    0.432    0.252    6.159
  314.500  165.660  108.620    0.432    0.254    4.503
  314.750  165.553  111.030    0.436    0.260    4.076
  315.000  163.370  108.507    0.449    0.250    3.687
  315.250  161.214  104.756    0.443    0.235    3.606
  315.500  159.059   97.317    0.433    0.228    4.041
  315.750  157.954   86.805    0.414    0.232    6.167
  316.000  156.822   76.892    0.403    0.244    7.762
  316.250  156.715   76.197    0.390    0.263   10.755
  316.500  157.632   76.132    0.384    0.251   13.277
  316.750  158.468   73.626    0.369    0.206   13.497
  317.000  159.412   72.931    0.355    0.043   11.520
  317.250  161.379   75.971    0.304    0.084    9.833
  317.500  162.323   80.823    0.312    0.132    8.730
  317.750  164.291   86.904    0.347    0.187    8.062
  318.000  167.229   92.985    0.376    0.197    7.440
  318.250  169.144   97.853    0.415    0.203    7.558
  318.500  168.066  102.705    0.424    0.208    7.689
  318.750  161.786  105.099    0.422    0.212    8.434
  319.000  157.555   94.587    0.413    0.199    9.093
  319.250  156.450   73.612    0.390    0.153   10.390
  319.500  155.319   65.559    0.367    0.038   12.826
  319.750  156.262   60.578    0.347    0.022   16.132
  320.000  158.176   60.514    0.317    0.033   18.419
  320.250  160.144   63.522    0.265    0.042   19.077
  320.500  162.085   67.759    0.264    0.063   17.593
  320.750  165.024   72.611    0.265    0.088   16.259
  321.000  164.943   79.323    0.321    0.177   14.425
  321.250  163.758   92.778    0.344    0.175   13.582
  321.500  162.680   98.260    0.360    0.165   11.802
  321.750  161.575  101.867    0.366    0.153   11.338
  322.000  162.492  104.891    0.365    0.169   10.448
  322.250  165.457  112.218    0.367    0.187   10.226
  322.500  167.398  111.539    0.384    0.203    9.816
  322.750  164.192  109.016    0.386    0.210    9.587
  323.000  160.985  108.337    0.380    0.210    9.573
  323.250  160.904  110.116    0.376    0.210    9.356
  323.500  160.823  111.895    0.382    0.210    8.975
  323.750  161.713  113.675    0.390    0.211    8.450
  324.000  162.657  113.594    0.399    0.215    7.353
  324.250  163.547  113.530    0.399    0.235    7.476
  324.500  164.464  110.392    0.385    0.236    8.872
  324.750  164.357  106.657    0.353    0.208   10.137
  325.000  164.303   96.145    0.338    0.146   11.566
  325.250  164.195   78.243    0.321    0.051   11.533
  325.500  165.059   88.626    0.301    0.084   11.287
  325.750  165.005   93.494    0.323    0.133   10.828
  326.000  165.895  103.877    0.331    0.196   10.789
  326.250  165.761  114.890    0.352    0.213   10.960
  326.500  165.707  117.284    0.365    0.213   10.936
  326.750  165.573  110.443    0.381    0.213   11.126
  327.000  166.463  111.608    0.378    0.212   11.311
  327.250  166.382  113.371    0.374    0.207   11.490
  327.500  166.248  113.937    0.367    0.202   11.681
  327.750  166.194  114.487    0.362    0.206   11.875
  328.000  166.087  111.965    0.361    0.213   12.064
  328.250  165.953  110.687    0.354    0.220   12.038
  328.500  165.899  111.836    0.349    0.221   11.995
  328.750  165.791  113.000    0.347    0.216   11.977
  329.000  165.684  112.321    0.348    0.211   12.904
  329.250  165.577  107.357    0.361    0.196   13.902
  329.500  165.442  100.516    0.371    0.165   14.978
  329.750  167.357   96.166    0.359    0.127   15.524
  330.000  169.324   93.013    0.329    0.082   16.079
  330.250  172.263   96.037    0.294    0.028   15.128
  330.500  173.233  104.576    0.267   -0.003   12.931
  330.750  171.051  108.830    0.311    0.163   10.825
  331.000  167.871  114.895    0.322    0.184    9.990
  331.250  167.790  116.690    0.336    0.197    9.954
  331.500  169.677  114.766    0.357    0.201    9.926
  331.750  171.645  114.717    0.405    0.182    9.904
  332.000  172.589  115.882    0.394    0.176   10.069
  332.250  172.509  118.276    0.400    0.191   10.033
  332.500  172.374  120.669    0.408    0.204   10.004
  332.750  171.270  119.991    0.409    0.208    9.975
  333.000  168.036  117.468    0.403    0.208    9.954
  333.250  166.958  106.342    0.397    0.203   10.511
  333.500  164.802  105.663    0.378    0.203   11.115
  333.750  160.544  105.582    0.359    0.208   11.983
  334.000  159.412  106.132    0.328    0.220   12.901
  334.250  159.332  107.329    0.327    0.206   13.116
  334.500  160.249  109.108    0.333    0.138   13.078
  334.750  162.190  107.815    0.341    0.152   12.800
  335.000  164.104  110.193    0.345    0.180   12.269
  335.250  166.099  113.815    0.349    0.204   11.536
  335.500  169.037  116.225    0.353    0.215   11.282
  335.750  169.981  120.462    0.358    0.209   11.026
