~VERSION INFORMATION
 VERS.                 2.0:   CWLS LOG ASCII STANDARD -VERSION 2.0
 WRAP.                  NO:   ONE LINE PER DEPTH STEP
~WELL INFORMATION BLOCK
#MNEM.UNIT           DATA                    DESCRIPTION OF MNEMONIC
#---------    -------------------            -------------------------------
# Generated from Intellog Unique Number	CS_71_72/WELL/855
WELL.         PEX PHILLIPS AEC WIAU          : Well_name    - WELL
LOC .         00/10-13-071-08W4/0            : Location     - LOCATION
UWI .         00/10-13-071-08W4/0            : Uwi          - UNIQUE WELL ID
ENTR.         SP                             : Entered      - ENTERED BY
SRVC.         SCHLUMBERGER                   : Scn          - SERVICE COMPANY
STRT.M        305                            : top_depth    - START DEPTH
STOP.M        525                            : bot_depth    - STOP DEPTH
STEP.M        0.25                           : increment    - STEP LENGTH
 NULL. -999.2500:NULL Value
~CURVE INFORMATION BLOCK
#MNEM UNIT       ERCB CURVE CODE    CURVE DESCRIPTION
#-----------   ------------------   ----------------------------------
DEPT.M        00 001 00 00         : DEPTH        - DEPTH
ILD .OHMM     00 120 00 00         : RESD         - DEEP RESISTIVITY (DIL)
DPHI.V/V      00 890 00 00         : PHID         - DENSITY POROSITY (LIMESTONE)
NPHI.V/V      00 330 00 00         : PHIN         - NEUTRON POROSITY (LIMESTONE)
GR  .API      00 310 00 00         : GR           - GAMMA RAY
~PARAMETER INFORMATION
#MNEM.UNIT           DATA             DESCRIPTION OF MNEMONIC
#---------         -----------     ------------------------------
GL  .M        663.74               : gl           - GROUND LEVEL ELEVATION
EREF.M        666.7                : kb           - ELEVATION OF DEPTH REFERENCE
DATM.M        663.74               : datum        - DATUM ELEVATION
TDD .M        535                  : tdd          - TOTAL DEPTH DRILLER
RUN .         ONE                  : Run          - RUN NUMBER
ENG .         BILL                 : Engineer     - RECORDING ENGINEER
WIT .         JIM                  : Witness      - WITNESSED BY
MUD .         GEL                  : Mud_type     - MUD TYPE
MATR.         LIMESTONE            : Logunit      - NEUTRON MATRIX
TMAX.C        22                   : BHT          - MAXIMUM RECORDED TEMPERATURE
BHTD.M        535                  : BHTDEP       - MAXIMUM RECORDED TEMPERATURE
MATR.         1                    : LOGUNIT      - NEUTRON MATRIX
RMT .C        25                   : MDTP         - TEMPERATURE OF MUD
NEUT.         1                    : NEUTRON      - NEUTRON TYPE
RESI.         0                    : RESIST       - RESISTIVITY TYPE
RMC .OHMM     0.25                 : RMC          - RESISTIVITY OF MUD CAKE
RMF .OHMM     0.25                 : RMF          - RESISTIVITY OF MUD FILTRATE
SUFT.C        15                   : SUFT         - SURFACE TEMPERATURE
~A  DEPTH     RESD     PHID     PHIN       GR
  305.000    2.774    0.259    0.518  103.096
  305.250    2.791    0.260    0.514  101.329
  305.500    2.830    0.258    0.512   98.348
  305.750    2.902    0.234    0.519   95.912
  306.000    3.031    0.223    0.521   98.823
  306.250    3.149    0.232    0.510  102.099
  306.500    3.301    0.227    0.516  105.375
  306.750    3.474    0.238    0.521  106.463
  307.000    3.684    0.230    0.524  105.122
  307.250    3.834    0.232    0.513  102.686
  307.500    3.953    0.206    0.489  102.074
  307.750    4.015    0.197    0.479  102.312
  308.000    4.003    0.220    0.489  101.699
  308.250    3.932    0.235    0.497  100.358
  308.500    3.848    0.236    0.486   99.988
  308.750    3.758    0.221    0.479  100.590
  309.000    3.684    0.228    0.503  100.768
  309.250    3.592    0.230    0.520   99.001
  309.500    3.476    0.238    0.520   97.720
  309.750    3.408    0.232    0.498   97.472
  310.000    3.404    0.218    0.485   97.528
  310.250    3.445    0.209    0.473   97.887
  310.500    3.525    0.228    0.474   98.733
  310.750    3.628    0.232    0.489  100.186
  311.000    3.706    0.234    0.500  101.456
  311.250    3.701    0.228    0.511  102.180
  311.500    3.697    0.217    0.493  102.054
  311.750    3.741    0.219    0.480  100.895
  312.000    3.779    0.220    0.491  100.282
  312.250    3.846    0.225    0.525  100.520
  312.500    3.980    0.211    0.545  103.431
  312.750    4.096    0.218    0.511  106.464
  313.000    4.153    0.216    0.491  108.524
  313.250    4.064    0.228    0.483  106.272
  313.500    3.831    0.282    0.502   95.817
  313.750    3.639    0.386    0.513   83.297
  314.000    3.495    0.487    0.525   69.805
  314.250    4.501    0.633    0.550   58.135
  314.500    5.395    0.612    0.645   54.546
  314.750    8.047    0.451    0.592   52.233
  315.000   11.477    0.386    0.393   49.979
  315.250   16.804    0.375    0.191   49.124
  315.500   21.998    0.378    0.175   48.147
  315.750   25.940    0.392    0.175   46.198
  316.000   28.336    0.399    0.192   43.338
  316.250   27.678    0.394    0.211   46.613
  316.500   23.859    0.381    0.244   50.071
  316.750   19.485    0.367    0.250   52.557
  317.000   16.240    0.357    0.274   54.739
  317.250   13.238    0.345    0.309   60.566
  317.500   11.518    0.306    0.356   64.145
  317.750   10.059    0.299    0.393   64.626
  318.000    9.221    0.288    0.413   61.705
  318.250    8.422    0.281    0.387   61.700
  318.500    8.149    0.274    0.375   68.439
  318.750    8.080    0.252    0.381   74.023
  319.000    8.041    0.255    0.396   77.724
  319.250    8.061    0.268    0.406   81.303
  319.500    8.097    0.243    0.396   85.064
  319.750    8.074    0.220    0.406   90.102
  320.000    8.019    0.218    0.417   97.934
  320.250    8.040    0.239    0.426  105.219
  320.500    8.136    0.263    0.418  101.509
  320.750    8.310    0.280    0.407   93.909
  321.000    8.697    0.293    0.408   89.409
  321.250    8.967    0.297    0.417   88.189
  321.500    9.194    0.287    0.420   89.885
  321.750    9.356    0.284    0.426   86.781
  322.000    9.486    0.295    0.422   86.533
  322.250    9.528    0.293    0.415   88.776
  322.500    9.464    0.277    0.410   88.710
  322.750    9.279    0.312    0.419   84.999
  323.000    9.113    0.321    0.421   82.260
  323.250    8.952    0.322    0.416   80.372
  323.500    8.892    0.315    0.412   77.390
  323.750    8.848    0.315    0.421   72.404
  324.000    8.871    0.333    0.418   68.632
  324.250    8.911    0.331    0.401   72.636
  324.500    8.917    0.329    0.412   76.763
  324.750    8.759    0.303    0.432   78.033
  325.000    8.619    0.290    0.444   74.200
  325.250    8.545    0.283    0.420   66.784
  325.500    8.535    0.294    0.401   59.914
  325.750    8.478    0.281    0.389   65.498
  326.000    8.282    0.246    0.380   81.471
  326.250    8.073    0.213    0.404   90.214
  326.500    7.640    0.193    0.429   96.041
  326.750    7.162    0.177    0.438   98.284
  327.000    6.790    0.165    0.440   96.578
  327.250    6.619    0.187    0.452   89.769
  327.500    6.724    0.200    0.451   83.385
  327.750    6.946    0.224    0.425   77.609
  328.000    7.121    0.250    0.430   71.771
  328.250    7.302    0.275    0.409   67.453
  328.500    7.333    0.265    0.387   70.607
  328.750    7.203    0.238    0.398   77.770
  329.000    6.932    0.221    0.411   80.560
  329.250    6.758    0.211    0.420   81.891
  329.500    6.663    0.228    0.430   79.517
  329.750    6.731    0.273    0.420   72.039
  330.000    7.045    0.250    0.405   68.815
  330.250    7.208    0.239    0.416   73.670
  330.500    7.571    0.270    0.437   64.674
  330.750    7.879    0.311    0.396   57.500
  331.000    7.959    0.291    0.378   67.276
  331.250    7.875    0.283    0.371   79.847
  331.500    7.143    0.250    0.371   92.113
  331.750    6.935    0.229    0.409   97.697
  332.000    6.465    0.214    0.448   96.417
  332.250    6.209    0.231    0.468   89.182
  332.500    6.214    0.244    0.435   83.649
  332.750    6.288    0.236    0.394   80.242
  333.000    6.459    0.225    0.398   77.260
  333.250    6.684    0.245    0.398   72.941
  333.500    7.035    0.230    0.399   68.380
  333.750    7.431    0.280    0.417   63.697
  334.000    7.762    0.333    0.431   59.318
  334.250    8.124    0.326    0.419   53.177
  334.500    8.407    0.309    0.389   46.611
  334.750    8.636    0.298    0.383   48.124
  335.000    8.788    0.291    0.393   49.942
  335.250    8.844    0.301    0.395   47.142
  335.500    8.833    0.318    0.386   45.740
  335.750    8.725    0.307    0.383   49.440
  336.000    8.684    0.295    0.391   52.898
  336.250    8.689    0.303    0.397   54.898
  336.500    8.728    0.329    0.400   50.154
  336.750    8.784    0.327    0.385   52.033
  337.000    8.806    0.313    0.377   57.678
  337.250    8.763    0.266    0.368   64.173
  337.500    8.753    0.237    0.371   68.603
  337.750    8.776    0.227    0.390   71.636
  338.000    8.848    0.250    0.399   67.803
  338.250    8.921    0.271    0.389   62.209
  338.500    9.045    0.273    0.382   56.979
  338.750    9.084    0.290    0.382   54.119
  339.000    9.057    0.300    0.387   53.932
  339.250    8.996    0.320    0.383   56.843
  339.500    8.771    0.294    0.379   60.969
  339.750    8.455    0.264    0.390   64.184
  340.000    8.107    0.249    0.403   65.819
  340.250    7.888    0.269    0.402   62.351
  340.500    7.777    0.264    0.397   57.121
  340.750    7.783    0.290    0.419   52.803
  341.000    7.876    0.313    0.402   50.854
  341.250    8.016    0.304    0.378   53.644
  341.500    8.251    0.290    0.407   52.666
  341.750    8.394    0.320    0.411   48.530
  342.000    8.638    0.338    0.398   46.034
  342.250    8.840    0.346    0.395   46.880
  342.500    9.013    0.346    0.392   46.996
  342.750    9.104    0.339    0.395   46.383
  343.000    9.197    0.325    0.390   45.285
  343.250    9.220    0.319    0.380   44.733
  343.500    9.227    0.318    0.378   45.154
  343.750    9.251    0.325    0.382   45.695
  344.000    9.327    0.319    0.378   46.359
  344.250    9.494    0.310    0.370   47.872
  344.500    9.552    0.313    0.364   50.541
  344.750    9.612    0.299    0.367   54.666
  345.000    9.709    0.256    0.371   58.549
  345.250    9.770    0.210    0.374   62.189
  345.500    9.850    0.214    0.380   63.703
  345.750    9.931    0.233    0.387   58.412
  346.000    9.994    0.250    0.393   54.702
  346.250   10.020    0.276    0.395   50.990
  346.500    9.971    0.298    0.384   49.223
  346.750    9.813    0.312    0.376   48.733
  347.000    9.657    0.327    0.376   49.154
  347.250    9.520    0.333    0.377   49.209
  347.500    9.386    0.340    0.376   49.873
  347.750    9.288    0.346    0.373   51.933
  348.000    9.260    0.322    0.367   55.694
  348.250    9.249    0.299    0.363   62.737
