~VERSION INFORMATION
 VERS.                 2.0:   CWLS LOG ASCII STANDARD -VERSION 2.0
 WRAP.                  NO:   ONE LINE PER DEPTH STEP
~WELL INFORMATION BLOCK
#MNEM.UNIT           DATA                    DESCRIPTION OF MNEMONIC
#---------    -------------------            -------------------------------
# Generated from Intellog Unique Number	CW_73_75/WELL/1052
WELL.         MANNVILLE ER AL FRANCIS 15-08  : Well_name    - WELL
LOC .         00/15-08-074-22W4/0            : Location     - LOCATION
UWI .         00/15-08-074-22W4/0            : Uwi          - UNIQUE WELL ID
ENTR.         JAYE                           : Entered      - ENTERED BY
SRVC.         SCHLUMBERGER                   : Scn          - SERVICE COMPANY
DATE.         4 DEC 81                       : Date         - LOG DATE
STRT.M        365                            : top_depth    - START DEPTH
STOP.M        587                            : bot_depth    - STOP DEPTH
STEP.M        0.25                           : increment    - STEP LENGTH
 NULL. -999.2500:NULL Value
~CURVE INFORMATION BLOCK
#MNEM UNIT       ERCB CURVE CODE    CURVE DESCRIPTION
#-----------   ------------------   ----------------------------------
DEPT.M        00 001 00 00         : DEPTH        - DEPTH
CALI.MM       00 280 01 00         : CAL          - CALIPER
GR  .API      00 310 00 00         : GR           - GAMMA RAY
NPHI.V/V      00 330 00 00         : PHIN         - NEUTRON POROSITY (SANDSTONE)
DPHI.V/V      00 890 00 00         : PHID         - DENSITY POROSITY (SANDSTONE)
ILD .OHMM     00 120 00 00         : RESD         - DEEP RESISTIVITY (DIL)
~PARAMETER INFORMATION
#MNEM.UNIT           DATA             DESCRIPTION OF MNEMONIC
#---------         -----------     ------------------------------
GL  .M        655.1                : gl           - GROUND LEVEL ELEVATION
EREF.M        658                  : kb           - ELEVATION OF DEPTH REFERENCE
DATM.M        655.1                : datum        - DATUM ELEVATION
TDD .M        588                  : tdd          - TOTAL DEPTH DRILLER
RUN .         ONE                  : Run          - RUN NUMBER
ENG .         WRIGHT               : Engineer     - RECORDING ENGINEER
WIT .         SAMOTA               : Witness      - WITNESSED BY
BASE.         WAUN                 : Branch       - HOME BASE OF LOGGING UNIT
MUD .         GEL CHEM             : Mud_type     - MUD TYPE
MATR.         SANDSTONE            : Logunit      - NEUTRON MATRIX
TMAX.C        25.5                 : BHT          - MAXIMUM RECORDED TEMPERATURE
BHTD.M        588.5                : BHTDEP       - MAXIMUM RECORDED TEMPERATURE
RMT .C        15.5                 : MDTP         - TEMPERATURE OF MUD
MUDD.KG/M     1100                 : MWT          - MUD DENSITY
NEUT.         1                    : NEUTRON      - NEUTRON TYPE
RESI.         0                    : RESIST       - RESISTIVITY TYPE
RM  .OHMM     4.098                : RM           - RESISTIVITY OF MUD
RMC .OHMM     0                    : RMC          - RESISTIVITY OF MUD CAKE
RMF .OHMM     3.54                 : RMF          - RESISTIVITY OF MUD FILTRATE
SUFT.C        0                    : SUFT         - SURFACE TEMPERATURE
~A  DEPTH      CAL       GR     PHIN     PHID     RESD
# ...
  401.500  152.736  114.746    0.426    0.248    5.158
  401.750  155.274  121.776    0.417    0.233    5.256
  402.000  156.372  114.516    0.415    0.235    5.375
  402.250  156.336   86.656    0.431    0.244    5.498
  402.500  153.515   79.769    0.446    0.264    5.529
  402.750  150.998   76.221    0.463    0.281    5.457
  403.000  149.934   74.282    0.474    0.297    5.416
  403.250  149.790   76.238    0.479    0.308    5.336
  403.500  149.549   72.629    0.477    0.319    5.188
  403.750  148.894   65.738    0.460    0.327    5.082
  404.000  148.443   63.366    0.449    0.332    5.054
  404.250  148.306   63.281    0.459    0.331    5.073
  404.500  148.678   68.765    0.469    0.326    5.083
  404.750  150.705   90.206    0.453    0.265    5.102
  405.000  154.379   99.523    0.425    0.237    5.179
  405.250  159.187  105.687    0.416    0.212    5.297
  405.500  160.691  110.923    0.418    0.248    5.427
  405.750  156.942  103.478    0.444    0.285    5.561
  406.000  153.403   96.836    0.472    0.292    5.817
  406.250  150.170   91.804    0.476    0.284    6.005
  406.500  149.404   81.700    0.455    0.294    6.130
  406.750  149.680   74.191    0.447    0.300    6.293
  407.000  151.604   72.747    0.449    0.294    6.607
  407.250  153.939   72.725    0.447    0.282    6.963
  407.500  155.652   71.154    0.436    0.262    7.296
  407.750  157.060   65.814    0.286    0.131    7.421
  408.000  157.331   63.441    0.228    0.029    7.324
  408.250  155.748   72.200    0.229    0.101    7.121
  408.500  153.134   80.530    0.266    0.150    6.783
  408.750  150.928   86.261    0.433    0.271    6.389
  409.000  150.271   88.031    0.448    0.260    6.131
  409.250  150.131   85.782    0.436    0.248    5.895
  409.500  150.098   84.399    0.440    0.258    5.851
  409.750  150.473   85.490    0.454    0.266    5.851
  410.000  150.229   88.932    0.449    0.255    5.851
  410.250  150.398   94.291    0.438    0.235    5.625
  410.500  151.494  100.269    0.424    0.214    5.171
  410.750  154.860  102.040    0.426    0.218    4.798
  411.000  157.296   92.120    0.443    0.259    4.744
  411.250  152.101   81.582    0.453    0.302    4.870
  411.500  147.118   76.921    0.448    0.314    4.990
  411.750  145.533   84.692    0.446    0.294    5.113
  412.000  147.867   90.360    0.445    0.281    5.191
  412.250  149.683   92.812    0.450    0.269    5.240
  412.500  151.193   90.130    0.460    0.266    5.201
  412.750  152.086   89.242    0.454    0.270    5.171
  413.000  152.872   92.064    0.450    0.263    5.162
  413.250  153.968   92.536    0.455    0.252    5.076
  413.500  154.443   86.452    0.469    0.280    4.982
  413.750  153.585   80.677    0.468    0.314    4.917
  414.000  152.204   83.561    0.449    0.277    4.917
  414.250  154.335   98.509    0.432    0.225    4.991
  414.500  159.967  114.755    0.447    0.203    5.086
  414.750  162.507  111.145    0.472    0.217    5.172
  415.000  160.822  102.401    0.487    0.204    5.240
  415.250  156.660  100.461    0.469    0.196    5.290
  415.500  156.313  105.201    0.453    0.202    5.350
  415.750  157.615  106.663    0.469    0.212    5.300
  416.000  159.536  105.708    0.479    0.207    5.163
  416.250  159.809   85.895    0.469    0.211    5.020
  416.500  158.226   76.781    0.474    0.237    4.808
  416.750  155.301   63.088    0.473    0.329    4.580
  417.000  150.419   51.499    0.450    0.361    4.461
  417.250  147.496   58.095    0.427    0.356    4.420
  417.500  148.900   72.113    0.400    0.302    4.462
  417.750  153.605   87.680    0.423    0.283    4.632
  418.000  156.558   88.337    0.479    0.308    4.909
  418.250  156.314   81.697    0.549    0.334    5.202
  418.500  154.009   83.220    0.533    0.288    5.361
  418.750  155.518   86.910    0.483    0.286    5.371
  419.000  155.170   80.329    0.518    0.308    5.311
  419.250  151.215   74.308    0.505    0.329    5.281
  419.500  148.601   67.852    0.454    0.345    5.271
  419.750  147.532   66.467    0.415    0.337    5.271
  420.000  147.392   67.004    0.410    0.321    5.232
  420.250  147.150   69.022    0.425    0.319    5.222
  420.500  146.596   69.309    0.469    0.320    5.422
  420.750  146.557   63.534    0.500    0.255    5.833
  421.000  146.729   57.945    0.459    0.183    6.216
  421.250  148.027   49.819    0.249    0.079    6.814
  421.500  149.128   45.467    0.175    0.008    7.207
  421.750  150.114   48.228    0.202    0.093    7.638
  422.000  149.464   57.236    0.283    0.207    7.827
  422.250  149.012   59.193    0.394    0.283    7.754
  422.500  148.773   55.704    0.426    0.299    6.551
  422.750  149.248   55.004    0.436    0.331    5.372
  423.000  149.624   54.610    0.436    0.341    4.975
  423.250  150.206   52.917    0.439    0.339    4.892
  423.500  150.476   51.349    0.428    0.328    5.031
  423.750  150.435   52.440    0.411    0.321    5.165
  424.000  150.918   55.881    0.423    0.319    5.382
  424.250  151.292   59.446    0.432    0.322    5.588
  424.500  150.839   63.878    0.411    0.322    5.736
  424.750  150.391   66.268    0.423    0.315    5.704
  425.000  149.945   62.472    0.444    0.316    5.683
  425.250  149.493   57.625    0.446    0.319    5.630
  425.500  149.250   58.281    0.433    0.318    5.609
  425.750  149.007   63.952    0.429    0.311    5.588
  426.000  148.758   74.940    0.426    0.304    5.588
  426.250  148.518   74.608    0.443    0.300    5.485
  426.500  148.689   66.977    0.466    0.306    5.403
  426.750  148.958   68.748    0.463    0.318    5.353
  427.000  149.129   72.932    0.447    0.324    5.343
  427.250  149.605   74.270    0.440    0.313    5.363
  427.500  149.878   75.856    0.440    0.296    5.465
  427.750  150.667   79.730    0.447    0.296    5.759
  428.000  153.620   77.234    0.457    0.292    6.219
  428.250  157.599   66.387    0.328    0.252    6.590
  428.500  158.180   65.251    0.228    0.084    7.090
  428.750  158.037   68.940    0.263    0.127    8.470
  429.000  157.801   62.856    0.377    0.232   10.063
  429.250  157.551   52.194    0.345    0.204   11.711
  429.500  157.825   45.243    0.210    0.063   13.553
  429.750  158.096   45.467    0.134   -0.040   19.784
  430.000  158.573   49.153    0.130   -0.038   31.360
  430.250  158.744   52.226    0.132   -0.029   35.486
  430.500  158.709   55.049    0.147   -0.004   31.597
  430.750  158.157   61.400    0.178    0.073   19.972
  431.000  156.470   72.201    0.308    0.166   13.204
  431.250  153.853   74.406    0.375    0.222    9.532
  431.500  152.164   77.909    0.348    0.227    7.890
  431.750  151.609   84.815    0.357    0.244    6.831
  432.000  151.371   95.371    0.436    0.258    5.858
  432.250  151.438   97.203    0.463    0.244    5.497
  432.500  151.500   93.901    0.453    0.250    5.518
  432.750  151.567   89.425    0.443    0.247    5.580
  433.000  151.840   90.144    0.450    0.230    5.665
  433.250  152.216   93.278    0.447    0.237    5.739
  433.500  152.793   92.884    0.441    0.234    5.739
  433.750  153.681   92.367    0.437    0.228    5.740
  434.000  154.885   97.045    0.443    0.228    5.794
  434.250  155.361   99.808    0.456    0.224    5.925
  434.500  155.224   99.909    0.471    0.215    6.015
  434.750  154.054   96.360    0.459    0.214    6.094
  435.000  152.882  106.050    0.446    0.235    6.268
  435.250  151.707  115.614    0.453    0.251    6.520
  435.500  150.950  116.582    0.460    0.256    6.705
  435.750  150.296  109.137    0.454    0.266    6.606
  436.000  149.842   99.959    0.465    0.279    6.471
  436.250  149.492   91.030    0.471    0.290    6.316
  436.500  149.359   80.119    0.475    0.299    6.222
  436.750  149.110   71.996    0.461    0.306    6.141
  437.000  149.079   62.509    0.440    0.303    6.061
  437.250  148.938   63.167    0.453    0.290    5.971
  437.500  148.798   67.165    0.455    0.295    5.927
  437.750  149.377   69.308    0.446    0.300    5.938
