~VERSION INFORMATION
 VERS.                 2.0:   CWLS LOG ASCII STANDARD -VERSION 2.0
 WRAP.                  NO:   ONE LINE PER DEPTH STEP
~WELL INFORMATION BLOCK
#MNEM.UNIT           DATA                    DESCRIPTION OF MNEMONIC
#---------    -------------------            -------------------------------
# Generated from Intellog Unique Number	CS_73_76/WELL/813
WELL.         PEX PHILLIPS AEC WIAB          : Well_name    - WELL
LOC .         00/10-11-073-08W4/0            : Location     - LOCATION
UWI .         00/10-11-073-08W4/0            : Uwi          - UNIQUE WELL ID
ENTR.         SP                             : Entered      - ENTERED BY
SRVC.         SCHLUMBERGER                   : Scn          - SERVICE COMPANY
STRT.M        335                            : top_depth    - START DEPTH
STOP.M        560                            : bot_depth    - STOP DEPTH
STEP.M        0.25                           : increment    - STEP LENGTH
 NULL. -999.2500:NULL Value
~CURVE INFORMATION BLOCK
#MNEM UNIT       ERCB CURVE CODE    CURVE DESCRIPTION
#-----------   ------------------   ----------------------------------
DEPT.M        00 001 00 00         : DEPTH        - DEPTH
GR  .API      00 310 00 00         : GR           - GAMMA RAY
NPHI.V/V      00 330 00 00         : PHIN         - NEUTRON POROSITY (LIMESTONE)
DPHI.V/V      00 890 00 00         : PHID         - DENSITY POROSITY (LIMESTONE)
ILD .OHMM     00 120 00 00         : RESD         - DEEP RESISTIVITY (DIL)
~PARAMETER INFORMATION
#MNEM.UNIT           DATA             DESCRIPTION OF MNEMONIC
#---------         -----------     ------------------------------
GL  .M        702.8                : gl           - GROUND LEVEL ELEVATION
EREF.M        706.3                : kb           - ELEVATION OF DEPTH REFERENCE
DATM.M        702.3                : datum        - DATUM ELEVATION
TDD .M        570                  : tdd          - TOTAL DEPTH DRILLER
RUN .         ONE                  : Run          - RUN NUMBER
ENG .         BILL                 : Engineer     - RECORDING ENGINEER
WIT .         JIM                  : Witness      - WITNESSED BY
MUD .         GEL                  : Mud_type     - MUD TYPE
MATR.         LIMESTONE            : Logunit      - NEUTRON MATRIX
TMAX.C        24                   : BHT          - MAXIMUM RECORDED TEMPERATURE
BHTD.M        570                  : BHTDEP       - MAXIMUM RECORDED TEMPERATURE
MATR.         1                    : LOGUNIT      - NEUTRON MATRIX
RMT .C        25                   : MDTP         - TEMPERATURE OF MUD
NEUT.         1                    : NEUTRON      - NEUTRON TYPE
RESI.         0                    : RESIST       - RESISTIVITY TYPE
RMC .OHMM     0.25                 : RMC          - RESISTIVITY OF MUD CAKE
RMF .OHMM     0.25                 : RMF          - RESISTIVITY OF MUD FILTRATE
SUFT.C        15                   : SUFT         - SURFACE TEMPERATURE
~A  DEPTH       GR     PHIN     PHID     RESD
# ...
  509.000   77.319    0.380    0.215    7.419
  509.250   73.677    0.379    0.208    7.417
  509.500   77.322    0.389    0.209    7.416
  509.750   91.900    0.389    0.215    7.142
  510.000  102.833    0.349    0.186    7.009
  510.250  106.478    0.357    0.170    6.750
  510.500   98.586    0.372    0.167    6.748
  510.750   91.300    0.376    0.172    6.747
  511.000   82.193    0.372    0.161    6.746
  511.250   74.908    0.375    0.160    6.745
  511.500   69.444    0.382    0.214    7.001
  511.750   63.980    0.364    0.229    7.266
  512.000   60.339    0.346    0.240    7.403
  512.250   57.911    0.333    0.244    6.997
  512.500   57.306    0.331    0.251    6.613
  512.750   59.130    0.341    0.255    6.490
  513.000   60.346    0.347    0.265    6.134
  513.250   56.098    0.353    0.278    5.907
  513.500   54.885    0.342    0.271    5.689
  513.750   53.672    0.350    0.259    5.479
  514.000   52.460    0.364    0.274    5.376
  514.250   50.640    0.358    0.289    5.276
  514.500   47.606    0.355    0.288    5.275
  514.750   50.644    0.363    0.287    5.274
  515.000   60.363    0.363    0.286    5.473
  515.250   64.616    0.362    0.280    5.681
  515.500   67.047    0.373    0.274    5.897
  515.750   73.730    0.375    0.264    5.896
  516.000   77.983    0.355    0.251    6.120
  516.250   80.413    0.339    0.233    6.006
  516.500   73.128    0.330    0.231    5.893
  516.750   68.879    0.341    0.237    5.892
  517.000   70.703    0.336    0.230    6.116
  517.250   77.386    0.320    0.203    6.468
  517.500   79.209    0.306    0.184    6.589
  517.750   82.855    0.299    0.176    6.465
  518.000   84.071    0.335    0.184    6.226
  518.250   75.571    0.369    0.227    5.776
  518.500   61.605    0.384    0.259    5.066
  518.750   51.891    0.391    0.287    4.527
  519.000   45.820    0.397    0.297    4.121
  519.250   43.393    0.386    0.301    3.969
  519.500   45.824    0.372    0.293    3.895
  519.750   49.470    0.358    0.272    3.894
  520.000   55.546    0.359    0.286    3.967
  520.250   60.406    0.366    0.292    4.118
  520.500   64.051    0.367    0.284    4.274
  520.750   60.409    0.364    0.287    4.436
  521.000   60.411    0.370    0.293    4.692
  521.250   64.058    0.373    0.276    4.870
  521.500   65.274    0.375    0.260    5.055
  521.750   65.883    0.378    0.246    5.247
  522.000   65.885    0.364    0.255    5.345
  522.250   70.138    0.369    0.280    5.244
  522.500   76.213    0.384    0.260    5.146
  522.750   77.430    0.384    0.242    5.242
  523.000   82.290    0.385    0.241    5.340
  523.250   92.009    0.390    0.238    5.543
  523.500   95.654    0.375    0.221    5.753
  523.750   98.693    0.359    0.193    5.972
  524.000  103.554    0.386    0.199    6.084
  524.250  105.984    0.390    0.223    6.083
  524.500  109.023    0.389    0.211    5.969
  524.750  112.061    0.396    0.200    5.748
  525.000  109.027    0.399    0.188    5.747
  525.250   89.596    0.389    0.198    5.855
  525.500   78.059    0.373    0.201    5.964
  525.750   76.846    0.359    0.217    6.190
  526.000   84.136    0.351    0.230    6.306
  526.250   87.175    0.337    0.206    6.305
  526.500   88.999    0.325    0.193    6.304
  526.750   87.786    0.316    0.179    6.303
  527.000   82.930    0.320    0.196    6.185
  527.250   77.466    0.330    0.193    5.956
  527.500   69.574    0.357    0.183    5.630
  527.750   64.110    0.365    0.215    5.422
  528.000   59.861    0.341    0.236    5.125
  528.250   56.826    0.329    0.236    4.844
  528.500   53.792    0.342    0.231    4.666
  528.750   52.579    0.363    0.272    4.410
  529.000   52.581    0.352    0.298    4.247
  529.250   53.190    0.342    0.302    4.090
  529.500   52.586    0.352    0.302    4.089
  529.750   51.373    0.367    0.302    4.089
  530.000   50.160    0.383    0.309    4.244
  530.250   51.984    0.387    0.319    4.573
  530.500   68.990    0.346    0.233    4.836
  530.750   82.960    0.338    0.203    5.310
  531.000   96.322    0.413    0.185    5.722
  531.250  100.576    0.455    0.182    5.829
  531.500  106.043    0.489    0.216    5.613
  531.750  112.118    0.505    0.244    5.406
  532.000  114.549    0.501    0.228    5.206
  532.250  115.159    0.491    0.200    5.206
  532.500  115.160    0.477    0.178    5.403
  532.750  112.734    0.424    0.171    5.714
  533.000  108.485    0.398    0.174    5.931
  533.250  105.450    0.398    0.178    6.042
  533.500  106.667    0.387    0.180    6.041
  533.750  110.919    0.384    0.178    6.040
  534.000  116.387    0.387    0.166    6.038
  534.250  120.033    0.401    0.165    5.925
  534.500  119.428    0.409    0.169    5.814
  534.750  116.393    0.417    0.169    5.813
  535.000  115.788    0.413    0.166    5.812
  535.250  119.434    0.403    0.166    5.704
  535.500  121.257    0.398    0.166    5.596
  535.750  120.045    0.393    0.163    5.596
  536.000  115.796    0.400    0.161    5.389
  536.250  115.191    0.396    0.158    5.288
  536.500  121.266    0.429    0.173    5.387
  536.750  124.304    0.464    0.187    5.487
  537.000  121.877    0.478    0.180    5.590
  537.250  123.701    0.498    0.142    5.695
  537.500  122.488    0.511    0.135    5.801
  537.750  118.847    0.491    0.169    5.801
  538.000  115.205    0.460    0.186    6.020
  538.250  110.956    0.445    0.195    6.133
  538.500  107.922    0.439    0.200    6.608
  538.750  106.102    0.451    0.207    6.732
  539.000  103.674    0.472    0.194    6.858
  539.250   99.426    0.464    0.095    6.730
  539.500   90.926    0.430    0.086    6.481
  539.750   86.069    0.404    0.090    5.684
  540.000   78.784    0.387    0.092    4.713
  540.250   67.247    0.390    0.141    3.982
  540.500   50.245    0.393    0.255    3.427
  540.750   46.603    0.395    0.277    3.179
  541.000   44.176    0.397    0.288    2.895
  541.250   42.356    0.402    0.293    2.841
  541.500   39.929    0.415    0.326    2.787
  541.750   38.717    0.403    0.337    2.787
  542.000   42.362    0.399    0.339    2.839
  542.250   47.223    0.399    0.332    2.892
  542.500   46.617    0.401    0.320    2.946
  542.750   46.012    0.417    0.310    3.116
  543.000   46.623    0.425    0.306    3.001
  543.250   46.624    0.428    0.319    2.944
  543.500   46.019    0.409    0.322    2.944
  543.750   45.413    0.398    0.317    2.943
  544.000   44.201    0.406    0.313    2.943
  544.250   44.810    0.397    0.320    3.054
  544.500   50.277    0.380    0.311    3.481
  544.750   58.781    0.381    0.303    3.968
  545.000   69.107    0.381    0.292    4.523
  545.250   75.182    0.355    0.221    4.965
  545.500   72.756    0.342    0.200    5.154
  545.750   72.150    0.349    0.185    5.451
  546.000   73.367    0.352    0.194    5.553
  546.250   81.263    0.338    0.201    5.449
  546.500   87.338    0.342    0.200    4.961
  546.750   75.802    0.353    0.190    4.270
  547.000   50.905    0.407    0.294    3.888
  547.250   40.583    0.417    0.320    3.410
  547.500   55.160    0.380    0.327    3.223
  547.750   61.842    0.383    0.256    3.104
  548.000   60.630    0.393    0.249    3.104
  548.250   57.595    0.393    0.259    3.162
  548.500   48.488    0.385    0.282    3.221
  548.750   41.809    0.399    0.298    3.220
  549.000   33.309    0.396    0.310    3.044
  549.250   38.778    0.382    0.319    3.043
  549.500   46.674    0.372    0.326    3.159
  549.750   57.607    0.376    0.296    3.218
  550.000   65.504    0.380    0.259    3.157
  550.250   53.967    0.381    0.239    3.041
  550.500   40.002    0.382    0.263    2.928
  550.750   32.109    0.388    0.293    2.768
  551.000   29.682    0.397    0.312    2.666
  551.250   35.757    0.392    0.332    2.616
  551.500   33.938    0.385    0.338    2.567
  551.750   36.368    0.401    0.328    2.615
  552.000   45.480    0.397    0.330    2.714
  552.250   53.376    0.383    0.289    2.817
