~VERSION INFORMATION
 VERS.                 2.0:   CWLS LOG ASCII STANDARD -VERSION 2.0
 WRAP.                  NO:   ONE LINE PER DEPTH STEP
~WELL INFORMATION BLOCK
#MNEM.UNIT           DATA                    DESCRIPTION OF MNEMONIC
#---------    -------------------            -------------------------------
# Generated from Intellog Unique Number	CS_69_70/WELL/865
WELL.         ASHLAND OIL CANADA             : Well_name    - WELL
LOC .         00/10-10-069-18W4/0            : Location     - LOCATION
UWI .         00/10-10-069-18W4/0            : Uwi          - UNIQUE WELL ID
ENTR.         SP                             : Entered      - ENTERED BY
SRVC.         SCHLUMBERGER                   : Scn          - SERVICE COMPANY
STRT.M        259.08                         : top_depth    - START DEPTH
STOP.M        487.33                         : bot_depth    - STOP DEPTH
STEP.M        0.25                           : increment    - STEP LENGTH
 NULL. -999.2500:NULL Value
~CURVE INFORMATION BLOCK
#MNEM UNIT       ERCB CURVE CODE    CURVE DESCRIPTION
#-----------   ------------------   ----------------------------------
DEPT.M        00 001 00 00         : DEPTH        - DEPTH
GR  .API      00 310 00 00         : GR           - GAMMA RAY
DPHI.V/V      00 890 00 00         : PHID         - DENSITY POROSITY (SANDSTONE)
NPHI.V/V      00 330 00 00         : PHIN         - NEUTRON POROSITY (SANDSTONE)
ILD .OHMM     00 120 00 00         : RESD         - DEEP RESISTIVITY (DIL)
~PARAMETER INFORMATION
#MNEM.UNIT           DATA             DESCRIPTION OF MNEMONIC
#---------         -----------     ------------------------------
GL  .M        549.859              : gl           - GROUND LEVEL ELEVATION
EREF.M        553.822              : kb           - ELEVATION OF DEPTH REFERENCE
DATM.M        549.859              : datum        - DATUM ELEVATION
TDD .M        548.64               : tdd          - TOTAL DEPTH DRILLER
RUN .         ONE                  : Run          - RUN NUMBER
ENG .         BILL                 : Engineer     - RECORDING ENGINEER
WIT .         JIM                  : Witness      - WITNESSED BY
MUD .         GEL                  : Mud_type     - MUD TYPE
MATR.         SANDSTONE            : Logunit      - NEUTRON MATRIX
TMAX.C        21.6667              : BHT          - MAXIMUM RECORDED TEMPERATURE
BHTD.M        548.64               : BHTDEP       - MAXIMUM RECORDED TEMPERATURE
MATR.         1                    : LOGUNIT      - NEUTRON MATRIX
RMT .C        25                   : MDTP         - TEMPERATURE OF MUD
NEUT.         1                    : NEUTRON      - NEUTRON TYPE
RESI.         0                    : RESIST       - RESISTIVITY TYPE
RMC .OHMM     0.25                 : RMC          - RESISTIVITY OF MUD CAKE
RMF .OHMM     0.25                 : RMF          - RESISTIVITY OF MUD FILTRATE
SUFT.C        15                   : SUFT         - SURFACE TEMPERATURE
~A  DEPTH       GR     PHID     PHIN     RESD
# ...
  302.580  112.745    0.264    0.604    4.308
  302.830  112.422    0.290    0.609    4.369
  303.080  113.807    0.286    0.613    4.371
  303.330  117.064    0.290    0.616    4.393
  303.580  120.182    0.291    0.621    4.405
  303.830  121.847    0.302    0.622    4.409
  304.080  120.717    0.275    0.621    4.411
  304.330  118.619    0.271    0.613    4.404
  304.580  117.025    0.289    0.604    4.366
  304.830  116.156    0.305    0.599    4.350
  305.080  114.507    0.292    0.606    4.304
  305.330  110.518    0.283    0.612    4.297
  305.580  107.810    0.296    0.615    4.291
  305.830  105.759    0.291    0.608    4.246
  306.080  103.938    0.278    0.610    4.213
  306.330  102.937    0.256    0.613    4.208
  306.580  100.679    0.240    0.612    4.191
  306.830   96.577    0.232    0.577    4.227
  307.080   91.014    0.177    0.499    4.245
  307.330   85.866    0.074    0.479    4.284
  307.580   91.321    0.010    0.534    4.295
  307.830   98.768    0.011    0.577    4.319
  308.080  102.451    0.227    0.543    4.362
  308.330   97.371    0.342    0.491    4.356
  308.580   92.094    0.400    0.433    4.495
  308.830   88.504    0.378    0.414    4.693
  309.080   88.372    0.354    0.408    4.940
  309.330   89.476    0.356    0.411    5.178
  309.580   90.012    0.373    0.440    5.329
  309.830   90.416    0.395    0.477    5.444
  310.080   91.513    0.398    0.451    5.575
  310.330   94.658    0.374    0.435    5.595
  310.580   98.709    0.361    0.425    5.603
  310.830  102.464    0.375    0.436    5.556
  311.080  104.841    0.351    0.456    5.460
  311.330  106.596    0.348    0.472    5.407
  311.580  106.671    0.358    0.480    5.311
  311.830  107.404    0.342    0.476    5.264
  312.080  110.360    0.320    0.483    5.186
  312.330  110.475    0.312    0.494    5.132
  312.580  104.349    0.320    0.443    5.128
  312.830   95.242    0.365    0.418    5.136
  313.080   87.868    0.357    0.407    5.115
  313.330   80.024    0.361    0.398    5.031
  313.580   73.855    0.364    0.390    4.724
  313.830   68.532    0.393    0.404    4.348
  314.080   67.879    0.407    0.421    4.129
  314.330   73.545    0.424    0.430    4.157
  314.580   77.482    0.410    0.444    4.267
  314.830   81.047    0.384    0.446    4.476
  315.080   84.887    0.342    0.443    4.571
  315.330   87.698    0.327    0.447    4.659
  315.580   81.363    0.366    0.419    4.788
  315.830   78.469    0.370    0.398    4.918
  316.080   81.079    0.315    0.398    5.070
  316.330   82.818    0.258    0.407    5.119
  316.580   79.811    0.267    0.402    5.166
  316.830   77.738    0.244    0.394    5.167
  317.080   77.593    0.182    0.399    5.150
  317.330   80.577    0.207    0.429    5.151
  317.580   84.774    0.275    0.461    5.123
  317.830   86.654    0.340    0.530    5.046
  318.080   84.809    0.346    0.563    4.988
  318.330   82.695    0.389    0.607    4.875
  318.580   82.426    0.441    0.565    4.761
  318.830   82.043    0.404    0.502    4.649
  319.080   78.389    0.389    0.485    4.581
  319.330   73.549    0.373    0.498    4.394
  319.580   70.249    0.360    0.506    4.252
  319.830   68.481    0.375    0.513    4.146
  320.080   70.396    0.394    0.516    4.115
  320.330   69.173    0.407    0.505    4.106
  320.580   68.345    0.419    0.494    4.107
  320.830   69.911    0.431    0.484    4.061
  321.080   68.514    0.449    0.495    3.786
  321.330   66.372    0.440    0.492    3.921
  321.580   64.922    0.422    0.489    4.112
  321.830   64.445    0.417    0.511    4.126
  322.080   64.488    0.429    0.513    4.081
  322.330   64.765    0.439    0.502    4.114
  322.580   65.717    0.445    0.493    4.095
  322.830   66.868    0.455    0.487    4.223
  323.080   68.543    0.442    0.484    4.305
  323.330   70.541    0.424    0.479    4.374
  323.580   73.290    0.409    0.484    4.497
  323.830   76.393    0.404    0.499    4.546
  324.080   80.078    0.392    0.512    4.550
  324.330   82.597    0.377    0.527    4.578
  324.580   85.374    0.369    0.540    4.609
  324.830   86.447    0.377    0.553    4.704
  325.080   87.524    0.362    0.566    4.796
  325.330   87.468    0.341    0.574    4.738
  325.580   86.063    0.313    0.563    4.637
  325.830   84.008    0.372    0.552    4.533
  326.080   82.056    0.362    0.537    4.376
  326.330   81.124    0.335    0.526    4.288
  326.580   82.153    0.307    0.531    4.192
  326.830   81.514    0.306    0.537    4.141
  327.080   77.499    0.368    0.517    4.150
  327.330   74.722    0.371    0.489    4.258
  327.580   72.959    0.359    0.471    4.346
  327.830   73.467    0.379    0.464    4.488
  328.080   74.535    0.398    0.483    4.810
  328.330   74.094    0.406    0.494    5.101
  328.580   70.079    0.349    0.453    5.395
  328.830   63.300    0.113    0.411    5.526
  329.080   57.547    0.037    0.221    5.453
  329.330   56.886    0.001    0.206    5.126
  329.580   66.710    0.191    0.313    4.772
  329.830   71.782    0.343    0.385    4.674
  330.080   75.986    0.372    0.461    4.698
  330.330   79.165    0.388    0.484    4.830
  330.580   85.581    0.359    0.489    5.011
  330.830   91.533    0.320    0.490    5.127
  331.080   98.062    0.278    0.506    5.235
  331.330  103.904    0.243    0.498    5.317
  331.580  110.960    0.225    0.495    5.419
  331.830  116.275    0.222    0.498    5.503
  332.080  119.375    0.276    0.508    5.631
  332.330  120.038    0.260    0.514    5.775
  332.580  119.842    0.280    0.493    5.969
  332.830  116.396    0.298    0.468    6.174
  333.080  112.709    0.305    0.441    6.358
  333.330  107.014    0.314    0.453    6.489
  333.580  103.999    0.324    0.467    6.554
  333.830  102.244    0.317    0.456    6.635
  334.080  102.423    0.303    0.438    6.635
  334.330  104.937    0.296    0.441    6.629
  334.580  107.596    0.279    0.468    6.589
  334.830  109.722    0.269    0.466    6.512
  335.080  108.533    0.302    0.451    6.485
  335.330  106.310    0.287    0.443    6.474
  335.580  105.084    0.291    0.442    6.337
  335.830  104.030    0.309    0.450    6.078
  336.080  105.014    0.299    0.469    5.947
  336.330  108.877    0.308    0.483    5.838
  336.580  112.056    0.324    0.479    5.707
  336.830  111.883    0.299    0.474    5.558
  337.080  114.118    0.301    0.469    5.638
  337.330  115.722    0.276    0.487    5.743
  337.580  117.113    0.283    0.481    5.904
  337.830  119.837    0.295    0.468    6.053
  338.080  122.303    0.309    0.463    6.259
  338.330  125.078    0.330    0.469    6.432
  338.580  121.854    0.302    0.486    6.576
  338.830  114.795    0.327    0.476    6.671
  339.080  116.410    0.317    0.456    6.615
  339.330  117.017    0.289    0.439    6.464
  339.580  116.454    0.277    0.426    6.153
  339.830  115.218    0.275    0.446    5.537
  340.080  113.762    0.309    0.471    4.991
  340.330  113.459    0.314    0.486    4.663
  340.580  116.655    0.341    0.488    4.481
  340.830  124.054    0.293    0.525    4.424
  341.080  126.419    0.267    0.557    4.422
  341.330  126.272    0.244    0.568    4.397
  341.580  120.345    0.335    0.551    4.414
  341.830  114.916    0.315    0.550    4.455
  342.080  108.812    0.301    0.566    4.536
  342.330  100.417    0.318    0.531    4.599
  342.580   94.378    0.319    0.499    4.633
  342.830   92.681    0.294    0.476    4.640
  343.080   92.489    0.316    0.480    4.623
  343.330   93.130    0.330    0.508    4.627
  343.580   93.307    0.361    0.523    4.696
  343.830   92.790    0.359    0.529    4.769
  344.080   90.547    0.359    0.530    4.942
  344.330   89.290    0.393    0.532    5.168
  344.580   88.335    0.405    0.550    5.337
  344.830   87.675    0.408    0.594    5.337
  345.080   86.240    0.410    0.559    5.108
  345.330   83.739    0.392    0.524    4.924
  345.580   81.177    0.407    0.498    4.801
  345.830   78.800    0.411    0.499    4.847
