~VERSION INFORMATION
 VERS.                 2.0:   CWLS LOG ASCII STANDARD -VERSION 2.0
 WRAP.                  NO:   ONE LINE PER DEPTH STEP
~WELL INFORMATION BLOCK
#MNEM.UNIT           DATA                    DESCRIPTION OF MNEMONIC
#---------    -------------------            -------------------------------
# Generated from Intellog Unique Number	CS_71_72/WELL/915
WELL.         AMOCO AEC IPIATIK INDIA        : Well_name    - WELL
LOC .         00/12-04-072-06W4/0            : Location     - LOCATION
UWI .         00/12-04-072-06W4/0            : Uwi          - UNIQUE WELL ID
ENTR.         SP                             : Entered      - ENTERED BY
SRVC.         SCHLUMBERGER                   : Scn          - SERVICE COMPANY
STRT.M        320                            : top_depth    - START DEPTH
STOP.M        545                            : bot_depth    - STOP DEPTH
STEP.M        0.25                           : increment    - STEP LENGTH
 NULL. -999.2500:NULL Value
~CURVE INFORMATION BLOCK
#MNEM UNIT       ERCB CURVE CODE    CURVE DESCRIPTION
#-----------   ------------------   ----------------------------------
DEPT.M        00 001 00 00         : DEPTH        - DEPTH
ILD .OHMM     00 120 00 00         : RESD         - DEEP RESISTIVITY (DIL)
DPHI.V/V      00 890 00 00         : PHID         - DENSITY POROSITY (LIMESTONE)
NPHI.V/V      00 330 00 00         : PHIN         - NEUTRON POROSITY (LIMESTONE)
GR  .API      00 310 00 00         : GR           - GAMMA RAY
~PARAMETER INFORMATION
#MNEM.UNIT           DATA             DESCRIPTION OF MNEMONIC
#---------         -----------     ------------------------------
GL  .M        690.3                : gl           - GROUND LEVEL ELEVATION
EREF.M        694.56               : kb           - ELEVATION OF DEPTH REFERENCE
DATM.M        690.3                : datum        - DATUM ELEVATION
TDD .M        561                  : tdd          - TOTAL DEPTH DRILLER
RUN .         ONE                  : Run          - RUN NUMBER
ENG .         BILL                 : Engineer     - RECORDING ENGINEER
WIT .         JIM                  : Witness      - WITNESSED BY
MUD .         GEL                  : Mud_type     - MUD TYPE
MATR.         LIMESTONE            : Logunit      - NEUTRON MATRIX
TMAX.C        23                   : BHT          - MAXIMUM RECORDED TEMPERATURE
BHTD.M        561                  : BHTDEP       - MAXIMUM RECORDED TEMPERATURE
MATR.         1                    : LOGUNIT      - NEUTRON MATRIX
RMT .C        25                   : MDTP         - TEMPERATURE OF MUD
NEUT.         1                    : NEUTRON      - NEUTRON TYPE
RESI.         0                    : RESIST       - RESISTIVITY TYPE
RMC .OHMM     0.25                 : RMC          - RESISTIVITY OF MUD CAKE
RMF .OHMM     0.25                 : RMF          - RESISTIVITY OF MUD FILTRATE
SUFT.C        15                   : SUFT         - SURFACE TEMPERATURE
~A  DEPTH     RESD     PHID     PHIN       GR
# ...
  407.000    8.614    0.290    0.471   69.308
  407.250    8.942    0.295    0.471   69.927
  407.500    9.283    0.305    0.455   69.938
  407.750    9.639    0.301    0.449   69.949
  408.000    9.822    0.292    0.442   69.365
  408.250    9.645    0.289    0.433   68.765
  408.500    9.471    0.292    0.431   66.353
  408.750    9.129    0.308    0.427   64.544
  409.000    9.132    0.312    0.424   64.554
  409.250    8.968    0.314    0.440   64.568
  409.500    8.972    0.314    0.454   64.586
  409.750    8.811    0.314    0.467   63.996
  410.000    8.813    0.314    0.463   63.398
  410.250    8.654    0.314    0.453   61.588
  410.500    8.497    0.314    0.445   60.995
  410.750    8.191    0.312    0.446   62.224
  411.000    7.751    0.307    0.448   65.279
  411.250    7.610    0.301    0.443   66.502
  411.500    7.201    0.299    0.439   69.558
  411.750    6.688    0.282    0.449   73.218
  412.000    6.097    0.275    0.457   75.048
  412.250    5.663    0.268    0.446   79.316
  412.500    5.259    0.266    0.441   85.406
  412.750    4.706    0.245    0.446   88.451
  413.000    4.134    0.249    0.456   94.540
  413.250    3.840    0.225    0.470  100.022
  413.500    3.633    0.215    0.483  102.460
  413.750    3.437    0.214    0.496  106.729
  414.000    3.252    0.218    0.509  108.565
  414.250    3.135    0.238    0.530  106.148
  414.500    3.022    0.220    0.541  102.519
  414.750    2.968    0.214    0.548  103.143
  415.000    2.969    0.219    0.563  104.367
  415.250    2.915    0.219    0.577  105.600
  415.500    2.916    0.243    0.592  105.612
  415.750    3.027    0.244    0.592  103.805
  416.000    3.086    0.238    0.572  103.215
  416.250    3.086    0.225    0.565  103.834
  416.500    3.145    0.230    0.556  105.068
  416.750    3.146    0.222    0.576  105.686
  417.000    2.977    0.233    0.567  105.695
  417.250    2.978    0.242    0.562  105.714
  417.500    3.092    0.254    0.571  105.117
  417.750    3.458    0.256    0.577  101.487
  418.000    3.939    0.252    0.567   96.041
  418.250    4.405    0.244    0.548   93.620
  418.500    4.926    0.241    0.531   88.778
  418.750    5.508    0.233    0.518   86.367
  419.000    5.936    0.243    0.507   85.162
  419.250    6.049    0.241    0.500   83.963
  419.500    6.165    0.229    0.490   83.367
  419.750    6.283    0.224    0.495   81.559
  420.000    6.286    0.221    0.487   82.793
  420.250    6.172    0.217    0.489   84.018
  420.500    6.175    0.235    0.494   86.463
  420.750    6.177    0.239    0.491   87.691
  421.000    6.179    0.225    0.479   87.706
  421.250    6.181    0.210    0.473   85.897
  421.500    6.184    0.219    0.467   84.696
  421.750    6.072    0.240    0.463   85.927
  422.000    6.074    0.256    0.465   86.545
  422.250    5.964    0.265    0.468   88.998
  422.500    5.858    0.246    0.465   90.228
  422.750    5.646    0.232    0.466   91.455
  423.000    5.544    0.219    0.475   92.683
  423.250    5.344    0.204    0.475   93.912
  423.500    5.151    0.200    0.469   94.532
  423.750    4.964    0.207    0.477   95.151
  424.000    4.698    0.210    0.487   95.770
  424.250    4.529    0.215    0.506   96.394
  424.500    4.365    0.212    0.500   96.404
  424.750    4.208    0.212    0.499   94.601
  425.000    4.208    0.223    0.508   94.612
  425.250    3.982    0.226    0.509   94.628
  425.500    3.767    0.219    0.507   95.246
  425.750    3.632    0.216    0.502   96.476
  426.000    3.770    0.218    0.522   97.095
  426.250    3.842    0.219    0.533   97.724
  426.500    3.843    0.216    0.547   97.123
  426.750    3.705    0.215    0.560   96.531
  427.000    3.505    0.205    0.566   93.513
  427.250    3.317    0.189    0.557   91.096
  427.500    3.197    0.172    0.516   90.501
  427.750    3.258    0.160    0.468   94.765
  428.000    3.782    0.194    0.514   99.641
  428.250    4.000    0.214    0.537  103.909
  428.500    4.230    0.221    0.562  105.132
  428.750    4.474    0.231    0.567  101.505
  429.000    4.645    0.240    0.561   96.058
  429.250    4.823    0.246    0.541   92.425
  429.500    4.825    0.243    0.503   89.400
  429.750    4.481    0.240    0.473   87.595
  430.000    4.011    0.238    0.482   87.006
  430.250    3.937    0.235    0.482   86.410
  430.500    4.013    0.239    0.484   85.816
  430.750    4.166    0.253    0.502   85.219
  431.000    4.490    0.267    0.516   85.844
  431.250    4.576    0.257    0.524   84.645
  431.500    4.492    0.253    0.528   82.231
  431.750    4.665    0.252    0.522   78.602
  432.000    4.753    0.253    0.504   76.182
  432.250    4.844    0.264    0.488   72.552
  432.500    4.938    0.281    0.479   73.780
  432.750    4.939    0.279    0.477   76.226
  433.000    4.941    0.259    0.472   76.844
  433.250    4.942    0.251    0.466   76.864
  433.500    5.228    0.273    0.467   75.661
  433.750    5.956    0.285    0.467   75.067
  434.000    6.660    0.299    0.474   74.476
  434.250    8.325    0.303    0.479   72.664
  434.500   11.004    0.304    0.481   68.431
  434.750   12.535    0.298    0.470   66.012
  435.000   14.280    0.276    0.455   62.383
  435.250   15.104    0.253    0.439   56.935
  435.500   11.019    0.240    0.241   53.911
  435.750    7.746    0.231    0.219   58.789
  436.000    6.088    0.159    0.220   62.442
  436.250    5.654   -0.006    0.243   67.314
  436.500    5.450    0.026    0.345   71.577
  436.750    5.351    0.091    0.417   77.672
  437.000    5.661    0.277    0.441   79.504
  437.250    5.768    0.260    0.439   81.945
  437.500    5.771    0.254    0.457   83.782
  437.750    5.880    0.239    0.451   84.400
  438.000    6.106    0.221    0.446   85.026
  438.250    6.339    0.209    0.451   83.824
  438.500    6.460    0.215    0.457   81.412
  438.750    6.583    0.236    0.460   81.422
  439.000    6.836    0.236    0.466   81.438
  439.250    6.838    0.246    0.454   82.057
  439.500    6.968    0.248    0.438   83.899
  439.750    6.843    0.243    0.441   84.519
  440.000    6.596    0.238    0.448   85.746
  440.250    6.358    0.234    0.447   86.364
  440.500    6.015    0.241    0.456   88.207
  440.750    5.586    0.247    0.461   88.823
  441.000    5.093    0.240    0.454   90.057
  441.250    4.558    0.238    0.447   90.065
  441.500    4.312    0.235    0.462   90.080
  441.750    4.080    0.232    0.478   89.489
  442.000    4.007    0.227    0.491   87.681
  442.250    4.009    0.230    0.484   85.869
  442.500    3.793    0.239    0.474   85.276
  442.750    3.588    0.239    0.496   86.511
  443.000    3.333    0.235    0.491   90.775
  443.250    2.927    0.231    0.490   95.646
  443.500    2.524    0.229    0.513   99.910
  443.750    2.388    0.245    0.534  101.139
  444.000    2.218    0.250    0.552  100.546
  444.250    2.178    0.243    0.558   98.737
  444.500    2.139    0.251    0.542   98.754
  444.750    2.221    0.256    0.537   99.377
  445.000    2.263    0.253    0.555   98.782
  445.250    2.306    0.260    0.557   98.190
  445.500    2.486    0.259    0.549   98.807
  445.750    2.533    0.253    0.557   99.430
  446.000    2.729    0.243    0.563   98.230
  446.250    2.941    0.243    0.547   95.208
  446.500    3.110    0.243    0.538   91.584
  446.750    3.289    0.248    0.529   89.771
  447.000    3.611    0.258    0.512   86.757
  447.250    4.039    0.261    0.498   85.554
  447.500    4.351    0.262    0.492   84.958
  447.750    4.777    0.262    0.497   83.757
  448.000    5.052    0.261    0.480   83.159
  448.250    5.444    0.254    0.470   82.567
  448.500    5.651    0.248    0.452   83.190
  448.750    5.760    0.238    0.441   85.030
  449.000    5.761    0.230    0.429   86.255
  449.250    5.873    0.217    0.424   88.095
  449.500    5.766    0.208    0.437   88.709
  449.750    5.768    0.204    0.453   89.332
  450.000    5.770    0.204    0.465   88.741
  450.250    5.772    0.216    0.466   88.153
