~VERSION INFORMATION
 VERS.                 2.0:   CWLS LOG ASCII STANDARD -VERSION 2.0
 WRAP.                  NO:   ONE LINE PER DEPTH STEP
~WELL INFORMATION BLOCK
#MNEM.UNIT           DATA                    DESCRIPTION OF MNEMONIC
#---------    -------------------            -------------------------------
# Generated from Intellog Unique Number	CS_73_76/WELL/2194
WELL.         DOME PETROLEUM LIMITED         : Well_name    - WELL
LOC .         00/11-02-074-06W4/0            : Location     - LOCATION
UWI .         00/11-02-074-06W4/0            : Uwi          - UNIQUE WELL ID
ENTR.         SP                             : Entered      - ENTERED BY
SRVC.         SCHLUMBERGER                   : Scn          - SERVICE COMPANY
STRT.M        255                            : top_depth    - START DEPTH
STOP.M        475                            : bot_depth    - STOP DEPTH
STEP.M        0.25                           : increment    - STEP LENGTH
 NULL. -999.2500:NULL Value
~CURVE INFORMATION BLOCK
#MNEM UNIT       ERCB CURVE CODE    CURVE DESCRIPTION
#-----------   ------------------   ----------------------------------
DEPT.M        00 001 00 00         : DEPTH        - DEPTH
ILD .OHMM     00 120 00 00         : RESD         - DEEP RESISTIVITY (DIL)
DPHI.V/V      00 890 00 00         : PHID         - DENSITY POROSITY (LIMESTONE)
NPHI.V/V      00 330 00 00         : PHIN         - NEUTRON POROSITY (LIMESTONE)
GR  .API      00 310 00 00         : GR           - GAMMA RAY
~PARAMETER INFORMATION
#MNEM.UNIT           DATA             DESCRIPTION OF MNEMONIC
#---------         -----------     ------------------------------
GL  .M        646.01               : gl           - GROUND LEVEL ELEVATION
EREF.M        649.91               : kb           - ELEVATION OF DEPTH REFERENCE
DATM.M        646.01               : datum        - DATUM ELEVATION
TDD .M        484                  : tdd          - TOTAL DEPTH DRILLER
RUN .         ONE                  : Run          - RUN NUMBER
ENG .         BILL                 : Engineer     - RECORDING ENGINEER
WIT .         JIM                  : Witness      - WITNESSED BY
MUD .         GEL                  : Mud_type     - MUD TYPE
MATR.         LIMESTONE            : Logunit      - NEUTRON MATRIX
TMAX.C        21                   : BHT          - MAXIMUM RECORDED TEMPERATURE
BHTD.M        484                  : BHTDEP       - MAXIMUM RECORDED TEMPERATURE
MATR.         1                    : LOGUNIT      - NEUTRON MATRIX
RMT .C        25                   : MDTP         - TEMPERATURE OF MUD
NEUT.         1                    : NEUTRON      - NEUTRON TYPE
RESI.         0                    : RESIST       - RESISTIVITY TYPE
RMC .OHMM     0.25                 : RMC          - RESISTIVITY OF MUD CAKE
RMF .OHMM     0.25                 : RMF          - RESISTIVITY OF MUD FILTRATE
SUFT.C        15                   : SUFT         - SURFACE TEMPERATURE
~A  DEPTH     RESD     PHID     PHIN       GR
  255.000    3.143    0.245    0.517  108.370
  255.250    3.146    0.242    0.506  108.986
  255.500    3.147    0.239    0.513  107.153
  255.750    3.269    0.236    0.527  104.708
  256.000    3.397    0.227    0.536  101.039
  256.250    3.464    0.216    0.528  103.492
  256.500    3.533    0.225    0.519  104.721
  256.750    3.535    0.221    0.514  108.399
  257.000    3.604    0.232    0.511  111.463
  257.250    3.675    0.216    0.513  110.244
  257.500    3.676    0.204    0.523  111.472
  257.750    3.610    0.201    0.524  110.865
  258.000    3.613    0.220    0.504  108.420
  258.250    3.683    0.223    0.496  107.812
  258.500    3.755    0.219    0.511  104.754
  258.750    3.829    0.211    0.522  101.084
  259.000    3.834    0.215    0.526  104.762
  259.250    3.834    0.217    0.493  107.827
  259.500    3.766    0.218    0.478  108.444
  259.750    3.698    0.209    0.465  109.672
  260.000    3.498    0.206    0.465  105.392
  260.250    3.309    0.231    0.469  102.334
  260.500    3.249    0.242    0.487  104.788
  260.750    3.191    0.234    0.515  106.016
  261.000    3.253    0.233    0.532  106.020
  261.250    3.195    0.244    0.514  106.025
  261.500    3.258    0.245    0.508  106.640
  261.750    3.260    0.227    0.498  107.259
  262.000    3.791    0.240    0.496  107.874
  262.250    4.576    0.235    0.493  108.490
  262.500    5.421    0.237    0.476  109.719
  262.750    6.669    0.256    0.450  106.050
  263.000    7.902    0.252    0.431  100.544
  263.250    8.685    0.268    0.405   96.262
  263.500    9.196    0.281    0.391   95.041
  263.750    9.376    0.288    0.406   95.659
  264.000    8.867    0.256    0.410   96.886
  264.250    9.043    0.241    0.400  108.523
  264.500    9.572    0.234    0.393  111.589
  264.750   10.519    0.250    0.400  100.573
  265.000   11.784    0.254    0.395   90.170
  265.250   12.012    0.271    0.390   84.050
  265.500   12.248    0.266    0.386   73.034
  265.750   10.750    0.282    0.280   63.242
  266.000    9.795    0.302    0.250   53.450
  266.250    9.263    0.344    0.260   47.944
  266.500    8.926    0.333    0.291   49.785
  266.750    8.289    0.305    0.326   57.749
  267.000    8.138    0.282    0.351   63.877
  267.250    7.991    0.285    0.367   65.715
  267.500    8.151    0.277    0.383   67.556
  267.750    8.308    0.277    0.389   62.052
  268.000    9.134    0.261    0.387   60.830
  268.250    9.487    0.256    0.380   72.467
  268.500   10.233    0.233    0.384   80.430
  268.750    9.326    0.246    0.389   83.497
  269.000    8.989    0.263    0.390   84.113
  269.250    8.503    0.269    0.399   85.342
  269.500    8.504    0.268    0.402   89.020
  269.750    8.510    0.272    0.396   92.698
  270.000    8.843    0.257    0.391   95.150
  270.250    8.847    0.251    0.391   96.991
  270.500    8.855    0.257    0.394   98.219
  270.750    8.696    0.267    0.399   99.449
  271.000    8.540    0.256    0.403  100.064
  271.250    8.385    0.251    0.407   95.783
  271.500    7.932    0.260    0.416   90.278
  271.750    7.645    0.274    0.427   85.996
  272.000    7.649    0.291    0.438   82.938
  272.250    7.655    0.278    0.446   95.800
  272.500    7.660    0.235    0.449   90.906
  272.750    7.810    0.225    0.417   84.787
  273.000    8.272    0.237    0.380   78.056
  273.250    8.433    0.202    0.375   88.471
  273.500    8.437    0.163    0.394   92.759
  273.750    8.441    0.167    0.408   92.151
  274.000    8.447    0.167    0.414   85.420
  274.250    7.841    0.177    0.407   78.077
  274.500    7.700    0.225    0.390   68.897
  274.750    7.705    0.260    0.379   62.167
  275.000    7.712    0.266    0.373   67.683
  275.250    7.572    0.236    0.381   75.034
  275.500    7.298    0.224    0.386   79.323
  275.750    6.404    0.222    0.386   81.165
  276.000    5.944    0.227    0.392   85.454
  276.250    5.729    0.246    0.402   92.806
  276.500    5.626    0.211    0.419  100.768
  276.750    5.323    0.184    0.437  113.629
  277.000    5.034    0.162    0.458  115.471
  277.250    4.673    0.154    0.463  114.862
  277.500    4.258    0.137    0.478  122.826
  277.750    4.103    0.170    0.494  132.627
  278.000    3.739    0.205    0.502  132.630
  278.250    3.602    0.215    0.486  128.962
  278.500    3.283    0.230    0.480  128.353
  278.750    3.223    0.223    0.491  130.194
  279.000    3.049    0.231    0.512  131.423
  279.250    2.938    0.226    0.525  131.427
  279.500    2.940    0.243    0.546  130.207
  279.750    3.355    0.249    0.557  127.149
  280.000    3.901    0.245    0.550  128.379
  280.250    4.891    0.244    0.532  125.322
  280.500    5.686    0.243    0.504  118.590
  280.750    6.738    0.231    0.477  107.574
  281.000    7.131    0.240    0.446  102.068
  281.250    7.693    0.257    0.427   97.787
  281.500    7.556    0.268    0.413   95.341
  281.750    7.419    0.271    0.427   95.346
  282.000    7.289    0.259    0.427   97.799
  282.250    7.156    0.250    0.422  101.476
  282.500    7.435    0.237    0.441  105.766
  282.750    7.726    0.233    0.452  106.383
  283.000    7.876    0.256    0.457  103.939
  283.250    8.340    0.266    0.460  100.270
  283.500    8.502    0.276    0.472   95.988
  283.750    8.669    0.293    0.459   90.481
  284.000    8.673    0.290    0.445   82.526
  284.250    8.842    0.295    0.445   80.693
  284.500    8.850    0.306    0.439   82.535
  284.750    9.025    0.294    0.436   85.600
  285.000    9.028    0.301    0.433   86.828
  285.250    9.206    0.282    0.432   84.384
  285.500    9.214    0.272    0.449   83.775
  285.750    9.047    0.283    0.449   81.330
  286.000    8.884    0.290    0.437   85.009
  286.250    8.726    0.267    0.431   88.075
  286.500    8.568    0.214    0.420   88.690
  286.750    8.261    0.220    0.392   75.837
  287.000    8.111    0.246    0.385   67.270
  287.250    7.965    0.285    0.382   62.376
  287.500    7.823    0.268    0.383   64.830
  287.750    7.681    0.266    0.389   66.058
  288.000    7.686    0.270    0.387   67.287
  288.250    7.690    0.257    0.380   69.127
  288.500    7.697    0.261    0.374   74.642
  288.750    7.701    0.242    0.374   78.319
  289.000    8.003    0.239    0.380   75.875
  289.250    8.007    0.229    0.385   75.266
  289.500    8.165    0.209    0.385   79.558
  289.750    8.168    0.215    0.382   80.173
  290.000    8.176    0.237    0.385   77.728
  290.250    8.181    0.268    0.389   72.835
  290.500    8.032    0.284    0.393   69.776
  290.750    8.039    0.303    0.394   65.496
  291.000    8.044    0.305    0.394   69.786
  291.250    8.202    0.281    0.390   77.138
  291.500    8.206    0.281    0.384   80.815
  291.750    8.213    0.278    0.386   86.330
  292.000    8.218    0.253    0.391   92.456
  292.250    8.222    0.241    0.394   98.582
  292.500    8.231    0.224    0.396  102.259
  292.750    8.081    0.218    0.412   97.978
  293.000    7.937    0.242    0.420   92.472
  293.250    7.796    0.269    0.412   88.190
  293.500    7.655    0.274    0.409   82.684
  293.750    7.659    0.281    0.402   83.300
  294.000    7.525    0.273    0.398   86.978
  294.250    7.388    0.265    0.402   86.982
  294.500    7.391    0.277    0.406   94.335
  294.750    7.261    0.263    0.392  101.686
  295.000    7.128    0.249    0.392  109.036
  295.250    7.002    0.225    0.400  116.387
  295.500    6.874    0.205    0.415  121.289
  295.750    6.625    0.211    0.435  119.457
  296.000    6.386    0.211    0.452  118.237
  296.250    6.156    0.220    0.446  118.853
  296.500    6.159    0.237    0.453  118.247
  296.750    6.048    0.224    0.462  117.637
  297.000    6.053    0.208    0.479  114.581
  297.250    6.057    0.225    0.473  112.747
  297.500    6.176    0.208    0.470  110.915
  297.750    6.181    0.214    0.475  108.470
  298.000    6.183    0.230    0.469  106.637
  298.250    6.188    0.245    0.458  108.479
