~VERSION INFORMATION
 VERS.                 2.0:   CWLS LOG ASCII STANDARD -VERSION 2.0
 WRAP.                  NO:   ONE LINE PER DEPTH STEP
~WELL INFORMATION BLOCK
#MNEM.UNIT           DATA                    DESCRIPTION OF MNEMONIC
#---------    -------------------            -------------------------------
# Generated from Intellog Unique Number	CS_67_68/WELL/2193
WELL.         10-08-067-03W4                 : Well_name    - WELL
LOC .         00/10-08-067-03W4/0            : Location     - LOCATION
UWI .         00/10-08-067-03W4/0            : Uwi          - UNIQUE WELL ID
ENTR.         SP                             : Entered      - ENTERED BY
SRVC.         SCHLUMBERGER                   : Scn          - SERVICE COMPANY
STRT.M        340                            : top_depth    - START DEPTH
STOP.M        576                            : bot_depth    - STOP DEPTH
STEP.M        0.25                           : increment    - STEP LENGTH
 NULL. -999.2500:NULL Value
~CURVE INFORMATION BLOCK
#MNEM UNIT       ERCB CURVE CODE    CURVE DESCRIPTION
#-----------   ------------------   ----------------------------------
DEPT.M        00 001 00 00         : DEPTH        - DEPTH
ILD .OHMM     00 120 00 00         : RESD         - DEEP RESISTIVITY (DIL)
DPHI.V/V      00 890 00 00         : PHID         - DENSITY POROSITY (LIMESTONE)
NPHI.V/V      00 330 00 00         : PHIN         - NEUTRON POROSITY (LIMESTONE)
GR  .API      00 310 00 00         : GR           - GAMMA RAY
CALI.MM       00 280 01 00         : CAL          - CALIPER
~PARAMETER INFORMATION
#MNEM.UNIT           DATA             DESCRIPTION OF MNEMONIC
#---------         -----------     ------------------------------
GL  .M        673.54               : gl           - GROUND LEVEL ELEVATION
EREF.M        678.04               : kb           - ELEVATION OF DEPTH REFERENCE
DATM.M        678.04               : datum        - DATUM ELEVATION
TDD .M        584                  : tdd          - TOTAL DEPTH DRILLER
RUN .         ONE                  : Run          - RUN NUMBER
ENG .         BILL                 : Engineer     - RECORDING ENGINEER
WIT .         JIM                  : Witness      - WITNESSED BY
MUD .         GEL                  : Mud_type     - MUD TYPE
MATR.         LIMESTONE            : Logunit      - NEUTRON MATRIX
TMAX.C        18.3                 : BHT          - MAXIMUM RECORDED TEMPERATURE
BHTD.M        584.5                : BHTDEP       - MAXIMUM RECORDED TEMPERATURE
MATR.         1                    : LOGUNIT      - NEUTRON MATRIX
RMT .C        25                   : MDTP         - TEMPERATURE OF MUD
NEUT.         1                    : NEUTRON      - NEUTRON TYPE
RESI.         0                    : RESIST       - RESISTIVITY TYPE
RMC .OHMM     0.25                 : RMC          - RESISTIVITY OF MUD CAKE
RMF .OHMM     0.25                 : RMF          - RESISTIVITY OF MUD FILTRATE
SUFT.C        15                   : SUFT         - SURFACE TEMPERATURE
~A  DEPTH     RESD     PHID     PHIN       GR      CAL
# ...
  486.000    1.905    0.301    0.540   81.285  159.865
  486.250    1.874    0.298    0.513   81.766  160.054
  486.500    1.889    0.294    0.503   80.904  160.043
  486.750    2.030    0.301    0.522   80.043  160.025
  487.000    2.157    0.297    0.540   80.888  159.912
  487.250    2.291    0.290    0.531   82.344  159.903
  487.500    2.394    0.282    0.478   83.252  159.788
  487.750    2.440    0.271    0.481   84.586  159.674
  488.000    2.437    0.264    0.508   87.565  159.560
  488.250    2.393    0.260    0.528   90.851  159.545
  488.500    2.327    0.261    0.536   93.708  159.528
  488.750    2.285    0.271    0.528   93.885  159.208
  489.000    2.290    0.278    0.520   90.523  158.990
  489.250    2.579    0.283    0.519   86.065  158.979
  489.500    3.173    0.288    0.536   80.630  158.862
  489.750    3.911    0.296    0.523   75.622  158.149
  490.000    4.885    0.304    0.489   72.138  158.035
  490.250    6.055    0.307    0.480   70.727  158.323
  490.500    6.949    0.301    0.472   69.868  158.517
  490.750    7.537    0.289    0.466   68.885  158.809
  491.000    7.978    0.279    0.477   67.291  159.205
  491.250    8.257    0.129    0.525   64.540  159.697
  491.500    8.402    0.095    0.402   65.203  159.789
  491.750    8.343    0.107    0.364   69.463  160.182
  492.000    8.099    0.168    0.392   72.932  160.780
  492.250    7.602    0.280    0.439   75.302  160.969
  492.500    7.054    0.287    0.454   77.856  161.466
  492.750    6.436    0.280    0.461   82.054  161.857
  493.000    5.468    0.266    0.476   86.133  161.949
  493.250    4.213    0.250    0.460   92.466  162.240
  493.500    3.519    0.233    0.493   97.215  162.227
  493.750    2.989    0.221    0.520  101.171  162.520
  494.000    2.598    0.217    0.531  103.603  162.813
  494.250    2.384    0.217    0.524  107.132  163.104
  494.500    2.224    0.217    0.535  112.063  163.293
  494.750    2.164    0.216    0.521  116.324  163.282
  495.000    2.181    0.227    0.505  117.231  163.269
  495.250    2.296    0.239    0.533  111.796  163.253
  495.500    2.458    0.247    0.548  106.728  163.244
  495.750    2.606    0.248    0.545   99.403  163.435
  496.000    2.827    0.236    0.543   96.042  163.524
  496.250    3.072    0.229    0.519   92.557  163.205
  496.500    3.282    0.222    0.493   94.685  162.889
  496.750    3.635    0.220    0.499  101.324  162.264
  497.000    4.187    0.207    0.526   93.633  161.438
  497.250    4.814    0.193    0.455   83.321  160.816
  497.500    5.588    0.179    0.420   74.776  159.685
  497.750    6.234    0.135    0.400   70.135  159.268
  498.000    6.800    0.105    0.380   72.078  158.747
  498.250    7.157    0.110    0.364   76.034  158.836
  498.500    7.408    0.159    0.410   77.490  159.231
  498.750    7.467    0.232    0.427   71.079  159.522
  499.000    7.442    0.258    0.417   66.377  159.507
  499.250    7.252    0.263    0.417   62.528  159.700
  499.500    6.910    0.273    0.416   61.301  159.380
  499.750    6.522    0.288    0.416   60.257  158.963
  500.000    6.202    0.299    0.415   61.650  158.645
  500.250    5.942    0.293    0.406   64.143  158.530
  500.500    5.619    0.274    0.394   67.124  158.722
  500.750    5.264    0.266    0.406   74.554  159.217
  501.000    4.949    0.285    0.417   80.523  159.403
  501.250    4.805    0.298    0.428   83.564  159.697
  501.500    5.048    0.307    0.450   78.496  159.888
  501.750    5.903    0.304    0.413   76.903  160.385
  502.000    7.021    0.301    0.381   81.102  160.780
  502.250    8.103    0.298    0.393   83.839  161.070
  502.500    9.458    0.295    0.400   84.319  161.059
  502.750   10.793    0.299    0.403   80.287  161.047
  503.000   11.884    0.306    0.402   76.316  161.033
  503.250   12.415    0.309    0.397   71.919  160.514
  503.500   11.055    0.299    0.394   66.545  159.992
  503.750    9.733    0.287    0.399   75.135  159.574
  504.000    8.552    0.278    0.406   84.090  159.558
  504.250    7.789    0.271    0.403   89.327  159.650
  504.500    8.092    0.268    0.397   94.930  159.739
  504.750    8.218    0.276    0.412   91.080  159.824
  505.000    8.299    0.277    0.434   82.292  159.917
  505.250    8.241    0.264    0.414   73.869  160.002
  505.500    8.001    0.249    0.368   67.154  160.195
  505.750    7.840    0.246    0.353   63.062  160.488
  506.000    7.684    0.256    0.343   59.151  160.780
  506.250    7.601    0.249    0.334   53.961  160.867
  506.500    7.534    0.241    0.324   59.136  160.959
  506.750    7.509    0.235    0.322   64.921  161.046
  507.000    7.512    0.231    0.331   64.609  160.933
  507.250    7.516    0.235    0.336   57.406  160.819
  507.500    7.491    0.246    0.346   52.764  160.806
  507.750    7.481    0.255    0.341   51.659  160.587
  508.000    7.541    0.257    0.327   58.725  160.780
  508.250    7.572    0.241    0.319   63.534  160.667
  508.500    7.633    0.237    0.316   65.539  160.651
  508.750    7.695    0.232    0.318   64.982  160.742
  509.000    7.713    0.224    0.347   64.487  160.627
  509.250    7.687    0.233    0.336   63.991  160.717
  509.500    7.619    0.247    0.322   62.642  160.705
  509.750    7.509    0.241    0.308   59.769  160.692
  510.000    7.386    0.227    0.342   59.517  160.677
  510.250    7.238    0.259    0.358   46.095  160.461
  510.500    6.975    0.281    0.364   39.136  160.346
  510.750    6.733    0.292    0.365   33.824  160.130
  511.000    6.561    0.299    0.362   28.389  159.712
  511.250    6.359    0.307    0.360   26.492  159.395
  511.500    6.231    0.313    0.357   25.690  159.180
  511.750    6.130    0.306    0.354   25.500  159.064
  512.000    6.098    0.300    0.347   25.371  159.154
  512.250    6.044    0.308    0.338   23.655  159.447
  512.500    6.001    0.316    0.328   23.709  159.841
  512.750    5.948    0.314    0.322   23.701  159.928
  513.000    5.917    0.303    0.325   24.121  159.916
  513.250    5.908    0.301    0.324   25.454  159.803
  513.500    5.890    0.304    0.333   26.971  159.382
  513.750    5.870    0.305    0.343   27.756  159.064
  514.000    5.851    0.306    0.351   22.321  158.951
  514.250    5.865    0.304    0.341   27.071  158.736
  514.500    5.846    0.295    0.335   35.538  158.315
  514.750    5.837    0.288    0.356   43.885  157.490
  515.000    5.818    0.283    0.366   45.158  156.766
  515.250    5.810    0.286    0.352   39.540  156.244
  515.500    5.802    0.288    0.332   26.362  156.131
  515.750    5.804    0.290    0.321   20.867  156.119
  516.000    5.785    0.297    0.318   19.030  156.208
  516.250    5.777    0.297    0.320   23.107  156.092
  516.500    5.758    0.291    0.324   25.356  155.979
  516.750    5.728    0.290    0.329   28.396  155.965
  517.000    5.731    0.281    0.337   31.864  155.852
  517.250    5.723    0.274    0.326   36.368  155.941
  517.500    5.693    0.275    0.348   35.630  156.132
  517.750    5.643    0.295    0.372   26.354  156.322
  518.000    5.624    0.306    0.354   20.370  156.614
  518.250    5.605    0.311    0.336   15.425  156.907
  518.500    5.577    0.307    0.326   20.478  156.996
  518.750    5.559    0.299    0.322   27.237  156.982
  519.000    5.551    0.288    0.338   31.682  156.969
  519.250    5.553    0.275    0.345   33.076  157.161
  519.500    5.567    0.299    0.327   27.887  157.350
  519.750    5.580    0.308    0.329   20.867  157.846
  520.000    5.582    0.313    0.345   20.005  158.340
  520.250    5.574    0.320    0.354   19.997  158.532
  520.500    5.577    0.313    0.350   20.048  158.924
  520.750    5.579    0.306    0.341   20.224  159.016
  521.000    5.603    0.305    0.337   20.157  158.999
  521.250    5.637    0.311    0.340   20.150  158.887
  521.500    5.650    0.316    0.347   20.142  158.571
  521.750    5.685    0.318    0.343   20.317  158.252
  522.000    5.688    0.319    0.334   20.432  158.138
  522.250    5.691    0.320    0.339   19.570  157.921
