~VERSION INFORMATION
 VERS.                 2.0:   CWLS LOG ASCII STANDARD -VERSION 2.0
 WRAP.                  NO:   ONE LINE PER DEPTH STEP
~WELL INFORMATION BLOCK
#MNEM.UNIT           DATA                    DESCRIPTION OF MNEMONIC
#---------    -------------------            -------------------------------
# Generated from Intellog Unique Number	CS_69_70/WELL/868
WELL.         MANGRAN EXPLORATION CO.        : Well_name    - WELL
LOC .         00/10-16-069-16W4/0            : Location     - LOCATION
UWI .         00/10-16-069-16W4/0            : Uwi          - UNIQUE WELL ID
ENTR.         SP                             : Entered      - ENTERED BY
SRVC.         SCHLUMBERGER                   : Scn          - SERVICE COMPANY
STRT.M        280.416                        : top_depth    - START DEPTH
STOP.M        481.166                        : bot_depth    - STOP DEPTH
STEP.M        0.25                           : increment    - STEP LENGTH
 NULL. -999.2500:NULL Value
~CURVE INFORMATION BLOCK
#MNEM UNIT       ERCB CURVE CODE    CURVE DESCRIPTION
#-----------   ------------------   ----------------------------------
DEPT.M        00 001 00 00         : DEPTH        - DEPTH
GR  .API      00 310 00 00         : GR           - GAMMA RAY
DPHI.V/V      00 890 00 00         : PHID         - DENSITY POROSITY (SANDSTONE)
NPHI.V/V      00 330 00 00         : PHIN         - NEUTRON POROSITY (SANDSTONE)
ILD .OHMM     00 120 00 00         : RESD         - DEEP RESISTIVITY (DIL)
~PARAMETER INFORMATION
#MNEM.UNIT           DATA             DESCRIPTION OF MNEMONIC
#---------         -----------     ------------------------------
GL  .M        558.394              : gl           - GROUND LEVEL ELEVATION
EREF.M        562.051              : kb           - ELEVATION OF DEPTH REFERENCE
DATM.M        558.394              : datum        - DATUM ELEVATION
TDD .M        489.814              : tdd          - TOTAL DEPTH DRILLER
RUN .         ONE                  : Run          - RUN NUMBER
ENG .         BILL                 : Engineer     - RECORDING ENGINEER
WIT .         JIM                  : Witness      - WITNESSED BY
MUD .         GEL                  : Mud_type     - MUD TYPE
MATR.         SANDSTONE            : Logunit      - NEUTRON MATRIX
TMAX.C        28.3333              : BHT          - MAXIMUM RECORDED TEMPERATURE
BHTD.M        489.814              : BHTDEP       - MAXIMUM RECORDED TEMPERATURE
MATR.         1                    : LOGUNIT      - NEUTRON MATRIX
RMT .C        25                   : MDTP         - TEMPERATURE OF MUD
NEUT.         1                    : NEUTRON      - NEUTRON TYPE
RESI.         0                    : RESIST       - RESISTIVITY TYPE
RMC .OHMM     0.25                 : RMC          - RESISTIVITY OF MUD CAKE
RMF .OHMM     0.25                 : RMF          - RESISTIVITY OF MUD FILTRATE
SUFT.C        15                   : SUFT         - SURFACE TEMPERATURE
~A  DEPTH       GR     PHID     PHIN     RESD
# ...
  323.916   69.519    0.294    0.377    4.657
  324.166   66.332    0.270    0.359    5.362
  324.416   63.725    0.249    0.342    6.318
  324.666   62.761    0.209    0.323    6.904
  324.916   63.355    0.249    0.424    6.470
  325.166   66.939    0.275    0.563    5.162
  325.416   72.442    0.291    0.580    4.306
  325.666   78.011    0.285    0.577    3.830
  325.916   81.347    0.284    0.564    3.582
  326.166   83.699    0.287    0.540    3.497
  326.416   85.433    0.274    0.532    3.453
  326.666   86.913    0.267    0.532    3.441
  326.916   87.111    0.264    0.532    3.440
  327.166   83.783    0.263    0.533    3.441
  327.416   80.723    0.263    0.539    3.454
  327.666   79.555    0.266    0.544    3.478
  327.916   79.501    0.267    0.548    3.517
  328.166   81.454    0.261    0.553    3.553
  328.416   86.393    0.256    0.558    3.649
  328.666   90.371    0.244    0.573    3.694
  328.916   92.404    0.240    0.591    3.749
  329.166   93.010    0.229    0.586    3.802
  329.416   92.480    0.218    0.529    3.906
  329.666   91.582    0.218    0.514    4.019
  329.916   90.090    0.259    0.530    4.127
  330.166   86.884    0.250    0.545    4.192
  330.416   84.340    0.262    0.558    4.222
  330.666   82.406    0.269    0.550    4.142
  330.916   82.480    0.266    0.534    4.052
  331.166   87.868    0.255    0.529    3.998
  331.416   91.987    0.245    0.529    3.939
  331.666   95.656    0.233    0.539    3.900
  331.916   98.250    0.236    0.561    3.833
  332.166   99.620    0.258    0.580    3.774
  332.416   99.583    0.246    0.593    3.694
  332.666   98.527    0.273    0.601    3.610
  332.916   96.269    0.272    0.589    3.614
  333.166   95.852    0.256    0.553    3.847
  333.416   96.702    0.236    0.536    4.051
  333.666   97.761    0.237    0.524    4.255
  333.916   95.505    0.238    0.516    4.519
  334.166   94.634    0.235    0.535    4.695
  334.416   96.214    0.240    0.541    4.855
  334.666   98.080    0.240    0.531    4.946
  334.916   97.771    0.239    0.535    4.982
  335.166   97.530    0.221    0.513    5.016
  335.416   96.427    0.219    0.499    5.062
  335.666   95.507    0.226    0.510    5.131
  335.916   91.952    0.233    0.526    5.158
  336.166   87.281    0.235    0.536    5.145
  336.416   83.266    0.272    0.511    4.972
  336.666   79.878    0.276    0.481    4.755
  336.916   77.385    0.272    0.464    4.490
  337.166   75.804    0.268    0.460    4.294
  337.416   75.222    0.273    0.483    4.119
  337.666   77.177    0.273    0.504    3.977
  337.916   78.585    0.267    0.487    3.916
  338.166   79.366    0.279    0.465    3.902
  338.416   75.597    0.350    0.434    3.968
  338.666   70.729    0.386    0.390    4.118
  338.916   66.717    0.372    0.373    4.267
  339.166   64.749    0.347    0.409    4.106
  339.416   64.028    0.336    0.486    3.795
  339.666   64.615    0.330    0.531    3.514
  339.916   66.396    0.331    0.530    3.255
  340.166   68.670    0.333    0.519    3.169
  340.416   69.453    0.342    0.508    3.071
  340.666   67.984    0.349    0.504    2.996
  340.916   65.759    0.356    0.521    2.933
  341.166   63.819    0.365    0.496    2.888
  341.416   62.392    0.367    0.462    2.839
  341.666   61.501    0.351    0.430    2.782
  341.916   62.237    0.341    0.421    2.749
  342.166   62.797    0.349    0.425    2.702
  342.416   61.112    0.351    0.428    2.323
  342.666   59.283    0.345    0.428    2.251
  342.916   57.557    0.341    0.424    2.249
  343.166   56.209    0.335    0.418    2.236
  343.416   55.604    0.333    0.413    2.238
  343.666   55.708    0.344    0.405    2.239
  343.916   56.135    0.342    0.398    2.247
  344.166   56.767    0.337    0.413    2.252
  344.416   57.153    0.339    0.423    2.268
  344.666   57.652    0.348    0.423    2.266
  344.916   58.298    0.357    0.411    2.254
  345.166   59.055    0.353    0.403    2.230
  345.416   59.478    0.361    0.413    2.211
  345.666   59.577    0.365    0.434    2.173
  345.916   57.124    0.360    0.436    2.163
  346.166   55.466    0.357    0.435    2.160
  346.416   57.626    0.357    0.440    2.166
  346.666   59.687    0.354    0.435    2.182
  346.916   61.737    0.345    0.434    2.185
  347.166   63.356    0.335    0.449    2.188
  347.416   64.209    0.330    0.465    2.155
  347.666   65.714    0.326    0.482    2.160
  347.916   68.081    0.317    0.486    2.191
  348.166   75.072    0.295    0.486    2.271
  348.416   83.534    0.272    0.487    2.475
  348.666   88.846    0.247    0.515    2.757
  348.916   91.692    0.241    0.524    3.019
  349.166   92.793    0.241    0.503    3.324
  349.416   93.093    0.245    0.514    3.577
  349.666   93.561    0.247    0.522    3.778
  349.916   95.092    0.231    0.519    3.889
  350.166   97.118    0.227    0.525    4.122
  350.416   98.054    0.218    0.529    4.232
  350.666   98.091    0.211    0.517    4.251
  350.916   97.370    0.215    0.506    4.188
  351.166   95.728    0.224    0.498    4.133
  351.416   94.228    0.210    0.487    4.171
  351.666   91.979    0.219    0.497    4.227
  351.916   88.942    0.224    0.546    4.271
  352.166   86.052    0.236    0.584    4.262
  352.416   85.303    0.220    0.606    4.187
  352.666   86.488    0.247    0.586    4.086
  352.916   85.362    0.274    0.560    3.931
  353.166   79.961    0.289    0.544    3.798
  353.416   75.167    0.300    0.529    3.606
  353.666   72.006    0.313    0.528    3.408
  353.916   71.747    0.318    0.538    3.256
  354.166   72.822    0.303    0.552    3.037
  354.416   73.983    0.299    0.532    2.791
  354.666   73.945    0.299    0.518    2.669
  354.916   73.766    0.302    0.511    2.671
  355.166   73.813    0.302    0.521    2.691
  355.416   73.755    0.296    0.519    2.734
  355.666   71.722    0.293    0.512    2.787
  355.916   69.535    0.289    0.510    2.846
  356.166   69.436    0.287    0.514    2.913
  356.416   71.413    0.287    0.525    2.976
  356.666   73.435    0.287    0.534    3.044
  356.916   75.476    0.286    0.537    3.099
  357.166   76.094    0.286    0.536    3.129
  357.416   76.618    0.289    0.530    3.113
  357.666   73.831    0.298    0.524    3.085
  357.916   71.453    0.293    0.521    3.010
  358.166   70.287    0.289    0.527    2.943
  358.416   70.794    0.289    0.525    2.874
  358.666   72.915    0.287    0.523    2.919
  358.916   74.186    0.277    0.525    2.992
  359.166   76.677    0.269    0.523    3.083
  359.416   79.535    0.265    0.516    3.188
  359.666   81.606    0.265    0.511    3.273
  359.916   83.413    0.266    0.513    3.258
  360.166   85.499    0.278    0.517    3.193
  360.416   87.164    0.289    0.558    3.045
  360.666   88.593    0.292    0.590    2.911
  360.916   89.355    0.298    0.588    2.848
  361.166   87.069    0.309    0.555    2.759
  361.416   83.528    0.302    0.508    2.703
  361.666   79.558    0.280    0.543    2.669
  361.916   73.525    0.252    0.551    2.716
  362.166   72.461    0.240    0.538    2.778
  362.416   73.145    0.260    0.527    2.760
  362.666   72.735    0.280    0.525    2.519
  362.916   71.489    0.285    0.539    2.420
  363.166   68.022    0.290    0.541    2.548
  363.416   64.491    0.298    0.543    2.822
  363.666   61.288    0.290    0.531    3.341
  363.916   58.509    0.258    0.477    5.189
  364.166   54.998    0.187    0.285    9.867
  364.416   50.402    0.040    0.228   13.724
  364.666   46.991    0.007    0.183   15.580
  364.916   47.633   -0.006    0.155   20.302
  365.166   48.644    0.005    0.143   24.253
  365.416   49.816    0.004    0.135   36.954
  365.666   45.843   -0.005    0.129   43.188
  365.916   43.079   -0.002    0.126   46.741
  366.166   45.876    0.004    0.124   46.844
  366.416   50.144    0.028    0.118   48.027
  366.666   56.350    0.055    0.351   42.235
  366.916   60.945    0.099    0.477   12.290
  367.166   65.060    0.212    0.518    7.260
