~VERSION INFORMATION
 VERS.                 2.0:   CWLS LOG ASCII STANDARD -VERSION 2.0
 WRAP.                  NO:   ONE LINE PER DEPTH STEP
~WELL INFORMATION BLOCK
#MNEM.UNIT           DATA                    DESCRIPTION OF MNEMONIC
#---------    -------------------            -------------------------------
# Generated from Intellog Unique Number	CX_WELLS/WELL/2862
WELL.         ARCOR ET AL HOUSE              : Well_name    - WELL
LOC .         00/10-35-081-15W4/0            : Location     - LOCATION
UWI .         00/10-35-081-15W400            : Uwi          - UNIQUE WELL ID
ENTR.         T                              : Entered      - ENTERED BY
SRVC.         SCHLUMBERGER                   : Scn          - SERVICE COMPANY
STRT.M        140                            : top_depth    - START DEPTH
STOP.M        360                            : bot_depth    - STOP DEPTH
STEP.M        0.25                           : increment    - STEP LENGTH
 NULL. -999.2500:NULL Value
~CURVE INFORMATION BLOCK
#MNEM UNIT       ERCB CURVE CODE    CURVE DESCRIPTION
#-----------   ------------------   ----------------------------------
DEPT.M        00 001 00 00         : DEPTH        - DEPTH
GR  .API      00 310 00 00         : GR           - GAMMA RAY
NPHI.V/V      00 330 00 00         : PHIN         - NEUTRON POROSITY (SANDSTONE)
DPHI.V/V      00 890 00 00         : PHID         - DENSITY POROSITY (SANDSTONE)
ILD .OHMM     00 120 00 00         : RESD         - DEEP RESISTIVITY (OTHER)
~PARAMETER INFORMATION
#MNEM.UNIT           DATA             DESCRIPTION OF MNEMONIC
#---------         -----------     ------------------------------
GL  .M        572                  : gl           - GROUND LEVEL ELEVATION
EREF.M        576.6                : kb           - ELEVATION OF DEPTH REFERENCE
DATM.M        576.6                : datum        - DATUM ELEVATION
TDD .M        365                  : tdd          - TOTAL DEPTH DRILLER
RUN .         ONE                  : Run          - RUN NUMBER
ENG .         BILL                 : Engineer     - RECORDING ENGINEER
WIT .         JIM                  : Witness      - WITNESSED BY
MUD .         GEL                  : Mud_type     - MUD TYPE
MATR.         SANDSTONE            : Logunit      - NEUTRON MATRIX
TMAX.C        24                   : BHT          - MAXIMUM RECORDED TEMPERATURE
BHTD.M        365                  : BHTDEP       - MAXIMUM RECORDED TEMPERATURE
MATR.         1                    : LOGUNIT      - NEUTRON MATRIX
RMT .C        133333               : MDTP         - TEMPERATURE OF MUD
NEUT.         1                    : NEUTRON      - NEUTRON TYPE
RESI.         2.2                  : RESIST       - RESISTIVITY TYPE
RMC .OHMM     2.5                  : RMC          - RESISTIVITY OF MUD CAKE
RMF .OHMM     2.9                  : RMF          - RESISTIVITY OF MUD FILTRATE
SUFT.C        4                    : SUFT         - SURFACE TEMPERATURE
~A  DEPTH       GR     PHIN     PHID     RESD
# ...
  183.500   82.991    0.439    0.248    8.663
  183.750   82.983    0.430    0.255    8.659
  184.000   82.978    0.437    0.259    8.654
  184.250   82.969    0.439    0.265    8.651
  184.500   82.368    0.438    0.255    9.147
  184.750   81.764    0.414    0.239    9.495
  185.000   81.760    0.404    0.236    9.672
  185.250   80.560    0.416    0.241    9.849
  185.500   79.956    0.424    0.248    9.846
  185.750   79.948    0.431    0.257    9.840
  186.000   79.945    0.432    0.241    9.838
  186.250   79.934    0.431    0.237    9.832
  186.500   79.929    0.427    0.243    9.829
  186.750   79.924    0.422    0.252    9.639
  187.000   79.318    0.418    0.253    9.634
  187.250   78.717    0.427    0.258    9.630
  187.500   78.712    0.436    0.262    9.626
  187.750   77.509    0.433    0.266    9.620
  188.000   77.504    0.427    0.270    9.617
  188.250   76.900    0.416    0.271    9.612
  188.500   76.296    0.409    0.275    9.607
  188.750   76.291    0.402    0.280    9.784
  189.000   75.689    0.404    0.285    9.780
  189.250   75.681    0.405    0.291    9.775
  189.500   75.079    0.403    0.292    9.769
  189.750   75.074    0.407    0.292    9.953
  190.000   77.454    0.420    0.292    9.947
  190.250   81.027    0.436    0.292    9.942
  190.500   84.601    0.447    0.287   10.125
  190.750   86.979    0.437    0.280   10.314
  191.000   88.761    0.420    0.274   10.504
  191.250   90.546    0.406    0.264   10.701
  191.500   92.927    0.411    0.272   10.899
  191.750   96.500    0.423    0.291   11.744
  192.000   83.368    0.420    0.315   12.423
  192.250   77.396    0.420    0.326   13.141
  192.500   67.843    0.421    0.332   13.640
  192.750   49.340    0.420    0.335   14.698
  193.000   55.897    0.410    0.338   15.255
  193.250   56.487    0.412    0.345   15.538
  193.500   54.093    0.412    0.345   15.826
  193.750   52.297    0.408    0.342   16.120
  194.000   49.902    0.403    0.346   16.417
  194.250   49.303    0.403    0.348   16.724
  194.500   48.103    0.408    0.353   17.036
  194.750   47.497    0.411    0.353   17.346
  195.000   47.489    0.414    0.345   17.342
  195.250   47.486    0.414    0.341   17.660
  195.500   47.480    0.403    0.337   17.655
  195.750   46.877    0.395    0.337   17.645
  196.000   46.869    0.383    0.339   17.639
  196.250   46.266    0.375    0.340   17.631
  196.500   46.858    0.370    0.341   17.958
  196.750   50.428    0.367    0.343   17.945
  197.000   50.422    0.367    0.343   18.278
  197.250   48.625    0.369    0.343   18.269
  197.500   46.831    0.376    0.344   18.261
  197.750   46.228    0.385    0.349   18.252
  198.000   47.413    0.397    0.356   18.242
  198.250   49.197    0.411    0.360   18.237
  198.500   47.997    0.410    0.344   18.229
  198.750   46.796    0.401    0.332   18.218
  199.000   46.791    0.391    0.329   17.870
  199.250   47.380    0.380    0.333   17.861
  199.500   47.972    0.381    0.339   17.513
  199.750   48.562    0.378    0.344   17.509
  200.000   48.556    0.376    0.339   17.503
  200.250   48.548    0.388    0.332   17.493
  200.500   49.140    0.399    0.329   17.485
  200.750   49.134    0.408    0.337   16.830
  201.000   49.724    0.415    0.339   16.504
  201.250   50.906    0.418    0.337   16.498
  201.500   50.903    0.423    0.334   16.183
  201.750   50.895    0.411    0.334   15.873
  202.000   50.889    0.384    0.335   15.568
  202.250   49.688    0.378    0.336   15.562
  202.500   49.088    0.382    0.330   15.555
  202.750   48.485    0.407    0.325   15.548
  203.000   51.462    0.413    0.330   15.540
  203.250   57.422    0.422    0.336   15.533
  203.500   65.168    0.434    0.336   15.821
  203.750   65.758    0.438    0.335   15.814
  204.000   62.770    0.433    0.335   16.107
  204.250   56.798    0.433    0.334   16.098
  204.500   52.019    0.435    0.329   16.396
  204.750   49.028    0.438    0.321   16.699
  205.000   49.020    0.445    0.319   16.693
  205.250   49.017    0.447    0.319   16.998
  205.500   50.202    0.444    0.320   16.994
  205.750   50.792    0.443    0.323   17.308
  206.000   51.381    0.442    0.315   17.631
  206.250   51.970    0.432    0.308   18.295
  206.500   51.967    0.423    0.310   18.637
  206.750   52.557    0.405    0.309   19.342
  207.000   52.551    0.390    0.300   20.460
  207.250   48.963    0.370    0.286   24.692
  207.500   45.379    0.351    0.253   28.698
  207.750   38.806    0.273    0.200   32.730
  208.000   35.819    0.173   -0.005   35.944
  208.250   35.809    0.129   -0.005   34.597
  208.500   38.192    0.145    0.013   33.302
  208.750   44.747    0.209    0.082   30.293
  209.000   48.919    0.266    0.185   27.041
  209.250   52.491    0.334    0.240   23.245
  209.500   51.886    0.397    0.290   21.956
  209.750   51.283    0.453    0.316   21.944
  210.000   50.680    0.450    0.311   21.931
  210.250   49.481    0.432    0.291   22.340
  210.500   47.088    0.399    0.249   23.188
  210.750   48.273    0.367    0.202   24.064
  211.000   49.462    0.369    0.210   24.056
  211.250   51.245    0.374    0.251   22.717
  211.500   51.836    0.384    0.292   22.283
  211.750   51.231    0.401    0.312   21.451
  212.000   51.226    0.419    0.318   20.650
  212.250   50.620    0.426    0.321   19.877
  212.500   51.214    0.436    0.323   19.126
  212.750   52.993    0.441    0.326   19.121
  213.000   53.584    0.444    0.328   18.753
  213.250   54.176    0.444    0.331   18.392
  213.500   55.363    0.440    0.333   18.388
  213.750   56.549    0.434    0.335   18.379
  214.000   56.544    0.434    0.334   18.023
  214.250   57.134    0.434    0.332   18.019
  214.500   58.316    0.435    0.331   18.009
  214.750   58.315    0.435    0.330   17.662
  215.000   58.308    0.435    0.329   17.652
  215.250   59.492    0.435    0.326   17.648
  215.500   59.487    0.433    0.324   17.310
  215.750   59.483    0.431    0.323   16.977
  216.000   60.070    0.437    0.326   16.969
  216.250   60.065    0.438    0.330   16.961
  216.500   60.057    0.432    0.335   16.635
  216.750   60.051    0.427    0.339   16.629
  217.000   59.450    0.424    0.341   16.311
  217.250   58.248    0.423    0.344   16.301
  217.500   58.242    0.422    0.343   15.991
  217.750   57.639    0.422    0.334   15.978
  218.000   57.631    0.422    0.331   15.676
  218.250   57.628    0.426    0.336   15.667
  218.500   57.620    0.436    0.341   15.661
  218.750   58.211    0.428    0.343   15.362
  219.000   58.203    0.425    0.342   15.353
  219.250   58.794    0.428    0.342   15.345
  219.500   59.382    0.432    0.340   15.338
  219.750   59.375    0.431    0.339   15.333
  220.000   59.967    0.431    0.338   15.326
  220.250   59.961    0.437    0.335   15.029
  220.500   60.553    0.442    0.332   15.024
  220.750   60.542    0.451    0.333   15.017
  221.000   61.132    0.456    0.338   15.004
  221.250   61.127    0.456    0.341   14.999
  221.500   61.719    0.456    0.344   14.994
  221.750   61.711    0.459    0.341   14.987
  222.000   62.303    0.465    0.336   14.982
  222.250   62.295    0.472    0.331   14.973
  222.500   62.886    0.480    0.327   14.966
  222.750   62.879    0.478    0.322   14.959
  223.000   62.873    0.462    0.317   14.950
  223.250   62.865    0.454    0.309   14.943
  223.500   62.859    0.450    0.315   14.938
  223.750   62.854    0.446    0.330   14.931
  224.000   62.848    0.444    0.330   14.924
  224.250   62.841    0.439    0.329   14.637
  224.500   63.432    0.435    0.327   14.626
  224.750   64.020    0.434    0.325   14.621
  225.000   65.206    0.439    0.324   14.614
  225.250   65.796    0.444    0.319   14.333
  225.500   66.385    0.452    0.315   14.062
  225.750   66.977    0.457    0.309   13.793
  226.000   67.567    0.448    0.303   13.275
  226.250   68.754    0.452    0.295   12.778
  226.500   70.537    0.459    0.282   11.845
  226.750   72.918    0.468    0.267   10.978
