~VERSION INFORMATION
 VERS.                 2.0:   CWLS LOG ASCII STANDARD -VERSION 2.0
 WRAP.                  NO:   ONE LINE PER DEPTH STEP
~WELL INFORMATION BLOCK
#MNEM.UNIT           DATA                    DESCRIPTION OF MNEMONIC
#---------    -------------------            -------------------------------
# Generated from Intellog Unique Number	CW_76_78/WELL/2576
WELL.         10-19-078-24W4                 : Well_name    - WELL
LOC .         00/10-19-078-24W4/0            : Location     - LOCATION
UWI .         00/10-19-078-24W4/0            : Uwi          - UNIQUE WELL ID
ENTR.         MAX                            : Entered      - ENTERED BY
SRVC.         SCHLUMBERGER                   : Scn          - SERVICE COMPANY
STRT.M        274.32                         : top_depth    - START DEPTH
STOP.M        518.07                         : bot_depth    - STOP DEPTH
STEP.M        0.25                           : increment    - STEP LENGTH
 NULL. -999.2500:NULL Value
~CURVE INFORMATION BLOCK
#MNEM UNIT       ERCB CURVE CODE    CURVE DESCRIPTION
#-----------   ------------------   ----------------------------------
DEPT.M        00 001 00 00         : DEPTH        - DEPTH
ILD .OHMM     00 120 00 00         : RESD         - DEEP RESISTIVITY (DIL)
NPHI.V/V      00 330 00 00         : PHIN         - NEUTRON POROSITY (SANDSTONE)
DPHI.V/V      00 890 00 00         : PHID         - DENSITY POROSITY (SANDSTONE)
CALI.MM       00 280 01 00         : CAL          - CALIPER
GR  .API      00 310 00 00         : GR           - GAMMA RAY
~PARAMETER INFORMATION
#MNEM.UNIT           DATA             DESCRIPTION OF MNEMONIC
#---------         -----------     ------------------------------
GL  .M        592.531              : gl           - GROUND LEVEL ELEVATION
EREF.M        596.494              : kb           - ELEVATION OF DEPTH REFERENCE
DATM.M        592.531              : datum        - DATUM ELEVATION
TDD .M        537.667              : tdd          - TOTAL DEPTH DRILLER
RUN .         ONE                  : Run          - RUN NUMBER
ENG .         BILL                 : Engineer     - RECORDING ENGINEER
WIT .         JIM                  : Witness      - WITNESSED BY
MUD .         GEL                  : Mud_type     - MUD TYPE
MATR.         SANDSTONE            : Logunit      - NEUTRON MATRIX
TMAX.C        25.5556              : BHT          - MAXIMUM RECORDED TEMPERATURE
BHTD.M        537.667              : BHTDEP       - MAXIMUM RECORDED TEMPERATURE
RMT .C        14.4444              : MDTP         - TEMPERATURE OF MUD
MUDD.KG/M     9800                 : MWT          - MUD DENSITY
NEUT.         1                    : NEUTRON      - NEUTRON TYPE
RESI.         0                    : RESIST       - RESISTIVITY TYPE
RM  .OHMM     6.42                 : RM           - RESISTIVITY OF MUD
RMC .OHMM     6.05                 : RMC          - RESISTIVITY OF MUD CAKE
RMF .OHMM     7.72                 : RMF          - RESISTIVITY OF MUD FILTRATE
SUFT.C        -6.66667             : SUFT         - SURFACE TEMPERATURE
~A  DEPTH     RESD     PHIN     PHID      CAL       GR
# ...
  383.820   10.709    0.630    0.219  207.774   76.081
  384.070   11.197    0.621    0.203  207.833   74.064
  384.320   11.707    0.607    0.184  208.395   74.103
  384.570   11.707    0.599    0.159  208.446   77.067
  384.820   12.023    0.606    0.137  208.513   73.880
  385.070   12.460    0.614    0.124  209.074   68.066
  385.320   12.683    0.621    0.130  210.124   67.520
  385.570   12.911    0.628    0.146  211.181   71.064
  385.820   13.379    0.633    0.158  210.745   71.396
  386.070   13.742    0.632    0.156  209.310   70.265
  386.320   13.497    0.628    0.130  207.883   69.711
  386.570   13.023    0.606    0.107  206.967   69.458
  386.820   12.792    0.583    0.104  207.018   70.078
  387.070   13.138    0.560    0.082  208.075   71.278
  387.320   13.255    0.524    0.094  210.115   73.369
  387.570   13.254    0.498    0.160  211.172   76.032
  387.820   12.903    0.482    0.179  210.248   78.708
  388.070   12.561    0.469    0.196  209.797   79.912
  388.320   11.799    0.460    0.215  209.368   80.240
  388.570   11.183    0.463    0.216  208.444   79.690
  388.820   10.505    0.467    0.212  207.512   78.856
  389.070    9.956    0.463    0.204  207.586   78.589
  389.320    9.779    0.462    0.211  208.133   78.917
  389.570    9.779    0.493    0.207  208.185   79.842
  389.820    9.778    0.507    0.204  207.748   79.868
  390.070   10.042    0.509    0.213  205.834   78.742
  390.320   10.314    0.497    0.211  204.902   78.183
  390.570   10.406    0.474    0.211  205.952   78.514
  390.820   10.405    0.454    0.203  208.502   80.016
  391.070   10.405    0.455    0.197  209.544   81.810
  391.320   10.311    0.452    0.196  211.089   83.600
  391.570   10.128    0.456    0.193  211.650   84.800
  391.820    9.948    0.457    0.203  211.709   86.010
  392.070    9.859    0.461    0.209  211.783   86.922
  392.320    9.947    0.475    0.202  212.330   84.909
  392.570   10.216    0.461    0.198  211.398   77.924
  392.820   10.874    0.438    0.198  208.988   71.237
  393.070   11.679    0.409    0.173  208.559   68.639
  393.320   12.768    0.389    0.160  208.618   68.669
  393.570   13.114    0.411    0.152  209.165   71.053
  393.820   12.653    0.476    0.173  210.710   74.008
  394.070   11.992    0.475    0.210  211.760   76.680
  394.320   10.967    0.478    0.188  211.338   76.715
  394.570   10.302    0.484    0.188  211.397   76.749
  394.820   10.302    0.491    0.197  211.449   76.793
  395.070   10.028    0.492    0.201  212.506   76.823
  395.320    9.763    0.499    0.203  212.579   76.863
  395.570    9.850    0.484    0.205  212.624   76.897
  395.820   10.299    0.469    0.210  212.690   76.347
  396.070   10.864    0.468    0.220  212.793   74.051
  396.320   11.462    0.463    0.220  212.313   72.615
  396.570   12.419    0.449    0.216  211.876   71.776
  396.820   13.220    0.423    0.205  211.943   70.641
  397.070   13.220    0.416    0.191  211.011   68.629
  397.320   13.698    0.411    0.164  210.087   66.040
  397.570   14.844    0.385    0.138  209.651   63.434
  397.820   15.520    0.355    0.101  209.222   62.299
  398.070   15.940    0.337    0.077  209.281   65.852
  398.320   16.082    0.329    0.078  209.842   70.859
  398.570   15.796    0.376    0.145  209.887   75.866
  398.820   15.106    0.398    0.174  210.944   76.490
  399.070   14.189    0.401    0.170  211.003   76.818
  399.320   13.569    0.409    0.182  211.062   77.438
  399.570   13.569    0.425    0.194  210.640   78.647
  399.820   12.974    0.450    0.201  210.699   80.441
  400.070   12.744    0.436    0.205  210.751   82.519
  400.320   12.744    0.424    0.203  210.322   84.308
  400.570   12.742    0.428    0.200  210.381   84.064
  400.820   12.742    0.441    0.196  210.447   82.632
  401.070   12.855    0.439    0.189  211.016   82.082
  401.320   12.740    0.433    0.182  212.058   82.112
  401.570   12.740    0.446    0.181  212.605   84.788
  401.820   12.512    0.461    0.187  213.159   85.111
  402.070   12.073    0.475    0.196  213.277   83.683
  402.320   11.545    0.503    0.206  213.292   83.434
  402.570   11.239    0.507    0.208  213.351   84.932
  402.820   11.039    0.493    0.206  213.403   86.141
  403.070   11.039    0.475    0.202  213.979   86.761
  403.320   10.940    0.472    0.206  214.533   86.503
  403.570   10.940    0.472    0.218  214.585   83.028
  403.820   10.554    0.475    0.215  215.642   83.059
  404.070   10.183    0.483    0.219  215.694   84.565
  404.320   10.366    0.506    0.221  219.715   82.260
  404.570   11.034    0.486    0.225  235.142   79.370
  404.820   12.391    0.395    0.211  214.895   77.353
  405.070   14.812    0.367    0.163  208.508   74.463
  405.320   17.239    0.378    0.141  205.115   70.700
  405.570   20.793    0.417    0.163  205.166   69.272
  405.820   21.547    0.432    0.189  205.720   68.730
  406.070   20.790    0.435    0.217  206.770   69.049
  406.320   19.529    0.439    0.259  207.834   69.966
  406.570   18.344    0.444    0.245  208.884   71.171
  406.820   16.479    0.455    0.229  209.431   72.380
  407.070   15.342    0.467    0.226  209.497   73.296
  407.320   14.936    0.468    0.222  209.556   73.619
  407.570   14.540    0.467    0.223  209.135   74.243
  407.820   14.410    0.491    0.231  209.194   75.156
  408.070   14.409    0.509    0.230  209.238   76.068
  408.320   14.667    0.541    0.230  209.814   76.395
  408.570   15.200    0.567    0.230  210.354   76.138
  408.820   15.751    0.622    0.226  209.917   75.304
  409.070   16.469    0.661    0.225  209.991   74.749
  409.320   17.220    0.688    0.228  210.043   73.915
  409.570   17.845    0.714    0.214  209.607   73.649
  409.820   18.994    0.729    0.191  209.680   73.400
  410.070   20.399    0.713    0.187  209.739   72.854
  410.320   22.104    0.319    0.167  209.310   69.375
  410.570   23.739    0.299    0.154  208.867   66.777
  410.820   25.495    0.292    0.102  208.430   67.109
  411.070   26.896    0.369    0.089  208.001   70.361
  411.320   27.872    0.452    0.105  208.068   72.444
  411.570   23.916    0.434    0.155  208.112   73.068
  411.820   20.160    0.457    0.175  208.466   69.685
  412.070   18.266    0.412    0.147  207.977   71.728
  412.320   17.470    0.376    0.096  207.984   76.105
  412.570   16.860    0.385    0.123  208.976   80.190
  412.820   16.718    0.402    0.201  210.955   78.444
  413.070   16.429    0.435    0.201  212.935   75.824
  413.320   16.584    0.451    0.188  213.434   74.660
  413.570   17.517    0.453    0.181  212.946   72.330
  413.820   18.335    0.428    0.177  212.952   72.625
  414.070   18.678    0.414    0.162  212.956   74.377
  414.320   18.688    0.397    0.141  212.962   77.588
  414.570   18.198    0.522    0.129  213.460   81.381
  414.820   17.096    0.554    0.189  214.947   81.676
  415.070   16.348    0.523    0.205  214.951   81.970
  415.320   15.220    0.472    0.208  210.514   84.014
  415.570   14.040    0.451    0.199  209.039   86.642
  415.820   13.673    0.453    0.203  210.524   86.936
  416.070   13.558    0.447    0.217  213.985   84.898
  416.320   13.565    0.437    0.213  214.484   81.694
  416.570   13.571    0.453    0.198  213.009   81.406
  416.820   13.458    0.484    0.184  213.506   81.700
  417.070   13.223    0.499    0.180  217.462   82.578
  417.320   12.994    0.519    0.190  219.443   84.038
  417.570   12.769    0.497    0.194  220.928   86.665
  417.820   12.774    0.481    0.188  221.427   85.795
  418.070   12.553    0.479    0.191  217.977   84.631
  418.320   12.447    0.496    0.195  212.552   83.759
  418.570   12.453    0.485    0.196  209.594   83.179
  418.820   12.459    0.449    0.192  209.105   83.183
  419.070   12.810    0.438    0.185  208.123   83.768
  419.320   12.932    0.434    0.173  208.123   85.230
  419.570   12.939    0.435    0.166  208.136   86.398
  419.820   12.946    0.461    0.163  207.645   87.568
  420.070   12.835    0.481    0.169  207.645   88.737
