~VERSION INFORMATION
 VERS.                 2.0:   CWLS LOG ASCII STANDARD -VERSION 2.0
 WRAP.                  NO:   ONE LINE PER DEPTH STEP
~WELL INFORMATION BLOCK
#MNEM.UNIT           DATA                    DESCRIPTION OF MNEMONIC
#---------    -------------------            -------------------------------
# Generated from Intellog Unique Number	CW_70_72/WELL/3023
NULL.         -999.25                        : NULL_VALUE
WELL.         CHIEFCO POR ER AL RANCH 10-23  : Well_name    - WELL              
LOC .         10-23-070-26W4                 : Location     - LOCATION          
UWI .         00/10-23-070-26W4/0            : Uwi          - UNIQUE WELL ID    
ENTR.         J                              : Entered      - ENTERED BY        
SRVC.         WESTERN ATLAS                  : Scn          - SERVICE COMPANY   
DATE.         17 JUNE 75                     : Date         - LOG DATE          
STRT.M        454.152                        : top_depth    - START DEPTH       
STOP.M        670.652                        : bot_depth    - STOP DEPTH        
STEP.M        0.25                           : increment    - STEP LENGTH       
~CURVE INFORMATION BLOCK
#MNEM UNIT       ERCB CURVE CODE    CURVE DESCRIPTION
#-----------   ------------------   ----------------------------------
DEPT.M        00 001 00 00         : DEPTH        - DEPTH                       
ILD .OHMM     00 120 00 00         : RESD         - DEEP RESISTIVITY (DIL)      
CALI.MM       00 280 01 00         : CAL          - CALIPER                     
GR  .API      00 310 00 00         : GR           - GAMMA RAY                   
NPHI.V/V      00 330 00 00         : PHIN         - NEUTRON POROSITY (SANDSTONE)
DPHI.V/V      00 890 00 00         : PHID         - DENSITY POROSITY (SANDSTONE)
~PARAMETER INFORMATION       
#MNEM.UNIT           DATA             DESCRIPTION OF MNEMONIC
#---------         -----------     ------------------------------
GL  .M        633.191              : gl           - GROUND LEVEL ELEVATION      
EREF.M        635.813              : kb           - ELEVATION OF DEPTH REFERENCE
DATM.M        633.191              : datum        - DATUM ELEVATION             
TDD .M        688.543              : tdd          - TOTAL DEPTH DRILLER         
RUN .         ONE                  : Run          - RUN NUMBER                  
ENG .         GAU-ROBERGE          : Engineer     - RECORDING ENGINEER          
WIT .         COULSON              : Witness      - WITNESSED BY                
MUD .         MUD GEL              : Mud_type     - MUD TYPE                    
MATR.         SANDSTONE            : Logunit      - NEUTRON MATRIX              
TMAX.C        27.2222              : BHT          - MAXIMUM RECORDED TEMPERATURE
BHTD.M        687.629              : BHTDEP       - MAXIMUM RECORDED TEMPERATURE
RMT .C        15.5556              : MDTP         - TEMPERATURE OF MUD          
MUDD.KG/M     1140                 : MWT          - MUD DENSITY                 
NEUT.         1                    : NEUTRON      - NEUTRON TYPE                
RESI.         0                    : RESIST       - RESISTIVITY TYPE            
RM  .OHMM     2.9                  : RM           - RESISTIVITY OF MUD          
RMC .OHMM     0.25                 : RMC          - RESISTIVITY OF MUD CAKE     
RMF .OHMM     0.25                 : RMF          - RESISTIVITY OF MUD FILTRATE 
SUFT.C        -17.7778             : SUFT         - SURFACE TEMPERATURE         
~A  DEPTH     RESD      CAL       GR     PHIN     PHID
# ...
  600.152    3.065  155.587   57.638    0.402    0.295
  600.402    3.444  158.208   55.456    0.350    0.246
  600.652    3.813  160.623   54.438    0.296    0.214
  600.902    3.878  161.578   55.375    0.269    0.196
  601.152    3.358  156.125   58.386    0.274    0.219
  601.402    2.787  156.166   60.481    0.285    0.250
  601.652    2.387  161.162   62.824    0.323    0.285
  601.902    2.026  163.468   61.802    0.370    0.285
  602.152    1.824  160.393   60.115    0.384    0.294
  602.402    1.673  154.629   59.455    0.367    0.280
  602.652    1.565  152.595   58.011    0.355    0.275
  602.902    1.520  157.175   57.414    0.362    0.305
  603.152    1.529  161.866   56.638    0.388    0.323
  603.402    1.610  164.691   58.980    0.382    0.316
  603.652    1.750  159.753   64.131    0.384    0.304
  603.902    1.854  153.476   68.242    0.410    0.308
  604.152    1.967  151.643   72.599    0.423    0.306
  604.402    2.015  150.231   72.252    0.395    0.299
  604.652    1.993  149.533   75.754    0.414    0.299
  604.902    1.994  148.846   79.803    0.423    0.304
  605.152    1.986  148.466   88.072    0.398    0.317
  605.402    1.998  147.973   80.330    0.394    0.327
  605.652    2.024  147.487   67.090    0.381    0.315
  605.902    2.040  146.997   65.764    0.380    0.311
  606.152    2.070  146.521   69.084    0.420    0.303
  606.402    2.090  146.345   70.933    0.392    0.302
  606.652    2.114  146.781   72.358    0.398    0.303
  606.902    2.130  148.163   71.459    0.385    0.303
  607.152    2.138  148.292   69.278    0.383    0.308
  607.402    2.158  148.433   67.892    0.393    0.308
  607.652    2.171  150.320   68.156    0.412    0.304
  607.902    2.195  156.147   68.295    0.428    0.304
  608.152    2.204  152.664   68.560    0.408    0.283
  608.402    2.221  149.282   68.149    0.401    0.299
  608.652    2.250  149.308   69.023    0.413    0.307
  608.902    2.276  150.895   71.853    0.397    0.303
  609.152    2.349  153.825   73.828    0.415    0.291
  609.402    2.433  157.175   74.640    0.413    0.263
  609.652    2.558  158.647   75.455    0.389    0.248
  609.902    2.659  159.612   76.085    0.377    0.244
  610.152    2.735  160.053   76.346    0.370    0.244
  610.402    2.791  160.292   76.855    0.365    0.230
  610.652    2.792  160.011   78.035    0.358    0.234
  610.902    2.808  160.768   78.844    0.351    0.229
  611.152    2.762  160.699   80.393    0.344    0.223
  611.402    2.773  159.795   81.266    0.338    0.221
  611.652    2.867  160.038   81.653    0.343    0.221
  611.902    3.093  161.827   81.241    0.359    0.209
  612.152    3.495  163.406   80.219    0.346    0.205
  612.402    3.749  164.165   80.178    0.331    0.194
  612.652    3.993  166.056   82.273    0.319    0.181
  612.902    4.175  168.675   83.819    0.308    0.178
  613.152    4.261  168.397   83.715    0.315    0.179
  613.402    4.215  166.149   86.239    0.309    0.181
  613.652    4.004  163.284   87.299    0.317    0.185
  613.902    3.895  164.454   87.072    0.340    0.171
  614.152    4.050  167.904   84.339    0.352    0.133
  614.402    4.393  170.726   87.415    0.361    0.162
  614.652    4.757  169.415   77.350    0.339    0.159
  614.902    5.001  166.030   67.777    0.320    0.164
  615.152    5.021  163.790   61.562    0.308    0.162
  615.402    4.734  163.097   60.668    0.294    0.137
  615.652    4.455  163.122   63.800    0.291    0.156
  615.902    4.070  163.163   73.226    0.343    0.171
  616.152    3.657  163.808   89.254    0.365    0.187
  616.402    3.317  166.124   87.260    0.370    0.196
  616.652    3.318  166.869   84.100    0.376    0.210
  616.902    3.431  167.008   83.751    0.386    0.203
  617.152    3.708  167.044   86.457    0.394    0.198
  617.402    4.008  166.760   90.385    0.388    0.184
  617.652    4.462  166.379   92.481    0.364    0.176
  617.902    4.804  166.203   90.913    0.338    0.160
  618.152    5.378  166.136   86.958    0.318    0.139
  618.402    5.933  165.642   78.911    0.280    0.093
  618.652    6.260  163.505   68.607    0.248    0.103
  618.902    6.113  161.780   62.695    0.233    0.112
  619.152    5.216  162.019   75.546    0.254    0.138
  619.402    4.322  162.666   85.706    0.329    0.158
  619.652    4.059  162.493   85.052    0.333    0.176
  619.902    3.771  162.837   87.515    0.341    0.180
  620.152    3.669  163.278   94.380    0.351    0.175
  620.402    3.629  163.621   95.131    0.351    0.178
  620.652    3.616  164.375   92.216    0.336    0.183
  620.902    3.637  164.198   94.681    0.340    0.186
  621.152    3.651  163.507   96.777    0.356    0.186
  621.402    3.713  163.120   96.915    0.348    0.181
  621.652    3.742  163.150   96.200    0.346    0.176
  621.902    3.777  163.906   98.418    0.350    0.168
  622.152    3.855  164.562  105.586    0.358    0.169
  622.402    3.957  164.597  103.834    0.366    0.168
  622.652    4.206  164.424  100.185    0.347    0.163
  622.902    4.455  164.342   94.523    0.325    0.159
  623.152    4.851  164.480   91.306    0.321    0.180
  623.402    5.224  164.732   90.464    0.323    0.149
  623.652    5.273  164.861   92.744    0.303    0.117
  623.902    5.149  164.579   89.160    0.266    0.082
  624.152    4.890  164.503   82.027    0.236    0.110
  624.402    4.611  164.541   73.736    0.306    0.171
  624.652    4.420  164.567   81.088    0.338    0.173
  624.902    4.229  164.386   96.441    0.330    0.166
  625.152    4.207  164.322   98.052    0.317    0.157
  625.402    4.423  164.455  105.398    0.303    0.148
  625.652    4.632  163.862   94.483    0.295    0.152
  625.902    4.693  161.204   87.840    0.307    0.168
  626.152    4.401  158.549   82.542    0.333    0.181
  626.402    4.165  159.923   94.599    0.333    0.176
  626.652    4.096  162.336   97.120    0.322    0.173
  626.902    3.971  162.336   97.693    0.316    0.174
  627.152    3.877  166.131   97.585    0.326    0.175
  627.402    3.807  166.051   97.666    0.340    0.178
  627.652    3.815  165.772  106.424    0.358    0.179
  627.902    3.915  165.799  114.691    0.379    0.170
  628.152    4.056  165.835  119.779    0.394    0.157
  628.402    4.241  165.867  109.410    0.363    0.147
  628.652    4.385  165.386   98.858    0.347    0.144
  628.902    4.517  164.587   91.239    0.336    0.154
  629.152    4.081  163.580   84.964    0.323    0.176
  629.402    3.314  162.997   89.931    0.316    0.188
  629.652    2.859  164.053   94.716    0.328    0.209
  629.902    2.417  171.120   92.840    0.478    0.279
  630.152    2.093  177.876   90.966    0.524    0.256
  630.402    1.826  172.428   93.732    0.489    0.247
  630.652    1.719  167.905  111.105    0.438    0.244
  630.902    1.882  165.038  115.831    0.455    0.245
  631.152    2.243  164.142  114.441    0.486    0.245
  631.402    2.596  164.902  107.251    0.465    0.246
  631.652    3.021  165.339  105.865    0.475    0.179
  631.902    3.688  165.997  107.592    0.465    0.156
  632.152    4.356  166.340  104.434    0.353    0.138
  632.402    4.699  166.474   88.688    0.332    0.146
  632.652    4.547  166.706   81.923    0.335    0.177
  632.902    4.063  166.947   88.481    0.350    0.175
  633.152    3.672  165.656   95.467    0.344    0.177
  633.402    3.526  165.663   99.336    0.338    0.188
  633.652    3.424  165.594  103.996    0.367    0.182
  633.902    3.381  165.518  107.985    0.410    0.168
  634.152    3.344  165.763  104.584    0.409    0.154
  634.402    3.357  166.513  103.259    0.401    0.146
  634.652    3.358  167.483  104.741    0.381    0.169
  634.902    3.415  168.129  109.038    0.377    0.173
  635.152    3.577  168.476  106.370    0.368    0.178
  635.402    3.732  168.401  108.710    0.356    0.180
  635.652    4.072  167.604  115.080    0.373    0.177
  635.902    4.558  167.114  116.198    0.348    0.172
  636.152    5.169  166.017  108.886    0.335    0.154
  636.402    6.082  165.417   98.150    0.319    0.101
