~VERSION INFORMATION
 VERS.                 2.0:   CWLS LOG ASCII STANDARD -VERSION 2.0
 WRAP.                  NO:   ONE LINE PER DEPTH STEP
~WELL INFORMATION BLOCK
#MNEM.UNIT           DATA                    DESCRIPTION OF MNEMONIC
#---------    -------------------            -------------------------------
# Generated from Intellog Unique Number	CC_80_83/WELL/2442
NULL.         -999.25                        : NULL_VALUE
WELL.         GULF RESDELN                   : Well_name    - WELL              
LOC .         16-03-083-07W4                 : Location     - LOCATION          
UWI .         00/16-03-083-07W4/0            : Uwi          - UNIQUE WELL ID    
ENTR.         DW                             : Entered      - ENTERED BY        
SRVC.         SCHLUMBERGER                   : Scn          - SERVICE COMPANY   
DATE.         08 MAR 81                      : Date         - LOG DATE
STRT.M        210                            : top_depth    - START DEPTH       
STOP.M        459.892                        : bot_depth    - STOP DEPTH        
STEP.M        0.3                            : increment    - STEP LENGTH       
~CURVE INFORMATION BLOCK
#MNEM UNIT       ERCB CURVE CODE    CURVE DESCRIPTION
#-----------   ------------------   ----------------------------------
DEPT.M        00 001 00 00         : DEPTH        - DEPTH                       
DPHI.V/V      00 890 00 00         : PHID         - DENSITY POROSITY (LIMESTONE)
NPHI.V/V      00 330 00 00         : PHIN         - NEUTRON POROSITY (LIMESTONE)
GR  .API      00 310 00 00         : GR           - GAMMA RAY                   
ILD .OHMM     00 120 00 00         : RESD         - DEEP RESISTIVITY (DIL)      
~PARAMETER INFORMATION       
#MNEM.UNIT           DATA             DESCRIPTION OF MNEMONIC
#---------         -----------     ------------------------------
GL  .M        670.8                : gl           - GROUND LEVEL ELEVATION      
EREF.M        675.45               : kb           - ELEVATION OF DEPTH REFERENCE
DATM.M        675.45               : datum        - DATUM ELEVATION             
TDD .M        505                  : tdd          - TOTAL DEPTH DRILLER         
RUN .         ONE                  : Run          - RUN NUMBER                  
ENG .         BILL                 : Engineer     - RECORDING ENGINEER          
WIT .         JIM                  : Witness      - WITNESSED BY                
MUD .         GEL                  : Mud_type     - MUD TYPE                    
MATR.         LIMESTONE            : Logunit      - NEUTRON MATRIX              
TMAX.C        18                   : BHT          - MAXIMUM RECORDED TEMPERATURE
BHTD.M        505                  : BHTDEP       - MAXIMUM RECORDED TEMPERATURE
MATR.         1                    : LOGUNIT      - NEUTRON MATRIX              
RMT .C        25                   : MDTP         - TEMPERATURE OF MUD          
NEUT.         1                    : NEUTRON      - NEUTRON TYPE                
RESI.         0                    : RESIST       - RESISTIVITY TYPE            
RMC .OHMM     0.25                 : RMC          - RESISTIVITY OF MUD CAKE     
RMF .OHMM     0.25                 : RMF          - RESISTIVITY OF MUD FILTRATE 
SUFT.C        4                    : SUFT         - SURFACE TEMPERATURE         
~A  DEPTH     PHID     PHIN       GR     RESD
# ...
  314.398    0.224    0.589   82.209    3.583
  314.698    0.198    0.586   82.852    3.863
  314.998    0.213    0.534   84.115    4.411
  315.298    0.258    0.494   83.518    5.135
  315.598    0.238    0.496   77.344    6.330
  315.898    0.239    0.522   71.788    7.956
  316.198    0.262    0.529   64.996   10.391
  316.498    0.282    0.485   59.444   12.328
  316.798    0.289    0.459   58.239   14.628
  317.098    0.298    0.459   58.252   16.387
  317.398    0.324    0.446   58.897   17.660
  317.698    0.320    0.452   59.541   17.972
  317.998    0.320    0.473   61.421   18.300
  318.298    0.334    0.457   62.060   18.620
  318.598    0.342    0.435   62.699   18.243
  318.898    0.326    0.432   62.723   18.567
  319.198    0.305    0.435   62.754   18.182
  319.498    0.292    0.448   62.151   18.155
  319.798    0.291    0.489   60.934   17.777
  320.098    0.295    0.502   60.340   17.751
  320.398    0.303    0.487   61.601   17.726
  320.698    0.306    0.473   62.238   18.031
  320.998    0.310    0.457   61.024   18.353
  321.298    0.308    0.451   58.572   18.337
  321.598    0.311    0.453   57.354   18.654
  321.898    0.309    0.458   56.755   18.628
  322.198    0.313    0.465   57.397   18.246
  322.498    0.306    0.472   58.042   17.863
  322.798    0.306    0.476   58.059   17.839
  323.098    0.311    0.456   58.084   17.473
  323.398    0.312    0.468   58.731   17.782
  323.698    0.303    0.476   58.758   17.753
  323.998    0.299    0.470   58.773   17.725
  324.298    0.313    0.465   58.796   17.701
  324.598    0.317    0.477   57.577   17.677
  324.898    0.310    0.479   56.362   17.650
  325.198    0.325    0.474   57.005   17.618
  325.498    0.326    0.465   59.502   17.587
  325.798    0.319    0.466   60.765   16.901
  326.098    0.315    0.481   58.313   16.874
  326.398    0.305    0.493   56.480   16.529
  326.698    0.310    0.483   55.258   16.819
  326.998    0.327    0.485   54.661   16.802
  327.298    0.320    0.455   54.683   17.096
  327.598    0.336    0.443   54.716   17.403
  327.898    0.342    0.455   54.731   18.406
  328.198    0.342    0.452   55.376   19.844
  328.498    0.323    0.468   55.403   21.383
  328.798    0.335    0.482   55.413   20.953
  329.098    0.342    0.473   56.678   19.367
  329.397    0.350    0.469   57.322   18.256
  329.697    0.351    0.472   57.350   17.883
  329.997    0.342    0.469   57.375   18.205
  330.297    0.331    0.467   57.386   22.021
  330.597    0.323    0.472   58.027   25.140
  330.897    0.322    0.475   57.437   24.150
  331.197    0.324    0.470   57.454   22.339
  331.497    0.332    0.454   58.718   20.260
  331.797    0.345    0.438   60.598   19.103
  332.097    0.334    0.468   60.618   17.319
  332.397    0.325    0.485   59.410   16.635
  332.697    0.317    0.469   58.811   16.621
  332.997    0.319    0.456   57.595   16.273
  333.297    0.305    0.451   57.620   16.247
  333.597    0.304    0.455   57.025   16.232
  333.897    0.318    0.469   57.664   16.205
  334.197    0.315    0.455   58.921   15.873
  334.497    0.339    0.465   60.186   15.548
  334.797    0.318    0.457   60.824   15.225
  335.097    0.321    0.449   60.852   15.492
  335.397    0.317    0.470   60.867   15.468
  335.697    0.331    0.493   62.138   15.743
  335.997    0.327    0.486   62.782   15.721
  336.297    0.314    0.476   62.182   15.395
  336.597    0.294    0.468   61.583   15.376
  336.897    0.304    0.458   60.987   15.648
  337.197    0.305    0.453   60.389   15.922
  337.497    0.286    0.463   60.411   16.204
  337.797    0.290    0.464   61.049   16.178
  338.097    0.315    0.466   62.931   15.855
  338.397    0.335    0.484   64.190   14.654
  338.697    0.332    0.468   65.464   14.359
  338.997    0.326    0.452   65.476   14.612
  339.297    0.318    0.463   64.880   15.750
  339.597    0.316    0.453   64.281   16.345
  339.897    0.308    0.455   63.068   17.277
  340.197    0.327    0.452   60.616   17.587
  340.497    0.323    0.451   60.013   17.557
  340.797    0.345    0.453   60.039   17.200
  341.097    0.338    0.456   60.676   16.532
  341.397    0.317    0.464   62.561   15.583
  341.697    0.329    0.461   63.200   14.687
  341.997    0.329    0.445   61.987   14.665
  342.297    0.330    0.450   61.389   14.637
  342.597    0.319    0.467   63.891   14.617
  342.897    0.305    0.479   66.390   12.763
  343.197    0.309    0.479   68.272   11.352
  343.497    0.323    0.481   68.294   11.558
  343.797    0.330    0.481   65.842   12.704
  344.097    0.324    0.477   64.621   16.273
  344.397    0.324    0.493   65.263   17.544
  344.697    0.327    0.503   65.914   15.604
  344.997    0.345    0.456   66.546   14.717
  345.297    0.346    0.450   67.190   12.842
  345.597    0.338    0.457   67.216   11.649
  345.897    0.303    0.459   67.239   10.985
  346.197    0.287    0.459   67.885   10.353
  346.497    0.281    0.469   68.519   10.336
  346.797    0.277    0.466   70.407   10.121
  347.097    0.302    0.500   71.660    9.730
  347.397    0.270    0.503   74.164    7.570
  347.697    0.287    0.477   78.522    5.562
  347.997    0.278    0.487   82.265    4.086
  348.297    0.254    0.478   84.765    3.303
  348.597    0.200    0.474   87.881    3.054
  348.897    0.224    0.509   94.099    3.109
  349.197    0.189    0.533   97.221    3.417
  349.497    0.193    0.540   95.382    4.212
  349.797    0.212    0.518   91.695    4.810
  350.097    0.257    0.491   91.092    5.706
  350.397    0.270    0.507   91.737    6.152
  350.697    0.254    0.517   92.999    6.263
  350.997    0.210    0.499   92.400    6.015
  351.297    0.188    0.501   91.185    5.457
  351.597    0.178    0.515   91.209    4.585
  351.897    0.189    0.510   92.470    4.081
  352.197    0.209    0.490   97.444    3.115
  352.497    0.210    0.475  106.139    2.617
  352.797    0.200    0.506  107.411    2.515
  353.097    0.221    0.561  104.332    2.463
  353.397    0.219    0.597  101.255    2.555
  353.697    0.211    0.598   98.181    2.807
  353.996    0.221    0.567   96.344    3.146
  354.296    0.250    0.558   95.124    3.805
  354.596    0.217    0.577   93.911    4.602
  354.896    0.226    0.543   93.316    5.459
  355.196    0.230    0.525   92.096    6.234
  355.496    0.251    0.507   89.028    6.593
  355.796    0.241    0.477   87.194    6.711
  356.096    0.203    0.475   85.975    6.959
  356.396    0.236    0.489   86.611    7.086
  356.696    0.226    0.494   87.253    7.492
  356.996    0.211    0.500   90.373    7.774
  357.296    0.233    0.525   94.118    7.763
  357.596    0.213    0.533   96.615    7.751
  357.896    0.232    0.518   99.121    8.352
  358.196    0.233    0.483   99.758    8.834
  358.496    0.233    0.475   99.779    9.895
  358.796    0.222    0.465   97.329   10.671
  359.096    0.217    0.454   96.106   11.723
  359.396    0.210    0.449   93.034   11.932
  359.696    0.167    0.444   91.819   11.032
  359.996    0.197    0.435   90.600   10.203
  360.296    0.168    0.432   86.904    9.620
  360.596    0.172    0.435   85.069    8.558
  360.896    0.179    0.431   86.951    7.472
  361.196    0.194    0.440   91.314    6.650
  361.496    0.198    0.466   94.432    6.391
  361.796    0.233    0.497   92.595    6.378
  362.096    0.258    0.513   90.138    6.877
  362.396    0.241    0.514   89.542    7.416
  362.696    0.215    0.496   90.806    8.468
  362.996    0.230    0.468   90.208    9.481
  363.296    0.241    0.434   88.377    9.841
  363.596    0.222    0.423   87.777    9.453
  363.896    0.207    0.431   89.661    9.083
  364.196    0.216    0.444   90.915    7.931
  364.496    0.207    0.456   94.037    6.664
  364.796    0.227    0.463   96.534    5.930
  365.096    0.188    0.477   99.655    5.480
  365.396    0.210    0.507   99.058    5.370
  365.696    0.203    0.475   91.027    5.361
  365.996    0.220    0.463   88.579    5.456
  366.296    0.202    0.489   87.977    5.660
