~VERSION INFORMATION
 VERS.                 2.0:   CWLS LOG ASCII STANDARD -VERSION 2.0
 WRAP.                  NO:   ONE LINE PER DEPTH STEP
~WELL INFORMATION BLOCK
#MNEM.UNIT           DATA                    DESCRIPTION OF MNEMONIC
#---------    -------------------            -------------------------------
# Generated from Intellog Unique Number	CW_79_81/WELL/901
WELL.         PARAMOUNT ET AL HORIZON        : Well_name    - WELL
LOC .         00/11-11-080-19W4/0            : Location     - LOCATION
UWI .         00/11-11-080-19W4/0            : Uwi          - UNIQUE WELL ID
ENTR.         MAX                            : Entered      - ENTERED BY
SRVC.         COMPUTALOG                     : Scn          - SERVICE COMPANY
STRT.M        185.928                        : top_depth    - START DEPTH
STOP.M        365.678                        : bot_depth    - STOP DEPTH
STEP.M        0.25                           : increment    - STEP LENGTH
 NULL. -999.2500:NULL Value
~CURVE INFORMATION BLOCK
#MNEM UNIT       ERCB CURVE CODE    CURVE DESCRIPTION
#-----------   ------------------   ----------------------------------
DEPT.M        00 001 00 00         : DEPTH        - DEPTH
ILD .OHMM     00 120 00 00         : RESD         - DEEP RESISTIVITY (DIL)
NPHI.V/V      00 330 00 00         : PHIN         - NEUTRON POROSITY (SANDSTONE)
DPHI.V/V      00 890 00 00         : PHID         - DENSITY POROSITY (SANDSTONE)
CALI.MM       00 280 01 00         : CAL          - CALIPER
GR  .API      00 310 00 00         : GR           - GAMMA RAY
~PARAMETER INFORMATION
#MNEM.UNIT           DATA             DESCRIPTION OF MNEMONIC
#---------         -----------     ------------------------------
GL  .M        563.88               : gl           - GROUND LEVEL ELEVATION
EREF.M        566.928              : kb           - ELEVATION OF DEPTH REFERENCE
DATM.M        563.88               : datum        - DATUM ELEVATION
TDD .M        366.674              : tdd          - TOTAL DEPTH DRILLER
RUN .         ONE                  : Run          - RUN NUMBER
ENG .         BILL                 : Engineer     - RECORDING ENGINEER
WIT .         JIM                  : Witness      - WITNESSED BY
MUD .         GEL                  : Mud_type     - MUD TYPE
MATR.         SANDSTONE            : Logunit      - NEUTRON MATRIX
TMAX.C        16.1111              : BHT          - MAXIMUM RECORDED TEMPERATURE
BHTD.M        366.674              : BHTDEP       - MAXIMUM RECORDED TEMPERATURE
RMT .C        20                   : MDTP         - TEMPERATURE OF MUD
MUDD.KG/M     9600                 : MWT          - MUD DENSITY
NEUT.         1                    : NEUTRON      - NEUTRON TYPE
RESI.         0                    : RESIST       - RESISTIVITY TYPE
RM  .OHMM     4.6                  : RM           - RESISTIVITY OF MUD
RMC .OHMM     0                    : RMC          - RESISTIVITY OF MUD CAKE
RMF .OHMM     3.9                  : RMF          - RESISTIVITY OF MUD FILTRATE
SUFT.C        -3.88889             : SUFT         - SURFACE TEMPERATURE
~A  DEPTH     RESD     PHIN     PHID      CAL       GR
# ...
  331.928   15.910    0.339    0.174  161.972   81.763
  332.178   17.591    0.171    0.116  162.087   72.797
  332.428   18.955    0.103    0.017  162.201   61.425
  332.678   19.563    0.082    0.017  162.301   53.663
  332.928   18.460    0.125    0.069  162.416   47.112
  333.178   17.434    0.230    0.119  162.545   54.400
  333.428   15.773    0.330    0.183  162.645   61.094
  333.678   14.311    0.369    0.243  162.774   68.690
  333.928   13.087    0.376    0.228  162.874   74.173
  334.178   12.582    0.374    0.193  162.493   75.151
  334.428   12.354    0.380    0.174  161.079   68.893
  334.678   12.364    0.389    0.201  159.170   65.668
  334.928   12.335    0.385    0.247  157.757   66.622
  335.178   12.066    0.382    0.236  156.852   71.511
  335.428   12.116    0.386    0.200  156.443   73.083
  335.678   13.559    0.397    0.217  156.048   67.426
  335.928   14.407    0.381    0.204  156.162   59.079
  336.178   15.332    0.347    0.169  158.343   62.456
  336.428   16.778    0.308    0.074  160.466   56.807
  336.678   17.146    0.230    0.065  161.600   51.443
  336.928   16.917    0.268    0.089  161.233   50.007
  337.178   15.454    0.306    0.146  160.838   61.213
  337.428   14.552    0.339    0.173  161.448   64.298
  337.678   13.645    0.371    0.213  162.086   64.967
  337.928   13.336    0.370    0.200  162.215   64.734
  338.178   13.346    0.365    0.166  162.315   64.801
  338.428   13.755    0.319    0.124  162.429   64.869
  338.678   14.125    0.302    0.185  162.544   63.441
  338.928   14.097    0.371    0.227  161.654   65.313
  339.178   13.867    0.398    0.227  160.721   65.983
  339.428   13.519    0.408    0.232  160.340   68.757
  339.678   12.893    0.418    0.234  159.436   75.752
  339.928   11.911    0.405    0.230  159.055   75.519
  340.178   11.840    0.403    0.229  159.155   70.172
  340.428   11.771    0.396    0.227  158.760   72.354
  340.678   11.781    0.391    0.216  158.760   75.438
  340.928   11.910    0.389    0.210  159.003   77.001
  341.178   12.200    0.374    0.202  158.608   71.345
  341.428   12.409    0.388    0.182  158.213   71.412
  341.678   12.421    0.379    0.173  158.328   72.692
  341.928   12.271    0.398    0.197  158.937   69.141
  342.178   11.926    0.406    0.201  161.104   73.721
  342.428   11.695    0.385    0.187  162.237   76.513
  342.678   11.427    0.367    0.190  162.861   78.678
  342.928   11.159    0.364    0.178  163.499   82.364
  343.178   10.850    0.388    0.161  163.628   84.545
  343.428   10.187    0.401    0.153  163.218   86.109
  343.678    9.956    0.399    0.172  163.828   81.071
  343.928    9.490    0.405    0.187  163.971   79.927
  344.178    9.021    0.412    0.183  164.085   83.905
  344.428    8.714    0.417    0.181  164.200   90.307
  344.678    8.805    0.403    0.185  164.809   89.463
  344.928    8.937    0.388    0.189  164.924   91.645
  345.178    8.985    0.370    0.181  164.529   94.420
  345.428    9.234    0.391    0.185  163.639   96.594
  345.678    9.883    0.390    0.181  162.720   96.369
  345.928   10.449    0.372    0.176  162.339   99.144
  346.178   12.333    0.364    0.170  161.944   97.699
  346.428   12.581    0.354    0.081  161.535   88.432
  346.678   13.387    0.331    0.110  161.155   75.255
  346.928   14.353    0.308    0.147  160.774   75.941
  347.178   14.762    0.303    0.120  160.350   76.903
  347.428   14.813    0.290    0.164  159.970   72.750
  347.678   15.102    0.335    0.183  159.575   75.534
  347.928   15.709    0.342    0.185  158.699   82.228
  348.178   16.158    0.309    0.157  157.795   80.482
  348.428   16.607    0.296    0.130  156.366   73.631
  348.678   17.173    0.312    0.098  155.462   69.796
  348.928   17.980    0.317    0.149  155.577   74.368
  349.178   18.310    0.304    0.153  155.691   84.672
  349.428   18.319    0.297    0.140  156.301   87.154
  349.678   18.731    0.292    0.116  156.939   76.083
  349.928   18.818    0.274    0.103  157.067   72.833
  350.178   18.432    0.254    0.086  157.153   72.006
  350.428   17.805    0.267    0.102  156.758   79.595
  350.678   17.298    0.320    0.164  156.873   80.264
  350.928   17.030    0.318    0.171  157.539   81.543
  351.178   16.801    0.308    0.154  157.625   80.407
  351.428   16.056    0.298    0.106  157.740   75.052
  351.678   15.190    0.267    0.111  158.378   67.908
  351.928   14.723    0.301    0.150  159.016   76.089
  352.178   14.136    0.334    0.174  159.116   90.012
  352.428   12.995    0.350    0.191  159.216   95.202
  352.678   12.129    0.367    0.189  159.854   88.041
  352.928   10.705    0.369    0.179  161.002   86.011
  353.178    9.760    0.388    0.179  161.640   95.104
  353.428    9.574    0.390    0.171  162.759   99.692
  353.678    9.224    0.366    0.153  162.859   90.727
  353.928    7.841    0.336    0.170  162.988   80.858
  354.178    6.220    0.362    0.201  160.555   75.511
  354.428    5.394    0.426    0.247  158.137   88.222
  354.678    5.287    0.505    0.258  157.713   91.607
  354.928    5.337    0.469    0.244  158.847   84.137
  355.178    5.787    0.412    0.235  159.980   72.464
  355.428    7.149    0.323    0.229  160.094   45.749
  355.678    8.036    0.333    0.227  160.252   50.020
  355.928   18.833    0.351    0.229  160.337   54.609
  356.178   19.600    0.351    0.246  160.480   55.579
  356.428   17.979    0.350    0.257  160.581   61.980
  356.678   16.795    0.343    0.230  160.681   60.836
  356.928   15.532    0.331    0.208  160.795   54.879
  357.178   13.273    0.327    0.190  160.910   64.882
  357.428   10.219    0.356    0.180  160.543   67.382
  357.678    9.274    0.379    0.178  160.629   70.742
  357.928    7.970    0.364    0.175  160.248   78.355
  358.178    7.227    0.347    0.170  160.363   80.512
  358.428    6.918    0.340    0.167  160.492   84.498
  358.678    6.769    0.340    0.169  160.592   86.981
  358.928    6.859    0.342    0.172  160.211   87.341
  359.178    7.704    0.336    0.165  160.325   73.261
  359.428    9.546    0.312    0.138  159.931   65.800
  359.678   10.711    0.297    0.082  160.031   63.168
  359.928   11.079    0.294    0.122  160.159   70.757
  360.178   10.772    0.362    0.153  160.288   79.857
  360.428    9.788    0.361    0.154  160.388   91.966
  360.678    8.246    0.347    0.159  160.517   99.563
  360.928    7.581    0.344    0.177  160.631  104.444
  361.178    7.351    0.372    0.194  160.760  107.528
  361.428    7.441    0.402    0.192  160.846  108.507
  361.678    7.890    0.411    0.167  160.975  109.485
  361.928    9.454    0.386    0.159  162.108  111.040
  362.178   10.339    0.310    0.132  162.222  107.197
  362.428   12.022    0.284    0.127  162.323  107.273
  362.678   16.371    0.283    0.120  162.437  107.942
  362.928   17.259    0.282    0.114  162.551  109.522
  363.178   16.431    0.287    0.117  162.680  109.289
  363.428   15.371    0.292    0.127  162.285  109.357
  363.678   14.583    0.295    0.136  162.414  109.424
  363.928   14.036    0.298    0.148  162.033  107.687
  364.178   13.530    0.299    0.154  162.119  107.746
  364.428   13.183    0.300    0.141  162.743  109.318
  364.678   12.992    0.304    0.173  162.872  112.118
  364.928   12.765    0.304    0.264  162.986  112.478
  365.178   12.658    0.303    0.266  163.596  109.236
  365.428   12.665    0.303    0.253  163.710  109.304
  365.678   12.717    0.302    0.242  163.853  109.363
