~VERSION INFORMATION
 VERS.                 2.0:   CWLS LOG ASCII STANDARD -VERSION 2.0
 WRAP.                  NO:   ONE LINE PER DEPTH STEP
~WELL INFORMATION BLOCK
#MNEM.UNIT           DATA                    DESCRIPTION OF MNEMONIC
#---------    -------------------            -------------------------------
# Generated from Intellog Unique Number	CS_77_79/WELL/959
WELL.         MESA PETROLEUM (NA) CO.        : Well_name    - WELL
LOC .         00/10-22-077-11W4/0            : Location     - LOCATION
UWI .         00/10-22-077-11W4/0            : Uwi          - UNIQUE WELL ID
ENTR.         SP                             : Entered      - ENTERED BY
SRVC.         SCHLUMBERGER                   : Scn          - SERVICE COMPANY
STRT.F        900                            : top_depth    - START DEPTH
STOP.F        1689.86                        : bot_depth    - STOP DEPTH
STEP.F        0.82                           : increment    - STEP LENGTH
 NULL. -999.2500:NULL Value
~CURVE INFORMATION BLOCK
#MNEM UNIT       ERCB CURVE CODE    CURVE DESCRIPTION
#-----------   ------------------   ----------------------------------
DEPT.F        00 001 00 00         : DEPTH        - DEPTH
GR  .API      00 310 00 00         : GR           - GAMMA RAY
NPHI.V/V      00 330 00 00         : PHIN         - NEUTRON POROSITY (SANDSTONE)
DPHI.V/V      00 890 00 00         : PHID         - DENSITY POROSITY (SANDSTONE)
ILD .OHMM     00 120 00 00         : RESD         - DEEP RESISTIVITY (DIL)
~PARAMETER INFORMATION
#MNEM.UNIT           DATA             DESCRIPTION OF MNEMONIC
#---------         -----------     ------------------------------
GL  .M        687.019              : gl           - GROUND LEVEL ELEVATION
EREF.M        691.134              : kb           - ELEVATION OF DEPTH REFERENCE
DATM.M        687.019              : datum        - DATUM ELEVATION
TDD .M        544.068              : tdd          - TOTAL DEPTH DRILLER
RUN .         ONE                  : Run          - RUN NUMBER
ENG .         BILL                 : Engineer     - RECORDING ENGINEER
WIT .         JIM                  : Witness      - WITNESSED BY
MUD .         GEL                  : Mud_type     - MUD TYPE
MATR.         SANDSTONE            : Logunit      - NEUTRON MATRIX
TMAX.C        25                   : BHT          - MAXIMUM RECORDED TEMPERATURE
BHTD.M        552                  : BHTDEP       - MAXIMUM RECORDED TEMPERATURE
MATR.         1                    : LOGUNIT      - NEUTRON MATRIX
RMT .C        25                   : MDTP         - TEMPERATURE OF MUD
NEUT.         1                    : NEUTRON      - NEUTRON TYPE
RESI.         0                    : RESIST       - RESISTIVITY TYPE
RMC .OHMM     0.25                 : RMC          - RESISTIVITY OF MUD CAKE
RMF .OHMM     0.25                 : RMF          - RESISTIVITY OF MUD FILTRATE
SUFT.C        15                   : SUFT         - SURFACE TEMPERATURE
~A  DEPTH       GR     PHIN     PHID     RESD
  900.000   99.437    0.592    0.260    3.653
  900.820   98.815    0.589    0.264    3.650
  901.640   97.576    0.584    0.265    3.516
  902.461   96.956    0.567    0.266    3.386
  903.281   96.334    0.563    0.268    3.262
  904.101   96.948    0.566    0.273    3.200
  904.921   98.795    0.572    0.278    3.141
  905.741  100.026    0.581    0.285    3.024
  906.562  100.024    0.588    0.295    3.023
  907.382   99.402    0.596    0.308    2.967
  908.202   99.398    0.596    0.320    2.965
  909.022  100.012    0.598    0.310    2.909
  909.843  100.007    0.601    0.310    2.907
  910.663  100.004    0.596    0.312    2.906
  911.483   99.382    0.578    0.317    2.851
  912.303   99.379    0.575    0.314    2.850
  913.123   98.757    0.581    0.306    2.849
  913.944   98.752    0.590    0.301    2.847
  914.764   99.366    0.597    0.296    2.845
  915.584   99.980    0.597    0.292    2.845
  916.404   99.977    0.599    0.288    2.843
  917.224   99.972    0.599    0.287    2.894
  918.045   99.351    0.601    0.283    2.947
  918.865   99.346    0.597    0.282    3.001
  919.685   98.725    0.594    0.284    3.170
  920.505   98.722    0.598    0.290    3.227
  921.325   98.101    0.601    0.292    3.347
  922.146   94.389    0.605    0.290    3.409
  922.966   91.298    0.604    0.284    3.470
  923.786   88.824    0.598    0.273    3.468
  924.606   88.819    0.585    0.259    3.467
  925.427   91.285    0.558    0.246    3.530
  926.247   92.517    0.565    0.248    3.528
  927.067   91.896    0.571    0.249    3.527
  927.887   91.274    0.576    0.248    3.525
  928.707   91.888    0.574    0.240    3.522
  929.528   92.502    0.569    0.235    3.521
  930.348   93.733    0.557    0.229    3.584
  931.168   94.964    0.562    0.235    3.583
  931.988   97.432    0.571    0.241    3.648
  932.808   98.662    0.586    0.240    3.715
  933.629   98.040    0.594    0.236    3.782
  934.449   99.272    0.572    0.236    3.851
  935.269  101.738    0.537    0.237    3.921
  936.089  103.587    0.548    0.241    3.991
  936.909  104.201    0.559    0.234    4.065
  937.730  104.815    0.570    0.234    4.062
  938.550  106.045    0.583    0.234    4.136
  939.370  106.661    0.592    0.232    4.212
  940.190  102.949    0.594    0.235    4.210
  941.010  101.094    0.592    0.237    4.208
  941.831   98.619    0.588    0.240    4.204
  942.651   96.145    0.581    0.243    4.202
  943.471   93.670    0.569    0.246    4.201
  944.291   93.048    0.558    0.247    4.121
  945.112   94.278    0.554    0.246    4.120
  945.932   94.894    0.561    0.243    4.118
  946.752   97.977    0.564    0.239    4.115
  947.572   98.591    0.558    0.235    4.190
  948.392   98.587    0.548    0.233    4.188
  949.213   96.112    0.535    0.226    4.186
  950.033   93.638    0.528    0.226    4.590
  950.853   91.165    0.515    0.228    5.520
  951.673   86.837    0.501    0.235    6.638
  952.493   84.980    0.492    0.246    8.921
  953.314   81.888    0.495    0.299   10.727
  954.134   78.179    0.509    0.378   10.722
  954.954   75.087    0.631    0.421    9.770
  955.774   75.698    0.651    0.476    8.421
  956.594   78.165    0.650    0.509    7.534
  957.415   80.632    0.639    0.495    6.992
  958.235   82.482    0.627    0.447    7.119
  959.055   82.478    0.555    0.234    7.249
  959.875   80.002    0.510    0.231    9.047
  960.696   78.764    0.501    0.250   14.628
  961.516   77.525    0.480    0.306   17.590
  962.336   76.286    0.471    0.336   17.582
  963.156   71.959    0.449    0.342   17.573
  963.976   66.397    0.444    0.348   16.313
  964.797   60.216    0.441    0.345   14.322
  965.617   54.036    0.437    0.338   13.542
  966.437   54.649    0.438    0.327   13.536
  967.257   55.264    0.446    0.288   14.568
  968.077   64.524    0.454    0.280   15.972
  968.898   64.520    0.459    0.287   16.878
  969.718   63.899    0.465    0.298   17.832
  970.538   63.895    0.468    0.309   17.821
  971.358   63.273    0.463    0.319   17.812
  972.178   62.651    0.453    0.325   17.154
  972.999   66.353    0.440    0.320   16.831
  973.819   73.143    0.429    0.308   16.214
  974.639   80.550    0.435    0.272   15.329
  975.459   85.488    0.439    0.249   14.494
  976.280   86.719    0.442    0.241   14.219
  977.100   86.715    0.446    0.240   14.216
  977.920   84.858    0.454    0.269   14.470
  978.740   82.384    0.468    0.273   14.467
  979.560   79.909    0.480    0.298   16.155
  980.381   74.964    0.492    0.304   17.390
  981.201   71.873    0.504    0.309   18.373
  982.021   68.163    0.504    0.318   19.410
  982.841   66.304    0.493    0.330   20.131
  983.661   66.302    0.486    0.337   20.880
  984.482   66.297    0.477    0.344   20.109
  985.302   67.528    0.479    0.347   20.104
  986.122   68.761    0.479    0.344   19.361
  986.942   71.227    0.480    0.339   18.646
  987.762   74.311    0.477    0.335   18.298
  988.583   76.778    0.476    0.324   17.956
  989.403   79.245    0.474    0.315   17.944
  990.223   82.947    0.471    0.318   17.938
  991.043   88.501    0.468    0.318   18.261
  991.864   92.203    0.464    0.308   18.591
  992.684   98.993    0.459    0.298   18.584
  993.504  103.312    0.456    0.292   19.275
  994.324  101.455    0.451    0.287   19.991
  995.144   98.362    0.451    0.281   19.979
  995.965   96.507    0.451    0.267   19.246
  996.785   91.562    0.451    0.256   17.864
  997.605   90.940    0.456    0.246   15.686
  998.425   92.171    0.462    0.225   13.519
  999.245   95.255    0.475    0.195   11.873
 1000.070  100.193    0.490    0.148   10.425
 1000.890  103.277    0.494    0.117    9.499
 1001.710  100.802    0.498    0.096    8.496
 1002.530  104.503    0.499    0.123    8.337
 1003.350  106.970    0.502    0.156    8.179
 1004.170  110.056    0.504    0.173    7.879
 1004.990  113.757    0.507    0.163    7.311
 1005.810  116.223    0.509    0.144    6.786
 1006.630  117.455    0.511    0.134    6.299
 1007.450  116.215    0.518    0.122    5.956
 1008.270  117.447    0.525    0.144    5.632
 1009.090  116.825    0.530    0.164    5.324
 1009.910  116.820    0.538    0.151    5.225
 1010.730  119.906    0.549    0.141    4.941
 1011.550  121.755    0.558    0.151    4.672
 1012.370  121.751    0.568    0.163    4.417
 1013.190  121.747    0.582    0.184    4.334
 1014.010  120.508    0.589    0.200    4.751
 1014.830  118.651    0.588    0.211    5.210
 1015.650  115.559    0.585    0.225    6.382
 1016.470  111.232    0.584    0.251    7.819
 1017.290  103.199    0.576    0.278   10.904
 1018.110   93.313    0.570    0.313   14.927
 1018.930   90.221    0.530    0.305   18.974
 1019.750   87.745    0.484    0.286   20.047
 1020.570   85.271    0.481    0.283   20.035
 1021.390   82.180    0.480    0.289   20.027
 1022.210   80.322    0.479    0.299   20.017
 1023.030   78.465    0.474    0.305   19.280
 1023.850   78.461    0.470    0.310   17.894
 1024.670   81.545    0.469    0.314   17.239
 1025.490   83.394    0.470    0.318   14.588
 1026.310   87.096    0.471    0.320   11.677
 1027.130   90.180    0.468    0.318    9.699
 1027.950   93.264    0.467    0.295    8.515
 1028.770   97.584    0.467    0.224    7.905
 1029.590  104.992    0.477    0.128    8.047
 1030.410  107.459    0.492    0.098    8.348
 1031.230   98.808    0.519    0.060    8.819
 1032.050  104.980    0.484    0.038    9.491
 1032.870  113.623    0.467    0.162   10.217
 1033.690  110.531    0.465    0.222   11.411
 1034.510  106.822    0.458    0.252   13.723
 1035.330  103.111    0.448    0.258   15.904
 1036.150  100.637    0.450    0.266   17.437
 1036.980   96.927    0.452    0.277   17.426
 1037.800   93.217    0.456    0.289   16.479
 1038.620   91.977    0.461    0.302   15.296
 1039.440   95.681    0.463    0.295   14.733
 1040.260  102.471    0.463    0.279   14.191
 1041.080  108.025    0.460    0.267   14.184
 1041.900  109.875    0.462    0.258   14.176
