~VERSION INFORMATION
 VERS.                 2.0:   CWLS LOG ASCII STANDARD -VERSION 2.0
 WRAP.                  NO:   ONE LINE PER DEPTH STEP
~WELL INFORMATION BLOCK
#MNEM.UNIT           DATA                    DESCRIPTION OF MNEMONIC
#---------    -------------------            -------------------------------
# Generated from Intellog Unique Number	CS_77_79/WELL/928
WELL.         NORCEN ENERGY RESOURCES        : Well_name    - WELL
LOC .         00/10-02-077-12W4/0            : Location     - LOCATION
UWI .         00/10-02-077-12W4/0            : Uwi          - UNIQUE WELL ID
ENTR.         SP                             : Entered      - ENTERED BY
SRVC.         SCHLUMBERGER                   : Scn          - SERVICE COMPANY
STRT.M        260                            : top_depth    - START DEPTH
STOP.M        520                            : bot_depth    - STOP DEPTH
STEP.M        0.25                           : increment    - STEP LENGTH
 NULL. -999.2500:NULL Value
~CURVE INFORMATION BLOCK
#MNEM UNIT       ERCB CURVE CODE    CURVE DESCRIPTION
#-----------   ------------------   ----------------------------------
DEPT.M        00 001 00 00         : DEPTH        - DEPTH
ILD .OHMM     00 120 00 00         : RESD         - DEEP RESISTIVITY (DIL)
DPHI.V/V      00 890 00 00         : PHID         - DENSITY POROSITY (LIMESTONE)
NPHI.V/V      00 330 00 00         : PHIN         - NEUTRON POROSITY (LIMESTONE)
GR  .API      00 310 00 00         : GR           - GAMMA RAY
~PARAMETER INFORMATION
#MNEM.UNIT           DATA             DESCRIPTION OF MNEMONIC
#---------         -----------     ------------------------------
GL  .M        662.7                : gl           - GROUND LEVEL ELEVATION
EREF.M        666                  : kb           - ELEVATION OF DEPTH REFERENCE
DATM.M        662.7                : datum        - DATUM ELEVATION
TDD .M        531                  : tdd          - TOTAL DEPTH DRILLER
RUN .         ONE                  : Run          - RUN NUMBER
ENG .         BILL                 : Engineer     - RECORDING ENGINEER
WIT .         JIM                  : Witness      - WITNESSED BY
MUD .         GEL                  : Mud_type     - MUD TYPE
MATR.         LIMESTONE            : Logunit      - NEUTRON MATRIX
TMAX.C        15.5                 : BHT          - MAXIMUM RECORDED TEMPERATURE
BHTD.M        531                  : BHTDEP       - MAXIMUM RECORDED TEMPERATURE
MATR.         1                    : LOGUNIT      - NEUTRON MATRIX
RMT .C        25                   : MDTP         - TEMPERATURE OF MUD
NEUT.         1                    : NEUTRON      - NEUTRON TYPE
RESI.         0                    : RESIST       - RESISTIVITY TYPE
RMC .OHMM     0.25                 : RMC          - RESISTIVITY OF MUD CAKE
RMF .OHMM     0.25                 : RMF          - RESISTIVITY OF MUD FILTRATE
SUFT.C        15                   : SUFT         - SURFACE TEMPERATURE
~A  DEPTH     RESD     PHID     PHIN       GR
# ...
  347.000    6.043    0.326    0.497   74.874
  347.250    6.884    0.322    0.501   73.033
  347.500    7.556    0.350    0.510   71.803
  347.750    7.845    0.362    0.498   69.351
  348.000    7.848    0.366    0.465   68.732
  348.250    7.023    0.358    0.459   68.713
  348.500    6.056    0.351    0.453   69.916
  348.750    5.730    0.344    0.465   75.967
  349.000    5.033    0.316    0.479   77.774
  349.250    4.762    0.331    0.529   77.756
  349.500    4.591    0.339    0.521   78.343
  349.750    4.592    0.327    0.473   81.969
  350.000    5.136    0.319    0.491   84.382
  350.250    5.851    0.301    0.508   85.584
  350.500    6.303    0.304    0.523   82.530
  350.750    7.181    0.315    0.533   84.941
  351.000    8.181    0.309    0.536   79.461
  351.250    8.815    0.301    0.511   73.373
  351.500    8.818    0.339    0.476   66.676
  351.750    8.500    0.348    0.467   59.982
  352.000    8.042    0.346    0.471   64.213
  352.250    7.332    0.344    0.471   70.263
  352.500    6.684    0.323    0.459   73.289
  352.750    5.657    0.325    0.453   79.344
  353.000    4.878    0.305    0.451   84.178
  353.250    4.702    0.281    0.453   84.162
  353.500    4.618    0.269    0.464   84.745
  353.750    4.706    0.277    0.481   85.342
  354.000    4.707    0.283    0.473   85.934
  354.250    4.797    0.254    0.485   87.742
  354.500    4.889    0.307    0.496   91.974
  354.750    4.982    0.274    0.497   94.384
  355.000    4.892    0.287    0.514   93.762
  355.250    4.895    0.292    0.526   92.532
  355.500    4.896    0.268    0.505   92.516
  355.750    4.720    0.259    0.493   95.532
  356.000    4.223    0.274    0.485   96.730
  356.250    3.779    0.283    0.485   94.886
  356.500    3.643    0.276    0.493   94.266
  356.750    3.578    0.254    0.498   95.465
  357.000    3.513    0.239    0.501   97.268
  357.250    3.514    0.238    0.513  100.282
  357.500    3.582    0.240    0.536  100.879
  357.750    3.649    0.250    0.532  102.685
  358.000    3.860    0.275    0.523   97.805
  358.250    4.564    0.290    0.529   95.973
  358.500    5.010    0.286    0.528   92.914
  358.750    5.398    0.286    0.532   90.473
  359.000    5.604    0.297    0.549   87.419
  359.250    4.923    0.302    0.526   88.010
  359.500    3.941    0.310    0.510   89.206
  359.750    3.660    0.298    0.442   89.191
  360.000    3.098    0.269    0.455   90.389
  360.250    2.931    0.266    0.529  100.692
  360.500    2.826    0.269    0.542  104.928
  360.750    2.775    0.254    0.536  102.473
  361.000    2.674    0.257    0.524  102.460
  361.250    2.626    0.254    0.517  103.048
  361.500    2.485    0.267    0.526  102.426
  361.750    2.395    0.277    0.535  103.018
  362.000    2.352    0.289    0.546  104.216
  362.250    2.267    0.301    0.553  104.803
  362.500    2.185    0.301    0.563  102.360
  362.750    2.068    0.285    0.569  101.739
  363.000    2.030    0.285    0.551  103.543
  363.250    2.069    0.299    0.561  106.559
  363.500    2.229    0.300    0.576  107.760
  363.750    2.447    0.300    0.591  107.742
  364.000    2.840    0.297    0.596  104.684
  364.250    3.117    0.292    0.579  102.244
  364.500    3.486    0.307    0.558   97.367
  364.750    4.199    0.334    0.553   91.890
  365.000    4.784    0.346    0.533   87.014
  365.250    5.350    0.355    0.496   82.746
  365.500    5.873    0.337    0.480   80.910
  365.750    6.096    0.324    0.472   79.680
  366.000    6.570    0.326    0.462   80.872
  366.250    6.694    0.328    0.453   82.072
  366.500    7.081    0.311    0.450   82.054
  366.750    7.216    0.297    0.460   75.358
  367.000    7.923    0.285    0.473   71.703
  367.250    7.495    0.284    0.438   75.935
  367.500    7.639    0.289    0.437   81.987
  367.750    7.641    0.278    0.437   87.432
  368.000    7.644    0.275    0.429   79.526
  368.250    7.505    0.283    0.431   77.082
  368.500    6.972    0.287    0.442   81.312
  368.750    6.846    0.303    0.446   82.512
  369.000    6.721    0.307    0.436   84.922
  369.250    6.602    0.303    0.457   87.941
  369.500    6.604    0.279    0.461   91.569
  369.750    6.605    0.277    0.469   91.544
  370.000    6.731    0.279    0.476   88.490
  370.250    6.734    0.277    0.472   88.480
  370.500    6.613    0.270    0.442   89.675
  370.750    6.493    0.273    0.437   90.270
  371.000    6.376    0.273    0.442   91.468
  371.250    6.379    0.281    0.447   90.841
  371.500    6.264    0.289    0.459   88.391
  371.750    6.266    0.290    0.464   87.157
  372.000    6.385    0.283    0.438   87.147
  372.250    6.387    0.292    0.440   87.740
  372.500    6.391    0.286    0.462   88.329
  372.750    6.392    0.264    0.469   88.918
  373.000    6.395    0.271    0.475   87.082
  373.250    6.279    0.262    0.457   87.064
  373.500    6.053    0.242    0.443   87.651
  373.750    6.054    0.218    0.440   88.848
  374.000    5.946    0.228    0.456   89.441
  374.250    5.949    0.256    0.472   90.637
  374.500    5.950    0.263    0.466   91.839
  374.750    5.953    0.269    0.467   93.640
  375.000    5.954    0.270    0.472   87.555
  375.250    5.957    0.279    0.475   86.323
  375.500    5.742    0.284    0.444   86.304
  375.750    5.535    0.287    0.426   86.290
  376.000    5.435    0.285    0.432   91.124
  376.250    5.336    0.272    0.437   92.318
  376.500    5.240    0.287    0.450   92.913
  376.750    5.051    0.275    0.462   92.901
  377.000    4.605    0.272    0.474   91.055
  377.250    4.121    0.275    0.459   90.438
  377.500    3.361    0.284    0.453   92.236
  377.750    3.007    0.266    0.456   93.439
  378.000    2.742    0.257    0.463   96.446
  378.250    2.454    0.274    0.457   97.653
  378.500    2.321    0.286    0.464  101.890
  378.750    2.238    0.300    0.499   98.831
  379.000    2.197    0.305    0.522   96.393
  379.250    2.198    0.312    0.545   93.338
  379.500    2.240    0.303    0.564   93.930
  379.750    2.459    0.307    0.516   94.512
  380.000    2.750    0.305    0.505   95.106
  380.250    3.018    0.302    0.522   93.872
  380.500    3.636    0.304    0.516   91.433
  380.750    3.991    0.306    0.502   87.770
  381.000    4.463    0.316    0.491   87.752
  381.250    4.991    0.322    0.464   87.126
  381.500    5.793    0.275    0.456   84.680
  381.750    6.127    0.263    0.440   82.846
  382.000    6.243    0.255    0.452   79.792
  382.250    6.363    0.233    0.453   81.600
  382.500    6.365    0.251    0.441   84.013
  382.750    6.137    0.287    0.438   80.958
  383.000    6.138    0.316    0.439   75.478
  383.250    6.028    0.343    0.442   68.780
  383.500    6.030    0.344    0.437   64.516
  383.750    6.031    0.356    0.428   59.641
  384.000    6.034    0.368    0.425   57.191
  384.250    6.035    0.369    0.438   56.567
  384.500    6.038    0.367    0.440   55.945
  384.750    5.929    0.361    0.433   54.705
  385.000    5.931    0.363    0.427   54.077
  385.250    5.933    0.352    0.436   54.063
  385.500    5.935    0.352    0.429   54.055
  385.750    5.829    0.359    0.421   55.253
  386.000    5.831    0.350    0.423   56.451
  386.250    5.832    0.357    0.429   57.044
  386.500    5.835    0.367    0.432   58.848
  386.750    5.837    0.372    0.435   60.651
  387.000    5.839    0.360    0.434   58.206
  387.250    5.734    0.349    0.428   54.548
  387.500    5.736    0.361    0.423   55.744
  387.750    5.738    0.371    0.423   58.759
  388.000    5.740    0.376    0.426   58.748
  388.250    5.742    0.378    0.431   55.694
  388.500    5.744    0.365    0.434   56.890
  388.750    5.746    0.355    0.423   57.475
  389.000    5.748    0.360    0.430   56.859
  389.250    5.751    0.367    0.436   58.660
  389.500    5.753    0.374    0.435   59.857
  389.750    5.755    0.377    0.439   56.802
  390.000    5.758    0.377    0.444   55.577
  390.250    5.760    0.365    0.451   56.156
