~VERSION INFORMATION
 VERS.                 2.0:   CWLS LOG ASCII STANDARD -VERSION 2.0
 WRAP.                  NO:   ONE LINE PER DEPTH STEP
~WELL INFORMATION BLOCK
#MNEM.UNIT           DATA                    DESCRIPTION OF MNEMONIC
#---------    -------------------            -------------------------------
# Generated from Intellog Unique Number	CW_79_81/WELL/2492
WELL.         HB GODIN                       : Well_name    - WELL
LOC .         00/15-19-081-01W5/0            : Location     - LOCATION
UWI .         00/15-19-081-01W5/0            : Uwi          - UNIQUE WELL ID
ENTR.         MAX                            : Entered      - ENTERED BY
SRVC.         SCHLUMBERGER                   : Scn          - SERVICE COMPANY
STRT.M        243.84                         : top_depth    - START DEPTH
STOP.M        450.84                         : bot_depth    - STOP DEPTH
STEP.M        0.25                           : increment    - STEP LENGTH
 NULL. -999.2500:NULL Value
~CURVE INFORMATION BLOCK
#MNEM UNIT       ERCB CURVE CODE    CURVE DESCRIPTION
#-----------   ------------------   ----------------------------------
DEPT.M        00 001 00 00         : DEPTH        - DEPTH
ILD .OHMM     00 120 00 00         : RESD         - DEEP RESISTIVITY (DIL)
NPHI.V/V      00 330 00 00         : PHIN         - NEUTRON POROSITY (SANDSTONE)
DPHI.V/V      00 890 00 00         : PHID         - DENSITY POROSITY (SANDSTONE)
GR  .API      00 310 00 00         : GR           - GAMMA RAY
CALI.MM       00 280 01 00         : CAL          - CALIPER
~PARAMETER INFORMATION
#MNEM.UNIT           DATA             DESCRIPTION OF MNEMONIC
#---------         -----------     ------------------------------
GL  .M        586.13               : gl           - GROUND LEVEL ELEVATION
EREF.M        590.093              : kb           - ELEVATION OF DEPTH REFERENCE
DATM.M        586.13               : datum        - DATUM ELEVATION
TDD .M        501.091              : tdd          - TOTAL DEPTH DRILLER
RUN .         ONE                  : Run          - RUN NUMBER
ENG .         BILL                 : Engineer     - RECORDING ENGINEER
WIT .         JIM                  : Witness      - WITNESSED BY
MUD .         GEL                  : Mud_type     - MUD TYPE
MATR.         SANDSTONE            : Logunit      - NEUTRON MATRIX
TMAX.C        23.3333              : BHT          - MAXIMUM RECORDED TEMPERATURE
BHTD.M        501.091              : BHTDEP       - MAXIMUM RECORDED TEMPERATURE
MATR.         1                    : LOGUNIT      - NEUTRON MATRIX
RMT .C        11.1111              : MDTP         - TEMPERATURE OF MUD
NEUT.         1                    : NEUTRON      - NEUTRON TYPE
RESI.         0                    : RESIST       - RESISTIVITY TYPE
RMC .OHMM     7.55                 : RMC          - RESISTIVITY OF MUD CAKE
RMF .OHMM     3.88                 : RMF          - RESISTIVITY OF MUD FILTRATE
SUFT.C        -12.2222             : SUFT         - SURFACE TEMPERATURE
~A  DEPTH     RESD     PHIN     PHID       GR      CAL
  243.840    8.659    0.395    0.354   70.586  224.707
  244.090    7.607    0.460    0.371   75.255  235.914
  244.340    6.678    0.551    0.385   77.615  257.235
  244.590    5.776    0.606    0.404   78.816  282.079
  244.840    5.042    0.610    0.424   79.549  306.921
  245.090    4.477    0.606    0.440   81.329  335.962
  245.340    4.094    0.612    0.476   83.064  348.006
  245.590    3.750    0.616    0.549   84.969  366.297
  245.840    3.573    0.612    0.555   86.696  362.872
  246.090    3.496    0.612    0.524   85.551  300.832
  246.340    3.482    0.613    0.496   82.238  225.190
  246.590    3.547    0.592    0.507   79.936  261.123
  246.840    3.766    0.542    0.404   75.328  252.075
  247.090    4.217    0.420    0.384   67.153  207.683
  247.340    5.015    0.389    0.374   62.495  193.052
  247.590    6.153    0.394    0.374   60.298  188.540
  247.840    8.039    0.407    0.379   58.922  186.602
  248.090   14.810    0.423    0.370   56.045  192.556
  248.340   18.624    0.441    0.355   55.589  196.329
  248.590   20.707    0.458    0.340   55.848  198.356
  248.840   22.807    0.477    0.339   56.816  200.389
  249.090   24.612    0.498    0.330   58.017  201.232
  249.340   26.197    0.518    0.319   58.803  200.980
  249.590   28.733    0.529    0.339   58.073  201.033
  249.840   30.742    0.511    0.349   56.638  201.082
  250.090   33.466    0.464    0.327   53.620  201.526
  250.340   36.264    0.457    0.304   47.262  201.970
  250.590   38.970    0.475    0.296   42.839  202.215
  250.840   41.572    0.486    0.305   41.989  202.363
  251.090   44.873    0.451    0.320   43.017  203.068
  251.340   47.641    0.464    0.331   44.516  204.352
  251.590   48.662    0.483    0.338   45.007  204.400
  251.840   50.233    0.508    0.342   45.680  205.049
  252.090   52.416    0.527    0.343   46.412  205.096
  252.340   55.483    0.526    0.345   46.674  204.044
  252.590   60.854    0.484    0.357   45.291  201.948
  252.840   65.107    0.477    0.359   44.094  201.170
  253.090   69.890    0.499    0.347   42.485  199.636
  253.340   76.222    0.507    0.336   42.104  199.585
  253.590   80.541    0.505    0.327   41.780  201.023
  253.840   80.491    0.498    0.322   41.339  203.154
  254.090   75.637    0.488    0.314   41.364  204.640
  254.340   69.162    0.476    0.321   40.176  205.929
  254.590   62.432    0.472    0.338   39.732  205.976
  254.840   56.068    0.469    0.343   40.169  206.023
  255.090   51.286    0.476    0.331   41.250  205.874
  255.340   47.907    0.486    0.313   42.975  205.924
  255.590   44.597    0.480    0.311   46.174  207.002
  255.840   41.690    0.458    0.318   49.128  206.230
  256.090   39.326    0.447    0.341   51.968  205.483
  256.340   37.309    0.422    0.346   52.876  204.142
  256.590   35.063    0.401    0.348   51.967  202.600
  256.840   32.688    0.393    0.357   49.299  201.353
  257.090   30.262    0.401    0.380   44.539  200.844
  257.340   28.499    0.404    0.397   42.857  200.066
  257.590   27.082    0.403    0.385   42.419  199.330
  257.840   25.453    0.397    0.365   42.855  198.876
  258.090   24.026    0.389    0.359   45.108  198.522
  258.340   22.883    0.386    0.373   47.654  198.174
  258.590   21.710    0.393    0.387   46.126  197.592
  258.840   20.749    0.392    0.371   44.202  196.406
  259.090   20.298    0.385    0.379   38.373  196.052
  259.340   19.856    0.388    0.388   36.937  195.698
  259.590   19.424    0.388    0.390   36.965  195.346
  259.840   19.072    0.385    0.382   37.754  194.999
  260.090   18.926    0.392    0.365   40.834  195.080
  260.340   18.917    0.395    0.349   40.866  197.186
  260.590   18.774    0.391    0.357   40.211  199.618
  260.840   18.632    0.387    0.360   40.756  200.856
  261.090   18.491    0.383    0.363   41.124  201.496
  261.340   18.350    0.381    0.365   40.799  202.136
  261.590   18.182    0.386    0.360   39.936  203.552
  261.840   18.040    0.387    0.344   38.983  204.423
  262.090   17.775    0.382    0.338   39.011  204.862
  262.340   17.704    0.389    0.340   39.566  205.907
  262.590   17.697    0.392    0.345   39.713  206.750
  262.840   17.722    0.387    0.350   39.215  207.092
  263.090   17.973    0.391    0.355   38.836  206.734
  263.340   18.653    0.390    0.358   40.333  204.712
  263.590   20.739    0.386    0.357   41.060  203.178
  263.840   23.196    0.383    0.358   41.088  203.718
  264.090   26.103    0.370    0.361   40.764  203.766
  264.340   29.655    0.345    0.355   40.031  203.023
  264.590   35.237    0.303    0.286   38.181  203.310
  264.840   40.692    0.282    0.149   36.993  202.528
  265.090   47.169    0.193    0.115   39.595  202.575
  265.340   46.745    0.207    0.122   43.605  203.221
  265.590   40.281    0.272    0.199   48.318  203.668
  265.840   32.752    0.344    0.314   53.266  203.714
  266.090   25.062    0.385    0.373   58.855  203.766
  266.340   18.229    0.400    0.374   62.062  203.815
  266.590   17.319    0.404    0.367   64.433  203.858
  266.840   17.009    0.410    0.351   66.450  203.606
  267.090   16.942    0.413    0.338   68.115  203.261
  267.340   17.056    0.417    0.337   68.668  203.116
  267.590   17.625    0.428    0.352   65.081  203.977
  267.840   18.020    0.415    0.374   57.544  206.088
  268.090   17.882    0.404    0.369   56.875  208.520
  268.340   16.983    0.418    0.381   58.306  207.974
  268.590   15.551    0.428    0.386   61.142  206.436
  268.840   13.851    0.432    0.375   64.625  205.096
  269.090   11.658    0.457    0.345   68.721  204.517
  269.340    9.839    0.465    0.289   72.657  205.397
  269.590    7.941    0.469    0.261   75.965  205.841
  269.840    7.492    0.504    0.285   79.095  207.472
  270.090    7.568    0.536    0.311   82.050  209.302
  270.340    7.843    0.541    0.316   84.011  210.045
  270.590    8.211    0.501    0.301   82.317  208.122
  270.840    8.651    0.479    0.292   77.221  208.166
  271.090    9.028    0.469    0.289   73.740  208.223
  271.340    9.223    0.481    0.263   74.117  207.971
  271.590    9.387    0.506    0.241   76.251  207.813
  271.840    9.571    0.536    0.237   78.038  207.754
  272.090    9.508    0.560    0.269   77.073  207.332
  272.340    8.631    0.528    0.301   75.635  206.968
  272.590    6.759    0.492    0.305   78.010  207.019
  272.840    5.534    0.469    0.301   83.018  207.362
  273.090    4.756    0.461    0.298   87.964  208.797
  273.340    4.310    0.472    0.296   92.793  211.921
  273.590    4.163    0.511    0.288  100.919  220.272
  273.840    4.192    0.576    0.298  105.097  236.030
  274.090    4.374    0.591    0.305  105.125  236.077
  274.340    4.686    0.587    0.315  103.220  223.331
  274.590    5.256    0.572    0.317   98.796  210.681
  274.840    6.166    0.552    0.316   92.146  204.873
  275.090    7.520    0.528    0.324   82.982  207.509
  275.340    9.311    0.506    0.308   75.690  212.517
  275.590    9.716    0.489    0.320   69.861  218.912
  275.840    9.555    0.465    0.342   63.152  224.417
  276.090    9.451    0.453    0.369   59.195  225.855
  276.340    9.652    0.470    0.420   59.223  223.719
  276.590   10.221    0.538    0.545   62.068  222.847
  276.840   11.018    0.591    0.562   62.097  226.207
  277.090   12.165    0.565    0.542   63.065  230.217
  277.340   13.855    0.485    0.494   62.625  230.960
  277.590   15.840    0.418    0.436   61.132  228.627
  277.840   17.795    0.390    0.391   59.580  225.004
  278.090   19.550    0.382    0.393   59.415  223.316
  278.340   19.542    0.402    0.404   58.465  222.529
  278.590   18.841    0.454    0.402   57.324  219.402
  278.840   17.769    0.506    0.385   56.353  216.868
  279.090   16.711    0.556    0.400   54.505  214.733
  279.340   15.980    0.589    0.459   52.602  213.295
  279.590   15.974    0.572    0.541   54.070  212.603
  279.840   16.579    0.537    0.518   57.757  208.933
  280.090   18.178    0.490    0.475   63.408  207.790
