~VERSION INFORMATION
 VERS.                 2.0:   CWLS LOG ASCII STANDARD -VERSION 2.0
 WRAP.                  NO:   ONE LINE PER DEPTH STEP
~WELL INFORMATION BLOCK
#MNEM.UNIT           DATA                    DESCRIPTION OF MNEMONIC
#---------    -------------------            -------------------------------
# Generated from Intellog Unique Number	CW_82_90/WELL/3450
WELL.         SHERRITT LIEGE 11-18           : Well_name    - WELL
LOC .         00/11-18-090-22W4/0            : Location     - LOCATION
UWI .         00/11-18-090-22W4/0            : Uwi          - UNIQUE WELL ID
ENTR.         JJ                             : Entered      - ENTERED BY
SRVC.         WESTERN ATLAS                  : Scn          - SERVICE COMPANY
DATE.         4 FEB 89                       : Date         - LOG DATE
STRT.M        80                             : top_depth    - START DEPTH
STOP.M        240                            : bot_depth    - STOP DEPTH
STEP.M        0.25                           : increment    - STEP LENGTH
 NULL. -999.2500:NULL Value
~CURVE INFORMATION BLOCK
#MNEM UNIT       ERCB CURVE CODE    CURVE DESCRIPTION
#-----------   ------------------   ----------------------------------
DEPT.M        00 001 00 00         : DEPTH        - DEPTH
DPHI.V/V      00 890 00 00         : PHID         - DENSITY POROSITY (SANDSTONE)
NPHI.V/V      00 330 00 00         : PHIN         - NEUTRON POROSITY (SANDSTONE)
GR  .API      00 310 00 00         : GR           - GAMMA RAY
CALI.MM       00 280 01 00         : CAL          - CALIPER
ILD .OHMM     00 120 00 00         : RESD         - DEEP RESISTIVITY (DIL)
~PARAMETER INFORMATION
#MNEM.UNIT           DATA             DESCRIPTION OF MNEMONIC
#---------         -----------     ------------------------------
GL  .M        510                  : gl           - GROUND LEVEL ELEVATION
EREF.M        513.9                : kb           - ELEVATION OF DEPTH REFERENCE
DATM.M        513.9                : datum        - DATUM ELEVATION
TDD .M        240                  : tdd          - TOTAL DEPTH DRILLER
RUN .         ONE                  : Run          - RUN NUMBER
ENG .         SMYTHE               : Engineer     - RECORDING ENGINEER
WIT .         WILLIAMS             : Witness      - WITNESSED BY
BASE.         MED HAT              : Branch       - HOME BASE OF LOGGING UNIT
MUD .         GEL CAUSTIC          : Mud_type     - MUD TYPE
MATR.         SANDSTONE            : Logunit      - NEUTRON MATRIX
TMAX.C        16                   : BHT          - MAXIMUM RECORDED TEMPERATURE
BHTD.M        239.7                : BHTDEP       - MAXIMUM RECORDED TEMPERATURE
RMT .C        15                   : MDTP         - TEMPERATURE OF MUD
MUDD.KG/M     1130                 : MWT          - MUD DENSITY
NEUT.         1                    : NEUTRON      - NEUTRON TYPE
RESI.         0                    : RESIST       - RESISTIVITY TYPE
RM  .OHMM     4.5                  : RM           - RESISTIVITY OF MUD
RMC .OHMM     3.9                  : RMC          - RESISTIVITY OF MUD CAKE
RMF .OHMM     0                    : RMF          - RESISTIVITY OF MUD FILTRATE
SUFT.C        5                    : SUFT         - SURFACE TEMPERATURE
~A  DEPTH     PHID     PHIN       GR      CAL     RESD
# ...
  189.500    0.264    0.378   89.810  165.505   10.032
  189.750    0.336    0.389   77.862  163.665   10.225
  190.000    0.336    0.383   67.132  162.233   10.063
  190.250    0.305    0.369   86.073  160.598    9.211
  190.500    0.281    0.376   92.221  159.775    8.370
  190.750    0.251    0.378   96.357  160.067    8.130
  191.000    0.236    0.365   96.167  161.985    8.811
  191.250    0.236    0.350   96.891  164.209    9.709
  191.500    0.212    0.343   98.286  166.838   10.213
  191.750    0.212    0.362  100.961  169.872   10.744
  192.000    0.243    0.353   96.262  170.776   11.075
  192.250    0.243    0.340   92.296  170.661   11.225
  192.500    0.246    0.331   87.659  171.262   10.508
  192.750    0.239    0.347   94.049  172.468    9.835
  193.000    0.228    0.364   97.333  174.183    9.553
  193.250    0.223    0.371  100.311  175.899    9.595
  193.500    0.221    0.378   99.940  177.410    9.945
  193.750    0.225    0.380   94.937  176.079   10.579
  194.000    0.201    0.359   89.569  173.327   10.985
  194.250    0.180    0.344   85.298  170.067   11.428
  194.500    0.196    0.335   86.448  168.227   11.436
  194.750    0.204    0.345   90.036  169.638   10.986
  195.000    0.221    0.358   98.072  173.282   10.436
  195.250    0.223    0.361  104.035  174.488    9.914
  195.500    0.227    0.359  107.075  174.580    9.757
  195.750    0.232    0.347  108.348  174.062    9.816
  196.000    0.224    0.337  103.102  174.149    9.535
  196.250    0.215    0.337   97.246  174.953    9.008
  196.500    0.215    0.370  101.382  176.870    8.527
  196.750    0.237    0.379  110.454  178.787    8.161
  197.000    0.237    0.373  104.416  179.590    8.075
  197.250    0.209    0.377  107.211  179.985    8.324
  197.500    0.237    0.396  107.327  177.232    8.954
  197.750    0.261    0.378   97.816  173.161    9.684
  198.000    0.258    0.348   96.895  168.174   10.851
  198.250    0.260    0.345   93.902  165.726   12.023
  198.500    0.259    0.338   94.323  164.901   13.774
  198.750    0.204    0.300   93.280  164.788   15.985
  199.000    0.044    0.262   87.303  165.589   18.656
  199.250    0.076    0.229   83.458  166.189   21.137
  199.500    0.213    0.248   89.361  166.482   21.269
  199.750    0.260    0.305   94.351  167.080   18.898
  200.000    0.260    0.319   93.674  168.896   14.832
  200.250    0.249    0.313   91.960  172.237   13.330
  200.500    0.250    0.315   95.244  177.808   12.592
  200.750    0.245    0.328  100.599  179.933   12.052
  201.000    0.249    0.330  106.015  178.701   11.685
  201.250    0.238    0.328  107.592  175.745   11.542
  201.500    0.230    0.324  107.707  173.197   11.636
  201.750    0.236    0.318  122.810  170.038   11.774
  202.000    0.237    0.317  144.493  167.182   11.713
  202.250    0.235    0.331  158.621  166.056   11.148
  202.500    0.226    0.344  152.949  167.362   10.018
  202.750    0.229    0.353  113.340  169.080    8.903
  203.000    0.236    0.355  110.774  173.231    7.709
  203.250    0.231    0.344  107.478  175.861    8.065
  203.500    0.204    0.326  107.593  174.326    9.768
  203.750    0.131    0.319   95.401  170.557   10.507
  204.000    0.114    0.301   91.069  167.805   10.670
  204.250    0.210    0.352   96.788  165.458   10.231
  204.500    0.229    0.371   95.686  163.620    9.576
  204.750    0.247    0.382   90.074  161.881    9.618
  205.000    0.305    0.400   97.439  160.651    7.009
  205.250    0.305    0.435  107.181  159.726    3.422
  205.500    0.262    0.426  115.826  159.411    3.450
  205.750    0.251    0.384  114.783  160.212    4.102
  206.000    0.247    0.366  108.258  161.724    4.904
  206.250    0.246    0.361  101.305  164.964    6.565
  206.500    0.242    0.357  104.101  168.609    7.995
  206.750    0.231    0.342   97.088  168.698    9.665
  207.000    0.201    0.337   91.842  165.843   10.475
  207.250    0.201    0.384   93.662  165.325   10.403
  207.500    0.232    0.395   94.448  166.836   10.012
  207.750    0.235    0.399   94.807  167.942   10.037
  208.000    0.201    0.386   93.400  168.339   10.269
  208.250    0.131    0.341   83.158  169.037   10.352
  208.500    0.160    0.359   92.899  170.042    9.963
  208.750    0.218    0.370  100.203  171.249    9.571
  209.000    0.230    0.371   93.251  173.067    9.210
  209.250    0.230    0.376   98.057  174.173    9.131
  209.500    0.223    0.380  102.498  174.466    9.466
  209.750    0.223    0.371  103.222  174.455    9.810
  210.000    0.239    0.369  106.689  174.239   10.770
  210.250    0.242    0.368  110.460  173.519   11.648
  210.500    0.138    0.341  103.995  171.778   12.955
  210.750    0.049    0.313   91.864  171.058   13.988
  211.000    0.158    0.263   91.492  170.236   14.283
  211.250    0.221    0.309  102.086  169.207   14.240
  211.500    0.259    0.365  104.455  168.386   13.987
  211.750    0.259    0.374  101.463  167.563   13.995
  212.000    0.268    0.369   98.959  167.563   14.346
  212.250    0.267    0.357   99.013  166.218   14.953
  212.500    0.261    0.338   97.971  166.312   15.584
  212.750    0.246    0.310   92.419  166.441   17.428
  213.000    0.168    0.288   95.582  166.593   20.491
  213.250    0.130    0.276   94.783  166.582   26.190
  213.500    0.101    0.257   86.003  166.159   32.554
  213.750    0.079    0.229   77.770  165.544   41.990
  214.000    0.066    0.203   71.489  165.024   52.875
  214.250    0.070    0.207   67.827  164.404   51.552
  214.500    0.070    0.233   74.764  163.681   38.629
  214.750    0.203    0.266   77.623  163.469   27.381
  215.000    0.203    0.291   84.135  163.660   20.365
  215.250    0.249    0.314   88.939  163.651   14.300
  215.500    0.249    0.327   91.128  163.335   12.922
  215.750    0.278    0.338   94.533  163.322   13.394
  216.000    0.272    0.331   91.846  163.322   16.773
  216.250    0.245    0.295   81.360  163.296   22.329
  216.500    0.062    0.254   67.888  163.694   26.894
  216.750    0.017    0.221   69.893  164.591   26.222
  217.000    0.165    0.248   88.590  164.589   18.897
  217.250    0.189    0.278   97.662  165.084   13.369
  217.500    0.216    0.308   99.056  167.098   12.352
  217.750    0.181    0.326   97.283  167.397   12.044
  218.000    0.194    0.339  103.125  167.485   11.939
  218.250    0.212    0.347  105.433  167.485   12.103
  218.500    0.196    0.354   99.578  166.550   12.614
  218.750    0.135    0.355   95.550  165.728   13.671
  219.000    0.121    0.335   95.056  164.800   14.221
  219.250    0.196    0.332   96.206  164.894   14.258
  219.500    0.198    0.330   93.336  165.999   13.978
  219.750    0.210    0.324  103.139  167.815   13.378
  220.000    0.220    0.337  107.640  170.437   12.545
  220.250    0.211    0.344  105.502  170.637   11.420
  220.500    0.211    0.346  111.771  170.932   10.493
  220.750    0.218    0.354  116.149  170.616   10.193
  221.000    0.225    0.364  113.463  170.300   10.370
  221.250    0.224    0.373  105.719  169.273   10.850
  221.500    0.177    0.377   96.390  165.303   11.038
  221.750    0.126    0.343   92.058  162.446   10.663
  222.000    0.126    0.329   95.036  162.843    9.582
  222.250    0.156    0.348   99.966  165.269    8.903
  222.500    0.209    0.347  107.879  168.202    8.552
  222.750    0.205    0.340  111.649  168.395    8.385
  223.000    0.208    0.354  109.326  167.773    8.390
  223.250    0.208    0.355  105.788  166.138    8.521
  223.500    0.141    0.351   99.079  163.588    8.783
  223.750    0.099    0.343   98.463  166.523    9.035
  224.000    0.163    0.343  106.986  170.472    9.576
  224.250    0.176    0.345  107.101  167.515    9.907
  224.500    0.173    0.332   98.199  165.779   10.173
  224.750    0.157    0.329  101.910  166.173   10.525
  225.000    0.193    0.343  110.371  167.888   10.789
  225.250    0.207    0.340  110.791  165.338   11.350
  225.500    0.187    0.334  105.850  164.211   12.553
  225.750    0.081    0.348  102.735  164.199   13.377
