~VERSION INFORMATION
 VERS.                 2.0:   CWLS LOG ASCII STANDARD -VERSION 2.0
 WRAP.                  NO:   ONE LINE PER DEPTH STEP
~WELL INFORMATION BLOCK
#MNEM.UNIT           DATA                    DESCRIPTION OF MNEMONIC
#---------    -------------------            -------------------------------
# Generated from Intellog Unique Number	CS_67_68/WELL/804
WELL.         DOME PETROLEUM LIMITED         : Well_name    - WELL
LOC .         00/10-08-068-02W4/0            : Location     - LOCATION
UWI .         00/10-08-068-02W4/0            : Uwi          - UNIQUE WELL ID
ENTR.         SP                             : Entered      - ENTERED BY
SRVC.         SCHLUMBERGER                   : Scn          - SERVICE COMPANY
STRT.M        410                            : top_depth    - START DEPTH
STOP.M        665                            : bot_depth    - STOP DEPTH
STEP.M        0.25                           : increment    - STEP LENGTH
 NULL. -999.2500:NULL Value
~CURVE INFORMATION BLOCK
#MNEM UNIT       ERCB CURVE CODE    CURVE DESCRIPTION
#-----------   ------------------   ----------------------------------
DEPT.M        00 001 00 00         : DEPTH        - DEPTH
ILD .OHMM     00 120 00 00         : RESD         - DEEP RESISTIVITY (DIL)
DPHI.V/V      00 890 00 00         : PHID         - DENSITY POROSITY (LIMESTONE)
NPHI.V/V      00 330 00 00         : PHIN         - NEUTRON POROSITY (LIMESTONE)
GR  .API      00 310 00 00         : GR           - GAMMA RAY
~PARAMETER INFORMATION
#MNEM.UNIT           DATA             DESCRIPTION OF MNEMONIC
#---------         -----------     ------------------------------
GL  .M        743.94               : gl           - GROUND LEVEL ELEVATION
EREF.M        746.86               : kb           - ELEVATION OF DEPTH REFERENCE
DATM.M        743.94               : datum        - DATUM ELEVATION
TDD .M        667                  : tdd          - TOTAL DEPTH DRILLER
RUN .         ONE                  : Run          - RUN NUMBER
ENG .         BILL                 : Engineer     - RECORDING ENGINEER
WIT .         JIM                  : Witness      - WITNESSED BY
MUD .         GEL                  : Mud_type     - MUD TYPE
MATR.         LIMESTONE            : Logunit      - NEUTRON MATRIX
TMAX.C        31                   : BHT          - MAXIMUM RECORDED TEMPERATURE
BHTD.M        667                  : BHTDEP       - MAXIMUM RECORDED TEMPERATURE
MATR.         1                    : LOGUNIT      - NEUTRON MATRIX
RMT .C        25                   : MDTP         - TEMPERATURE OF MUD
NEUT.         1                    : NEUTRON      - NEUTRON TYPE
RESI.         0                    : RESIST       - RESISTIVITY TYPE
RMC .OHMM     0.25                 : RMC          - RESISTIVITY OF MUD CAKE
RMF .OHMM     0.25                 : RMF          - RESISTIVITY OF MUD FILTRATE
SUFT.C        15                   : SUFT         - SURFACE TEMPERATURE
~A  DEPTH     RESD     PHID     PHIN       GR
  410.000    3.160    0.265    0.483  114.278
  410.250    3.189    0.254    0.492  116.230
  410.500    3.236    0.256    0.499  119.702
  410.750    3.277    0.259    0.501  117.708
  411.000    3.344    0.266    0.501  115.166
  411.250    3.437    0.272    0.480  115.904
  411.500    3.560    0.278    0.474  116.097
  411.750    3.619    0.269    0.466  115.803
  412.000    3.618    0.261    0.459  114.597
  412.250    3.543    0.259    0.455  111.873
  412.500    3.438    0.253    0.459  110.485
  412.750    3.348    0.240    0.469  108.977
  413.000    3.243    0.226    0.484  113.725
  413.250    3.158    0.253    0.490  118.049
  413.500    3.133    0.266    0.485  120.245
  413.750    3.132    0.259    0.484  121.591
  414.000    3.166    0.255    0.482  115.283
  414.250    3.213    0.252    0.471  110.494
  414.500    3.260    0.251    0.479  110.444
  414.750    3.228    0.250    0.491  112.275
  415.000    3.191    0.248    0.482  114.715
  415.250    3.167    0.246    0.474  116.608
  415.500    3.189    0.249    0.479  117.893
  415.750    3.260    0.254    0.488  116.870
  416.000    3.377    0.253    0.490  111.898
  416.250    3.523    0.249    0.485  104.740
  416.500    3.622    0.239    0.439  102.561
  416.750    3.696    0.223    0.442  115.754
  417.000    3.695    0.213    0.447  128.825
  417.250    3.565    0.232    0.435  132.784
  417.500    3.485    0.243    0.429  120.402
  417.750    3.381    0.245    0.444  114.092
  418.000    3.244    0.256    0.466  111.308
  418.250    3.213    0.261    0.480  110.528
  418.500    3.217    0.259    0.488  109.625
  418.750    3.289    0.256    0.494  108.605
  419.000    3.623    0.251    0.490  104.846
  419.250    4.181    0.235    0.444   94.163
  419.500    5.247    0.208    0.383   85.910
  419.750    6.586    0.198    0.371   82.943
  420.000    7.904    0.214    0.369   84.897
  420.250    8.936    0.225    0.383   85.637
  420.500    9.325    0.226    0.393   83.397
  420.750    9.443    0.226    0.365   83.225
  421.000    9.318    0.227    0.358   86.820
  421.250    9.091    0.228    0.367   89.200
  421.500    9.122    0.233    0.370   90.119
  421.750    9.413    0.242    0.366   88.246
  422.000    9.713    0.253    0.363   82.423
  422.250   10.116    0.263    0.364   75.082
  422.500   10.536    0.271    0.362   69.806
  422.750   10.891    0.279    0.342   66.657
  423.000   11.072    0.267    0.336   74.869
  423.250   10.965    0.224    0.348   81.986
  423.500   10.659    0.219    0.359   89.349
  423.750   10.113    0.220    0.366   90.754
  424.000    9.831    0.249    0.372   72.781
  424.250   10.106    0.275    0.360   62.584
  424.500   10.009    0.296    0.347   54.696
  424.750    9.355    0.279    0.370   60.538
  425.000    8.664    0.266    0.387   68.023
  425.250    7.744    0.254    0.392   73.437
  425.500    7.118    0.277    0.391   78.793
  425.750    6.804    0.295    0.396   79.532
  426.000    6.626    0.310    0.407   76.018
  426.250    6.798    0.320    0.416   69.103
  426.500    7.081    0.298    0.414   65.770
  426.750    7.472    0.287    0.407   61.044
  427.000    7.826    0.289    0.414   58.926
  427.250    8.030    0.308    0.396   57.477
  427.500    7.748    0.324    0.387   56.757
  427.750    7.175    0.336    0.381   61.809
  428.000    6.745    0.346    0.404   80.045
  428.250    6.617    0.339    0.486   90.443
  428.500    6.652    0.342    0.493   90.697
  428.750    6.788    0.344    0.462   79.832
  429.000    7.149    0.321    0.428   78.747
  429.250    7.227    0.306    0.417   86.169
  429.500    7.131    0.286    0.420   87.028
  429.750    6.996    0.262    0.423   93.601
  430.000    6.968    0.248    0.412   96.404
  430.250    7.005    0.238    0.398   93.254
  430.500    7.068    0.251    0.404   89.437
  430.750    7.171    0.263    0.419   95.948
  431.000    7.290    0.253    0.424   96.322
  431.250    7.398    0.247    0.428  101.556
  431.500    7.577    0.260    0.434  105.577
  431.750    7.731    0.281    0.435  108.441
  432.000    7.830    0.288    0.417  106.324
  432.250    7.959    0.286    0.403   96.006
  432.500    8.106    0.278    0.388   90.548
  432.750    8.272    0.257    0.402   87.581
  433.000    8.393    0.250    0.409   96.036
  433.250    8.453    0.255    0.401   90.213
  433.500    8.513    0.248    0.398   89.799
  433.750    8.718    0.241    0.401   93.271
  434.000    8.814    0.239    0.407   95.163
  434.250    8.876    0.240    0.404   96.327
  434.500    8.874    0.238    0.398   96.763
  434.750    8.756    0.233    0.392   98.290
  435.000    8.623    0.241    0.391  103.707
  435.250    8.588    0.270    0.399  110.643
  435.500    8.779    0.286    0.405  115.027
  435.750    8.991    0.296    0.410  117.892
  436.000    9.022    0.309    0.413  120.029
  436.250    8.754    0.313    0.420  122.833
  436.500    7.986    0.306    0.431  127.157
  436.750    6.851    0.280    0.443  129.838
  437.000    6.124    0.254    0.456  131.367
  437.250    5.597    0.236    0.455  130.832
  437.500    5.031    0.230    0.455  130.232
  437.750    4.729    0.235    0.469  128.602
  438.000    4.631    0.242    0.487  130.859
  438.250    4.587    0.267    0.504  102.315
  438.500    5.363    0.322    0.438   78.571
  438.750    6.557    0.349    0.416   55.798
  439.000    7.414    0.362    0.394   52.648
  439.250    8.382    0.368    0.376   56.124
  439.500    8.977    0.360    0.369   59.171
  439.750    9.264    0.351    0.393   63.858
  440.000    9.364    0.341    0.393   68.119
  440.250    9.171    0.333    0.379   73.779
  440.500    9.116    0.326    0.368   78.527
  440.750    9.131    0.318    0.375   71.125
  441.000    9.178    0.310    0.389   64.877
  441.250    9.192    0.305    0.395   72.724
  441.500    9.240    0.301    0.409   79.298
  441.750    9.535    0.297    0.423   81.856
  442.000   10.213    0.295    0.412   81.198
  442.250   10.938    0.293    0.406   75.132
  442.500   12.023    0.294    0.407   72.288
  442.750   12.111    0.290    0.411   71.022
  443.000   12.107    0.290    0.415   71.516
  443.250   12.013    0.292    0.436   76.873
  443.500   11.853    0.288    0.459   80.892
  443.750   11.522    0.277    0.436   82.543
  444.000   10.789    0.272    0.435   84.982
  444.250   10.334    0.274    0.449   89.733
  444.500    9.749    0.284    0.466   92.596
  444.750    9.337    0.286    0.470   95.644
  445.000    9.075    0.286    0.442   97.477
  445.250    9.056    0.284    0.433   98.517
  445.500    9.137    0.279    0.435   97.009
  445.750    9.169    0.270    0.440   95.013
  446.000    9.199    0.241    0.438   92.655
  446.250    9.231    0.220    0.430   91.813
  446.500    9.176    0.264    0.425   91.217
  446.750    9.121    0.272    0.430   90.313
  447.000    9.050    0.278    0.422   86.921
  447.250    9.012    0.285    0.400   81.099
  447.500    9.026    0.295    0.382   80.379
  447.750    9.091    0.293    0.371   82.272
  448.000    9.157    0.277    0.370   80.763
  448.250    9.291    0.274    0.388   74.942
  448.500    9.445    0.308    0.407   70.151
  448.750    9.565    0.325    0.411   64.085
  449.000    9.724    0.336    0.396   59.114
  449.250    9.978    0.342    0.390   58.880
  449.500   10.181    0.344    0.386   64.540
  449.750   10.216    0.336    0.385   68.802
  450.000   10.136    0.329    0.378   73.065
  450.250    9.816    0.323    0.377   76.963
  450.500    9.667    0.317    0.380   79.827
  450.750    9.736    0.311    0.393   83.726
  451.000    9.861    0.303    0.402   87.624
  451.250    9.950    0.305    0.412   89.396
  451.500   10.002    0.307    0.420   88.432
  451.750   10.055    0.313    0.418   88.746
  452.000    9.829    0.298    0.403   92.523
  452.250    9.308    0.279    0.392   97.394
  452.500    8.572    0.266    0.412  102.202
  452.750    8.087    0.264    0.419  106.464
  453.000    7.950    0.276    0.423  101.674
  453.250    8.112    0.284    0.438   99.620
