~VERSION INFORMATION
 VERS.                 2.0:   CWLS LOG ASCII STANDARD -VERSION 2.0
 WRAP.                  NO:   ONE LINE PER DEPTH STEP
~WELL INFORMATION BLOCK
#MNEM.UNIT           DATA                    DESCRIPTION OF MNEMONIC
#---------    -------------------            -------------------------------
# Generated from Intellog Unique Number	CW_76_78/WELL/3588
WELL.         MARK RESOURCES INC.            : Well_name    - WELL
LOC .         00/14-03-077-19W4/0            : Location     - LOCATION
UWI .         00/14-03-077-19W4/0            : Uwi          - UNIQUE WELL ID
ENTR.         JOETTE                         : Entered      - ENTERED BY
SRVC.         SCHLUMBERGER                   : Scn          - SERVICE COMPANY
DATE.         08/26/92                       : Date         - LOG DATE
STRT.M        210                            : top_depth    - START DEPTH
STOP.M        455                            : bot_depth    - STOP DEPTH
STEP.M        0.25                           : increment    - STEP LENGTH
 NULL. -999.2500:NULL Value
~CURVE INFORMATION BLOCK
#MNEM UNIT       ERCB CURVE CODE    CURVE DESCRIPTION
#-----------   ------------------   ----------------------------------
DEPT.M        00 001 00 00         : DEPTH        - DEPTH
GR  .API      00 310 00 00         : GR           - GAMMA RAY
NPHI.V/V      00 330 00 00         : PHIN         - NEUTRON POROSITY (SANDSTONE)
DPHI.V/V      00 890 00 00         : PHID         - DENSITY POROSITY (SANDSTONE)
ILD .OHMM     00 120 00 00         : RESD         - DEEP RESISTIVITY (DIL)
~PARAMETER INFORMATION
#MNEM.UNIT           DATA             DESCRIPTION OF MNEMONIC
#---------         -----------     ------------------------------
GL  .M        561                  : gl           - GROUND LEVEL ELEVATION
EREF.M        564.3                : kb           - ELEVATION OF DEPTH REFERENCE
DATM.M        564.3                : datum        - DATUM ELEVATION
TDD .M        458                  : tdd          - TOTAL DEPTH DRILLER
RUN .         ONE                  : Run          - RUN NUMBER
ENG .         BILL                 : Engineer     - RECORDING ENGINEER
WIT .         JIM                  : Witness      - WITNESSED BY
MUD .         GEL                  : Mud_type     - MUD TYPE
MATR.         SANDSTONE            : Logunit      - NEUTRON MATRIX
TMAX.C        28                   : BHT          - MAXIMUM RECORDED TEMPERATURE
BHTD.M        458                  : BHTDEP       - MAXIMUM RECORDED TEMPERATURE
MATR.         1                    : LOGUNIT      - NEUTRON MATRIX
RMT .C        21                   : MDTP         - TEMPERATURE OF MUD
NEUT.         1                    : NEUTRON      - NEUTRON TYPE
RESI.         0                    : RESIST       - RESISTIVITY TYPE
RMC .OHMM     4.75                 : RMC          - RESISTIVITY OF MUD CAKE
RMF .OHMM     4.75                 : RMF          - RESISTIVITY OF MUD FILTRATE
SUFT.C        15                   : SUFT         - SURFACE TEMPERATURE
~A  DEPTH       GR     PHIN     PHID     RESD
# ...
  340.500   62.455    0.294    0.158   16.366
  340.750   63.065    0.317    0.310   14.929
  341.000   59.535    0.448    0.311   13.618
  341.250   56.005    0.449    0.303   11.540
  341.500   58.404    0.461    0.293    9.961
  341.750   64.950    0.473    0.290    8.136
  342.000   67.343    0.466    0.290    6.895
  342.250   66.183    0.457    0.288    6.290
  342.500   65.016    0.453    0.277    6.064
  342.750   64.454    0.458    0.266    5.956
  343.000   67.439    0.471    0.238    5.849
  343.250   72.789    0.475    0.247    5.744
  343.500   71.628    0.475    0.259    5.745
  343.750   67.505    0.471    0.262    5.748
  344.000   65.160    0.464    0.262    5.749
  344.250   66.973    0.448    0.259    5.751
  344.500   68.170    0.434    0.254    5.753
  344.750   69.971    0.430    0.256    5.972
  345.000   74.740    0.437    0.263    6.086
  345.250   72.394    0.448    0.262    5.976
  345.500   66.501    0.446    0.261    5.978
  345.750   62.378    0.439    0.259    5.871
  346.000   62.988    0.437    0.267    5.874
  346.250   67.751    0.432    0.281    5.875
  346.500   67.775    0.424    0.290    6.098
  346.750   64.837    0.422    0.294    6.447
  347.000   62.492    0.425    0.300    6.816
  347.250   59.554    0.433    0.304    6.945
  347.500   56.616    0.444    0.303    7.077
  347.750   53.685    0.460    0.294    7.079
  348.000   52.530    0.466    0.254    7.082
  348.250   52.542    0.438    0.232    7.217
  348.500   54.947    0.427    0.238    7.489
  348.750   56.144    0.389    0.264    8.066
  349.000   59.722    0.394    0.275    8.848
  349.250   55.600    0.392    0.283    9.527
  349.500   50.298    0.404    0.244    9.709
  349.750   51.507    0.405    0.202    9.711
  350.000   50.346    0.349    0.171    9.715
  350.250   46.816    0.318    0.134    9.900
  350.500   43.872    0.234    0.079   10.860
  350.750   45.081    0.262    0.228   11.482
  351.000   51.029    0.336    0.285   11.487
  351.250   56.982    0.437    0.283   11.279
  351.500   65.892    0.436    0.281   10.677
  351.750   63.546    0.435    0.286   10.106
  352.000   60.608    0.435    0.313    9.390
  352.250   57.084    0.438    0.313    8.566
  352.500   57.700    0.436    0.302    7.532
  352.750   60.686    0.427    0.275    7.263
  353.000   63.672    0.419    0.268    7.264
  353.250   61.321    0.413    0.262    7.540
  353.500   58.383    0.419    0.256    7.972
  353.750   56.043    0.428    0.259    8.428
  354.000   58.431    0.431    0.256    8.909
  354.250   62.601    0.426    0.246    9.596
  354.500   65.587    0.412    0.253    9.777
  354.750   61.471    0.414    0.280    9.780
  355.000   59.119    0.430    0.275    9.257
  355.250   60.328    0.422    0.253    8.446
  355.500   65.695    0.411    0.229    8.142
  355.750   65.719    0.398    0.225    7.852
  356.000   62.183    0.399    0.225    8.000
  356.250   62.799    0.411    0.232    8.302
  356.500   65.785    0.421    0.235    8.942
  356.750   67.000    0.429    0.221    9.110
  357.000   65.241    0.416    0.198    9.457
  357.250   59.939    0.325    0.173    9.635
  357.500   59.371    0.304    0.143   10.967
  357.750   61.764    0.365    0.133   11.174
  358.000   64.744    0.397    0.165   11.179
  358.250   67.138    0.406    0.186   10.778
  358.500   70.123    0.403    0.198   10.390
  358.750   71.344    0.407    0.206    9.137
  359.000   71.356    0.418    0.214    8.648
  359.250   71.972    0.414    0.211    8.338
  359.500   74.964    0.403    0.201    8.188
  359.750   78.542    0.378    0.198    8.191
  360.000   78.566    0.384    0.202    8.346
  360.250   74.444    0.407    0.207    8.349
  360.500   72.691    0.415    0.210    8.200
  360.750   81.008    0.428    0.202    8.055
  361.000   83.401    0.420    0.195    8.056
  361.250   84.616    0.400    0.184    7.912
  361.500   81.086    0.443    0.164    7.627
  361.750   77.556    0.444    0.149    7.354
  362.000   81.128    0.421    0.149    7.222
  362.250   88.266    0.413    0.168    7.359
  362.500   90.659    0.398    0.178    7.361
  362.750   90.085    0.389    0.189    7.365
  363.000   87.740    0.396    0.203    7.366
  363.250   93.693    0.410    0.209    7.507
  363.500  100.825    0.406    0.203    7.509
  363.750   97.295    0.376    0.198    7.793
  364.000   93.173    0.368    0.194    8.090
  364.250   90.241    0.365    0.197    8.396
  364.500   87.309    0.370    0.194    8.715
  364.750   85.550    0.382    0.190    9.214
  365.000   83.791    0.396    0.191    9.563
  365.250   81.452    0.402    0.187    9.925
  365.500   83.259    0.371    0.156   10.493
  365.750   80.907    0.328    0.123   10.892
  366.000   76.186    0.314    0.107   11.517
  366.250   75.026    0.312    0.107   11.519
  366.500   81.566    0.369    0.136   11.522
  366.750   87.519    0.378    0.152   11.527
  367.000   84.581    0.394    0.156   11.320
  367.250   85.198    0.367    0.158   10.915
  367.500   86.999    0.377    0.155   10.918
  367.750   88.213    0.376    0.153   10.922
  368.000   86.454    0.342    0.155   10.925
  368.250   78.179    0.330    0.157   11.135
  368.500   71.693    0.331    0.149   11.138
  368.750   74.673    0.345    0.151   10.937
  369.000   82.996    0.361    0.165   10.940
  369.250   87.765    0.371    0.186   10.356
  369.500   85.414    0.381    0.186    9.985
  369.750   83.660    0.393    0.179    9.451
  370.000   84.277    0.410    0.166    9.112
  370.250   86.090    0.418    0.166    8.624
  370.500   86.694    0.413    0.167    8.317
  370.750   89.680    0.409    0.164    8.167
  371.000   92.079    0.409    0.161    8.169
  371.250   93.886    0.415    0.154    8.173
  371.500   93.904    0.412    0.128    8.175
  371.750   95.113    0.409    0.160    8.177
  372.000   95.143    0.412    0.177    8.181
  372.250   92.199    0.413    0.181    8.034
  372.500   89.848    0.409    0.151    8.037
  372.750   86.324    0.380    0.119    8.041
  373.000   79.234    0.346    0.095    7.895
  373.250   74.525    0.368    0.131    7.474
  373.500   81.064    0.380    0.169    6.694
  373.750   87.012    0.375    0.194    6.220
  374.000   88.227    0.377    0.218    5.369
  374.250   86.474    0.480    0.245    4.808
  374.500   88.275    0.521    0.273    4.150
  374.750   89.484    0.534    0.290    3.517
  375.000   88.921    0.537    0.283    2.926
  375.250   88.341    0.503    0.259    2.874
  375.500   87.772    0.448    0.232    2.982
  375.750   87.204    0.395    0.210    3.522
  376.000   78.343    0.378    0.203    3.935
  376.250   78.965    0.365    0.174    5.386
  376.500   81.358    0.350    0.138    5.694
  376.750   83.746    0.353    0.134    6.362
  377.000   87.330    0.358    0.150    6.978
  377.250   90.310    0.356    0.127    8.091
  377.500   80.856    0.349    0.101    8.875
  377.750   76.141    0.355    0.094    9.042
  378.000   70.834    0.380    0.084    8.881
  378.250   73.820    0.381    0.139    8.406
  378.500   81.550    0.380    0.178    7.811
  378.750   86.906    0.390    0.188    7.126
  379.000   91.668    0.398    0.189    6.500
  379.250   89.329    0.393    0.192    5.822
  379.500   86.391    0.407    0.194    5.410
  379.750   86.415    0.399    0.155    5.412
  380.000   85.841    0.393    0.142    5.723
  380.250   81.126    0.393    0.125    5.830
  380.500   72.270    0.376    0.110    6.279
  380.750   71.104    0.374    0.155    6.762
  381.000   73.497    0.392    0.176    7.018
  381.250   79.445    0.385    0.176    7.419
  381.500   85.985    0.376    0.171    7.701
  381.750   90.155    0.378    0.156    7.847
  382.000   94.930    0.405    0.157    7.995
  382.250   97.329    0.412    0.167    8.147
  382.500   98.532    0.405    0.180    8.301
  382.750  100.926    0.390    0.175    8.459
  383.000   99.178    0.360    0.168    8.779
  383.250   96.821    0.358    0.159    9.114
  383.500   96.851    0.358    0.132    9.285
  383.750   97.473    0.367    0.110    9.638
