~VERSION INFORMATION
 VERS.                 2.0:   CWLS LOG ASCII STANDARD -VERSION 2.0
 WRAP.                  NO:   ONE LINE PER DEPTH STEP
~WELL INFORMATION BLOCK
#MNEM.UNIT           DATA                    DESCRIPTION OF MNEMONIC
#---------    -------------------            -------------------------------
# Generated from Intellog Unique Number	CS_77_79/WELL/950
WELL.         AMOCO LEISMER                  : Well_name    - WELL
LOC .         00/10-12-079-08W4/0            : Location     - LOCATION
UWI .         00/10-12-079-08W4/0            : Uwi          - UNIQUE WELL ID
ENTR.         JHS                            : Entered      - ENTERED BY
SRVC.         SCHLUMBERGER                   : Scn          - SERVICE COMPANY
STRT.M        125                            : top_depth    - START DEPTH
STOP.M        350                            : bot_depth    - STOP DEPTH
STEP.M        0.25                           : increment    - STEP LENGTH
 NULL. -999.2500:NULL Value
~CURVE INFORMATION BLOCK
#MNEM UNIT       ERCB CURVE CODE    CURVE DESCRIPTION
#-----------   ------------------   ----------------------------------
DEPT.M        00 001 00 00         : DEPTH        - DEPTH
DPHI.V/V      00 890 00 00         : PHID         - DENSITY POROSITY (LIMESTONE)
NPHI.V/V      00 330 00 00         : PHIN         - NEUTRON POROSITY (LIMESTONE)
GR  .API      00 310 00 00         : GR           - GAMMA RAY
ILD .OHMM     00 120 00 00         : RESD         - DEEP RESISTIVITY (DIL)
RHOB.KG/M3    00 350 00 00         : DENS         - BULK DENSITY
~PARAMETER INFORMATION
#MNEM.UNIT           DATA             DESCRIPTION OF MNEMONIC
#---------         -----------     ------------------------------
GL  .M        568.82               : gl           - GROUND LEVEL ELEVATION
EREF.M        573                  : kb           - ELEVATION OF DEPTH REFERENCE
DATM.M        573                  : datum        - DATUM ELEVATION
TDD .M        355                  : tdd          - TOTAL DEPTH DRILLER
RUN .         ONE                  : Run          - RUN NUMBER
ENG .         BILL                 : Engineer     - RECORDING ENGINEER
WIT .         JIM                  : Witness      - WITNESSED BY
MUD .         GEL                  : Mud_type     - MUD TYPE
MATR.         LIMESTONE            : Logunit      - NEUTRON MATRIX
TMAX.C        23.5                 : BHT          - MAXIMUM RECORDED TEMPERATURE
BHTD.M        355                  : BHTDEP       - MAXIMUM RECORDED TEMPERATURE
MATR.         1                    : LOGUNIT      - NEUTRON MATRIX
RMT .C        25                   : MDTP         - TEMPERATURE OF MUD
NEUT.         1                    : NEUTRON      - NEUTRON TYPE
RESI.         0                    : RESIST       - RESISTIVITY TYPE
RMC .OHMM     0.25                 : RMC          - RESISTIVITY OF MUD CAKE
RMF .OHMM     0.25                 : RMF          - RESISTIVITY OF MUD FILTRATE
SUFT.C        15                   : SUFT         - SURFACE TEMPERATURE
~A  DEPTH     PHID     PHIN       GR     RESD     DENS
# ...
  161.500    0.305    0.439   42.446   29.676    0.000
  161.750    0.332    0.427   39.427   30.244    0.000
  162.000    0.368    0.415   37.011   29.158    0.000
  162.250    0.335    0.417   35.215   29.167    0.000
  162.500    0.318    0.433   36.438   30.855    0.000
  162.750    0.330    0.422   38.273   31.452    0.000
  163.000    0.303    0.407   45.577   30.885    0.000
  163.250    0.280    0.436   55.311   27.130    0.000
  163.500    0.306    0.472   64.438   21.719    0.000
  163.750    0.352    0.479   68.096   20.941    0.000
  164.000    0.342    0.480   68.115   21.742    0.000
  164.250    0.342    0.458   66.915   22.575    0.000
  164.500    0.347    0.469   67.539   23.006    0.000
  164.750    0.334    0.448   64.520   22.179    0.000
  165.000    0.337    0.445   63.320   21.778    0.000
  165.250    0.342    0.462   66.979   19.857    0.000
  165.500    0.332    0.477   71.245   18.105    0.000
  165.750    0.340    0.474   74.302   16.204    0.000
  166.000    0.304    0.449   80.993   14.773    0.000
  166.250    0.281    0.457   90.119   12.739    0.000
  166.500    0.258    0.492  102.889   10.390    0.000
  166.750    0.259    0.535  119.909    7.722    0.000
  167.000    0.243    0.552  127.213    6.912    0.000
  167.250    0.236    0.533  119.945    6.663    0.000
  167.500    0.237    0.512  116.922    6.666    0.000
  167.750    0.242    0.521  116.939    7.185    0.000
  168.000    0.238    0.540  118.776    7.321    0.000
  168.250    0.250    0.513  117.582    8.037    0.000
  168.500    0.269    0.517  116.378    9.504    0.000
  168.750    0.285    0.512  114.575   10.628    0.000
  169.000    0.299    0.493  108.518   13.043    0.000
  169.250    0.313    0.460  103.677   14.860    0.000
  169.500    0.335    0.477  107.337   17.247    0.000
  169.750    0.350    0.485  105.528   18.935    0.000
  170.000    0.312    0.450   98.868   13.815    0.000
  170.250    0.293    0.455   98.275   12.137    0.000
  170.500    0.289    0.467   96.473   11.918    0.000
  170.750    0.277    0.479   94.665   13.579    0.000
  171.000    0.288    0.465   91.642   16.361    0.000
  171.250    0.311    0.466   83.768   17.627    0.000
  171.500    0.323    0.444   78.314   20.086    0.000
  171.750    0.312    0.427   66.793   21.245    0.000
  172.000    0.315    0.412   55.876   22.057    0.000
  172.250    0.327    0.397   49.819   22.067    0.000
  172.500    0.321    0.397   55.302   21.273    0.000
  172.750    0.312    0.416   52.888   20.889    0.000
  173.000    0.296    0.423   49.267   21.693    0.000
  173.250    0.308    0.427   51.708   21.700    0.000
  173.500    0.314    0.440   57.797   20.920    0.000
  173.750    0.319    0.457   64.491   19.076    0.000
  174.000    0.307    0.487   72.402   17.390    0.000
  174.250    0.288    0.473   82.137   14.995    0.000
  174.500    0.282    0.459   77.300   14.189    0.000
  174.750    0.294    0.448   76.095   14.463    0.000
  175.000    0.333    0.452   85.222   14.203    0.000
  175.250    0.296    0.479   93.133   13.690    0.000
  175.500    0.282    0.471   99.829   12.482    0.000
  175.750    0.251    0.466  105.916   10.372    0.000
  176.000    0.249    0.476  108.970    8.619    0.000
  176.250    0.248    0.495  111.419    7.571    0.000
  176.500    0.246    0.487  114.470    7.032    0.000
  176.750    0.263    0.465  114.486    6.654    0.000
  177.000    0.263    0.463  112.678    6.656    0.000
  177.250    0.257    0.488  105.405    7.041    0.000
  177.500    0.273    0.500   94.493    7.874    0.000
  177.750    0.283    0.482   87.222    9.664    0.000
  178.000    0.304    0.465   80.560   11.861    0.000
  178.250    0.299    0.449   81.787   13.020    0.000
  178.500    0.288    0.444   87.268   13.027    0.000
  178.750    0.275    0.445   90.929   12.555    0.000
  179.000    0.270    0.444   92.766   11.664    0.000
  179.250    0.281    0.455   97.641   11.244    0.000
  179.500    0.305    0.474  103.732   10.442    0.000
  179.750    0.287    0.497  108.606    9.699    0.000
  180.000    0.254    0.471  113.483    8.844    0.000
  180.250    0.273    0.499  114.105    8.846    0.000
  180.500    0.262    0.517  107.444    9.359    0.000
  180.750    0.251    0.512   98.347    9.538    0.000
  181.000    0.278    0.486   91.683    9.904    0.000
  181.250    0.242    0.479   86.842   10.283    0.000
  181.500    0.239    0.486   84.426   10.676    0.000
  181.750    0.283    0.509   91.731   11.720    0.000
  182.000    0.275    0.503   95.390   12.868    0.000
  182.250    0.283    0.489   93.587   13.611    0.000
  182.500    0.300    0.479   94.815   14.131    0.000
  182.750    0.314    0.485   98.475   14.948    0.000
  183.000    0.312    0.469   96.668   15.239    0.000
  183.250    0.303    0.467   96.079   14.963    0.000
  183.500    0.293    0.467  100.954   14.160    0.000
  183.750    0.276    0.463  105.832   13.647    0.000
  184.000    0.259    0.479  105.237   12.444    0.000
  184.250    0.251    0.501  101.609   11.773    0.000
  184.500    0.258    0.517  101.626   10.936    0.000
  184.750    0.276    0.505   97.395   10.347    0.000
  185.000    0.264    0.502   93.766    9.261    0.000
  185.250    0.258    0.506   91.352    8.289    0.000
  185.500    0.248    0.517   89.545    7.843    0.000
  185.750    0.263    0.529   85.314    8.144    0.000
  186.000    0.287    0.505   79.862    9.107    0.000
  186.250    0.287    0.463   71.374   10.972    0.000
  186.500    0.299    0.429   62.891   12.269    0.000
  186.750    0.310    0.426   57.443   14.780    0.000
  187.000    0.314    0.436   55.640   16.840    0.000
  187.250    0.311    0.452   56.262   18.485    0.000
  187.500    0.305    0.461   58.703   19.193    0.000
  187.750    0.304    0.448   58.723   19.561    0.000
  188.000    0.305    0.432   58.131   19.573    0.000
  188.250    0.307    0.437   56.322   19.220    0.000
  188.500    0.307    0.470   57.552   18.185    0.000
  188.750    0.306    0.483   56.355   17.531    0.000
  189.000    0.308    0.484   55.154   17.217    0.000
  189.250    0.312    0.471   53.349   17.878    0.000
  189.500    0.313    0.439   55.187   18.562    0.000
  189.750    0.307    0.426   55.810   19.637    0.000
  190.000    0.299    0.431   54.613   20.387    0.000
  190.250    0.295    0.449   52.205   20.776    0.000
  190.500    0.306    0.450   52.215   21.576    0.000
  190.750    0.318    0.450   55.874   21.987    0.000
  191.000    0.319    0.467   56.501   22.410    0.000
  191.250    0.308    0.445   55.304   22.422    0.000
  191.500    0.307    0.427   54.108   22.432    0.000
  191.750    0.304    0.427   54.120   22.445    0.000
  192.000    0.307    0.423   55.957   22.453    0.000
  192.250    0.309    0.418   55.974   22.460    0.000
  192.500    0.314    0.418   54.777   22.473    0.000
  192.750    0.315    0.426   52.971   22.903    0.000
  193.000    0.316    0.433   51.770   23.346    0.000
  193.250    0.320    0.438   54.824   23.794    0.000
  193.500    0.325    0.453   57.877   23.804    0.000
  193.750    0.327    0.451   58.503   22.946    0.000
  194.000    0.328    0.441   56.698   22.533    0.000
  194.250    0.328    0.444   55.498   22.542    0.000
  194.500    0.331    0.453   56.726   21.731    0.000
  194.750    0.337    0.446   55.527   21.340    0.000
  195.000    0.345    0.434   53.722   20.958    0.000
  195.250    0.334    0.425   56.774   20.965    0.000
  195.500    0.314    0.449   58.004   20.974    0.000
  195.750    0.319    0.436   58.628   20.986    0.000
  196.000    0.326    0.441   56.832   20.998    0.000
  196.250    0.333    0.446   56.236   21.003    0.000
  196.500    0.341    0.438   58.071   21.017    0.000
  196.750    0.344    0.427   59.913   21.024    0.000
  197.000    0.343    0.438   59.924   21.032    0.000
  197.250    0.341    0.458   59.939   21.046    0.000
  197.500    0.340    0.469   59.353   21.052    0.000
  197.750    0.339    0.467   59.373   21.458    0.000
