~VERSION INFORMATION
 VERS.                 2.0:   CWLS LOG ASCII STANDARD -VERSION 2.0
 WRAP.                  NO:   ONE LINE PER DEPTH STEP
~WELL INFORMATION BLOCK
#MNEM.UNIT           DATA                    DESCRIPTION OF MNEMONIC
#---------    -------------------            -------------------------------
# Generated from Intellog Unique Number	CS_67_68/WELL/845
WELL.         INTER-CITY MANUFACTURING       : Well_name    - WELL
LOC .         00/11-29-068-12W4/0            : Location     - LOCATION
UWI .         00/11-29-068-12W4/0            : Uwi          - UNIQUE WELL ID
ENTR.         SP                             : Entered      - ENTERED BY
SRVC.         SCHLUMBERGER                   : Scn          - SERVICE COMPANY
STRT.M        304.8                          : top_depth    - START DEPTH
STOP.M        496.550                        : bot_depth    - STOP DEPTH
STEP.M        0.25                           : increment    - STEP LENGTH
 NULL. -999.2500:NULL Value
~CURVE INFORMATION BLOCK
#MNEM UNIT       ERCB CURVE CODE    CURVE DESCRIPTION
#-----------   ------------------   ----------------------------------
DEPT.M        00 001 00 00         : DEPTH        - DEPTH
GR  .API      00 310 00 00         : GR           - GAMMA RAY
DPHI.V/V      00 890 00 00         : PHID         - DENSITY POROSITY (SANDSTONE)
NPHI.V/V      00 330 00 00         : PHIN         - NEUTRON POROSITY (SANDSTONE)
ILD .OHMM     00 120 00 00         : RESD         - DEEP RESISTIVITY (DIL)
~PARAMETER INFORMATION
#MNEM.UNIT           DATA             DESCRIPTION OF MNEMONIC
#---------         -----------     ------------------------------
GL  .M        604.114              : gl           - GROUND LEVEL ELEVATION
EREF.M        576.377              : kb           - ELEVATION OF DEPTH REFERENCE
DATM.M        604.114              : datum        - DATUM ELEVATION
TDD .M        502.006              : tdd          - TOTAL DEPTH DRILLER
RUN .         ONE                  : Run          - RUN NUMBER
ENG .         BILL                 : Engineer     - RECORDING ENGINEER
WIT .         JIM                  : Witness      - WITNESSED BY
MUD .         GEL                  : Mud_type     - MUD TYPE
MATR.         SANDSTONE            : Logunit      - NEUTRON MATRIX
TMAX.C        22.2222              : BHT          - MAXIMUM RECORDED TEMPERATURE
BHTD.M        502.006              : BHTDEP       - MAXIMUM RECORDED TEMPERATURE
MATR.         1                    : LOGUNIT      - NEUTRON MATRIX
RMT .C        25                   : MDTP         - TEMPERATURE OF MUD
NEUT.         1                    : NEUTRON      - NEUTRON TYPE
RESI.         0                    : RESIST       - RESISTIVITY TYPE
RMC .OHMM     0.25                 : RMC          - RESISTIVITY OF MUD CAKE
RMF .OHMM     0.25                 : RMF          - RESISTIVITY OF MUD FILTRATE
SUFT.C        15                   : SUFT         - SURFACE TEMPERATURE
~A  DEPTH       GR     PHID     PHIN     RESD
# ...
  435.300   83.602    0.204    0.324    3.080
  435.550   83.618    0.140    0.319    3.319
  435.800   85.094    0.118    0.397    3.572
  436.050   90.829    0.172    0.411    3.805
  436.300   95.253    0.213    0.425    4.025
  436.550   97.761    0.204    0.431    4.114
  436.800   97.059    0.189    0.424    4.100
  437.050   94.632    0.178    0.413    4.039
  437.300   90.637    0.171    0.399    3.988
  437.550   92.775    0.179    0.412    4.003
  437.800   95.605    0.194    0.426    4.071
  438.050   95.411    0.181    0.434    4.173
  438.300   95.311    0.190    0.423    4.277
  438.550   96.195    0.205    0.421    4.330
  438.800   96.467    0.203    0.421    4.339
  439.050   94.188    0.191    0.412    4.326
  439.300   89.111    0.195    0.416    4.304
  439.550   90.844    0.208    0.426    4.252
  439.800   94.844    0.190    0.430    4.188
  440.050   97.906    0.179    0.430    4.134
  440.300   99.601    0.185    0.425    4.063
  440.550   95.909    0.191    0.429    4.015
  440.800   90.801    0.177    0.438    4.093
  441.050   88.656    0.147    0.417    4.235
  441.300   86.715    0.105    0.397    4.489
  441.550   78.918    0.060    0.350    4.790
  441.800   72.563    0.073    0.317    5.107
  442.050   79.653    0.110    0.307    5.539
  442.300   84.901    0.120    0.336    5.826
  442.550   88.228    0.124    0.326    5.537
  442.800   93.049    0.156    0.346    5.017
  443.050   96.755    0.203    0.370    4.678
  443.300   97.834    0.202    0.391    4.481
  443.550   98.163    0.191    0.415    4.263
  443.800   97.928    0.185    0.423    4.062
  444.050   98.672    0.178    0.428    3.914
  444.300   99.831    0.193    0.439    3.790
  444.550  101.025    0.198    0.432    3.709
  444.800   99.881    0.207    0.426    3.667
  445.050   96.116    0.214    0.430    3.652
  445.300   95.812    0.205    0.429    3.637
  445.550   96.490    0.198    0.428    3.644
  445.800   96.950    0.202    0.429    3.660
  446.050   97.341    0.200    0.415    3.742
  446.300   96.261    0.180    0.407    3.871
  446.550   94.418    0.159    0.401    3.946
  446.800   94.117    0.137    0.402    4.030
  447.050   96.001    0.165    0.414    4.101
  447.300   98.407    0.187    0.425    4.114
  447.550  101.057    0.213    0.424    4.059
  447.800  103.482    0.213    0.409    3.972
  448.050  101.682    0.207    0.410    3.864
  448.300   97.180    0.207    0.419    3.669
  448.550   93.813    0.214    0.429    3.542
  448.800   92.568    0.226    0.431    3.423
  449.050   92.816    0.210    0.423    3.376
  449.300   93.806    0.187    0.424    3.330
  449.550   95.201    0.193    0.424    3.334
  449.800   96.490    0.211    0.416    3.396
  450.050   96.643    0.189    0.403    3.528
  450.300   95.848    0.171    0.376    3.675
  450.550   88.284    0.148    0.374    3.751
  450.800   88.131    0.217    0.414    3.205
  451.050   93.484    0.252    0.495    2.654
  451.300   96.519    0.277    0.515    2.291
  451.550   97.746    0.276    0.508    2.061
  451.800   97.075    0.262    0.497    1.932
  452.050   97.505    0.254    0.502    1.840
  452.300   98.369    0.245    0.511    1.845
  452.550   99.111    0.239    0.520    1.872
  452.800   99.433    0.233    0.526    1.932
  453.050   99.361    0.224    0.533    2.062
  453.300   97.437    0.215    0.552    2.217
  453.550   94.107    0.207    0.484    2.356
  453.800   91.302    0.232    0.467    2.733
  454.050   87.186    0.218    0.448    3.045
  454.300   84.353    0.190    0.383    3.552
  454.550   82.400    0.164    0.357    4.388
  454.800   82.824    0.117    0.337    5.100
  455.050   85.611    0.131    0.350    5.431
  455.300   88.535    0.147    0.386    5.737
  455.550   89.703    0.152    0.412    5.445
  455.800   89.742    0.164    0.425    4.887
  456.050   87.565    0.179    0.430    4.515
  456.300   82.227    0.150    0.401    4.303
  456.550   83.076    0.105    0.375    4.563
  456.800   89.216    0.108    0.401    4.725
  457.050   94.322    0.134    0.417    4.394
  457.300   98.329    0.171    0.427    4.008
  457.550  101.038    0.209    0.434    3.654
  457.800  102.723    0.199    0.445    3.407
  458.050  100.208    0.191    0.462    3.181
  458.300   95.248    0.196    0.480    3.073
  458.550   92.160    0.177    0.448    3.163
  458.800   92.614    0.162    0.413    3.325
  459.050   96.196    0.144    0.388    3.453
  459.300  100.210    0.123    0.409    3.611
  459.550  103.946    0.169    0.428    3.556
  459.800  107.267    0.163    0.441    3.312
  460.050  110.008    0.162    0.451    3.067
  460.300  112.792    0.193    0.458    2.864
  460.550  115.687    0.193    0.466    2.678
  460.800  117.985    0.195    0.469    2.539
  461.050  119.020    0.211    0.471    2.466
  461.300  119.316    0.192    0.479    2.553
  461.550  116.796    0.173    0.501    2.778
  461.800  111.736    0.161    0.485    3.037
  462.050  107.074    0.153    0.460    3.231
  462.300  107.634    0.148    0.425    3.066
  462.550  110.753    0.167    0.467    2.919
  462.800  110.407    0.204    0.506    2.756
  463.050  106.927    0.093    0.521    2.647
  463.300  103.671    0.088    0.503    2.560
  463.550  107.598    0.113    0.509    2.484
  463.800  111.159    0.168    0.524    2.407
  464.050  113.159    0.188    0.525    2.365
  464.300  110.542    0.203    0.519    2.623
  464.550  101.291    0.224    0.459    3.145
  464.800   92.593    0.201    0.424    3.914
  465.050   84.469    0.180    0.401    4.692
  465.300   76.603    0.162    0.370    5.514
  465.550   69.056    0.183    0.361    6.690
  465.800   63.806    0.199    0.357    8.143
  466.050   60.745    0.127    0.323    9.086
  466.300   59.896    0.086    0.291    8.722
  466.550   62.204    0.063    0.323    7.825
  466.800   64.805    0.123    0.357    6.695
  467.050   67.837    0.189    0.378    5.641
  467.300   69.803    0.210    0.388    4.860
  467.550   70.357    0.221    0.385    4.379
  467.800   69.898    0.199    0.359    4.866
  468.050   68.562    0.160    0.292    5.934
  468.300   67.385    0.116    0.257    7.442
  468.550   66.927    0.082    0.241    8.292
  468.800   67.280    0.063    0.243    9.338
  469.050   67.561    0.055    0.262    9.864
  469.300   66.554    0.072    0.290    8.716
  469.550   71.908    0.096    0.335    7.528
  469.800   76.746    0.139    0.376    7.371
  470.050   78.225    0.168    0.400    6.533
  470.300   66.125    0.196    0.356    5.459
  470.550   54.950    0.222    0.333    4.580
  470.800   46.296    0.243    0.316    3.961
  471.050   62.793    0.253    0.326    3.479
  471.300   70.258    0.257    0.347    3.847
  471.550   77.762    0.259    0.362    4.255
  471.800   86.361    0.267    0.373    4.743
  472.050   91.826    0.249    0.387    5.197
  472.300   98.972    0.247    0.391    5.584
  472.550  103.182    0.251    0.389    5.561
  472.800  106.037    0.237    0.398    5.411
  473.050  107.881    0.229    0.406    5.293
  473.300  109.546    0.220    0.417    5.336
  473.550  108.896    0.235    0.427    5.888
  473.800  106.161    0.245    0.435    6.567
  474.050   98.487    0.252    0.435    7.328
  474.300   94.447    0.252    0.428    7.974
  474.550   97.930    0.234    0.404    8.230
  474.800   90.244    0.209    0.368    8.402
  475.050   82.553    0.190    0.343    8.189
  475.300   85.765    0.157    0.330    7.591
  475.550   90.296    0.137    0.331    6.784
  475.800   95.128    0.158    0.350    6.035
  476.050   99.357    0.175    0.363    5.712
  476.300  102.249    0.159    0.374    5.492
  476.550  101.702    0.149    0.386    5.432
  476.800   92.288    0.179    0.386    5.571
  477.050   85.445    0.202    0.377    5.687
  477.300   83.903    0.205    0.367    5.773
  477.550   89.855    0.194    0.357    5.747
  477.800   93.736    0.186    0.353    5.702
  478.050   94.663    0.180    0.339    5.615
  478.300   96.327    0.176    0.327    5.543
  478.550  104.884    0.184    0.318    5.512
