~VERSION INFORMATION
 VERS.                 2.0:   CWLS LOG ASCII STANDARD -VERSION 2.0
 WRAP.                  NO:   ONE LINE PER DEPTH STEP
~WELL INFORMATION BLOCK
#MNEM.UNIT           DATA                    DESCRIPTION OF MNEMONIC
#---------    -------------------            -------------------------------
# Generated from Intellog Unique Number	CS_67_68/WELL/2402
WELL.         MERLAND TWEEDIE                : Well_name    - WELL
LOC .         00/11-27-068-11W4/0            : Location     - LOCATION
UWI .         00/11-27-068-11W4/0            : Uwi          - UNIQUE WELL ID
ENTR.         TIM                            : Entered      - ENTERED BY
SRVC.         SCHLUMBERGER                   : Scn          - SERVICE COMPANY
STRT.M        300                            : top_depth    - START DEPTH
STOP.M        505                            : bot_depth    - STOP DEPTH
STEP.M        0.25                           : increment    - STEP LENGTH
 NULL. -999.2500:NULL Value
~CURVE INFORMATION BLOCK
#MNEM UNIT       ERCB CURVE CODE    CURVE DESCRIPTION
#-----------   ------------------   ----------------------------------
DEPT.M        00 001 00 00         : DEPTH        - DEPTH
DPHI.V/V      00 890 00 00         : PHID         - DENSITY POROSITY (SANDSTONE)
NPHI.V/V      00 330 00 00         : PHIN         - NEUTRON POROSITY (SANDSTONE)
CALI.MM       00 280 01 00         : CAL          - CALIPER
GR  .API      00 310 00 00         : GR           - GAMMA RAY
ILD .OHMM     00 120 00 00         : RESD         - DEEP RESISTIVITY (DIL)
~PARAMETER INFORMATION
#MNEM.UNIT           DATA             DESCRIPTION OF MNEMONIC
#---------         -----------     ------------------------------
GL  .M        615.5                : gl           - GROUND LEVEL ELEVATION
EREF.M        619                  : kb           - ELEVATION OF DEPTH REFERENCE
DATM.M        619                  : datum        - DATUM ELEVATION
TDD .M        516                  : tdd          - TOTAL DEPTH DRILLER
RUN .         ONE                  : Run          - RUN NUMBER
ENG .         BILL                 : Engineer     - RECORDING ENGINEER
WIT .         JIM                  : Witness      - WITNESSED BY
MUD .         GEL                  : Mud_type     - MUD TYPE
MATR.         SANDSTONE            : Logunit      - NEUTRON MATRIX
TMAX.C        22                   : BHT          - MAXIMUM RECORDED TEMPERATURE
BHTD.M        516                  : BHTDEP       - MAXIMUM RECORDED TEMPERATURE
MATR.         1                    : LOGUNIT      - NEUTRON MATRIX
RMT .C        22                   : MDTP         - TEMPERATURE OF MUD
NEUT.         1                    : NEUTRON      - NEUTRON TYPE
RESI.         0                    : RESIST       - RESISTIVITY TYPE
RMC .OHMM     4                    : RMC          - RESISTIVITY OF MUD CAKE
RMF .OHMM     4                    : RMF          - RESISTIVITY OF MUD FILTRATE
SUFT.C        5                    : SUFT         - SURFACE TEMPERATURE
~A  DEPTH     PHID     PHIN      CAL       GR     RESD
  300.000    0.250    0.503  178.543   99.839    2.546
  300.250    0.245    0.525  178.698   99.330    2.593
  300.500    0.242    0.549  178.790   98.220    2.592
  300.750    0.249    0.553  178.914   96.563    2.640
  301.000    0.258    0.532  179.038   96.054    2.690
  301.250    0.253    0.510  180.133   98.442    2.688
  301.500    0.236    0.508  180.288  100.266    2.738
  301.750    0.226    0.519  178.529   98.008    2.789
  302.000    0.222    0.539  178.591   95.787    2.788
  302.250    0.238    0.546  177.743   95.240    2.840
  302.500    0.252    0.547  177.867   94.186    2.838
  302.750    0.251    0.532  177.990   94.223    2.838
  303.000    0.240    0.511  179.055   94.880    2.836
  303.250    0.217    0.490  181.122   95.556    2.835
  303.500    0.222    0.482  182.218   95.065    2.834
  303.750    0.222    0.480  182.372   94.556    2.833
  304.000    0.224    0.491  182.465   94.047    2.832
  304.250    0.220    0.502  182.619   94.103    2.831
  304.500    0.199    0.497  180.799   95.362    2.830
  304.750    0.213    0.471  179.982   96.584    2.828
  305.000    0.225    0.450  178.131   97.861    2.827
  305.250    0.222    0.446  176.311   98.481    2.826
  305.500    0.218    0.452  172.609   99.176    2.720
  305.750    0.223    0.471  172.671   99.796    2.719
  306.000    0.229    0.487  178.656  101.638    2.667
  306.250    0.239    0.484  181.726  102.897    2.666
  306.500    0.251    0.483  182.760  103.536    2.665
  306.750    0.262    0.478  181.002  104.193    2.664
  307.000    0.263    0.469  179.120  104.267    2.662
  307.250    0.247    0.456  175.387  103.175    2.662
  307.500    0.244    0.462  174.508  102.083    2.661
  307.750    0.253    0.470  175.604  101.574    2.660
  308.000    0.261    0.480  178.643  100.501    2.609
  308.250    0.268    0.483  181.713   99.973    2.559
  308.500    0.273    0.475  182.808   98.900    2.510
  308.750    0.280    0.467  182.932   96.660    2.557
  309.000    0.253    0.473  183.055   95.531    5.230
  309.250    0.244    0.477  182.207   92.690    6.807
  309.500    0.217    0.483  181.359   88.118    7.065
  309.750    0.137    0.484  179.539   84.091    7.196
  310.000    0.116    0.480  177.781   86.498    6.928
  310.250    0.152    0.359  175.899   93.005    6.422
  310.500    0.182    0.368  171.163  100.076    5.953
  310.750    0.218    0.381  166.459  104.232    5.730
  311.000    0.213    0.391  163.698  103.742    5.516
  311.250    0.205    0.404  163.791  103.233    5.411
  311.500    0.199    0.410  163.883  103.307    5.308
  311.750    0.215    0.412  166.012  102.798    5.109
  312.000    0.249    0.416  168.049  100.521    5.108
  312.250    0.264    0.418  169.113   97.698    4.916
  312.500    0.228    0.426  171.242   97.773    4.823
  312.750    0.237    0.430  171.304   97.847    4.731
  313.000    0.230    0.437  170.487   95.570    4.640
  313.250    0.210    0.436  169.670   88.647    4.552
  313.500    0.210    0.420  167.819   82.289    4.465
  313.750    0.232    0.393  166.939   72.450    4.380
  314.000    0.274    0.389  166.091   64.361    4.216
  314.250    0.296    0.384  165.243   58.586    4.136
  314.500    0.294    0.374  163.454   51.663    3.906
  314.750    0.289    0.369  161.665   54.088    3.761
  315.000    0.284    0.374  158.873   57.660    3.552
  315.250    0.289    0.378  157.053   55.985    3.419
  315.500    0.294    0.384  156.205   53.126    3.292
  315.750    0.297    0.382  155.326   48.553    3.169
  316.000    0.298    0.378  154.539   45.129    2.993
  316.250    0.298    0.373  153.629   41.705    2.936
  316.500    0.298    0.367  153.784   39.428    2.880
  316.750    0.301    0.355  153.907   38.919    2.825
  317.000    0.309    0.348  154.000   40.742    2.824
  317.250    0.313    0.343  152.211   41.983    2.877
  317.500    0.306    0.348  152.304   41.474    2.930
  317.750    0.297    0.354  151.517   37.466    2.929
  318.000    0.296    0.358  152.613   35.791    2.928
  318.250    0.301    0.356  152.705   33.552    2.926
  318.500    0.304    0.350  153.832   32.441    2.926
  318.750    0.305    0.343  155.868   30.201    2.869
  319.000    0.306    0.343  156.964   29.128    2.815
  319.250    0.311    0.343  157.087   29.165    2.814
  319.500    0.316    0.346  158.183   29.258    2.760
  319.750    0.317    0.361  158.337   29.915    2.708
  320.000    0.318    0.371  158.430   30.554    2.706
  320.250    0.318    0.366  158.615   31.794    2.654
  320.500    0.319    0.362  158.615   33.053    2.653
  320.750    0.317    0.362  161.809   34.330    2.652
  321.000    0.314    0.359  159.989   34.386    2.602
  321.250    0.312    0.359  160.082   34.442    2.552
  321.500    0.311    0.366  159.202   33.368    2.551
  321.750    0.311    0.376  159.295   31.693    2.550
  322.000    0.311    0.362  159.419   31.203    2.501
  322.250    0.308    0.353  159.573   31.240    2.500
  322.500    0.308    0.353  159.666   31.314    2.499
  322.750    0.311    0.353  160.792   31.971    2.498
  323.000    0.309    0.348  160.947   32.045    2.497
  323.250    0.304    0.349  161.101   32.703    2.450
  323.500    0.301    0.356  161.163   32.777    2.448
  323.750    0.303    0.359  161.318   32.286    2.448
  324.000    0.308    0.354  161.441   31.777    2.446
  324.250    0.314    0.344  162.506   31.250    2.492
  324.500    0.320    0.336  162.630   30.760    2.539
  324.750    0.325    0.342  159.900   30.834    2.586
  325.000    0.328    0.348  158.990   31.510    2.585
  325.250    0.330    0.350  158.141   32.148    2.683
  325.500    0.328    0.355  157.355   33.972    2.785
  325.750    0.324    0.356  157.417   37.545    3.117
  326.000    0.313    0.356  158.574   46.384    3.423
  326.250    0.290    0.361  159.639   65.135    3.831
  326.500    0.272    0.390  160.734  103.731    4.289
  326.750    0.253    0.423  162.801  104.972    4.451
  327.000    0.246    0.437  163.897  104.463    4.449
  327.250    0.257    0.438  164.992  102.204    4.448
  327.500    0.257    0.430  166.118   99.946    4.446
  327.750    0.247    0.428  167.183   98.271    4.444
  328.000    0.227    0.423  168.340   97.762    4.359
  328.250    0.199    0.419  169.374  100.770    4.357
  328.500    0.182    0.416  171.472  102.594    4.116
  328.750    0.227    0.421  171.565  105.583    3.674
  329.000    0.217    0.433  174.635  108.573    3.280
  329.250    0.199    0.456  176.733  110.980    2.984
  329.500    0.202    0.482  179.803  113.405    2.819
  329.750    0.232    0.494  179.896  114.062    2.613
  330.000    0.249    0.494  180.991  113.553    2.516
  330.250    0.259    0.491  182.087  112.443    2.562
  330.500    0.269    0.482  182.241  107.269    2.922
  330.750    0.297    0.461  182.303   96.847    3.150
  331.000    0.321    0.439  176.596   90.489    3.395
  331.250    0.326    0.410  168.976   80.067    3.524
  331.500    0.315    0.386  166.153   72.580    3.727
  331.750    0.326    0.386  162.451   71.488    3.797
  332.000    0.326    0.389  162.513   76.791    3.795
  332.250    0.311    0.389  162.698   82.113    3.793
  332.500    0.288    0.393  162.760   89.222    3.792
  332.750    0.285    0.398  163.886   92.193    3.790
  333.000    0.286    0.406  163.979   94.618    3.861
  333.250    0.284    0.414  165.105   95.877    3.933
  333.500    0.282    0.418  166.201   96.516    4.082
  333.750    0.278    0.422  167.296   97.154    4.080
  334.000    0.278    0.426  167.451   97.830    4.002
  334.250    0.279    0.432  167.543   95.572    3.853
  334.500    0.279    0.438  167.667   93.295    3.640
  334.750    0.281    0.446  166.819   95.739    3.638
  335.000    0.296    0.455  165.971   95.248    3.776
  335.250    0.310    0.467  165.122   94.702    3.920
  335.500    0.324    0.465  164.305   94.193    4.068
  335.750    0.328    0.455  164.460   94.851    4.144
  336.000    0.312    0.452  164.552   95.526    4.065
  336.250    0.297    0.458  163.704   96.767    3.987
