~VERSION INFORMATION
 VERS.                 2.0:   CWLS LOG ASCII STANDARD -VERSION 2.0
 WRAP.                  NO:   ONE LINE PER DEPTH STEP
~WELL INFORMATION BLOCK
#MNEM.UNIT           DATA                    DESCRIPTION OF MNEMONIC
#---------    -------------------            -------------------------------
# Generated from Intellog Unique Number	CW_82_90/WELL/3457
WELL.         TEXACO WOODEN                  : Well_name    - WELL
LOC .         00/16-29-088-23W4/0            : Location     - LOCATION
UWI .         00/16-29-088-23W4/0            : Uwi          - UNIQUE WELL ID
ENTR.         MAX                            : Entered      - ENTERED BY
SRVC.         WESTERN ATLAS                  : Scn          - SERVICE COMPANY
STRT.M        95                             : top_depth    - START DEPTH
STOP.M        270                            : bot_depth    - STOP DEPTH
STEP.M        0.25                           : increment    - STEP LENGTH
 NULL. -999.2500:NULL Value
~CURVE INFORMATION BLOCK
#MNEM UNIT       ERCB CURVE CODE    CURVE DESCRIPTION
#-----------   ------------------   ----------------------------------
DEPT.M        00 001 00 00         : DEPTH        - DEPTH
GR  .API      00 310 00 00         : GR           - GAMMA RAY
CALI.MM       00 280 01 00         : CAL          - CALIPER
DPHI.V/V      00 890 00 00         : PHID         - DENSITY POROSITY (SANDSTONE)
NPHI.V/V      00 330 00 00         : PHIN         - NEUTRON POROSITY (SANDSTONE)
ILD .OHMM     00 120 00 00         : RESD         - DEEP RESISTIVITY (DIL)
~PARAMETER INFORMATION
#MNEM.UNIT           DATA             DESCRIPTION OF MNEMONIC
#---------         -----------     ------------------------------
GL  .M        503                  : gl           - GROUND LEVEL ELEVATION
EREF.M        506                  : kb           - ELEVATION OF DEPTH REFERENCE
DATM.M        503                  : datum        - DATUM ELEVATION
TDD .M        272                  : tdd          - TOTAL DEPTH DRILLER
RUN .         ONE                  : Run          - RUN NUMBER
ENG .         BILL                 : Engineer     - RECORDING ENGINEER
WIT .         JIM                  : Witness      - WITNESSED BY
MUD .         GEL                  : Mud_type     - MUD TYPE
MATR.         SANDSTONE            : Logunit      - NEUTRON MATRIX
TMAX.C        21                   : BHT          - MAXIMUM RECORDED TEMPERATURE
BHTD.M        272                  : BHTDEP       - MAXIMUM RECORDED TEMPERATURE
MATR.         1                    : LOGUNIT      - NEUTRON MATRIX
RMT .C        18                   : MDTP         - TEMPERATURE OF MUD
NEUT.         1                    : NEUTRON      - NEUTRON TYPE
RESI.         0                    : RESIST       - RESISTIVITY TYPE
RMC .OHMM     3                    : RMC          - RESISTIVITY OF MUD CAKE
RMF .OHMM     3.7                  : RMF          - RESISTIVITY OF MUD FILTRATE
SUFT.C        1                    : SUFT         - SURFACE TEMPERATURE
~A  DEPTH       GR      CAL     PHID     PHIN     RESD
   95.000  143.835  238.346    0.275    0.421    3.135
   95.250  143.194  236.266    0.292    0.419    2.804
   95.500  138.980  235.704    0.325    0.428    2.602
   95.750  135.065  237.613    0.369    0.441    2.263
   96.000  129.952  247.966    0.382    0.453    2.101
   96.250  126.031  268.719    0.384    0.455    1.949
   96.500  124.497  269.636    0.378    0.450    1.877
   96.750  123.255  269.073    0.350    0.442    1.927
   97.000  122.316  265.028    0.308    0.437    2.191
   97.250  121.080  263.454    0.278    0.447    2.250
   97.500  119.843  258.416    0.274    0.451    2.248
   97.750  121.590  256.346    0.276    0.424    2.373
   98.000  125.409  246.852    0.282    0.408    2.505
   98.250  121.796  248.246    0.284    0.396    2.597
   98.500  115.791  249.181    0.288    0.381    2.667
   98.750  110.685  247.598    0.290    0.382    2.976
   99.000  104.084  248.524    0.288    0.394    3.413
   99.250   99.275  249.440    0.283    0.399    3.844
   99.500   94.758  248.858    0.281    0.390    5.157
   99.750   94.118  245.796    0.281    0.384    6.023
  100.000   94.072  241.741    0.288    0.386    6.075
  100.250   94.914  240.196    0.296    0.393    6.295
  100.500   96.065  240.606    0.306    0.402    6.587
  100.750   92.441  243.517    0.321    0.402    7.215
  101.000   87.924  259.815    0.333    0.393    8.747
  101.250   84.008  261.227    0.350    0.387    9.233
  101.500   83.671  257.172    0.371    0.386    9.570
  101.750   83.912  254.119    0.388    0.386    9.651
  102.000   84.164  251.076    0.390    0.394    9.551
  102.250   83.826  248.996    0.419    0.402    9.456
  102.500   83.483  246.945    0.445    0.417    9.445
  102.750   83.426  246.373    0.452    0.430    9.700
  103.000   82.796  249.770    0.449    0.439   10.147
  103.250   82.745  266.573    0.448    0.449   10.517
  103.500   81.801  282.375    0.456    0.474   10.902
  103.750   83.536  294.712    0.473    0.470   11.093
  104.000   85.288  300.581    0.461    0.448   10.879
  104.250   88.219  292.070    0.434    0.434   10.572
  104.500   91.448  280.582    0.427    0.433   10.273
  104.750   97.958  274.543    0.451    0.436    9.983
  105.000  103.569  258.094    0.478    0.439    9.611
  105.250  107.983  249.077    0.510    0.432    9.253
  105.500  110.021  239.574    0.484    0.422    8.910
  105.750  110.273  229.556    0.437    0.427    8.580
  106.000  109.930  229.976    0.413    0.415    8.185
  106.250  112.272  241.808    0.383    0.408    7.807
  106.500  116.686  249.184    0.357    0.398    7.873
  106.750  118.427  253.068    0.359    0.386    8.234
  107.000  117.791  254.986    0.367    0.390    8.614
  107.250  113.280  261.866    0.388    0.409    8.848
  107.500  109.359  286.589    0.407    0.420    8.920
  107.750  108.117  287.515    0.424    0.429    8.912
  108.000  108.071  273.040    0.439    0.426    8.739
  108.250  110.109  258.080    0.442    0.411    8.493
  108.500  111.260  255.017    0.423    0.401    8.252
  108.750  111.805  247.995    0.411    0.394    8.094
  109.000  111.765  240.476    0.339    0.387    8.010
  109.250  108.141  233.941    0.327    0.384    8.150
  109.500  107.786  234.351    0.312    0.379    8.219
  109.750  108.348  236.756    0.290    0.374    8.518
  110.000  105.617  238.675    0.274    0.364    8.909
  110.250  102.594  238.093    0.264    0.356    9.236
  110.500  100.763  238.026    0.248    0.339    9.574
  110.750   98.925  239.439    0.222    0.323    9.924
  111.000   95.897  240.355    0.197    0.313   10.191
  111.250   96.452  240.776    0.180    0.306   10.275
  111.500   98.491  241.682    0.181    0.295   10.171
  111.750  100.231  244.078    0.213    0.297    9.882
  112.000  102.865  244.498    0.240    0.326    9.603
  112.250  106.392  243.430    0.254    0.349    9.245
  112.500  109.621  242.352    0.264    0.373    8.821
  112.750  107.486  241.789    0.265    0.388    8.572
  113.000  103.874  240.731    0.264    0.386    8.484
  113.250  106.805  239.662    0.264    0.372    8.398
  113.500  110.922  245.044    0.267    0.366    8.388
  113.750  112.067  252.411    0.274    0.370    8.380
  114.000  111.432  264.739    0.277    0.379    8.296
  114.250  111.088  280.540    0.274    0.384    8.288
  114.500  111.037  281.962    0.269    0.387    8.203
  114.750  110.997  268.480    0.262    0.392    8.120
  115.000  111.244  254.998    0.264    0.391    8.036
  115.250  112.091  249.961    0.268    0.387    8.028
  115.500  115.017  246.412    0.273    0.391    7.802
  115.750  117.954  245.343    0.277    0.398    7.240
  116.000  118.790  242.777    0.279    0.417    6.476
  116.250  118.160  244.667    0.278    0.434    5.331
  116.500  118.413  245.097    0.274    0.450    4.348
  116.750  120.451  242.549    0.268    0.460    3.234
  117.000  123.085  241.481    0.268    0.445    2.496
  117.250  124.820  242.875    0.270    0.448    2.274
  117.500  125.667  242.818    0.273    0.456    2.230
  117.750  126.217  243.228    0.277    0.457    2.228
  118.000  127.064  246.120    0.277    0.445    2.309
  118.250  128.204  249.527    0.275    0.442    2.483
  118.500  129.057  249.441    0.273    0.438    2.671
  118.750  128.720  243.421    0.273    0.434    2.898
  119.000  127.770  241.341    0.272    0.435    3.117
  119.250  126.837  242.773    0.271    0.431    3.446
  119.500  125.595  243.679    0.269    0.414    3.990
  119.750  122.280  242.115    0.271    0.402    4.662
  120.000  117.168  242.039    0.272    0.397    5.600
  120.250  113.246  273.727    0.267    0.407    6.365
  120.500  111.123  272.163    0.259    0.398    6.972
  120.750  109.577  253.719    0.239    0.382    7.160
  121.000  109.240  246.201    0.236    0.373    6.957
  121.250  109.194  242.642    0.246    0.376    6.515
  121.500  110.042  245.047    0.257    0.392    6.216
  121.750  111.771  247.452    0.262    0.405    5.768
  122.000  113.225  245.382    0.266    0.420    4.535
  122.250  115.859  244.313    0.270    0.427    3.734
  122.500  118.195  246.222    0.272    0.438    3.189
  122.750  121.424  245.154    0.273    0.443    2.932
  123.000  123.462  245.078    0.272    0.444    2.849
  123.250  126.085  246.490    0.269    0.441    2.953
  123.500  126.050  245.432    0.266    0.436    3.118
  123.750  124.516  243.839    0.264    0.433    3.415
  124.000  122.387  243.772    0.263    0.415    3.917
  124.250  122.330  244.192    0.262    0.410    4.136
  124.500  121.397  245.615    0.260    0.405    4.286
  124.750  122.245  246.521    0.256    0.398    4.362
  125.000  125.771  244.966    0.253    0.399    4.397
  125.250  128.405  243.393    0.249    0.406    4.274
  125.500  131.634  244.796    0.246    0.449    4.077
  125.750  136.060  244.729    0.246    0.446    3.890
  126.000  138.384  245.149    0.248    0.430    3.780
  126.250  138.047  246.543    0.248    0.425    3.776
  126.500  137.406  248.471    0.246    0.424    3.771
  126.750  137.057  250.379    0.244    0.421    3.767
  127.000  135.826  250.294    0.242    0.430    3.762
  127.250  135.477  249.226    0.240    0.432    3.726
  127.500  135.735  247.671    0.237    0.425    3.723
  127.750  137.470  244.102    0.235    0.418    3.753
  128.000  139.514  244.017    0.234    0.411    3.783
  128.250  142.148  243.951    0.234    0.406    3.710
  128.500  145.068  244.380    0.234    0.411    3.673
  128.750  145.629  244.800    0.233    0.414    3.703
  129.000  145.274  246.213    0.232    0.417    3.700
  129.250  145.526  245.631    0.232    0.413    3.628
  129.500  145.773  245.546    0.232    0.408    3.591
  129.750  145.739  246.462    0.231    0.399    3.588
  130.000  145.384  245.900    0.230    0.391    3.584
  130.250  144.749  245.805    0.229    0.387    3.581
  130.500  143.810  246.721    0.231    0.393    3.577
  130.750  142.871  247.657    0.233    0.400    3.573
  131.000  141.933  248.563    0.237    0.402    3.603
  131.250  140.101  248.984    0.239    0.402    3.598
