~VERSION INFORMATION
 VERS.                 2.0:   CWLS LOG ASCII STANDARD -VERSION 2.0
 WRAP.                  NO:   ONE LINE PER DEPTH STEP
~WELL INFORMATION BLOCK
#MNEM.UNIT           DATA                    DESCRIPTION OF MNEMONIC
#---------    -------------------            -------------------------------
# Generated from Intellog Unique Number	CS_67_68/WELL/813
WELL.         BURNT LAKE                     : Well_name    - WELL
LOC .         00/11-02-068-04W4/0            : Location     - LOCATION
UWI .         00/11-02-068-04W4/0            : Uwi          - UNIQUE WELL ID
ENTR.         SP                             : Entered      - ENTERED BY
SRVC.         SCHLUMBERGER                   : Scn          - SERVICE COMPANY
STRT.M        360                            : top_depth    - START DEPTH
STOP.M        580                            : bot_depth    - STOP DEPTH
STEP.M        0.25                           : increment    - STEP LENGTH
 NULL. -999.2500:NULL Value
~CURVE INFORMATION BLOCK
#MNEM UNIT       ERCB CURVE CODE    CURVE DESCRIPTION
#-----------   ------------------   ----------------------------------
DEPT.M        00 001 00 00         : DEPTH        - DEPTH
GR  .API      00 310 00 00         : GR           - GAMMA RAY
NPHI.V/V      00 330 00 00         : PHIN         - NEUTRON POROSITY (LIMESTONE)
DPHI.V/V      00 890 00 00         : PHID         - DENSITY POROSITY (LIMESTONE)
ILD .OHMM     00 120 00 00         : RESD         - DEEP RESISTIVITY (DIL)
~PARAMETER INFORMATION
#MNEM.UNIT           DATA             DESCRIPTION OF MNEMONIC
#---------         -----------     ------------------------------
GL  .M        705.39               : gl           - GROUND LEVEL ELEVATION
EREF.M        709.24               : kb           - ELEVATION OF DEPTH REFERENCE
DATM.M        705.39               : datum        - DATUM ELEVATION
TDD .M        582                  : tdd          - TOTAL DEPTH DRILLER
RUN .         ONE                  : Run          - RUN NUMBER
ENG .         BILL                 : Engineer     - RECORDING ENGINEER
WIT .         JIM                  : Witness      - WITNESSED BY
MUD .         GEL                  : Mud_type     - MUD TYPE
MATR.         LIMESTONE            : Logunit      - NEUTRON MATRIX
TMAX.C        20                   : BHT          - MAXIMUM RECORDED TEMPERATURE
BHTD.M        582                  : BHTDEP       - MAXIMUM RECORDED TEMPERATURE
MATR.         1                    : LOGUNIT      - NEUTRON MATRIX
RMT .C        25                   : MDTP         - TEMPERATURE OF MUD
NEUT.         1                    : NEUTRON      - NEUTRON TYPE
RESI.         0                    : RESIST       - RESISTIVITY TYPE
RMC .OHMM     0.25                 : RMC          - RESISTIVITY OF MUD CAKE
RMF .OHMM     0.25                 : RMF          - RESISTIVITY OF MUD FILTRATE
SUFT.C        15                   : SUFT         - SURFACE TEMPERATURE
~A  DEPTH       GR     PHIN     PHID     RESD
# ...
  447.000   68.763    0.427    0.311    5.868
  447.250   74.612    0.449    0.304    5.384
  447.500   79.546    0.455    0.308    4.968
  447.750   85.703    0.443    0.293    4.550
  448.000   94.121    0.464    0.269    4.368
  448.250   97.590    0.459    0.261    4.305
  448.500   93.418    0.459    0.252    4.290
  448.750   94.811    0.470    0.247    4.261
  449.000   98.035    0.484    0.254    4.254
  449.250  100.341    0.509    0.256    4.256
  449.500  101.060    0.523    0.255    4.243
  449.750   99.214    0.502    0.256    4.268
  450.000   97.609    0.475    0.258    4.335
  450.250   98.817    0.455    0.260    4.411
  450.500   97.520    0.476    0.263    4.454
  450.750   97.567    0.470    0.265    4.317
  451.000  101.583    0.456    0.264    4.097
  451.250  104.076    0.493    0.252    3.767
  451.500   97.644    0.513    0.254    3.616
  451.750   90.911    0.504    0.261    3.563
  452.000   90.955    0.516    0.264    3.585
  452.250   94.974    0.529    0.267    3.621
  452.500   93.373    0.526    0.281    3.712
  452.750   87.125    0.516    0.301    4.004
  453.000   89.675    0.507    0.315    4.351
  453.250   90.396    0.470    0.312    4.782
  453.500   78.161    0.455    0.306    5.295
  453.750   70.938    0.451    0.302    5.743
  454.000   65.913    0.463    0.351    6.091
  454.250   63.759    0.465    0.360    6.256
  454.500   61.730    0.453    0.354    6.402
  454.750   62.755    0.470    0.352    6.527
  455.000   62.129    0.483    0.353    6.579
  455.250   60.526    0.473    0.359    6.594
  455.500   63.138    0.460    0.360    6.560
  455.750   63.735    0.472    0.360    6.551
  456.000   63.475    0.473    0.359    6.516
  456.250   63.157    0.469    0.358    6.509
  456.500   62.285    0.463    0.356    6.523
  456.750   61.416    0.462    0.351    6.601
  457.000   60.360    0.455    0.351    6.640
  457.250   59.433    0.449    0.349    6.745
  457.500   58.441    0.445    0.344    6.811
  457.750   58.853    0.446    0.340    6.918
  458.000   58.901    0.466    0.337    6.985
  458.250   60.230    0.471    0.341    7.068
  458.500   61.559    0.459    0.348    7.098
  458.750   60.505    0.448    0.343    7.181
  459.000   61.713    0.447    0.338    7.294
  459.250   62.555    0.466    0.329    7.394
  459.500   60.586    0.473    0.319    7.523
  459.750   58.859    0.459    0.314    7.757
  460.000   63.243    0.439    0.317    7.997
  460.250   66.222    0.428    0.333    8.153
  460.500   68.406    0.441    0.342    8.172
  460.750   69.616    0.447    0.342    7.918
  461.000   69.174    0.460    0.346    7.516
  461.250   65.677    0.451    0.352    7.162
  461.500   63.341    0.441    0.347    6.991
  461.750   69.619    0.436    0.333    6.851
  462.000   75.103    0.441    0.312    6.790
  462.250   78.328    0.447    0.298    6.743
  462.500   79.168    0.445    0.280    6.733
  462.750   77.871    0.426    0.251    6.736
  463.000   79.567    0.407    0.249    6.739
  463.250   77.902    0.449    0.294    6.743
  463.500   73.551    0.455    0.318    6.670
  463.750   71.273    0.460    0.322    6.598
  464.000   71.077    0.468    0.339    6.490
  464.250   70.694    0.462    0.346    6.302
  464.500   70.194    0.460    0.358    6.187
  464.750   68.773    0.463    0.345    6.063
  465.000   68.332    0.477    0.340    6.020
  465.250   72.895    0.487    0.339    5.977
  465.500   75.999    0.490    0.341    5.891
  465.750   78.735    0.479    0.335    5.839
  466.000   83.974    0.471    0.327    5.679
  466.250   88.665    0.483    0.315    5.172
  466.500   92.010    0.491    0.305    4.773
  466.750   86.252    0.494    0.308    4.471
  467.000   82.879    0.501    0.303    4.316
  467.250   84.818    0.506    0.296    4.269
  467.500   86.149    0.501    0.292    4.344
  467.750   86.929    0.491    0.295    4.539
  468.000   86.059    0.482    0.309    4.697
  468.250   84.456    0.501    0.309    4.861
  468.500   84.013    0.504    0.297    5.012
  468.750   86.684    0.506    0.292    4.865
  469.000   90.217    0.534    0.290    3.183
  469.250   95.761    0.573    0.291    2.648
  469.500   99.168    0.598    0.294    2.354
  469.750   98.177    0.619    0.297    2.333
  470.000   94.435    0.590    0.299    2.410
  470.250   92.648    0.559    0.292    2.508
  470.500   96.604    0.532    0.277    2.757
  470.750   99.341    0.550    0.267    2.853
  471.000  101.159    0.544    0.273    3.153
  471.250  101.389    0.543    0.277    3.736
  471.500   96.609    0.538    0.288    4.736
  471.750   87.796    0.500    0.319    6.270
  472.000   81.977    0.434    0.344    8.331
  472.250   75.914    0.404    0.353   10.702
  472.500   71.624    0.447    0.357   13.442
  472.750   68.615    0.468    0.361   16.351
  473.000   66.768    0.476    0.363   17.970
  473.250   66.081    0.460    0.346   15.382
  473.500   71.317    0.461    0.323   10.254
  473.750   73.568    0.452    0.306    8.533
  474.000   75.447    0.448    0.299    7.742
  474.250   75.127    0.447    0.298    7.502
  474.500   75.234    0.454    0.313    7.324
  474.750   73.936    0.467    0.318    7.314
  475.000   76.488    0.483    0.316    7.428
  475.250   74.947    0.477    0.320    7.616
  475.500   78.170    0.467    0.327    7.662
  475.750   81.455    0.474    0.318    7.637
  476.000   83.274    0.493    0.306    7.526
  476.250   77.576    0.507    0.290    7.417
  476.500   73.958    0.503    0.276    7.338
  476.750   73.150    0.476    0.266    7.368
  477.000   74.173    0.458    0.293    7.441
  477.250   75.197    0.492    0.328    7.417
  477.500   74.450    0.512    0.340    7.351
  477.750   76.085    0.509    0.340    7.043
  478.000   76.987    0.497    0.331    6.648
  478.250   75.323    0.511    0.322    6.345
  478.500   73.291    0.505    0.317    6.160
  478.750   74.011    0.487    0.319    6.060
  479.000   76.440    0.486    0.317    6.119
  479.250   79.784    0.509    0.310    6.262
  479.500   82.456    0.499    0.307    6.372
  479.750   83.668    0.488    0.294    6.496
  480.000   84.141    0.470    0.291    6.573
  480.250   80.095    0.470    0.282    6.613
  480.500   78.247    0.473    0.283    6.542
  480.750   78.293    0.465    0.283    6.435
  481.000   78.829    0.481    0.278    6.282
  481.250   78.874    0.487    0.287    6.157
  481.500   77.455    0.470    0.302    6.336
  481.750   70.537    0.457    0.294    6.924
  482.000   73.516    0.472    0.283    8.407
  482.250   73.258    0.487    0.276   10.150
  482.500   66.461    0.484    0.299   12.324
  482.750   63.576    0.470    0.324   14.991
  483.000   67.287    0.462    0.351   17.498
  483.250   69.840    0.460    0.361   18.979
  483.500   69.092    0.470    0.359   19.312
  483.750   64.618    0.473    0.356   18.024
  484.000   62.464    0.479    0.357   16.915
  484.250   60.740    0.484    0.359   15.638
  484.500   59.748    0.475    0.362   16.214
  484.750   64.497    0.520    0.362   19.430
  485.000   65.829    0.537    0.368   23.371
  485.250   60.559    0.533    0.374   26.820
  485.500   58.101    0.516    0.370   30.835
  485.750   56.314    0.487    0.366   35.058
  486.000   54.709    0.465    0.361   36.968
  486.250   55.064    0.450    0.364   37.264
  486.500   58.655    0.445    0.366   32.931
  486.750   63.771    0.436    0.353   25.324
  487.000   67.484    0.426    0.346   20.680
  487.250   67.776    0.458    0.343   17.537
  487.500   67.028    0.495    0.347   17.511
  487.750   62.308    0.484    0.352   19.575
  488.000   60.583    0.468    0.351   22.892
  488.250   61.852    0.468    0.351   24.921
  488.500   62.755    0.459    0.356   27.546
  488.750   62.797    0.450    0.349   29.486
  489.000   62.297    0.458    0.348   30.689
  489.250   60.876    0.478    0.361   30.875
  489.500   59.762    0.490    0.374   30.150
  489.750   59.199    0.479    0.361   28.195
  490.000   61.812    0.470    0.355   27.622
  490.250   65.583    0.466    0.352   25.730
