~VERSION INFORMATION
 VERS.                 2.0:   CWLS LOG ASCII STANDARD -VERSION 2.0
 WRAP.                  NO:   ONE LINE PER DEPTH STEP
~WELL INFORMATION BLOCK
#MNEM.UNIT           DATA                    DESCRIPTION OF MNEMONIC
#---------    -------------------            -------------------------------
# Generated from Intellog Unique Number	CS_71_72/WELL/914
WELL.         PEX PHILLIPS AEC GRIST         : Well_name    - WELL
LOC .         00/11-35-071-08W4/0            : Location     - LOCATION
UWI .         00/11-35-071-08W4/0            : Uwi          - UNIQUE WELL ID
ENTR.         SP                             : Entered      - ENTERED BY
SRVC.         SCHLUMBERGER                   : Scn          - SERVICE COMPANY
STRT.M        300                            : top_depth    - START DEPTH
STOP.M        525                            : bot_depth    - STOP DEPTH
STEP.M        0.25                           : increment    - STEP LENGTH
 NULL. -999.2500:NULL Value
~CURVE INFORMATION BLOCK
#MNEM UNIT       ERCB CURVE CODE    CURVE DESCRIPTION
#-----------   ------------------   ----------------------------------
DEPT.M        00 001 00 00         : DEPTH        - DEPTH
ILD .OHMM     00 120 00 00         : RESD         - DEEP RESISTIVITY (DIL)
DPHI.V/V      00 890 00 00         : PHID         - DENSITY POROSITY (LIMESTONE)
NPHI.V/V      00 330 00 00         : PHIN         - NEUTRON POROSITY (LIMESTONE)
GR  .API      00 310 00 00         : GR           - GAMMA RAY
~PARAMETER INFORMATION
#MNEM.UNIT           DATA             DESCRIPTION OF MNEMONIC
#---------         -----------     ------------------------------
GL  .M        663.86               : gl           - GROUND LEVEL ELEVATION
EREF.M        666.86               : kb           - ELEVATION OF DEPTH REFERENCE
DATM.M        663.86               : datum        - DATUM ELEVATION
TDD .M        530                  : tdd          - TOTAL DEPTH DRILLER
RUN .         ONE                  : Run          - RUN NUMBER
ENG .         BILL                 : Engineer     - RECORDING ENGINEER
WIT .         JIM                  : Witness      - WITNESSED BY
MUD .         GEL                  : Mud_type     - MUD TYPE
MATR.         LIMESTONE            : Logunit      - NEUTRON MATRIX
TMAX.C        22                   : BHT          - MAXIMUM RECORDED TEMPERATURE
BHTD.M        530                  : BHTDEP       - MAXIMUM RECORDED TEMPERATURE
MATR.         1                    : LOGUNIT      - NEUTRON MATRIX
RMT .C        25                   : MDTP         - TEMPERATURE OF MUD
NEUT.         1                    : NEUTRON      - NEUTRON TYPE
RESI.         0                    : RESIST       - RESISTIVITY TYPE
RMC .OHMM     0.25                 : RMC          - RESISTIVITY OF MUD CAKE
RMF .OHMM     0.25                 : RMF          - RESISTIVITY OF MUD FILTRATE
SUFT.C        15                   : SUFT         - SURFACE TEMPERATURE
~A  DEPTH     RESD     PHID     PHIN       GR
# ...
  430.500    3.538    0.248    0.383   89.123
  430.750    3.728    0.256    0.396   96.883
  431.000    4.276    0.208    0.375  102.500
  431.250    4.849    0.201    0.355   89.480
  431.500    5.326    0.216    0.342   92.337
  431.750    5.708    0.223    0.349   97.524
  432.000    6.003    0.220    0.342   91.308
  432.250    6.183    0.211    0.335   85.582
  432.500    6.192    0.213    0.348   84.639
  432.750    6.050    0.217    0.375   90.070
  433.000    5.770    0.208    0.368   93.356
  433.250    4.876    0.201    0.366   99.952
  433.500    3.946    0.200    0.393  106.059
  433.750    2.906    0.223    0.424  109.713
  434.000    2.256    0.232    0.448  104.723
  434.250    2.087    0.225    0.431   99.916
  434.500    2.055    0.228    0.411   96.401
  434.750    2.089    0.245    0.408   94.108
  435.000    2.197    0.253    0.401   97.514
  435.250    2.487    0.248    0.412  101.108
  435.500    2.848    0.249    0.406  104.884
  435.750    3.223    0.238    0.397  103.513
  436.000    3.567    0.207    0.385  100.057
  436.250    3.925    0.202    0.371   92.123
  436.500    4.183    0.222    0.367   88.177
  436.750    4.374    0.239    0.381   86.008
  437.000    4.480    0.239    0.387   84.877
  437.250    4.546    0.217    0.400   89.699
  437.500    4.587    0.202    0.389   88.020
  437.750    4.815    0.188    0.372   92.468
  438.000    5.268    0.179    0.361   94.960
  438.250    5.787    0.173    0.359   95.729
  438.500    6.190    0.167    0.355   92.460
  438.750    6.281    0.161    0.350   89.309
  439.000    6.137    0.158    0.351   91.918
  439.250    5.941    0.177    0.363   90.793
  439.500    5.772    0.199    0.370   95.183
  439.750    5.630    0.200    0.363   90.133
  440.000    5.460    0.197    0.360   91.396
  440.250    5.396    0.219    0.375   99.952
  440.500    5.424    0.217    0.391   98.765
  440.750    5.472    0.212    0.394   95.676
  441.000    5.542    0.223    0.374   99.388
  441.250    5.571    0.215    0.363   97.404
  441.500    5.600    0.206    0.364   99.831
  441.750    5.566    0.198    0.356  105.510
  442.000    5.501    0.189    0.348  101.011
  442.250    5.416    0.192    0.371  100.740
  442.500    5.292    0.197    0.368   93.851
  442.750    5.181    0.182    0.361   87.819
  443.000    5.158    0.187    0.375   91.291
  443.250    5.185    0.194    0.380   90.531
  443.500    5.281    0.187    0.354   92.101
  443.750    5.359    0.174    0.341  100.352
  444.000    5.227    0.208    0.334  119.331
  444.250    5.050    0.230    0.378  134.079
  444.500    4.861    0.233    0.367   96.478
  444.750    4.643    0.209    0.370   93.022
  445.000    4.521    0.225    0.369   96.676
  445.250    4.351    0.236    0.359   97.142
  445.500    4.284    0.250    0.350   84.858
  445.750    4.234    0.203    0.346   89.984
  446.000    4.121    0.192    0.357   88.428
  446.250    3.813    0.204    0.346   93.612
  446.500    3.340    0.205    0.364   93.221
  446.750    3.032    0.202    0.378   90.991
  447.000    2.692    0.219    0.396   90.232
  447.250    2.407    0.245    0.423   85.978
  447.500    2.164    0.267    0.440   82.766
  447.750    2.160    0.241    0.452   90.831
  448.000    2.271    0.235    0.443   88.664
  448.250    2.485    0.234    0.420   93.236
  448.500    2.745    0.244    0.407  100.814
  448.750    2.998    0.234    0.408  101.035
  449.000    3.311    0.236    0.394   97.088
  449.250    3.616    0.231    0.377   95.102
  449.500    3.868    0.233    0.366   93.117
  449.750    4.030    0.232    0.354   89.840
  450.000    4.051    0.228    0.345   90.677
  450.250    4.049    0.225    0.349   89.979
  450.500    3.987    0.224    0.359   87.685
  450.750    3.917    0.224    0.361   86.008
  451.000    3.886    0.236    0.356   91.440
  451.250    3.936    0.221    0.358   92.394
  451.500    4.009    0.235    0.349   96.847
  451.750    4.099    0.262    0.359   90.264
  452.000    4.278    0.245    0.385   96.308
  452.250    4.655    0.246    0.363   91.135
  452.500    5.339    0.172    0.343   91.294
  452.750    6.251    0.190    0.330   93.662
  453.000    7.252    0.207    0.320   85.914
  453.250    8.752    0.223    0.304   78.472
  453.500    9.982    0.043    0.251   69.069
  453.750   10.636    0.024    0.224   59.851
  454.000   10.374    0.063    0.203   56.269
  454.250    7.890    0.100    0.266   53.980
  454.500    5.966    0.152    0.311   61.433
  454.750    4.874    0.221    0.349   68.213
  455.000    4.492    0.296    0.344   68.615
  455.250    4.348    0.277    0.349   65.773
  455.500    4.330    0.264    0.336   72.861
  455.750    4.336    0.254    0.328   70.263
  456.000    4.332    0.256    0.327   65.396
  456.250    4.331    0.262    0.346   64.453
  456.500    4.337    0.253    0.351   68.106
  456.750    4.344    0.270    0.337   71.269
  457.000    4.391    0.269    0.355   67.812
  457.250    4.422    0.269    0.361   72.448
  457.500    4.209    0.280    0.341   65.005
  457.750    4.335    0.275    0.331   67.004
  458.000    4.432    0.265    0.326   71.272
  458.250    4.557    0.259    0.341   70.203
  458.500    4.677    0.236    0.340   72.633
  458.750    4.782    0.200    0.331   69.361
  459.000    4.879    0.223    0.330   64.065
  459.250    4.960    0.238    0.341   68.147
  459.500    5.024    0.252    0.349   73.151
  459.750    4.993    0.241    0.353   75.088
  460.000    4.897    0.173    0.359   72.121
  460.250    4.705    0.189    0.363   67.072
  460.500    4.411    0.235    0.358   73.606
  460.750    4.182    0.247    0.358   73.950
  461.000    4.048    0.240    0.362   72.884
  461.250    3.986    0.234    0.362   77.824
  461.500    4.006    0.227    0.352   84.726
  461.750    4.237    0.222    0.342   92.303
  462.000    4.499    0.239    0.331   80.571
  462.250    4.758    0.226    0.329   72.211
  462.500    4.864    0.212    0.331   75.064
  462.750    4.880    0.205    0.345   79.090
  463.000    4.850    0.209    0.353   74.714
  463.250    4.821    0.224    0.352   68.315
  463.500    4.818    0.233    0.345   76.198
  463.750    4.807    0.196    0.341   78.870
  464.000    4.814    0.202    0.350   81.544
  464.250    4.821    0.222    0.360   87.771
  464.500    4.891    0.208    0.352   84.315
  464.750    5.115    0.194    0.356   89.438
  465.000    5.555    0.191    0.360   97.017
  465.250    6.135    0.192    0.332   92.457
  465.500    6.650    0.191    0.312   85.199
  465.750    7.236    0.206    0.321   83.949
  466.000    7.755    0.226    0.315   81.597
  466.250    8.202    0.222    0.308   75.198
  466.500    8.561    0.227    0.312   69.350
  466.750    8.953    0.229    0.310   71.348
  467.000    9.451    0.233    0.320   75.003
  467.250   10.053    0.211    0.315   74.181
  467.500   10.693    0.176    0.307   72.748
  467.750   11.182    0.030    0.296   66.962
  468.000   11.240    0.147    0.276   60.685
  468.250   11.004    0.224    0.295   66.789
  468.500   10.854    0.217    0.320   74.428
  468.750   10.849    0.204    0.326   77.470
  469.000   11.197    0.208    0.330   77.323
  469.250   11.643    0.221    0.334   79.137
  469.500   11.948    0.243    0.337   82.731
  469.750   11.899    0.268    0.339   86.813
  470.000   11.365    0.259    0.332   82.990
  470.250   10.919    0.228    0.321   85.723
  470.500   10.812    0.211    0.307   92.195
  470.750   11.544    0.219    0.306   96.892
  471.000   13.417    0.231    0.304   99.073
  471.250   15.740    0.243    0.321   98.990
  471.500   18.259    0.260    0.329   92.895
  471.750   20.092    0.266    0.336   84.966
  472.000   21.452    0.255    0.316   71.332
  472.250   21.442    0.266    0.314   67.508
  472.500   19.430    0.258    0.326   72.266
  472.750   17.148    0.249    0.324   77.452
  473.000   15.050    0.237    0.315   82.084
  473.250   13.332    0.226    0.315   84.698
  473.500   11.745    0.235    0.317   87.004
  473.750   10.113    0.227    0.315   89.432
