~VERSION INFORMATION
 VERS.                 2.0:   CWLS LOG ASCII STANDARD -VERSION 2.0
 WRAP.                  NO:   ONE LINE PER DEPTH STEP
~WELL INFORMATION BLOCK
#MNEM.UNIT           DATA                    DESCRIPTION OF MNEMONIC
#---------    -------------------            -------------------------------
# Generated from Intellog Unique Number	CW_70_72/WELL/1059
NULL.         -999.25                        : NULL_VALUE
WELL.         G&W ET AL DECRENE 11-20        : Well_name    - WELL              
LOC .         11-20-071-02W5                 : Location     - LOCATION          
UWI .         00/11-20-071-02W5/0             : Uwi          - UNIQUE WELL ID    
ENTR.         JAYE                           : Entered      - ENTERED BY        
SRVC.         SCHLUMBERGER                   : Scn          - SERVICE COMPANY   
DATE.         8 FEB 89                       : Date         - LOG DATE          
STRT.M        410                            : top_depth    - START DEPTH       
STOP.M        640                            : bot_depth    - STOP DEPTH        
STEP.M        0.25                           : increment    - STEP LENGTH       
~CURVE INFORMATION BLOCK
#MNEM UNIT       ERCB CURVE CODE    CURVE DESCRIPTION
#-----------   ------------------   ----------------------------------
DEPT.M        00 001 00 00         : DEPTH        - DEPTH                       
DPHI.V/V      00 890 00 00         : PHID         - DENSITY POROSITY (SANDSTONE)
NPHI.V/V      00 330 00 00         : PHIN         - NEUTRON POROSITY (SANDSTONE)
GR  .API      00 310 00 00         : GR           - GAMMA RAY                   
CALI.MM       00 280 01 00         : CAL          - CALIPER                     
ILD .OHMM     00 120 00 00         : RESD         - DEEP RESISTIVITY (DIL)      
~PARAMETER INFORMATION       
#MNEM.UNIT           DATA             DESCRIPTION OF MNEMONIC
#---------         -----------     ------------------------------
GL  .M        595.7                : gl           - GROUND LEVEL ELEVATION      
EREF.M        598.7                : kb           - ELEVATION OF DEPTH REFERENCE
DATM.M        595.7                : datum        - DATUM ELEVATION             
TDD .M        648                  : tdd          - TOTAL DEPTH DRILLER         
RUN .         ONE                  : Run          - RUN NUMBER                  
ENG .         KNAPIK               : Engineer     - RECORDING ENGINEER          
WIT .         ANDREWS              : Witness      - WITNESSED BY                
BASE.         EDM                  : Branch       - HOME BASE OF LOGGING UNIT   
MUD .         GEL CHEM             : Mud_type     - MUD TYPE                    
MATR.         SANDSTONE            : Logunit      - NEUTRON MATRIX              
TMAX.C        36                   : BHT          - MAXIMUM RECORDED TEMPERATURE
BHTD.M        648                  : BHTDEP       - MAXIMUM RECORDED TEMPERATURE
RMT .C        12                   : MDTP         - TEMPERATURE OF MUD          
MUDD.KG/M     1130                 : MWT          - MUD DENSITY                 
NEUT.         1                    : NEUTRON      - NEUTRON TYPE                
RESI.         0                    : RESIST       - RESISTIVITY TYPE            
RM  .OHMM     4.89                 : RM           - RESISTIVITY OF MUD          
RMC .OHMM     2.42                 : RMC          - RESISTIVITY OF MUD CAKE     
RMF .OHMM     5.37                 : RMF          - RESISTIVITY OF MUD FILTRATE 
SUFT.C        0                    : SUFT         - SURFACE TEMPERATURE         
~A  DEPTH     PHID     PHIN       GR      CAL     RESD
# ...
  592.500    0.093    0.303   95.474  163.260    6.149
  592.750    0.114    0.322  100.866  164.176    6.113
  593.000    0.127    0.341  105.229  164.990    6.500
  593.250    0.122    0.332  102.207  164.798    7.116
  593.500    0.109    0.318   96.401  163.593    7.763
  593.750    0.089    0.317   90.957  160.576    8.135
  594.000    0.048    0.262   86.785  159.271    7.827
  594.250   -0.001    0.247   92.238  162.507    7.106
  594.500    0.086    0.299   97.448  166.247    6.592
  594.750    0.120    0.376  101.872  167.163    6.542
  595.000    0.130    0.379   96.066  164.650    6.956
  595.250    0.054    0.248   89.472  161.732    7.345
  595.500    0.002    0.236   80.639  159.925    7.145
  595.750    0.067    0.258   82.097  159.629    6.787
  596.000    0.098    0.304  103.530  160.645    6.377
  596.250    0.117    0.376  110.496  161.966    6.203
  596.500    0.118    0.387  103.782  162.477    6.269
  596.750    0.097    0.328   98.520  162.787    6.511
  597.000    0.089    0.341   91.927  162.694    6.974
  597.250    0.085    0.330   86.725  162.098    7.552
  597.500    0.078    0.316   90.180  161.802    7.987
  597.750    0.084    0.296   94.301  161.409    8.188
  598.000    0.096    0.287   89.706  161.416    8.069
  598.250    0.088    0.294   89.771  161.524    7.637
  598.500    0.062    0.310   94.255  161.732    7.111
  598.750    0.056    0.326  101.766  162.749    6.634
  599.000    0.077    0.351  113.695  162.859    6.523
  599.250    0.094    0.355  107.889  161.555    6.678
  599.500    0.106    0.336   88.765  159.343    6.934
  599.750    0.130    0.272   62.559  157.535    7.388
  600.000    0.273    0.261   43.315  156.534    7.798
  600.250    0.291    0.286   31.939  155.836    7.837
  600.500    0.297    0.296   29.887  155.642    7.193
  600.750    0.293    0.300   29.891  155.851    6.084
  601.000    0.286    0.306   28.927  156.766    5.297
  601.250    0.277    0.319   27.116  158.086    4.739
  601.500    0.278    0.312   26.031  158.800    4.193
  601.750    0.282    0.302   24.159  159.010    3.698
  602.000    0.268    0.293   24.769  158.815    3.406
  602.250    0.256    0.289   26.589  158.016    3.189
  602.500    0.256    0.295   29.076  157.016    2.975
  602.750    0.263    0.297   31.018  156.922    2.796
  603.000    0.265    0.303   31.991  157.132    2.700
  603.250    0.267    0.316   32.359  156.636    2.651
  603.500    0.269    0.316   34.059  155.030    2.644
  603.750    0.272    0.310   35.940  154.028    2.639
  604.000    0.271    0.306   34.794  153.430    2.628
  604.250    0.268    0.305   35.344  153.035    2.618
  604.500    0.263    0.313   35.954  152.943    2.621
  604.750    0.261    0.318   34.506  153.052    2.640
  605.000    0.267    0.318   33.663  153.361    2.663
  605.250    0.265    0.310   34.334  154.077    2.691
  605.500    0.262    0.301   36.941  154.588    2.714
  605.750    0.261    0.295   39.307  155.201    2.773
  606.000    0.256    0.304   40.160  155.814    2.818
  606.250    0.254    0.317   39.921  155.922    2.863
  606.500    0.259    0.316   41.258  155.427    2.920
  606.750    0.255    0.310   45.258  154.627    2.994
  607.000    0.251    0.303   47.139  153.525    3.064
  607.250    0.259    0.302   47.508  153.231    3.130
  607.500    0.260    0.308   48.783  154.549    3.216
  607.750    0.256    0.313   50.423  156.172    3.286
  608.000    0.250    0.311   51.456  157.289    3.375
  608.250    0.246    0.313   53.276  156.692    3.486
  608.500    0.241    0.317   55.157  155.892    3.614
  608.750    0.237    0.317   55.708  154.992    3.733
  609.000    0.232    0.313   56.377  154.394    3.870
  609.250    0.228    0.305   58.380  153.191    3.975
  609.500    0.224    0.297   60.988  151.686    4.083
  609.750    0.219    0.292   62.506  150.887    4.179
  610.000    0.215    0.288   62.571  150.693    4.302
  610.250    0.211    0.303   61.062  150.600    4.386
  610.500    0.206    0.321   59.857  150.710    4.507
  610.750    0.198    0.324   61.979  151.019    4.611
  611.000    0.211    0.323   66.767  151.734    4.755
  611.250    0.206    0.319   70.404  153.860    4.884
  611.500    0.196    0.309   72.345  155.987    4.990
  611.750    0.183    0.300   72.531  156.801    5.062
  612.000    0.168    0.293   71.385  156.304    5.124
  612.250    0.158    0.297   67.335  153.388    5.245
  612.500    0.170    0.306   66.674  152.587    5.457
  612.750    0.186    0.305   69.705  155.218    5.656
  613.000    0.179    0.302   74.795  157.749    5.917
  613.250    0.170    0.299   79.702  158.160    6.373
  613.500    0.159    0.294   76.681  157.260    6.813
  613.750    0.150    0.288   70.995  155.956    7.405
  614.000    0.136    0.281   53.627  153.643    7.990
  614.250    0.114    0.259   46.125  151.835    8.297
  614.500    0.085    0.200   40.077  151.439    7.081
  614.750    0.081    0.217   37.418  152.557    5.215
  615.000    0.149    0.274   46.018  154.684    4.467
  615.250    0.213    0.317   50.139  156.205    3.932
  615.500    0.231    0.313   52.929  156.314    3.429
  615.750    0.240    0.308   55.173  156.321    3.136
  616.000    0.244    0.329   58.266  156.532    3.084
  616.250    0.245    0.330   60.752  156.843    3.174
  616.500    0.244    0.326   62.512  157.152    3.326
  616.750    0.240    0.318   57.976  157.463    3.517
  617.000    0.230    0.316   56.105  157.470    3.754
  617.250    0.221    0.312   55.988  157.378    4.013
  617.500    0.218    0.308   56.175  157.083    4.338
  617.750    0.213    0.297   57.269  156.990    4.724
  618.000    0.200    0.286   59.877  156.695    4.960
  618.250    0.185    0.274   63.090  156.198    5.123
  618.500    0.179    0.266   66.787  155.197    5.300
  618.750    0.186    0.283   71.270  153.187    5.555
  619.000    0.207    0.307   76.966  151.783    5.810
  619.250    0.201    0.324   83.447  153.203    6.259
  619.500    0.163    0.296   78.609  156.136    6.678
  619.750    0.140    0.268   72.864  159.575    7.526
  620.000    0.050    0.237   71.052  161.399    8.375
  620.250    0.026    0.222   72.268  162.113    8.729
  620.500    0.037    0.225   75.662  162.624    8.447
  620.750    0.043    0.230   78.875  163.239    8.230
  621.000    0.044    0.237   83.481  163.246    7.977
  621.250    0.045    0.247   84.757  162.952    7.716
  621.500    0.051    0.254   84.579  162.757    7.453
  621.750    0.062    0.254   87.429  162.463    7.275
  622.000    0.064    0.253   89.734  162.369    7.091
  622.250    0.059    0.253   90.223  162.478    6.973
  622.500    0.052    0.254   92.104  162.586    6.894
  622.750    0.048    0.258   92.351  162.595    6.817
  623.000    0.045    0.263   92.598  162.402    6.730
  623.250    0.054    0.265   91.634  162.408    6.665
  623.500    0.071    0.259   92.789  162.619    6.639
  623.750    0.066    0.250   86.135  163.131    6.671
  624.000    0.055    0.239   84.202  163.541    6.705
  624.250    0.056    0.261   88.747  163.853    6.727
  624.500    0.071    0.265   92.626  164.063    6.750
  624.750    0.075    0.258   94.084  164.071    6.748
  625.000    0.079    0.252  158.960  163.978    6.770
  625.250    0.068    0.253  165.748  163.884    6.853
  625.500    0.047    0.254  168.779  163.690    6.900
  625.750    0.047    0.249  160.407  163.899    6.899
  626.000    0.062    0.264  173.207  163.806    6.909
  626.250    0.071    0.252  210.371  164.016    6.892
  626.500    0.068    0.250  302.150  164.024    6.878
  626.750    0.066    0.256  316.766  164.134    6.875
  627.000    0.068    0.261  323.929  164.342    6.886
  627.250    0.066    0.271  328.588  164.351    6.883
  627.500    0.063    0.277  331.992  164.460    6.892
  627.750    0.059    0.268  333.393  164.466    6.904
  628.000    0.067    0.263  331.850  164.173    6.900
  628.250    0.079    0.259  327.237  163.877    6.884
  628.500    0.083    0.264  317.865  163.683    6.833
  628.750    0.081    0.267  307.366  163.489    6.805
