~VERSION INFORMATION
 VERS.                 2.0:   CWLS LOG ASCII STANDARD -VERSION 2.0
 WRAP.                  NO:   ONE LINE PER DEPTH STEP
~WELL INFORMATION BLOCK
#MNEM.UNIT           DATA                    DESCRIPTION OF MNEMONIC
#---------    -------------------            -------------------------------
# Generated from Intellog Unique Number	CN_94_101/WELL/2757
WELL.         PARAMOUNT LTD.                 : Well_name    - WELL
LOC .         00/10-03-094-21W4/0            : Location     - LOCATION
UWI .         00/10-03-094-21W4/0            : Uwi          - UNIQUE WELL ID
ENTR.         JOETTE                         : Entered      - ENTERED BY
SRVC.         COMPUTALOG                     : Scn          - SERVICE COMPANY
DATE.         07/03/92                       : Date         - LOG DATE
STRT.M        200                            : top_depth    - START DEPTH
STOP.M        364.25                         : bot_depth    - STOP DEPTH
STEP.M        0.25                           : increment    - STEP LENGTH
 NULL. -999.2500:NULL Value
~CURVE INFORMATION BLOCK
#MNEM UNIT       ERCB CURVE CODE    CURVE DESCRIPTION
#-----------   ------------------   ----------------------------------
DEPT.M        00 001 00 00         : DEPTH        - DEPTH
CALI.MM       00 280 01 00         : CAL          - CALIPER
GR  .API      00 310 00 00         : GR           - GAMMA RAY
NPHI.V/V      00 330 00 00         : PHIN         - NEUTRON POROSITY (SANDSTONE)
DPHI.V/V      00 890 00 00         : PHID         - DENSITY POROSITY (SANDSTONE)
ILD .OHMM     00 120 00 00         : RESD         - DEEP RESISTIVITY (DIL)
~PARAMETER INFORMATION
#MNEM.UNIT           DATA             DESCRIPTION OF MNEMONIC
#---------         -----------     ------------------------------
GL  .M        615.5                : gl           - GROUND LEVEL ELEVATION
EREF.M        618.8                : kb           - ELEVATION OF DEPTH REFERENCE
DATM.M        618.8                : datum        - DATUM ELEVATION
TDD .M        367                  : tdd          - TOTAL DEPTH DRILLER
RUN .         ONE                  : Run          - RUN NUMBER
ENG .         BILL                 : Engineer     - RECORDING ENGINEER
WIT .         JIM                  : Witness      - WITNESSED BY
MUD .         GEL                  : Mud_type     - MUD TYPE
MATR.         SANDSTONE            : Logunit      - NEUTRON MATRIX
TMAX.C        35                   : BHT          - MAXIMUM RECORDED TEMPERATURE
BHTD.M        367                  : BHTDEP       - MAXIMUM RECORDED TEMPERATURE
RMT .C        16                   : MDTP         - TEMPERATURE OF MUD
MUDD.KG/M     1120                 : MWT          - MUD DENSITY
NEUT.         1                    : NEUTRON      - NEUTRON TYPE
RESI.         0                    : RESIST       - RESISTIVITY TYPE
RM  .OHMM     5                    : RM           - RESISTIVITY OF MUD
RMC .OHMM     5                    : RMC          - RESISTIVITY OF MUD CAKE
RMF .OHMM     5                    : RMF          - RESISTIVITY OF MUD FILTRATE
SUFT.C        4                    : SUFT         - SURFACE TEMPERATURE
~A  DEPTH      CAL       GR     PHIN     PHID     RESD
# ...
  309.500  167.105  105.573    0.418    0.192    7.393
  309.750  168.126  103.786    0.407    0.229    8.882
  310.000  169.139   87.016    0.400    0.247    9.916
  310.250  170.156   79.835    0.389    0.155   10.864
  310.500  172.173   72.654    0.368    0.112   11.679
  310.750  174.189   71.466    0.351    0.105   12.325
  311.000  176.214   75.073    0.347    0.235   12.546
  311.250  176.223   75.090    0.393    0.255   13.493
  311.500  177.241   71.499    0.402    0.256   12.746
  311.750  177.264   68.514    0.421    0.250   10.004
  312.000  177.282   75.717    0.454    0.235    7.995
  312.250  176.306   88.314    0.462    0.224    6.760
  312.500  175.316   96.118    0.438    0.214    5.928
  312.750  174.340  103.321    0.433    0.201    5.396
  313.000  173.355  103.335    0.427    0.191    5.187
  313.250  171.381   99.748    0.419    0.185    5.280
  313.500  170.405   96.165    0.423    0.185    5.574
  313.750  169.415   91.978    0.423    0.196    6.339
  314.000  168.439   92.591    0.414    0.204    7.479
  314.250  168.462   90.203    0.402    0.197    8.824
  314.500  168.471   92.011    0.399    0.192    9.148
  314.750  167.491   93.221    0.411    0.198    9.480
  315.000  166.515   92.034    0.423    0.206   10.008
  315.250  166.543   90.846    0.428    0.177   10.177
  315.500  166.552   89.661    0.424    0.157   10.944
  315.750  166.575   88.474    0.421    0.143   11.558
  316.000  166.598   87.885    0.416    0.128   12.430
  316.250  166.607   87.294    0.415    0.132   12.408
  316.500  166.630   87.311    0.414    0.172   11.940
  316.750  166.648   89.117    0.410    0.254   10.868
  317.000  167.661   90.926    0.401    0.274   10.650
  317.250  167.679   89.738    0.394    0.244   11.045
  317.500  168.697   84.952    0.376    0.241   12.095
  317.750  170.713   78.970    0.382    0.270   13.008
  318.000  171.735   77.183    0.384    0.276   13.480
  318.250  172.747   81.392    0.375    0.285   13.209
  318.500  174.773   81.999    0.361    0.298   12.716
  318.750  175.781   79.613    0.349    0.173   11.574
  319.000  175.808   73.032    0.353    0.150   11.342
  319.250  175.822   67.649    0.364    0.110   12.198
  319.500  175.836   61.666    0.389    0.145   13.118
  319.750  175.854   55.085    0.414    0.267   14.112
  320.000  175.873   52.099    0.423    0.275   15.755
  320.250  175.891   68.897    0.428    0.254   16.626
  320.500  175.909   73.700    0.434    0.247   16.304
  320.750  175.928   80.903    0.446    0.247   14.835
  321.000  175.946   84.510    0.468    0.245   11.644
  321.250  175.965   89.316    0.466    0.243    9.484
  321.500  175.992   92.923    0.458    0.242    7.869
  321.750  176.006   98.328    0.453    0.245    6.775
  322.000  175.035  100.139    0.457    0.249    5.941
  322.250  175.049   94.756    0.459    0.262    5.307
  322.500  174.068   91.169    0.403    0.270    5.400
  322.750  174.086   85.786    0.373    0.155    6.027
  323.000  173.101   79.804    0.345    0.144    7.803
  323.250  173.120   73.222    0.288    0.110   11.287
  323.500  173.143   67.839    0.311    0.069   14.610
  323.750  173.156   61.258    0.320    0.051   19.263
  324.000  173.184   55.877    0.347    0.059   22.726
  324.250  173.198   54.088    0.357    0.075   22.278
  324.500  173.212   53.502    0.383    0.219   19.899
  324.750  173.244   54.709    0.397    0.234   18.120
  325.000  173.258   60.114    0.419    0.225   15.029
  325.250  172.268   70.316    0.438    0.220   12.945
  325.500  172.291   75.721    0.407    0.219   10.942
  325.750  172.314   77.530    0.395    0.220    8.585
  326.000  172.323   79.939    0.390    0.219    7.528
  326.250  172.342   82.946    0.382    0.107    7.655
  326.500  172.365   87.752    0.371    0.086    7.936
  326.750  172.378   88.362    0.348    0.063    8.697
  327.000  172.401   85.976    0.340    0.032   11.257
  327.250  172.415   81.193    0.318   -0.009   14.847
  327.500  174.440   75.810    0.324    0.029   18.178
  327.750  175.453   71.026    0.365    0.227   21.847
  328.000  176.475   59.650    0.381    0.215   21.809
  328.250  176.489   55.466    0.356    0.201   19.852
  328.500  176.516   69.861    0.348    0.174   18.415
  328.750  176.530   76.467    0.348    0.158   15.856
  329.000  175.554   81.270    0.392    0.131   14.163
  329.250  175.563   83.678    0.404    0.167   13.133
  329.500  175.582   80.093    0.423    0.191   12.406
  329.750  174.601   80.704    0.425    0.204   12.161
  330.000  174.620   86.708    0.415    0.211   11.917
  330.250  173.644   89.718    0.405    0.211   11.900
  330.500  173.658   89.732    0.401    0.210   11.666
  330.750  172.686   92.135    0.398    0.209   11.020
  331.000  172.700   95.748    0.394    0.208   10.608
  331.250  172.723   94.560    0.399    0.208    9.649
  331.500  172.732   92.171    0.412    0.205    9.121
  331.750  172.755   91.582    0.406    0.205    8.147
  332.000  172.769   95.189    0.393    0.209    7.843
  332.250  172.797   98.200    0.384    0.209    7.682
  332.500  172.811   96.413    0.379    0.187    8.107
  332.750  173.823   94.024    0.370    0.158    8.565
  333.000  174.845   92.237    0.370    0.136    9.383
  333.250  175.858   94.046    0.379    0.148   10.279
  333.500  175.876   98.852    0.390    0.172   11.055
  333.750  171.908   99.465    0.394    0.188   11.674
  334.000  167.926   97.681    0.389    0.198   12.316
  334.250  167.954   98.288    0.381    0.207   12.303
  334.500  167.968  101.895    0.374    0.212   12.290
  334.750  169.989  103.701    0.368    0.215   12.273
  335.000  169.998  101.920    0.367    0.216   12.251
  335.250  172.019  100.727    0.372    0.217   12.467
  335.500  173.036  100.738    0.378    0.221   12.683
  335.750  174.053  103.146    0.373    0.225   13.139
  336.000  174.067  103.759    0.365    0.223   13.866
  336.250  176.092  100.172    0.354    0.210   14.115
  336.500  178.104   93.593    0.337    0.073   15.180
  336.750  179.116   95.402    0.317    0.001   16.630
  337.000  180.138   96.612    0.298    0.019   17.884
  337.250  179.162   96.625    0.320    0.052   17.859
  337.500  178.173   93.637    0.358    0.080   17.179
  337.750  175.204   73.868    0.389    0.126   16.537
  338.000  173.220   80.474    0.420    0.166   15.043
  338.250  171.245   90.674    0.415    0.195   14.209
  338.500  170.264   97.876    0.407    0.138   13.678
  338.750  170.278  104.480    0.401    0.168   13.162
  339.000  169.293  100.299    0.409    0.183   12.903
  339.250  167.323   99.710    0.416    0.195   12.416
  339.500  167.337  101.519    0.414    0.203   11.944
  339.750  168.359  103.326    0.358    0.172   11.708
  340.000  169.371  106.935    0.340    0.149   11.692
  340.250  170.389  108.742    0.352    0.111   11.898
  340.500  172.405  109.355    0.362    0.089   12.556
  340.750  174.421   93.781    0.374    0.066   14.017
  341.000  176.437   81.808    0.384    0.076   15.351
  341.250  177.454   84.813    0.392    0.192   15.616
  341.500  178.472   89.019    0.387    0.212   15.314
  341.750  179.493   93.825    0.385    0.215   14.731
  342.000  179.512   95.634    0.384    0.215   13.910
  342.250  179.526   96.846    0.377    0.215   13.386
  342.500  175.558   96.854    0.373    0.210   13.376
  342.750  174.568   96.868    0.374    0.202   12.395
  343.000  172.589   97.481    0.388    0.197   12.155
  343.250  171.608  102.287    0.388    0.197   11.915
  343.500  169.629  104.693    0.375    0.196   12.343
  343.750  168.648  106.504    0.356    0.187   12.565
  344.000  166.669  106.518    0.358    0.175   12.313
  344.250  164.694  105.325    0.369    0.187   12.074
  344.500  163.714  105.938    0.381    0.202   11.615
  344.750  163.737  107.148    0.392    0.215   11.599
  345.000  162.752  106.559    0.400    0.226   12.020
  345.250  162.765  107.167    0.414    0.225   12.460
  345.500  162.793  106.579    0.406    0.176   13.400
  345.750  163.801  106.593    0.387    0.160   12.895
