~VERSION INFORMATION
 VERS.                 2.0:   CWLS LOG ASCII STANDARD -VERSION 2.0
 WRAP.                  NO:   ONE LINE PER DEPTH STEP
~WELL INFORMATION BLOCK
#MNEM.UNIT           DATA                    DESCRIPTION OF MNEMONIC
#---------    -------------------            -------------------------------
# Generated from Intellog Unique Number	CS_73_76/WELL/4865
WELL.         ANDERSON EXPLORATION LTD.      : Well_name    - WELL
LOC .         00/14-33-076-03W4/0            : Location     - LOCATION
UWI .         00/14-33-076-03W4/0            : Uwi          - UNIQUE WELL ID
ENTR.         JO                             : Entered      - ENTERED BY
SRVC.         COMPUTALOG                     : Scn          - SERVICE COMPANY
DATE.         05/25/92                       : Date         - LOG DATE
STRT.M        200                            : top_depth    - START DEPTH
STOP.M        465                            : bot_depth    - STOP DEPTH
STEP.M        0.25                           : increment    - STEP LENGTH
 NULL. -999.2500:NULL Value
~CURVE INFORMATION BLOCK
#MNEM UNIT       ERCB CURVE CODE    CURVE DESCRIPTION
#-----------   ------------------   ----------------------------------
DEPT.M        00 001 00 00         : DEPTH        - DEPTH
ILD .OHMM     00 120 00 00         : RESD         - DEEP RESISTIVITY (DIL)
DPHI.V/V      00 890 00 00         : PHID         - DENSITY POROSITY (SANDSTONE)
NPHI.V/V      00 330 00 00         : PHIN         - NEUTRON POROSITY (SANDSTONE)
GR  .API      00 310 00 00         : GR           - GAMMA RAY
~PARAMETER INFORMATION
#MNEM.UNIT           DATA             DESCRIPTION OF MNEMONIC
#---------         -----------     ------------------------------
GL  .M        584.6                : gl           - GROUND LEVEL ELEVATION
EREF.M        588.2                : kb           - ELEVATION OF DEPTH REFERENCE
DATM.M        588.2                : datum        - DATUM ELEVATION
TDD .M        471.2                : tdd          - TOTAL DEPTH DRILLER
RUN .         ONE                  : Run          - RUN NUMBER
ENG .         BILL                 : Engineer     - RECORDING ENGINEER
WIT .         JIM                  : Witness      - WITNESSED BY
MUD .         GEL                  : Mud_type     - MUD TYPE
MATR.         SANDSTONE            : Logunit      - NEUTRON MATRIX
TMAX.C        20                   : BHT          - MAXIMUM RECORDED TEMPERATURE
BHTD.M        471.2                : BHTDEP       - MAXIMUM RECORDED TEMPERATURE
MATR.         1                    : LOGUNIT      - NEUTRON MATRIX
RMT .C        16                   : MDTP         - TEMPERATURE OF MUD
NEUT.         1                    : NEUTRON      - NEUTRON TYPE
RESI.         0                    : RESIST       - RESISTIVITY TYPE
RMC .OHMM     2.7                  : RMC          - RESISTIVITY OF MUD CAKE
RMF .OHMM     3.4                  : RMF          - RESISTIVITY OF MUD FILTRATE
SUFT.C        15                   : SUFT         - SURFACE TEMPERATURE
~A  DEPTH     RESD     PHID     PHIN       GR
  200.000    3.152    0.284    0.519   92.587
  200.250    3.212    0.286    0.501   91.413
  200.500    3.212    0.287    0.477   94.959
  200.750    3.212    0.282    0.462   92.605
  201.000    3.272    0.245    0.467   94.969
  201.250    3.272    0.234    0.517   94.384
  201.500    3.334    0.249    0.508   91.442
  201.750    3.334    0.264    0.498   95.577
  202.000    3.334    0.261    0.503   96.760
  202.250    3.398    0.257    0.512   98.535
  202.500    3.398    0.259    0.520   99.133
  202.750    3.398    0.260    0.528  100.316
  203.000    3.462    0.265    0.533  100.321
  203.250    3.527    0.267    0.529   96.790
  203.500    3.527    0.263    0.522   97.975
  203.750    3.594    0.255    0.496  103.878
  204.000    3.732    0.246    0.489  106.833
  204.250    3.948    0.244    0.474  102.121
  204.500    3.948    0.249    0.467   99.178
  204.750    4.099    0.252    0.466   98.004
  205.000    4.176    0.252    0.466  103.907
  205.250    4.176    0.224    0.471  106.271
  205.500    4.099    0.196    0.478   99.200
  205.750    3.948    0.186    0.503   94.490
  206.000    3.662    0.193    0.517   95.084
  206.250    3.527    0.210    0.531  100.987
  206.500    3.462    0.225    0.530  105.710
  206.750    3.462    0.237    0.507  108.075
  207.000    3.462    0.238    0.492  105.721
  207.250    3.462    0.238    0.489  105.727
  207.500    3.594    0.241    0.497  106.323
  207.750    3.662    0.245    0.505  103.380
  208.000    3.874    0.246    0.516  101.027
  208.250    3.948    0.240    0.539   99.263
  208.500    4.255    0.232    0.556   99.269
  208.750    4.502    0.227    0.562  101.045
  209.000    6.192    0.231    0.535  102.230
  209.250    6.310    0.238    0.484  103.415
  209.500    6.429    0.245    0.421  101.652
  209.750    6.801    0.251    0.377   98.119
  210.000    7.061    0.215    0.369   90.459
  210.250    7.903    0.179    0.447   73.363
  210.500    8.360    0.165    0.457   61.574
  210.750    9.356    0.230    0.455   66.887
  211.000   10.276    0.285    0.424   75.149
  211.250   11.077    0.383    0.417   41.541
  211.500   12.166    0.331    0.390   31.521
  211.750   12.166    0.285    0.369   33.886
  212.000   12.396    0.252    0.365   50.993
  212.250   12.396    0.165    0.349   62.204
  212.500   11.940    0.128    0.395   62.799
  212.750   10.669    0.192    0.426   74.009
  213.000    9.356    0.234    0.431   84.040
  213.250    8.844    0.259    0.423   84.047
  213.500    8.052    0.252    0.421   82.284
  213.750    8.052    0.244    0.419   83.470
  214.000    8.360    0.242    0.416   85.242
  214.250    8.680    0.246    0.404   88.788
  214.500    9.012    0.257    0.402   89.383
  214.750   11.940    0.268    0.411   83.492
  215.000   12.396    0.275    0.413   75.831
  215.250   12.631    0.255    0.407   88.222
  215.500   13.873    0.255    0.403   91.765
  215.750   14.403    0.270    0.419   94.719
  216.000   15.820    0.299    0.432   95.314
  216.250   16.424    0.312    0.432   89.423
  216.500   17.704    0.299    0.428   78.814
  216.750   18.040    0.284    0.407   81.180
  217.000   18.040    0.288    0.363   82.955
  217.250   17.704    0.290    0.348   81.782
  217.500   17.375    0.288    0.357   80.606
  217.750   16.735    0.283    0.382   81.792
  218.000   15.526    0.257    0.396   85.925
  218.250   14.676    0.238    0.394   91.828
  218.500   12.870    0.238    0.386   94.783
  218.750   12.396    0.248    0.379   97.148
  219.000   11.286    0.220    0.378  101.280
  219.250   11.500    0.178    0.379  100.106
  219.500   12.631    0.202    0.383   94.216
  219.750   14.136    0.240    0.390   94.812
  220.000   16.119    0.287    0.400   97.178
  220.250   17.375    0.299    0.409   93.644
  220.500   17.704    0.322    0.414   88.932
  220.750   17.704    0.295    0.419   88.937
  221.000   17.375    0.282    0.421   92.481
  221.250   17.052    0.260    0.415   96.615
  221.500   16.424    0.253    0.409   98.390
  221.750   16.119    0.264    0.400  100.165
  222.000   15.526    0.279    0.392  103.119
  222.250   15.526    0.285    0.399  104.304
  222.500   14.954    0.258    0.409  100.183
  222.750   14.676    0.251    0.418   96.651
  223.000   14.403    0.245    0.413   96.655
  223.250   14.136    0.253    0.406   96.661
  223.500   14.676    0.266    0.395   96.076
  223.750   17.375    0.282    0.379   86.647
  224.000   18.729    0.256    0.384   75.448
  224.250   20.189    0.251    0.401   74.274
  224.500   20.571    0.252    0.422   73.690
  224.750   20.189    0.265    0.450   67.799
  225.000   18.040    0.272    0.439   74.881
  225.250   16.119    0.271    0.444   80.195
  225.500   14.136    0.264    0.434   83.740
  225.750   12.870    0.265    0.412   87.873
  226.000   11.286    0.273    0.434   93.186
  226.250   10.471    0.266    0.437   97.911
  226.500    9.898    0.260    0.434   96.737
  226.750    9.356    0.249    0.424   94.974
  227.000    9.012    0.242    0.429   99.697
  227.250    8.680    0.241    0.442  102.061
  227.500    8.360    0.256    0.445  104.427
  227.750    8.518    0.282    0.409  102.072
  228.000    9.182    0.285    0.383   95.001
  228.250   10.085    0.240    0.368   92.648
  228.500   10.669    0.221    0.342   92.064
  228.750   11.718    0.211    0.355   90.892
  229.000   12.166    0.208    0.349   87.949
  229.250   13.114    0.195    0.345   85.006
  229.500   13.615    0.179    0.378   82.061
  229.750   14.136    0.236    0.400   77.350
  230.000   13.873    0.217    0.395   72.637
  230.250   13.362    0.206    0.397   69.106
  230.500   12.631    0.199    0.395   72.650
  230.750   11.718    0.225    0.389   73.246
  231.000   10.871    0.262    0.415   72.072
  231.250   10.085    0.232    0.416   72.078
  231.500    9.012    0.219    0.417   83.878
  231.750    8.518    0.207    0.439   98.037
  232.000    7.612    0.195    0.464  105.710
  232.250    7.061    0.191    0.482  108.663
  232.500    6.551    0.201    0.477  116.335
  232.750    6.077    0.212    0.483  127.545
  233.000    5.745    0.199    0.504  124.602
  233.250    5.430    0.200    0.523  119.890
  233.500    5.231    0.201    0.537  121.665
  233.750    4.418    0.204    0.524  125.799
  234.000    4.674    0.197    0.524  126.984
  234.250    4.502    0.215    0.529  120.504
  234.500    4.336    0.244    0.530  116.971
  234.750    4.336    0.259    0.498  119.924
  235.000    5.038    0.232    0.469  131.726
  235.250    5.854    0.203    0.457  112.861
  235.500    6.551    0.197    0.450  104.610
  235.750    7.331    0.185    0.454  106.975
  236.000    7.756    0.215    0.449  112.878
  236.250    8.360    0.257    0.433  113.473
  236.500    9.898    0.294    0.428  104.633
  236.750   14.676    0.313    0.427   90.486
  237.000   15.820    0.320    0.407   76.928
  237.250   17.375    0.314    0.392   66.908
  237.500   17.052    0.304    0.393   61.608
  237.750   16.424    0.273    0.393   67.509
  238.000   15.526    0.264    0.381   75.771
  238.250   15.526    0.263    0.406   81.675
  238.500   15.526    0.269    0.417   80.500
  238.750   15.820    0.279    0.427   82.865
  239.000   16.424    0.294    0.437   87.000
  239.250   17.052    0.305    0.415   84.056
  239.500   17.704    0.315    0.406   81.114
  239.750   18.040    0.311    0.396   83.479
  240.000   18.729    0.310    0.386   84.074
  240.250   19.084    0.314    0.394   82.311
  240.500   19.084    0.324    0.403   79.957
  240.750   19.445    0.325    0.414   77.604
  241.000   19.813    0.316    0.425   75.841
  241.250   20.189    0.305    0.418   77.616
  241.500   20.189    0.305    0.388   82.339
  241.750   20.189    0.305    0.382   85.295
  242.000   20.571    0.301    0.398   85.301
  242.250   20.960    0.304    0.402   88.255
  242.500   22.593    0.309    0.394   91.208
  242.750   23.021    0.292    0.397   90.624
  243.000   22.593    0.289    0.400   92.988
  243.250   20.571    0.294    0.397   92.404
