~VERSION INFORMATION
 VERS.                 2.0:   CWLS LOG ASCII STANDARD -VERSION 2.0
 WRAP.                  NO:   ONE LINE PER DEPTH STEP
~WELL INFORMATION BLOCK
#MNEM.UNIT           DATA                    DESCRIPTION OF MNEMONIC
#---------    -------------------            -------------------------------
# Generated from Intellog Unique Number	CW_70_72/WELL/3031
NULL.         -999.25                        : NULL_VALUE
WELL.         SULPETRO ET AL PARKER 11-23    : Well_name    - WELL              
LOC .         11-23-070-05W5                 : Location     - LOCATION          
UWI .         00/11-23-070-05W5/0            : Uwi          - UNIQUE WELL ID    
ENTR.         JAYE                           : Entered      - ENTERED BY        
SRVC.         SCHLUMBERGER                   : Scn          - SERVICE COMPANY   
DATE.         2 APR 82                       : Date         - LOG DATE          
STRT.M        660                            : top_depth    - START DEPTH       
STOP.M        905                            : bot_depth    - STOP DEPTH        
STEP.M        0.25                           : increment    - STEP LENGTH       
~CURVE INFORMATION BLOCK
#MNEM UNIT       ERCB CURVE CODE    CURVE DESCRIPTION
#-----------   ------------------   ----------------------------------
DEPT.M        00 001 00 00         : DEPTH        - DEPTH                       
ILD .OHMM     00 120 00 00         : RESD         - DEEP RESISTIVITY (DIL)      
CALI.MM       00 280 01 00         : CAL          - CALIPER                     
GR  .API      00 310 00 00         : GR           - GAMMA RAY                   
NPHI.V/V      00 330 00 00         : PHIN         - NEUTRON POROSITY (SANDSTONE)
DPHI.V/V      00 890 00 00         : PHID         - DENSITY POROSITY (SANDSTONE)
~PARAMETER INFORMATION       
#MNEM.UNIT           DATA             DESCRIPTION OF MNEMONIC
#---------         -----------     ------------------------------
GL  .M        779.8                : gl           - GROUND LEVEL ELEVATION      
EREF.M        782.7                : kb           - ELEVATION OF DEPTH REFERENCE
DATM.M        779.8                : datum        - DATUM ELEVATION             
TDD .M        926                  : tdd          - TOTAL DEPTH DRILLER         
RUN .         ONE                  : Run          - RUN NUMBER                  
ENG .         VANDENBRINK          : Engineer     - RECORDING ENGINEER          
WIT .         SPRATT               : Witness      - WITNESSED BY                
BASE.         EDM                  : Branch       - HOME BASE OF LOGGING UNIT   
MUD .         GEL CHEM             : Mud_type     - MUD TYPE                    
MATR.         SANDSTONE            : Logunit      - NEUTRON MATRIX              
TMAX.C        35.5                 : BHT          - MAXIMUM RECORDED TEMPERATURE
BHTD.M        928                  : BHTDEP       - MAXIMUM RECORDED TEMPERATURE
RMT .C        18.8                 : MDTP         - TEMPERATURE OF MUD          
MUDD.KG/M     1210                 : MWT          - MUD DENSITY                 
NEUT.         1                    : NEUTRON      - NEUTRON TYPE                
RESI.         0                    : RESIST       - RESISTIVITY TYPE            
RM  .OHMM     0.644                : RM           - RESISTIVITY OF MUD          
RMC .OHMM     0.25                 : RMC          - RESISTIVITY OF MUD CAKE     
RMF .OHMM     0.598                : RMF          - RESISTIVITY OF MUD FILTRATE 
SUFT.C        0                    : SUFT         - SURFACE TEMPERATURE         
~A  DEPTH     RESD      CAL       GR     PHIN     PHID
# ...
  842.500    4.451  162.711  104.948    0.343    0.119
  842.750    4.699  162.529  108.282    0.359    0.112
  843.000    5.122  162.354   96.479    0.347    0.099
  843.250    5.520  162.283   90.555    0.315    0.087
  843.500    5.804  161.999   89.824    0.296    0.074
  843.750    5.745  161.831   89.655    0.286    0.062
  844.000    5.433  161.750   91.426    0.282    0.047
  844.250    5.100  161.368   98.201    0.304    0.088
  844.500    4.805  160.989  102.037    0.346    0.103
  844.750    4.484  160.909   97.301    0.353    0.112
  845.000    4.242  160.942   96.632    0.344    0.115
  845.250    3.989  161.182  100.216    0.349    0.120
  845.500    3.737  161.212  105.178    0.362    0.134
  845.750    3.514  160.930  104.384    0.373    0.152
  846.000    3.336  157.110   93.394    0.389    0.174
  846.250    3.143  154.844   85.092    0.394    0.197
  846.500    2.990  152.999   83.361    0.386    0.189
  846.750    2.982  152.201   88.760    0.389    0.175
  847.000    3.047  152.339   81.835    0.427    0.198
  847.250    3.150  153.516   73.658    0.442    0.214
  847.500    3.402  154.796   78.871    0.427    0.167
  847.750    3.723  156.184   84.144    0.329    0.134
  848.000    3.769  157.261   95.299    0.330    0.123
  848.250    3.823  157.706   98.632    0.361    0.136
  848.500    3.791  157.739   98.465    0.383    0.141
  848.750    3.759  157.877   94.542    0.384    0.138
  849.000    3.785  158.016   94.811    0.379    0.135
  849.250    3.890  158.463   97.271    0.357    0.145
  849.500    3.932  159.325   99.918    0.349    0.147
  849.750    3.988  160.819  100.501    0.346    0.144
  850.000    3.977  160.626   97.786    0.358    0.130
  850.250    4.174  160.629  110.325    0.362    0.129
  850.500    4.218  162.096  117.411    0.368    0.128
  850.750    4.237  163.980  112.022    0.375    0.133
  851.000    4.170  165.238  111.460    0.383    0.134
  851.250    4.058  165.972  112.403    0.391    0.132
  851.500    3.774  167.126  108.707    0.407    0.142
  851.750    3.250  167.443  106.202    0.413    0.138
  852.000    2.680  167.237  102.255    0.402    0.135
  852.250    2.093  167.450   97.556    0.452    0.188
  852.500    1.745  168.812   93.546    0.513    0.238
  852.750    1.439  171.532   93.110    0.545    0.236
  853.000    1.294  175.088   94.491    0.557    0.230
  853.250    1.243  178.435   97.565    0.565    0.222
  853.500    1.223  182.304  100.388    0.559    0.210
  853.750    1.236  178.233  100.892    0.494    0.187
  854.000    1.287  168.208  100.831    0.500    0.180
  854.250    1.368  164.764  102.025    0.519    0.183
  854.500    1.476  166.753  100.522    0.518    0.165
  854.750    1.617  167.592   97.077    0.468    0.136
  855.000    1.953  163.731   94.259    0.417    0.101
  855.250    2.369  160.809   92.882    0.384    0.058
  855.500    2.793  159.141   93.574    0.357    0.046
  855.750    3.255  157.578   97.964    0.370    0.083
  856.000    3.467  157.060  102.856    0.388    0.120
  856.250    3.457  156.959  105.804    0.400    0.133
  856.500    3.422  157.382  100.979    0.409    0.136
  856.750    3.419  157.698   95.528    0.401    0.137
  857.000    3.410  157.807   94.152    0.387    0.134
  857.250    3.405  158.019   94.279    0.390    0.136
  857.500    3.390  158.232   99.547    0.386    0.137
  857.750    3.393  158.653  103.749    0.385    0.125
  858.000    3.441  159.284  102.560    0.398    0.111
  858.250    3.537  159.811   98.990    0.414    0.118
  858.500    3.621  160.232   96.046    0.418    0.133
  858.750    3.665  160.550   96.487    0.407    0.139
  859.000    3.682  160.866   97.116    0.389    0.132
  859.250    3.672  161.288   95.488    0.384    0.133
  859.500    3.661  162.023   98.437    0.378    0.130
  859.750    3.610  162.027  100.257    0.370    0.122
  860.000    3.580  161.926  101.450    0.376    0.119
  860.250    3.569  161.408  103.082    0.381    0.127
  860.500    3.627  161.307  100.765    0.383    0.134
  860.750    3.727  160.788  104.779    0.386    0.131
  861.000    3.859  160.792  106.160    0.390    0.122
  861.250    4.049  161.318  100.647    0.397    0.104
  861.500    4.240  162.054   97.640    0.406    0.103
  861.750    4.423  162.580   98.770    0.405    0.110
  862.000    4.623  162.583  103.787    0.365    0.106
  862.250    4.751  162.692  104.166    0.350    0.095
  862.500    4.728  162.487  105.861    0.337    0.091
  862.750    4.431  162.177  102.666    0.342    0.084
  863.000    4.137  161.972   95.460    0.359    0.065
  863.250    3.582  162.707   90.823    0.315    0.026
  863.500    3.197  164.383   96.028    0.299    0.049
  863.750    3.013  166.684  102.174    0.326    0.107
  864.000    2.915  170.136  105.435    0.352    0.113
  864.250    2.957  171.289  107.945    0.419    0.102
  864.500    3.126  170.248  105.127    0.396    0.078
  864.750    3.430  168.893  101.869    0.412    0.073
  865.000    3.999  168.166  105.069    0.443    0.092
  865.250    4.687  166.289  104.381    0.430    0.105
  865.500    4.890  164.203   99.118    0.395    0.035
  865.750    4.447  162.745   93.228    0.358   -0.009
  866.000    3.829  162.435   93.669    0.312    0.010
  866.250    3.285  163.170   99.501    0.305    0.087
  866.500    3.032  165.681  100.130    0.365    0.108
  866.750    3.058  168.715   99.568    0.404    0.121
  867.000    3.414  169.972  102.893    0.430    0.134
  867.250    3.768  169.244  106.719    0.422    0.138
  867.500    4.097  167.368  107.787    0.385    0.127
  867.750    4.396  165.282  105.156    0.339    0.103
  868.000    4.596  163.823  101.272    0.312    0.066
  868.250    4.678  162.470  100.397    0.322    0.058
  868.500    4.656  161.219  106.730    0.333    0.076
  868.750    4.573  160.701  100.840    0.342    0.075
  869.000    4.434  160.600  106.170    0.331    0.084
  869.250    4.242  160.813  108.492    0.330    0.101
  869.500    4.059  161.130  109.999    0.345    0.107
  869.750    3.949  161.447  109.311    0.371    0.105
  870.000    3.879  161.346  104.550    0.382    0.109
  870.250    3.697  160.932  100.916    0.389    0.118
  870.500    3.478  159.997  101.357    0.396    0.113
  870.750    3.229  159.581  105.998    0.377    0.112
  871.000    2.936  159.168  112.394    0.389    0.129
  871.250    2.695  159.381  117.223    0.405    0.139
  871.500    2.392  160.115  124.810    0.418    0.126
  871.750    2.440  167.015  127.947    0.424    0.112
  872.000    2.759  170.465  123.561    0.402    0.103
  872.250    3.145  167.022  112.531    0.403    0.102
  872.500    3.388  161.802   94.857    0.383    0.095
  872.750    3.488  158.463   73.922    0.342    0.138
  873.000    3.538  155.855   69.788    0.322    0.193
  873.250    3.547  154.500   69.790    0.318    0.202
  873.500    3.639  153.355   68.162    0.320    0.195
  873.750    3.739  152.314   61.834    0.330    0.182
  874.000    3.857  152.109   56.257    0.312    0.159
  874.250    4.055  151.799   53.000    0.302    0.147
  874.500    4.246  151.803   55.447    0.296    0.152
  874.750    4.455  151.807   58.646    0.291    0.156
  875.000    4.629  152.019   61.594    0.283    0.145
  875.250    4.802  152.546   64.167    0.280    0.124
  875.500    5.076  153.594   69.372    0.283    0.105
  875.750    5.687  155.061   72.007    0.273    0.087
  876.000    5.967  156.945   73.388    0.263    0.073
  876.250    5.972  158.934   74.707    0.267    0.083
  876.500    5.822  160.923   75.900    0.281    0.112
  876.750    5.550  162.180   77.971    0.292    0.130
  877.000    5.309  162.811   78.412    0.301    0.123
  877.250    5.051  163.233   78.727    0.308    0.109
  877.500    4.663  163.445   81.174    0.307    0.119
  877.750    4.084  163.867   85.878    0.301    0.116
  878.000    3.374  164.184   91.522    0.287    0.107
  878.250    2.782  164.501   99.297    0.349    0.136
  878.500    2.418  165.132  105.818    0.444    0.149
  878.750    2.166  166.911  109.832    0.488    0.164
