~VERSION INFORMATION
 VERS.                 2.0:   CWLS LOG ASCII STANDARD -VERSION 2.0
 WRAP.                  NO:   ONE LINE PER DEPTH STEP
~WELL INFORMATION BLOCK
#MNEM.UNIT           DATA                    DESCRIPTION OF MNEMONIC
#---------    -------------------            -------------------------------
# Generated from Intellog Unique Number	CS_71_72/WELL/906
WELL.         PETRO-CANADA EXPLORATION       : Well_name    - WELL
LOC .         00/11-26-072-08W4/0            : Location     - LOCATION
UWI .         00/11-26-072-08W4/0            : Uwi          - UNIQUE WELL ID
ENTR.         SP                             : Entered      - ENTERED BY
SRVC.         SCHLUMBERGER                   : Scn          - SERVICE COMPANY
STRT.M        305                            : top_depth    - START DEPTH
STOP.M        543                            : bot_depth    - STOP DEPTH
STEP.M        0.25                           : increment    - STEP LENGTH
 NULL. -999.2500:NULL Value
~CURVE INFORMATION BLOCK
#MNEM UNIT       ERCB CURVE CODE    CURVE DESCRIPTION
#-----------   ------------------   ----------------------------------
DEPT.M        00 001 00 00         : DEPTH        - DEPTH
ILD .OHMM     00 120 00 00         : RESD         - DEEP RESISTIVITY (DIL)
DPHI.V/V      00 890 00 00         : PHID         - DENSITY POROSITY (LIMESTONE)
NPHI.V/V      00 330 00 00         : PHIN         - NEUTRON POROSITY (LIMESTONE)
GR  .API      00 310 00 00         : GR           - GAMMA RAY
~PARAMETER INFORMATION
#MNEM.UNIT           DATA             DESCRIPTION OF MNEMONIC
#---------         -----------     ------------------------------
GL  .M        680.2                : gl           - GROUND LEVEL ELEVATION
EREF.M        683.7                : kb           - ELEVATION OF DEPTH REFERENCE
DATM.M        680.2                : datum        - DATUM ELEVATION
TDD .M        545                  : tdd          - TOTAL DEPTH DRILLER
RUN .         ONE                  : Run          - RUN NUMBER
ENG .         BILL                 : Engineer     - RECORDING ENGINEER
WIT .         JIM                  : Witness      - WITNESSED BY
MUD .         GEL                  : Mud_type     - MUD TYPE
MATR.         LIMESTONE            : Logunit      - NEUTRON MATRIX
TMAX.C        24                   : BHT          - MAXIMUM RECORDED TEMPERATURE
BHTD.M        545                  : BHTDEP       - MAXIMUM RECORDED TEMPERATURE
MATR.         1                    : LOGUNIT      - NEUTRON MATRIX
RMT .C        25                   : MDTP         - TEMPERATURE OF MUD
NEUT.         1                    : NEUTRON      - NEUTRON TYPE
RESI.         0                    : RESIST       - RESISTIVITY TYPE
RMC .OHMM     0.25                 : RMC          - RESISTIVITY OF MUD CAKE
RMF .OHMM     0.25                 : RMF          - RESISTIVITY OF MUD FILTRATE
SUFT.C        15                   : SUFT         - SURFACE TEMPERATURE
~A  DEPTH     RESD     PHID     PHIN       GR
# ...
  435.500    5.112    0.269    0.459   80.662
  435.750    5.152    0.262    0.417   75.741
  436.000    5.143    0.263    0.414   71.001
  436.250    5.135    0.334    0.434   68.084
  436.500    5.107    0.388    0.495   67.840
  436.750    5.061    0.456    0.508   68.021
  437.000    4.969    0.492    0.507   69.296
  437.250    4.888    0.504    0.492   72.090
  437.500    4.737    0.304    0.472   74.093
  437.750    4.590    0.282    0.446   74.882
  438.000    4.482    0.270    0.441   74.456
  438.250    4.516    0.402    0.464   73.908
  438.500    4.776    0.431    0.516   71.781
  438.750    5.108    0.438    0.579   67.892
  439.000    5.352    0.326    0.485   64.064
  439.250    5.598    0.286    0.435   66.979
  439.500    5.693    0.281    0.430   70.198
  439.750    5.790    0.282    0.433   70.986
  440.000    5.834    0.287    0.439   68.798
  440.250    5.890    0.289    0.447   66.489
  440.500    5.991    0.284    0.458   63.329
  440.750    6.139    0.286    0.468   63.145
  441.000    6.302    0.298    0.476   66.061
  441.250    6.374    0.292    0.461   66.910
  441.500    6.423    0.275    0.443   67.334
  441.750    6.365    0.258    0.434   69.642
  442.000    5.932    0.246    0.434   71.464
  442.250    5.095    0.233    0.445   72.070
  442.500    4.070    0.228    0.445   71.158
  442.750    3.306    0.241    0.452   70.671
  443.000    2.849    0.343    0.514   71.460
  443.250    2.554    0.377    0.541   73.099
  443.500    2.376    0.357    0.566   74.556
  443.750    2.457    0.339    0.591   76.013
  444.000    2.895    0.319    0.578   76.924
  444.250    3.160    0.307    0.566   76.255
  444.500    3.559    0.334    0.561   74.856
  444.750    3.892    0.328    0.536   72.668
  445.000    4.304    0.287    0.493   70.359
  445.250    4.655    0.284    0.480   72.120
  445.500    4.832    0.290    0.480   70.843
  445.750    4.942    0.279    0.479   71.753
  446.000    4.999    0.270    0.475   74.911
  446.250    5.160    0.268    0.481   79.467
  446.500    5.427    0.276    0.478   81.410
  446.750    5.924    0.266    0.470   80.376
  447.000    6.299    0.252    0.477   74.118
  447.250    6.601    0.254    0.474   68.649
  447.500    6.701    0.245    0.425   70.835
  447.750    6.542    0.223    0.402   73.933
  448.000    6.282    0.218    0.453   75.147
  448.250    6.076    0.216    0.472   76.239
  448.500    5.900    0.225    0.476   78.486
  448.750    5.803    0.239    0.477   81.340
  449.000    5.718    0.246    0.474   82.311
  449.250    5.688    0.246    0.462   83.222
  449.500    5.658    0.238    0.450   84.010
  449.750    5.648    0.227    0.453   82.977
  450.000    5.681    0.218    0.463   81.579
  450.250    5.682    0.219    0.461   83.279
  450.500    5.684    0.233    0.465   83.764
  450.750    5.696    0.238    0.468   81.758
  451.000    5.707    0.233    0.454   80.846
  451.250    5.687    0.231    0.449   80.116
  451.500    5.667    0.229    0.448   78.292
  451.750    5.754    0.225    0.445   77.866
  452.000    5.830    0.243    0.446   79.262
  452.250    5.919    0.253    0.443   79.444
  452.500    5.998    0.226    0.437   77.924
  452.750    6.078    0.242    0.440   77.194
  453.000    6.239    0.233    0.444   79.198
  453.250    6.393    0.219    0.420   81.870
  453.500    5.838    0.213    0.407   83.570
  453.750    5.136    0.223    0.411   84.784
  454.000    4.494    0.231    0.437   83.993
  454.250    3.881    0.232    0.452   81.987
  454.500    3.170    0.244    0.456   79.556
  454.750    2.805    0.230    0.459   76.822
  455.000    2.576    0.241    0.466   74.876
  455.250    2.510    0.264    0.479   73.174
  455.500    2.414    0.277    0.499   71.716
  455.750    2.344    0.283    0.521   72.504
  456.000    2.293    0.294    0.537   73.536
  456.250    2.272    0.311    0.534   74.386
  456.500    2.260    0.281    0.538   75.903
  456.750    2.299    0.269    0.574   78.940
  457.000    2.373    0.260    0.586   82.524
  457.250    2.649    0.266    0.566   84.892
  457.500    2.896    0.274    0.547   87.200
  457.750    3.173    0.271    0.560   87.867
  458.000    3.381    0.262    0.567   83.188
  458.250    3.529    0.254    0.512   76.383
  458.500    3.698    0.249    0.486   74.255
  458.750    3.726    0.255    0.484   74.376
  459.000    3.762    0.277    0.488   74.922
  459.250    3.898    0.300    0.498   72.734
  459.500    4.092    0.320    0.510   69.938
  459.750    4.400    0.347    0.541   71.091
  460.000    4.732    0.346    0.550   71.516
  460.250    5.127    0.263    0.466   70.361
  460.500    5.597    0.289    0.479   67.686
  460.750    6.018    0.324    0.488   64.952
  461.000    6.907    0.337    0.446   61.488
  461.250    7.210    0.329    0.449   59.057
  461.500    7.132    0.341    0.454   58.509
  461.750    7.054    0.352    0.428   58.812
  462.000    6.991    0.350    0.424   59.114
  462.250    7.018    0.338    0.439   59.174
  462.500    7.178    0.331    0.462   58.869
  462.750    7.493    0.329    0.462   57.654
  463.000    7.866    0.329    0.450   52.489
  463.250    8.135    0.328    0.472   53.824
  463.500    8.228    0.328    0.497   55.342
  463.750    8.199    0.328    0.506   56.860
  464.000    8.232    0.331    0.476   58.742
  464.250    8.327    0.341    0.459   59.349
  464.500    8.359    0.330    0.453   59.773
  464.750    8.361    0.333    0.463   59.894
  465.000    8.331    0.341    0.475   59.650
  465.250    8.089    0.347    0.479   58.920
  465.500    7.942    0.333    0.482   57.703
  465.750    7.754    0.322    0.489   56.184
  466.000    7.656    0.293    0.492   57.094
  466.250    7.572    0.256    0.411   57.336
  466.500    7.420    0.235    0.371   53.569
  466.750    7.312    0.276    0.349   51.502
  467.000    7.535    0.323    0.390   54.660
  467.250    7.924    0.342    0.437   56.603
  467.500    8.554    0.344    0.462   54.233
  467.750    9.029    0.125    0.474   49.736
  468.000    9.321    0.119    0.262   51.376
  468.250    8.687    0.156    0.260   54.777
  468.500    7.889    0.271    0.330   57.145
  468.750    6.954    0.319    0.374   56.719
  469.000    6.187    0.333    0.449   53.802
  469.250    5.670    0.335    0.476   55.381
  469.500    5.168    0.333    0.477   57.384
  469.750    4.781    0.321    0.470   57.444
  470.000    4.399    0.308    0.454   56.411
  470.250    4.077    0.312    0.462   54.830
  470.500    3.973    0.320    0.473   53.796
  470.750    3.908    0.316    0.452   53.188
  471.000    3.844    0.296    0.439   53.126
  471.250    3.809    0.296    0.461   56.831
  471.500    3.796    0.301    0.486   58.653
  471.750    3.783    0.300    0.452   57.923
  472.000    3.797    0.295    0.436   55.917
  472.250    3.820    0.302    0.434   54.336
  472.500    3.871    0.318    0.440   53.910
  472.750    3.886    0.333    0.448   54.638
  473.000    3.916    0.310    0.449   58.100
  473.250    3.953    0.293    0.427   61.683
  473.500    4.188    0.278    0.418   65.510
  473.750    4.463    0.277    0.413   68.790
  474.000    4.925    0.296    0.451   70.854
  474.250    5.518    0.314    0.509   71.461
  474.500    6.216    0.333    0.430   65.081
  474.750    6.823    0.344    0.406   59.005
  475.000    7.324    0.289    0.401   55.237
  475.250    7.689    0.270    0.399   55.297
  475.500    7.937    0.270    0.397   57.483
  475.750    8.117    0.268    0.398   59.851
  476.000    8.256    0.269    0.407   60.701
  476.250    8.289    0.278    0.415   60.700
  476.500    8.245    0.289    0.425   58.512
  476.750    8.124    0.275    0.435   56.324
  477.000    7.844    0.232    0.440   59.056
  477.250    7.730    0.214    0.439   63.734
  477.500    7.761    0.200    0.426   69.383
  477.750    8.890    0.233    0.421   75.153
  478.000   10.356    0.280    0.430   77.157
  478.250   11.667    0.292    0.441   77.642
  478.500   12.997    0.299    0.429   76.791
  478.750   13.568    0.308    0.408   76.425
