~VERSION INFORMATION
 VERS.                 2.0:   CWLS LOG ASCII STANDARD -VERSION 2.0
 WRAP.                  NO:   ONE LINE PER DEPTH STEP
~WELL INFORMATION BLOCK
#MNEM.UNIT           DATA                    DESCRIPTION OF MNEMONIC
#---------    -------------------            -------------------------------
# Generated from Intellog Unique Number	CS_73_76/WELL/833
WELL.         PACIFIC  CRIST                 : Well_name    - WELL
LOC .         00/10-24-073-08W4/0            : Location     - LOCATION
UWI .         00/10-24-073-08W4/0            : Uwi          - UNIQUE WELL ID
ENTR.         SP                             : Entered      - ENTERED BY
SRVC.         SCHLUMBERGER                   : Scn          - SERVICE COMPANY
STRT.M        310                            : top_depth    - START DEPTH
STOP.M        530                            : bot_depth    - STOP DEPTH
STEP.M        0.25                           : increment    - STEP LENGTH
 NULL. -999.2500:NULL Value
~CURVE INFORMATION BLOCK
#MNEM UNIT       ERCB CURVE CODE    CURVE DESCRIPTION
#-----------   ------------------   ----------------------------------
DEPT.M        00 001 00 00         : DEPTH        - DEPTH
ILD .OHMM     00 120 00 00         : RESD         - DEEP RESISTIVITY (DIL)
DPHI.V/V      00 890 00 00         : PHID         - DENSITY POROSITY (LIMESTONE)
NPHI.V/V      00 330 00 00         : PHIN         - NEUTRON POROSITY (LIMESTONE)
GR  .API      00 310 00 00         : GR           - GAMMA RAY
~PARAMETER INFORMATION
#MNEM.UNIT           DATA             DESCRIPTION OF MNEMONIC
#---------         -----------     ------------------------------
GL  .M        694.3                : gl           - GROUND LEVEL ELEVATION
EREF.M        697.6                : kb           - ELEVATION OF DEPTH REFERENCE
DATM.M        694.3                : datum        - DATUM ELEVATION
TDD .M        540                  : tdd          - TOTAL DEPTH DRILLER
RUN .         ONE                  : Run          - RUN NUMBER
ENG .         BILL                 : Engineer     - RECORDING ENGINEER
WIT .         JIM                  : Witness      - WITNESSED BY
MUD .         GEL                  : Mud_type     - MUD TYPE
MATR.         LIMESTONE            : Logunit      - NEUTRON MATRIX
TMAX.C        12.8                 : BHT          - MAXIMUM RECORDED TEMPERATURE
BHTD.M        540                  : BHTDEP       - MAXIMUM RECORDED TEMPERATURE
MATR.         1                    : LOGUNIT      - NEUTRON MATRIX
RMT .C        25                   : MDTP         - TEMPERATURE OF MUD
NEUT.         1                    : NEUTRON      - NEUTRON TYPE
RESI.         0                    : RESIST       - RESISTIVITY TYPE
RMC .OHMM     0.25                 : RMC          - RESISTIVITY OF MUD CAKE
RMF .OHMM     0.25                 : RMF          - RESISTIVITY OF MUD FILTRATE
SUFT.C        15                   : SUFT         - SURFACE TEMPERATURE
~A  DEPTH     RESD     PHID     PHIN       GR
# ...
  440.500    6.804    0.257    0.485   81.922
  440.750   10.066    0.255    0.500   74.055
  441.000   13.822    0.085    0.507   67.397
  441.250   17.300    0.029    0.300   63.160
  441.500   19.012    0.026    0.218   57.107
  441.750   17.353    0.052    0.213   53.474
  442.000   12.911    0.103    0.307   52.261
  442.250    8.596    0.179    0.371   67.377
  442.500    6.640    0.224    0.447   73.421
  442.750    5.733    0.254    0.481   77.046
  443.000    5.233    0.225    0.493   80.066
  443.250    5.048    0.247    0.497   81.272
  443.500    4.785    0.239    0.501   79.453
  443.750    4.792    0.227    0.513   80.054
  444.000    4.802    0.228    0.504   78.839
  444.250    5.277    0.241    0.493   78.836
  444.500    5.285    0.254    0.487   84.275
  444.750    5.292    0.267    0.502   81.852
  445.000    5.396    0.282    0.504   78.219
  445.250    5.506    0.250    0.502   75.796
  445.500    5.619    0.254    0.507   81.234
  445.750    5.626    0.225    0.501   84.860
  446.000    5.634    0.218    0.492   87.880
  446.250    5.752    0.220    0.477   85.455
  446.500    5.758    0.241    0.470   84.242
  446.750    5.769    0.221    0.470   84.238
  447.000    5.775    0.208    0.473   84.234
  447.250    5.784    0.221    0.491   83.625
  447.500    5.797    0.214    0.503   81.806
  447.750    5.803    0.221    0.507   80.593
  448.000    5.919    0.225    0.514   81.193
  448.250    6.041    0.235    0.515   83.001
  448.500    6.284    0.260    0.516   83.604
  448.750    6.408    0.233    0.484   84.809
  449.000    6.541    0.238    0.458   85.410
  449.250    6.550    0.240    0.446   84.801
  449.500    6.439    0.271    0.451   84.797
  449.750    6.447    0.311    0.474   84.187
  450.000    6.335    0.359    0.490   84.185
  450.250    6.116    0.333    0.494   82.367
  450.500    5.901    0.267    0.485   79.338
  450.750    5.094    0.281    0.473   77.519
  451.000    4.082    0.317    0.480   76.306
  451.250    3.095    0.352    0.525   75.091
  451.500    2.623    0.381    0.582   76.903
  451.750    2.350    0.333    0.576   81.131
  452.000    2.355    0.270    0.552   81.731
  452.250    2.357    0.257    0.541   81.728
  452.500    2.405    0.257    0.546   81.118
  452.750    2.409    0.259    0.558   81.116
  453.000    2.368    0.263    0.567   81.112
  453.250    2.246    0.263    0.550   82.317
  453.500    2.512    0.269    0.537   82.917
  453.750    2.611    0.272    0.549   82.309
  454.000    2.924    0.267    0.564   81.699
  454.250    3.154    0.290    0.569   82.301
  454.500    3.466    0.284    0.560   81.691
  454.750    3.809    0.259    0.530   79.268
  455.000    4.033    0.274    0.507   78.659
  455.250    4.191    0.277    0.489   79.865
  455.500    4.357    0.254    0.503   80.466
  455.750    4.613    0.248    0.501   79.252
  456.000    5.069    0.245    0.479   77.433
  456.250    6.001    0.263    0.483   74.404
  456.500    7.796    0.310    0.458   71.375
  456.750   10.313    0.335    0.424   69.558
  457.000   14.976    0.323    0.403   65.925
  457.250   19.096    0.321    0.406   63.502
  457.500   20.983    0.326    0.417   62.892
  457.750   22.214    0.330    0.421   63.493
  458.000   22.671    0.320    0.426   64.094
  458.250   22.714    0.324    0.415   62.879
  458.500   22.753    0.335    0.402   62.272
  458.750   22.367    0.341    0.390   61.663
  459.000   22.399    0.339    0.389   61.658
  459.250   22.023    0.352    0.394   62.259
  459.500   22.049    0.350    0.390   64.070
  459.750   21.680    0.338    0.388   62.251
  460.000   21.315    0.344    0.413   60.432
  460.250   20.574    0.350    0.418   63.452
  460.500   20.216    0.350    0.430   62.238
  460.750   19.885    0.343    0.458   60.419
  461.000   19.538    0.335    0.482   59.206
  461.250   19.226    0.328    0.505   57.385
  461.500   19.242    0.325    0.517   57.383
  461.750   19.271    0.327    0.528   56.775
  462.000   19.663    0.321    0.512   57.374
  462.250   20.825    0.320    0.512   57.976
  462.500   22.479    0.321    0.504   59.181
  462.750   23.363    0.337    0.482   62.202
  463.000   24.284    0.343    0.489   63.407
  463.250   24.769    0.333    0.502   61.586
  463.500   24.797    0.322    0.502   61.584
  463.750   24.838    0.314    0.496   61.580
  464.000   24.424    0.322    0.499   63.996
  464.250   24.464    0.319    0.510   65.805
  464.500   24.945    0.311    0.510   65.800
  464.750   25.932    0.282    0.475   65.193
  465.000   26.949    0.241    0.424   62.769
  465.250   28.011    0.257    0.440   60.345
  465.500   28.582    0.286    0.461   59.132
  465.750   27.090    0.305    0.481   59.732
  466.000   25.179    0.323    0.494   60.334
  466.250   22.982    0.310    0.501   62.142
  466.500   21.782    0.307    0.505   62.744
  466.750   21.407    0.289    0.480   62.740
  467.000   21.838    0.222    0.469   62.131
  467.250   23.119    0.039    0.460   60.313
  467.500   26.374    0.024    0.453   57.889
  467.750   28.980    0.039    0.184   55.465
  468.000   31.262    0.091    0.204   53.647
  468.250   31.900    0.245    0.296   51.829
  468.500   29.127    0.289    0.379   54.244
  468.750   26.085    0.302    0.421   57.264
  469.000   22.107    0.308    0.460   62.098
  469.250   19.810    0.304    0.471   59.674
  469.500   18.764    0.295    0.489   57.250
  469.750   18.120    0.285    0.495   57.852
  470.000   18.139    0.291    0.499   62.080
  470.250   17.825    0.302    0.499   62.683
  470.500   17.223    0.296    0.499   62.679
  470.750   16.930    0.309    0.505   63.885
  471.000   16.647    0.310    0.499   62.671
  471.250   16.670    0.322    0.480   59.642
  471.500   16.690    0.298    0.474   59.033
  471.750   16.403    0.295    0.491   59.028
  472.000   16.128    0.301    0.505   59.630
  472.250   16.145    0.306    0.516   59.624
  472.500   15.880    0.300    0.529   59.014
  472.750   15.607    0.300    0.476   59.011
  473.000   15.633    0.296    0.464   58.403
  473.250   15.657    0.296    0.477   56.585
  473.500   15.675    0.300    0.474   55.976
  473.750   15.718    0.296    0.497   56.576
  474.000   15.442    0.292    0.502   57.782
  474.250   14.622    0.301    0.488   60.197
  474.500   11.505    0.309    0.494   63.217
  474.750    8.560    0.317    0.486   65.632
  475.000    6.137    0.303    0.482   69.257
  475.250    5.201    0.295    0.468   76.510
  475.500    5.717    0.274    0.456   80.741
  475.750    7.428    0.271    0.482   80.132
  476.000    9.468    0.272    0.488   74.079
  476.250   11.419    0.272    0.446   71.051
  476.500   13.020    0.262    0.430   69.233
  476.750   13.788    0.248    0.414   62.575
  477.000   14.337    0.233    0.386   55.314
  477.250   14.620    0.241    0.366   47.447
  477.500   14.922    0.218    0.388   52.281
  477.750   14.664    0.236    0.400   54.697
  478.000   14.163    0.250    0.397   52.271
  478.250   13.665    0.233    0.383   52.873
  478.500   13.182    0.224    0.395   58.918
  478.750   12.718    0.230    0.409   60.124
  479.000   11.830    0.229    0.405   61.329
  479.250   10.999    0.213    0.382   68.582
  479.500   10.418    0.195    0.392   74.022
  479.750    9.869    0.213    0.406   81.276
  480.000    9.017    0.218    0.415   83.691
  480.250    8.858    0.203    0.420   83.082
  480.500    8.391    0.194    0.427   81.263
  480.750    8.245    0.213    0.434   78.235
  481.000    8.112    0.212    0.429   77.022
  481.250    8.121    0.202    0.426   77.017
  481.500    8.607    0.203    0.435   77.618
  481.750    8.777    0.203    0.425   74.589
  482.000    9.120    0.217    0.420   72.166
  482.250    9.845    0.215    0.429   67.929
  482.500   10.039    0.199    0.428   65.505
  482.750   10.635    0.208    0.439   68.525
  483.000   10.643    0.222    0.433   67.312
  483.250   11.064    0.229    0.440   65.492
  483.500   11.080    0.238    0.443   64.279
  483.750   11.312    0.226    0.435   67.298
