~VERSION INFORMATION
 VERS.                 2.0:   CWLS LOG ASCII STANDARD -VERSION 2.0
 WRAP.                  NO:   ONE LINE PER DEPTH STEP
~WELL INFORMATION BLOCK
#MNEM.UNIT           DATA                    DESCRIPTION OF MNEMONIC
#---------    -------------------            -------------------------------
# Generated from Intellog Unique Number	CS_73_76/WELL/3246
WELL.         STANDARD OIL COMPANY           : Well_name    - WELL
LOC .         00/10-27-076-11W4/0            : Location     - LOCATION
UWI .         00/10-27-076-11W4/0            : Uwi          - UNIQUE WELL ID
ENTR.         SP                             : Entered      - ENTERED BY
SRVC.         SCHLUMBERGER                   : Scn          - SERVICE COMPANY
STRT.M        268.224                        : top_depth    - START DEPTH
STOP.M        502.724                        : bot_depth    - STOP DEPTH
STEP.M        0.25                           : increment    - STEP LENGTH
 NULL. -999.2500:NULL Value
~CURVE INFORMATION BLOCK
#MNEM UNIT       ERCB CURVE CODE    CURVE DESCRIPTION
#-----------   ------------------   ----------------------------------
DEPT.M        00 001 00 00         : DEPTH        - DEPTH
GR  .API      00 310 00 00         : GR           - GAMMA RAY
DPHI.V/V      00 890 00 00         : PHID         - DENSITY POROSITY (SANDSTONE)
NPHI.V/V      00 330 00 00         : PHIN         - NEUTRON POROSITY (SANDSTONE)
ILD .OHMM     00 120 00 00         : RESD         - DEEP RESISTIVITY (DIL)
~PARAMETER INFORMATION
#MNEM.UNIT           DATA             DESCRIPTION OF MNEMONIC
#---------         -----------     ------------------------------
GL  .M        665.165              : gl           - GROUND LEVEL ELEVATION
EREF.M        668.426              : kb           - ELEVATION OF DEPTH REFERENCE
DATM.M        665.165              : datum        - DATUM ELEVATION
TDD .M        531.266              : tdd          - TOTAL DEPTH DRILLER
RUN .         ONE                  : Run          - RUN NUMBER
ENG .         BILL                 : Engineer     - RECORDING ENGINEER
WIT .         JIM                  : Witness      - WITNESSED BY
MUD .         GEL                  : Mud_type     - MUD TYPE
MATR.         SANDSTONE            : Logunit      - NEUTRON MATRIX
TMAX.C        22.7778              : BHT          - MAXIMUM RECORDED TEMPERATURE
BHTD.M        531.266              : BHTDEP       - MAXIMUM RECORDED TEMPERATURE
MATR.         1                    : LOGUNIT      - NEUTRON MATRIX
RMT .C        25                   : MDTP         - TEMPERATURE OF MUD
NEUT.         1                    : NEUTRON      - NEUTRON TYPE
RESI.         0                    : RESIST       - RESISTIVITY TYPE
RMC .OHMM     0.25                 : RMC          - RESISTIVITY OF MUD CAKE
RMF .OHMM     0.25                 : RMF          - RESISTIVITY OF MUD FILTRATE
SUFT.C        15                   : SUFT         - SURFACE TEMPERATURE
~A  DEPTH       GR     PHID     PHIN     RESD
# ...
  398.724   58.897    0.324    0.506    6.702
  398.974   58.902    0.309    0.514    6.596
  399.224   59.511    0.310    0.502    6.605
  399.474   60.748    0.322    0.459    6.461
  399.724   60.164    0.327    0.473    6.474
  399.974   59.767    0.321    0.486    6.489
  400.224   59.279    0.326    0.498    6.362
  400.474   56.253    0.332    0.511    6.486
  400.724   57.961    0.339    0.524    6.484
  400.974   59.557    0.344    0.542    6.485
  401.224   60.943    0.354    0.561    6.613
  401.474   62.017    0.332    0.493    6.608
  401.724   61.350    0.316    0.499    6.609
  401.974   60.367    0.315    0.505    6.623
  402.224   58.192    0.325    0.503    6.481
  402.474   57.224    0.345    0.499    6.492
  402.724   55.960    0.334    0.509    6.434
  402.974   54.791    0.324    0.499    6.381
  403.224   56.268    0.318    0.473    6.378
  403.474   57.404    0.332    0.491    6.333
  403.724   55.949    0.343    0.503    6.270
  403.974   54.803    0.353    0.513    6.257
  404.224   56.460    0.339    0.500    6.400
  404.474   58.395    0.338    0.487    6.390
  404.724   58.690    0.333    0.499    6.392
  404.974   57.742    0.343    0.512    6.392
  405.224   58.334    0.357    0.507    6.401
  405.474   60.251    0.348    0.490    6.271
  405.724   61.987    0.336    0.490    6.287
  405.974   61.487    0.330    0.487    6.182
  406.224   60.158    0.333    0.496    6.121
  406.474   59.587    0.336    0.506    6.066
  406.724   59.661    0.350    0.514    5.974
  406.974   59.862    0.351    0.524    5.957
  407.224   60.225    0.354    0.521    5.955
  407.474   59.620    0.367    0.501    5.954
  407.724   59.695    0.342    0.489    5.927
  407.974   59.076    0.330    0.479    5.852
  408.224   59.131    0.323    0.485    5.864
  408.474   58.316    0.333    0.482    5.738
  408.724   57.324    0.338    0.494    5.751
  408.974   57.562    0.350    0.509    5.749
  409.224   58.583    0.361    0.525    5.739
  409.474   59.601    0.373    0.539    5.645
  409.724   59.408    0.353    0.539    5.649
  409.974   59.078    0.333    0.526    5.647
  410.224   58.010    0.346    0.509    5.544
  410.474   57.928    0.339    0.512    5.518
  410.724   57.917    0.332    0.506    5.454
  410.974   59.325    0.338    0.502    5.455
  411.224   60.483    0.347    0.486    5.457
  411.474   61.483    0.354    0.495    5.459
  411.724   62.117    0.371    0.520    5.461
  411.974   62.823    0.378    0.542    5.466
  412.224   62.186    0.378    0.529    5.375
  412.474   61.617    0.356    0.514    5.368
  412.724   60.285    0.353    0.516    5.367
  412.974   59.317    0.351    0.527    5.359
  413.224   58.723    0.365    0.542    5.481
  413.474   59.818    0.371    0.563    5.473
  413.724   61.366    0.362    0.527    5.386
  413.974   63.067    0.337    0.515    5.450
  414.224   63.392    0.332    0.518    5.474
  414.474   62.794    0.341    0.509    5.475
  414.724   62.055    0.349    0.501    5.479
  414.974   60.491    0.354    0.506    5.481
  415.224   60.968    0.350    0.513    5.493
  415.474   62.958    0.344    0.514    5.376
  415.724   63.461    0.345    0.512    5.387
  415.974   62.529    0.373    0.504    5.385
  416.224   61.560    0.365    0.499    5.381
  416.474   60.560    0.354    0.505    5.286
  416.724   60.820    0.332    0.518    5.294
  416.974   62.870    0.339    0.531    5.296
  417.224   66.143    0.300    0.532    5.532
  417.474   68.227    0.282    0.515    5.723
  417.724   69.982    0.274    0.499    6.023
  417.974   72.322    0.284    0.493    6.097
  418.224   73.249    0.274    0.507    6.164
  418.474   73.135    0.286    0.517    6.256
  418.724   73.036    0.267    0.524    6.381
  418.974   73.764    0.277    0.510    6.510
  419.224   74.786    0.286    0.494    6.489
  419.474   74.870    0.259    0.493    6.634
  419.724   74.892    0.235    0.514    6.621
  419.974   74.461    0.261    0.522    6.497
  420.224   74.465    0.264    0.512    6.479
  420.474   75.492    0.259    0.512    6.277
  420.724   76.529    0.263    0.506    6.289
  420.974   76.686    0.254    0.502    6.132
  421.224   76.745    0.246    0.516    5.955
  421.474   76.126    0.240    0.526    5.829
  421.724   75.471    0.253    0.522    5.838
  421.974   75.528    0.266    0.522    5.841
  422.224   75.433    0.277    0.512    5.845
  422.474   76.847    0.268    0.500    5.852
  422.724   77.402    0.253    0.488    5.960
  422.974   76.507    0.265    0.490    5.957
  423.224   75.540    0.259    0.504    5.958
  423.474   76.319    0.255    0.515    5.956
  423.724   78.474    0.250    0.525    5.930
  423.974   81.450    0.242    0.525    5.853
  424.224   84.776    0.233    0.524    5.866
  424.474   86.655    0.225    0.527    5.736
  424.724   88.634    0.225    0.535    5.841
  424.974   90.954    0.233    0.531    5.967
  425.224   92.467    0.223    0.516    6.092
  425.474   93.097    0.229    0.507    6.072
  425.724   91.176    0.232    0.489    6.210
  425.974   90.621    0.214    0.480    6.199
  426.224   92.522    0.201    0.485    6.298
  426.474   95.064    0.220    0.498    6.156
  426.724   97.212    0.214    0.510    5.983
  426.974   95.994    0.198    0.519    5.700
  427.224   93.279    0.188    0.514    5.395
  427.474   89.611    0.205    0.514    5.178
  427.724   88.237    0.224    0.529    4.927
  427.974   87.585    0.245    0.534    4.667
  428.224   87.664    0.223    0.529    4.262
  428.474   87.911    0.233    0.549    3.717
  428.724   88.161    0.246    0.576    3.300
  428.974   86.156    0.268    0.593    3.008
  429.224   84.396    0.280    0.598    2.695
  429.474   83.472    0.292    0.600    2.520
  429.724   84.244    0.278    0.602    2.330
  429.974   82.656    0.268    0.600    2.217
  430.224   81.130    0.260    0.596    2.181
  430.474   80.479    0.264    0.591    2.228
  430.724   81.702    0.270    0.586    2.232
  430.974   85.636    0.269    0.584    2.265
  431.224   89.607    0.259    0.588    2.361
  431.474   92.926    0.256    0.585    2.410
  431.724   96.097    0.243    0.575    2.560
  431.974   93.177    0.242    0.569    2.803
  432.224   90.672    0.242    0.576    3.063
  432.474   89.554    0.226    0.560    3.336
  432.724   91.207    0.205    0.534    3.820
  432.974   93.136    0.187    0.509    4.169
  433.224   94.989    0.179    0.523    4.674
  433.474   91.580    0.170    0.520    5.296
  433.724   88.475    0.154    0.498    5.690
  433.974   85.120    0.138    0.472    5.947
  434.224   85.142    0.106    0.448    5.791
  434.474   88.213    0.166    0.470    5.645
  434.724   89.884    0.187    0.488    5.101
  434.974   91.565    0.199    0.516    4.715
  435.224   92.265    0.217    0.534    4.438
  435.474   90.782    0.203    0.554    4.211
  435.724   93.261    0.195    0.550    4.181
  435.974   95.195    0.216    0.545    4.049
  436.224   97.071    0.221    0.547    4.039
  436.474   97.413    0.227    0.538    3.964
  436.724   96.327    0.216    0.532    3.840
  436.974   95.807    0.194    0.542    3.809
  437.224   94.927    0.197    0.548    3.690
  437.474   94.974    0.207    0.532    3.583
  437.724   94.926    0.231    0.508    3.483
  437.974   94.577    0.236    0.523    3.491
  438.224   91.091    0.224    0.548    3.555
  438.474   88.986    0.214    0.555    3.994
  438.724   89.294    0.219    0.556    4.362
  438.974   84.821    0.229    0.568    4.904
  439.224   80.621    0.223    0.540    5.646
  439.474   77.516    0.203    0.516    6.586
  439.724   73.994    0.176    0.501    7.535
  439.974   71.809    0.135    0.479    8.746
  440.224   69.695    0.092    0.429    9.481
  440.474   71.995    0.161    0.432   10.010
  440.724   74.707    0.206    0.441   10.309
  440.974   72.330    0.215    0.446   10.974
  441.224   72.927    0.209    0.444   11.700
  441.474   73.023    0.234    0.445   12.868
  441.724   70.368    0.218    0.441   13.652
  441.974   66.777    0.247    0.433   14.505
