~VERSION INFORMATION
 VERS.                 2.0:   CWLS LOG ASCII STANDARD -VERSION 2.0
 WRAP.                  NO:   ONE LINE PER DEPTH STEP
~WELL INFORMATION BLOCK
#MNEM.UNIT           DATA                    DESCRIPTION OF MNEMONIC
#---------    -------------------            -------------------------------
# Generated from Intellog Unique Number	CW_82_90/WELL/3078
WELL.         11-24-087-23W4                 : Well_name    - WELL
LOC .         00/11-24-087-23W4/0            : Location     - LOCATION
UWI .         00/11-24-087-23W4/0            : Uwi          - UNIQUE WELL ID
ENTR.         MAX                            : Entered      - ENTERED BY
SRVC.         WESTERN ATLAS                  : Scn          - SERVICE COMPANY
STRT.M        121.92                         : top_depth    - START DEPTH
STOP.M        345.67                         : bot_depth    - STOP DEPTH
STEP.M        0.25                           : increment    - STEP LENGTH
 NULL. -999.2500:NULL Value
~CURVE INFORMATION BLOCK
#MNEM UNIT       ERCB CURVE CODE    CURVE DESCRIPTION
#-----------   ------------------   ----------------------------------
DEPT.M        00 001 00 00         : DEPTH        - DEPTH
ILD .OHMM     00 120 00 00         : RESD         - DEEP RESISTIVITY (DIL)
NPHI.V/V      00 330 00 00         : PHIN         - NEUTRON POROSITY (SANDSTONE)
DPHI.V/V      00 890 00 00         : PHID         - DENSITY POROSITY (SANDSTONE)
CALI.MM       00 280 01 00         : CAL          - CALIPER
GR  .API      00 310 00 00         : GR           - GAMMA RAY
~PARAMETER INFORMATION
#MNEM.UNIT           DATA             DESCRIPTION OF MNEMONIC
#---------         -----------     ------------------------------
GL  .M        539.496              : gl           - GROUND LEVEL ELEVATION
EREF.M        542.239              : kb           - ELEVATION OF DEPTH REFERENCE
DATM.M        539.496              : datum        - DATUM ELEVATION
TDD .M        319.126              : tdd          - TOTAL DEPTH DRILLER
RUN .         ONE                  : Run          - RUN NUMBER
ENG .         BILL                 : Engineer     - RECORDING ENGINEER
WIT .         JIM                  : Witness      - WITNESSED BY
MUD .         GEL                  : Mud_type     - MUD TYPE
MATR.         SANDSTONE            : Logunit      - NEUTRON MATRIX
TMAX.C        21.6667              : BHT          - MAXIMUM RECORDED TEMPERATURE
BHTD.M        319.126              : BHTDEP       - MAXIMUM RECORDED TEMPERATURE
MATR.         1                    : LOGUNIT      - NEUTRON MATRIX
RMT .C        20                   : MDTP         - TEMPERATURE OF MUD
NEUT.         1                    : NEUTRON      - NEUTRON TYPE
RESI.         0                    : RESIST       - RESISTIVITY TYPE
RMC .OHMM     5.2                  : RMC          - RESISTIVITY OF MUD CAKE
RMF .OHMM     5                    : RMF          - RESISTIVITY OF MUD FILTRATE
SUFT.C        -18.3333             : SUFT         - SURFACE TEMPERATURE
~A  DEPTH     RESD     PHIN     PHID      CAL       GR
  121.920   30.133    0.346    0.318  205.906   69.120
  122.170   27.735    0.357    0.317  206.378   67.004
  122.420   26.001    0.357    0.315  207.859   68.178
  122.670   23.931    0.362    0.310  206.300   71.152
  122.920   22.850    0.378    0.307  204.737   75.916
  123.170   23.916    0.392    0.302  204.700   80.385
  123.420   25.497    0.382    0.280  205.681   85.152
  123.670   25.025    0.376    0.282  208.190   84.832
  123.920   23.895    0.367    0.303  209.171   78.229
  124.170   21.593    0.366    0.325  211.171   69.232
  124.420   17.966    0.366    0.339  207.562   78.785
  124.670   14.811    0.375    0.359  206.516   82.056
  124.920   12.668    0.372    0.356  201.889   89.814
  125.170   10.834    0.397    0.296  198.289  103.856
  125.420    9.181    0.408    0.250  199.271  116.103
  125.670    7.780    0.398    0.255  202.798  120.568
  125.920    6.967    0.394    0.264  205.815  117.857
  126.170    6.238    0.406    0.273  207.306  114.841
  126.420    5.902    0.417    0.272  208.801  117.217
  126.670    5.533    0.409    0.268  210.291  120.185
  126.920    5.282    0.390    0.267  209.232  117.771
  127.170    5.185    0.383    0.270  206.650  118.351
  127.420    4.997    0.387    0.265  207.632  117.727
  127.670    4.860    0.392    0.251  210.136  118.606
  127.920    4.514    0.409    0.248  212.640  121.575
  128.170    4.271    0.421    0.254  214.644  123.349
  128.420    3.967    0.444    0.267  216.134  123.328
  128.670    3.754    0.436    0.273  216.611  125.106
  128.920    3.392    0.444    0.273  219.115  128.673
  129.170    3.151    0.447    0.270  219.592  128.654
  129.420    2.981    0.447    0.273  218.533  128.030
  129.670    2.899    0.449    0.277  216.460  127.713
  129.920    2.794    0.448    0.277  216.424  127.991
  130.170    2.793    0.449    0.281  216.383  128.272
  130.420    2.792    0.450    0.289  216.351  126.151
  130.670    2.843    0.450    0.303  214.778  125.233
  130.920    3.058    0.450    0.313  214.746  122.223
  131.170    3.029    0.450    0.295  215.727  118.312
  131.420    2.946    0.450    0.261  217.218  115.898
  131.670    2.788    0.432    0.250  216.672  112.880
  131.920    2.637    0.424    0.270  216.126  115.854
  132.170    2.542    0.426    0.273  216.090  118.523
  132.420    2.472    0.430    0.276  216.562  115.809
  132.670    2.471    0.439    0.280  216.526  119.678
  132.920    2.516    0.446    0.279  215.966  122.051
  133.170    2.538    0.448    0.273  215.430  121.728
  133.420    2.538    0.450    0.272  213.866  120.516
  133.670    2.537    0.450    0.271  211.793  119.595
  133.920    2.536    0.450    0.267  209.716  119.871
  134.170    2.535    0.448    0.268  206.121  121.349
  134.420    2.558    0.447    0.268  201.498  121.624
  134.670    2.605    0.447    0.271  198.407  122.501
  134.920    2.652    0.449    0.276  197.862  121.879
  135.170    2.725    0.449    0.275  198.339  120.964
  135.420    2.800    0.437    0.276  204.410  119.749
  135.670    2.904    0.433    0.279  210.482  114.342
  135.920    2.957    0.445    0.281  217.572  119.109
  136.170    3.123    0.447    0.279  222.617  120.883
  136.420    3.210    0.448    0.274  226.657  118.466
  136.670    3.298    0.449    0.271  224.584  117.844
  136.920    3.358    0.449    0.267  223.530  119.017
  137.170    3.357    0.444    0.263  226.034  117.506
  137.420    3.326    0.447    0.262  224.475  117.782
  137.670    3.325    0.446    0.272  222.911  116.564
  137.920    3.385    0.445    0.272  222.361  118.939
  138.170    3.813    0.422    0.278  220.288  118.619
  138.420    4.580    0.435    0.275  218.210  116.200
  138.670    5.552    0.440    0.274  216.133  116.481
  138.920    6.919    0.432    0.275  215.597  114.365
  139.170    8.387    0.406    0.270  218.101  109.258
  139.420    9.622    0.391    0.254  220.609   99.663
  139.670   11.039    0.385    0.238  221.086   92.159
  139.920   11.661    0.408    0.215  220.032   88.246
  140.170   11.764    0.416    0.169  216.941   89.721
  140.420   11.547    0.407    0.263  216.391   92.393
  140.670   11.230    0.396    0.285  216.863   93.273
  140.920   11.123    0.383    0.292  216.317   92.055
  141.170   11.120    0.365    0.293  213.731   93.231
  141.420   11.323    0.359    0.296  211.658   95.601
  141.670   11.636    0.353    0.295  210.603   94.381
  141.920   11.957    0.356    0.260  210.058   93.465
  142.170   12.287    0.386    0.197  211.039   90.452
  142.420   12.170    0.375    0.190  214.566   88.936
  142.670   11.836    0.381    0.236  214.020   94.001
  142.920   11.942    0.370    0.249  213.470   92.484
  143.170   11.829    0.355    0.119  210.888   89.469
  143.420   11.610    0.340    0.201  209.329   90.647
  143.670   11.821    0.369    0.259  209.293   90.923
  143.920   12.037    0.396    0.260  209.760   90.601
  144.170   12.369    0.405    0.253  211.251   92.976
  144.420   11.920    0.392    0.256  212.228   94.449
  144.670   10.383    0.381    0.254  212.705   93.231
  144.920    8.482    0.370    0.256  213.682   92.013
  145.170    6.206    0.376    0.259  213.136   91.095
  145.420    4.798    0.369    0.256  212.590   89.880
  145.670    3.883    0.373    0.263  211.536   92.253
  145.920    3.172    0.381    0.289  210.486   95.523
  146.170    3.171    0.402    0.284  212.994  101.187
  146.420    3.259    0.417    0.271  216.521  112.235
  146.670    3.380    0.428    0.258  218.007  110.120
  146.920    3.603    0.447    0.259  222.038  111.897
  147.170    3.841    0.447    0.260  222.006  114.868
  147.420    4.132    0.446    0.245  220.442  113.047
  147.670    4.285    0.425    0.244  220.401  113.627
  147.920    4.404    0.423    0.239  220.878  113.307
  148.170    4.567    0.429    0.234  220.837  113.882
  148.420    4.693    0.440    0.228  219.278  113.562
  148.670    5.003    0.414    0.225  218.732  114.740
  148.920    5.584    0.410    0.227  220.213  114.420
  149.170    6.008    0.419    0.232  222.217  114.100
  149.420    6.463    0.431    0.232  223.708  112.282
  149.670    8.510    0.414    0.229  221.635  105.080
  149.920   11.001    0.398    0.229  215.999   97.277
  150.170   15.304    0.387    0.244  210.363   94.264
  150.420   19.603    0.380    0.280  207.268   90.950
  150.670   23.762    0.374    0.285  206.718   87.341
  150.920   27.512    0.372    0.276  206.172   82.233
  151.170   28.273    0.364    0.278  207.667   72.937
  151.420   28.524    0.355    0.297  210.176   63.638
  151.670   28.516    0.366    0.329  209.121   55.838
  151.920   27.988    0.384    0.340  206.539   54.319
  152.170   27.979    0.390    0.359  204.466   53.999
  152.420   28.228    0.375    0.366  204.939   55.474
  152.670   28.482    0.362    0.273  205.916   55.149
  152.920   29.536    0.366    0.299  207.406   53.936
  153.170   31.486    0.379    0.348  208.897   51.821
  153.420   32.655    0.377    0.346  208.860   50.304
  153.670   32.644    0.363    0.346  207.292   52.674
  153.920   31.748    0.355    0.350  207.255   53.255
  154.170   31.161    0.349    0.345  208.746   52.934
  154.420   31.152    0.341    0.177  209.218   51.116
  154.670   31.141    0.339    0.180  209.690   52.287
  154.920   30.567    0.352    0.280  211.181   54.964
  155.170   30.275    0.360    0.321  211.135   54.340
  155.420   29.989    0.356    0.324  210.599   53.426
  155.670   29.709    0.361    0.319  209.035   54.600
  155.920   28.893    0.360    0.324  206.962   56.676
  156.170   27.841    0.355    0.318  204.889   58.450
  156.420   26.342    0.343    0.328  203.326   59.626
  156.670   24.024    0.358    0.341  203.289   59.603
  156.920   20.736    0.389    0.354  202.230   60.183
  157.170   17.412    0.393    0.352  201.680   60.459
  157.420   12.394    0.372    0.243  200.121   60.139
  157.670    8.741    0.364    0.083  199.575   60.410
  157.920    6.758    0.357    0.217  195.466   60.696
  158.170    5.420    0.372    0.307  191.357   63.667
