~VERSION INFORMATION
 VERS.                 2.0:   CWLS LOG ASCII STANDARD -VERSION 2.0
 WRAP.                  NO:   ONE LINE PER DEPTH STEP
~WELL INFORMATION BLOCK
#MNEM.UNIT           DATA                    DESCRIPTION OF MNEMONIC
#---------    -------------------            -------------------------------
# Generated from Intellog Unique Number	CN_91_93/WELL/2727
WELL.         PARAMOUNT RESOURCES LTD.       : Well_name    - WELL
LOC .         00/13-28-091-19W4/0            : Location     - LOCATION
UWI .         00/13-28-091-19W4/0            : Uwi          - UNIQUE WELL ID
ENTR.         JOETTE                         : Entered      - ENTERED BY
SRVC.         COMPUTALOG                     : Scn          - SERVICE COMPANY
DATE.         02/11/92                       : Date         - LOG DATE
STRT.M        100                            : top_depth    - START DEPTH
STOP.M        262                            : bot_depth    - STOP DEPTH
STEP.M        0.25                           : increment    - STEP LENGTH
 NULL. -999.2500:NULL Value
~CURVE INFORMATION BLOCK
#MNEM UNIT       ERCB CURVE CODE    CURVE DESCRIPTION
#-----------   ------------------   ----------------------------------
DEPT.M        00 001 00 00         : DEPTH        - DEPTH
GR  .API      00 310 00 00         : GR           - GAMMA RAY
CALI.MM       00 280 01 00         : CAL          - CALIPER
NPHI.V/V      00 330 00 00         : PHIN         - NEUTRON POROSITY (SANDSTONE)
DPHI.V/V      00 890 00 00         : PHID         - DENSITY POROSITY (SANDSTONE)
ILD .OHMM     00 120 00 00         : RESD         - DEEP RESISTIVITY (DIL)
~PARAMETER INFORMATION
#MNEM.UNIT           DATA             DESCRIPTION OF MNEMONIC
#---------         -----------     ------------------------------
GL  .M        535.6                : gl           - GROUND LEVEL ELEVATION
EREF.M        539                  : kb           - ELEVATION OF DEPTH REFERENCE
DATM.M        539                  : datum        - DATUM ELEVATION
TDD .M        263                  : tdd          - TOTAL DEPTH DRILLER
RUN .         ONE                  : Run          - RUN NUMBER
ENG .         BILL                 : Engineer     - RECORDING ENGINEER
WIT .         JIM                  : Witness      - WITNESSED BY
MUD .         GEL                  : Mud_type     - MUD TYPE
MATR.         SANDSTONE            : Logunit      - NEUTRON MATRIX
TMAX.C        15                   : BHT          - MAXIMUM RECORDED TEMPERATURE
BHTD.M        263                  : BHTDEP       - MAXIMUM RECORDED TEMPERATURE
RMT .C        7.8                  : MDTP         - TEMPERATURE OF MUD
MUDD.KG/M     1070                 : MWT          - MUD DENSITY
NEUT.         1                    : NEUTRON      - NEUTRON TYPE
RESI.         0                    : RESIST       - RESISTIVITY TYPE
RM  .OHMM     4.5                  : RM           - RESISTIVITY OF MUD
RMC .OHMM     4.5                  : RMC          - RESISTIVITY OF MUD CAKE
RMF .OHMM     4.5                  : RMF          - RESISTIVITY OF MUD FILTRATE
SUFT.C        4                    : SUFT         - SURFACE TEMPERATURE
~A  DEPTH       GR      CAL     PHIN     PHID     RESD
# ...
  136.500   62.124  158.473    0.397    0.294   16.830
  136.750   58.483  159.459    0.367    0.315   18.291
  137.000   57.560  159.938    0.366    0.281   16.967
  137.250   66.622  159.913    0.381    0.245   13.309
  137.500   85.360  159.392    0.394    0.245   12.348
  137.750   96.235  162.394    0.404    0.292   11.671
  138.000   75.957  164.388    0.415    0.322   12.922
  138.250   59.308  162.350    0.400    0.326   19.278
  138.500   52.337  158.292    0.392    0.325   26.944
  138.750   54.745  157.259    0.391    0.323   29.832
  139.000   56.544  157.743    0.391    0.326   31.532
  139.250   55.319  158.726    0.377    0.334   32.405
  139.500   56.516  158.701    0.379    0.337   32.687
  139.750   57.109  157.676    0.386    0.334   32.366
  140.000   56.185  156.139    0.386    0.312   32.050
  140.250   54.965  156.117    0.379    0.279   31.439
  140.500   57.371  157.100    0.375    0.199   29.714
  140.750   60.987  157.582    0.381    0.236   28.877
  141.000   61.574  156.551    0.388    0.314   28.858
  141.250   60.352  157.540    0.391    0.314   29.116
  141.500   63.062  158.520    0.397    0.288   28.828
  141.750   71.516  157.997    0.404    0.156   27.759
  142.000   73.317  152.931    0.411    0.092   25.992
  142.250   71.793  153.919    0.445    0.103   21.164
  142.500   74.199  160.447    0.431    0.132   14.572
  142.750   84.165  163.449    0.425    0.280   13.392
  143.000   85.966  162.926    0.425    0.288   11.748
  143.250   83.231  158.361    0.441    0.288   10.797
  143.500   78.378  154.306    0.451    0.287   10.591
  143.750   72.014  153.279    0.415    0.292   11.193
  144.000   68.974  164.847    0.405    0.292   11.399
  144.250   76.523  164.847    0.415    0.277   10.379
  144.500   95.564  173.372    0.450    0.215    7.843
  144.750  108.858  173.851    0.498    0.214    6.567
  145.000  118.221  168.286    0.508    0.215    5.924
  145.250  126.071  159.188    0.486    0.191    5.496
  145.500  125.755  159.670    0.473    0.188    5.146
  145.750  115.151  162.675    0.467    0.203    5.001
  146.000  116.954  162.675    0.462    0.208    4.906
  146.250  119.663  171.194    0.468    0.208    4.858
  146.500  120.256  173.695    0.468    0.209    4.810
  146.750  119.335  174.171    0.458    0.217    4.719
  147.000  117.809  173.647    0.460    0.232    4.716
  147.250  117.793  172.620    0.464    0.218    4.757
  147.500  120.199  173.605    0.462    0.205    4.800
  147.750  120.488  176.605    0.451    0.220    4.887
  148.000  117.754  179.103    0.446    0.235    5.069
  148.250  113.204  178.072    0.451    0.241    5.357
  148.500  110.771  175.527    0.454    0.234    5.507
  148.750  114.387  176.009    0.438    0.230    5.507
  149.000  115.582  177.499    0.430    0.233    5.603
  149.250  115.266  177.980    0.430    0.231    5.705
  149.500  112.529  177.958    0.435    0.221    5.649
  149.750  111.911  175.413    0.448    0.221    5.699
  150.000  112.501  171.859    0.451    0.224    5.749
  150.250  112.188  171.335    0.451    0.224    6.190
  150.500  107.636  168.291    0.447    0.172    7.454
  150.750   97.338  158.188    0.433    0.140    9.059
  151.000   87.951  153.626    0.416    0.089   11.010
  151.250   80.674  156.121    0.399    0.138   13.634
  151.500   83.384  159.126    0.401    0.176   15.965
  151.750   88.814  159.126    0.413    0.244   16.562
  152.000   94.852  160.087    0.433    0.254   14.665
  152.250  100.585  162.081    0.439    0.257    8.302
  152.500  102.384  162.056    0.444    0.284    6.102
  152.750  102.069  161.532    0.481    0.299    5.109
  153.000  101.754  163.022    0.470    0.261    4.524
  153.250  110.209  170.558    0.445    0.189    4.479
  153.500  116.848  169.525    0.474    0.151    4.868
  153.750  118.648  166.985    0.486    0.195    5.242
  154.000  118.636  164.439    0.481    0.185    5.540
  154.250  120.738  168.954    0.484    0.160    5.641
  154.500  124.053  170.948    0.493    0.157    5.381
  154.750  126.758  168.405    0.498    0.202    4.899
  155.000  126.444  164.353    0.523    0.223    4.503
  155.250  125.525  162.312    0.527    0.202    4.138
  155.500  123.696  162.793    0.512    0.198    3.948
  155.750  119.750  162.771    0.489    0.202    3.766
  156.000  115.200  165.773    0.489    0.233    3.626
  156.250  116.094  170.792    0.506    0.256    3.589
  156.500  118.803  173.287    0.505    0.257    3.522
  156.750  119.694  172.259    0.471    0.273    3.487
  157.000  117.864  170.218    0.468    0.275    3.519
  157.250  116.039  169.689    0.465    0.240    3.583
  157.500  114.209  171.685    0.431    0.213    3.787
  157.750  112.383  182.246    0.416    0.207    4.645
  158.000  112.067  185.245    0.408    0.209    5.645
  158.250  113.564  185.245    0.407    0.202    6.862
  158.500  110.829  186.206    0.405    0.204    8.339
  158.750  105.674  184.176    0.389    0.211    9.948
  159.000  101.122  172.050    0.366    0.200   11.977
  159.250  102.018  158.421    0.339    0.095   14.422
  159.500   99.583  153.349    0.336    0.042   14.963
  159.750   84.448  153.839    0.349    0.075   15.236
  160.000   80.200  153.797    0.374    0.194   15.227
  160.250   92.889  154.800    0.389    0.209   14.391
  160.500  100.738  159.816    0.380    0.232   13.104
  160.750   94.677  168.869    0.385    0.220   11.711
  161.000   92.241  171.869    0.393    0.189   11.171
  161.250   91.927  170.337    0.399    0.175   11.164
  161.500   93.122  166.783    0.402    0.188   11.164
  161.750  100.066  169.281    0.403    0.203   11.046
  162.000  108.219  178.335    0.391    0.208   10.539
  162.250  111.226  178.310    0.377    0.217    9.688
  162.500  106.680  172.236    0.383    0.257    8.902
  162.750  101.221  167.677    0.359    0.264   10.921
  163.000   96.671  163.620    0.342    0.272   11.869
  163.250   86.979  162.091    0.334    0.289   14.561
  163.500   76.982  162.091    0.331    0.289   17.049
  163.750   81.203  160.520    0.348    0.264   17.854
  164.000   80.584  159.999    0.354    0.259   19.223
  164.250   78.454  159.999    0.352    0.244   19.941
  164.500   75.720  159.957    0.350    0.169   20.118
  164.750   72.981  160.442    0.358    0.174   19.919
  165.000   71.456  160.442    0.358    0.199   18.823
  165.250   73.561  160.394    0.353    0.221   17.628
  165.500   79.294  159.868    0.369    0.182   14.088
  165.750   82.608  159.843    0.410    0.201   11.155
  166.000   90.458  161.333    0.452    0.204    8.589
  166.250  104.658  164.338    0.458    0.194    6.864
  166.500  108.878  173.893    0.432    0.189    6.487
  166.750  110.379  171.851    0.422    0.186    6.920
  167.000  109.458  171.829    0.418    0.170    8.103
  167.250  105.814  179.872    0.417    0.143    8.644
  167.500  106.099  180.354    0.422    0.144    9.052
  167.750  106.089  171.258    0.437    0.159    9.046
  168.000  106.379  168.211    0.422    0.177    9.046
  168.250  106.668  170.200    0.406    0.188    8.704
  168.500  109.981  174.210    0.407    0.196    8.075
  168.750  113.595  174.188    0.420    0.203    7.491
  169.000  113.584  172.149    0.417    0.214    7.147
  169.250  101.471  168.598    0.394    0.162    7.913
  169.500   92.989  166.058    0.372    0.136    9.617
  169.750   86.927  164.518    0.365    0.130   11.262
  170.000   87.817  163.992    0.376    0.148   14.075
  170.250   95.064  163.972    0.391    0.187   17.107
  170.500   97.166  164.449    0.406    0.196   17.097
  170.750   97.758  164.449    0.420    0.190   15.279
  171.000   98.652  164.410    0.407    0.193   13.912
  171.250   99.242  163.880    0.395    0.190   13.396
  171.500   99.228  163.880    0.369    0.151   15.979
  171.750   97.402  162.825    0.352    0.093   16.888
  172.000   92.549  160.789    0.342    0.119   19.232
  172.250   87.999  161.265    0.358    0.210   19.400
  172.500   87.683  161.753    0.355    0.214   18.334
  172.750   90.997  161.714    0.358    0.186   15.352
