~VERSION INFORMATION
 VERS.                 2.0:   CWLS LOG ASCII STANDARD -VERSION 2.0
 WRAP.                  NO:   ONE LINE PER DEPTH STEP
~WELL INFORMATION BLOCK
#MNEM.UNIT           DATA                    DESCRIPTION OF MNEMONIC
#---------    -------------------            -------------------------------
# Generated from Intellog Unique Number	CS_67_68/WELL/805
WELL.         TOTAL PETROLEUM (N.A.)         : Well_name    - WELL
LOC .         00/10-15-068-16W4/0            : Location     - LOCATION
UWI .         00/10-15-068-16W4/0            : Uwi          - UNIQUE WELL ID
ENTR.         SP                             : Entered      - ENTERED BY
SRVC.         SCHLUMBERGER                   : Scn          - SERVICE COMPANY
STRT.M        280                            : top_depth    - START DEPTH
STOP.M        490                            : bot_depth    - STOP DEPTH
STEP.M        0.25                           : increment    - STEP LENGTH
 NULL. -999.2500:NULL Value
~CURVE INFORMATION BLOCK
#MNEM UNIT       ERCB CURVE CODE    CURVE DESCRIPTION
#-----------   ------------------   ----------------------------------
DEPT.M        00 001 00 00         : DEPTH        - DEPTH
ILD .OHMM     00 120 00 00         : RESD         - DEEP RESISTIVITY (DIL)
DPHI.V/V      00 890 00 00         : PHID         - DENSITY POROSITY (LIMESTONE)
NPHI.V/V      00 330 00 00         : PHIN         - NEUTRON POROSITY (LIMESTONE)
GR  .API      00 310 00 00         : GR           - GAMMA RAY
~PARAMETER INFORMATION
#MNEM.UNIT           DATA             DESCRIPTION OF MNEMONIC
#---------         -----------     ------------------------------
GL  .M        547.15               : gl           - GROUND LEVEL ELEVATION
EREF.M        550                  : kb           - ELEVATION OF DEPTH REFERENCE
DATM.M        547.15               : datum        - DATUM ELEVATION
TDD .M        490                  : tdd          - TOTAL DEPTH DRILLER
RUN .         ONE                  : Run          - RUN NUMBER
ENG .         BILL                 : Engineer     - RECORDING ENGINEER
WIT .         JIM                  : Witness      - WITNESSED BY
MUD .         GEL                  : Mud_type     - MUD TYPE
MATR.         LIMESTONE            : Logunit      - NEUTRON MATRIX
TMAX.C        26                   : BHT          - MAXIMUM RECORDED TEMPERATURE
BHTD.M        490                  : BHTDEP       - MAXIMUM RECORDED TEMPERATURE
MATR.         1                    : LOGUNIT      - NEUTRON MATRIX
RMT .C        25                   : MDTP         - TEMPERATURE OF MUD
NEUT.         1                    : NEUTRON      - NEUTRON TYPE
RESI.         0                    : RESIST       - RESISTIVITY TYPE
RMC .OHMM     0.25                 : RMC          - RESISTIVITY OF MUD CAKE
RMF .OHMM     0.25                 : RMF          - RESISTIVITY OF MUD FILTRATE
SUFT.C        15                   : SUFT         - SURFACE TEMPERATURE
~A  DEPTH     RESD     PHID     PHIN       GR
# ...
  454.000   24.175    0.033    0.152   61.314
  454.250   27.648    0.025    0.187   56.302
  454.500   31.975    0.041    0.189   49.455
  454.750   36.365    0.062    0.156   42.547
  455.000   41.205    0.063    0.175   36.006
  455.250   36.512    0.073    0.216   25.429
  455.500   27.361    0.094    0.269   23.290
  455.750   23.185    0.079    0.285   30.875
  456.000   19.720    0.094    0.271   35.401
  456.250   16.617    0.082    0.251   39.562
  456.500   15.659    0.072    0.224   43.110
  456.750   15.487    0.079    0.198   46.781
  457.000   15.751    0.131    0.182   51.124
  457.250   16.230    0.084    0.187   55.040
  457.500   17.326    0.054    0.169   50.455
  457.750   18.984    0.046    0.154   40.062
  458.000   21.590    0.077    0.145   35.355
  458.250   24.012    0.083    0.159   38.231
  458.500   24.513    0.091    0.171   43.675
  458.750   23.752    0.122    0.205   51.565
  459.000   24.520    0.147    0.239   57.865
  459.250   25.597    0.119    0.242   56.277
  459.500   27.736    0.118    0.221   52.426
  459.750   30.221    0.142    0.262   52.795
  460.000   34.886    0.145    0.283   56.589
  460.250   45.200    0.102    0.298   51.576
  460.500   63.212    0.081    0.285   33.967
  460.750   78.176    0.069    0.199   23.573
  461.000   84.865    0.074    0.163   19.172
  461.250   72.586    0.047    0.136   23.760
  461.500   52.895    0.019    0.121   30.122
  461.750   40.011    0.002    0.114   41.986
  462.000   36.593    0.037    0.119   49.632
  462.250   32.065    0.046    0.122   53.731
  462.500   28.150    0.036    0.125   55.689
  462.750   24.302    0.026    0.134   57.342
  463.000   22.603    0.027    0.156   57.955
  463.250   21.699    0.044    0.171   57.285
  463.500   21.381    0.054    0.189   56.614
  463.750   21.909    0.053    0.218   55.393
  464.000   23.916    0.044    0.185   53.804
  464.250   26.848    0.048    0.145   48.364
  464.500   31.224    0.019    0.121   43.535
  464.750   35.710   -0.005    0.095   39.868
  465.000   40.689   -0.003    0.090   38.280
  465.250   45.506    0.005    0.135   36.264
  465.500   47.860    0.010    0.174   26.726
  465.750   31.132    0.017    0.205   19.818
  466.000   26.136    0.044    0.252   19.086
  466.250   21.982    0.034    0.314   24.102
  466.500   17.846    0.062    0.340   24.532
  466.750   15.350    0.090    0.355   17.319
  467.000   13.806    0.103    0.341   15.180
  467.250   12.961    0.088    0.225   17.322
  467.500   11.506    0.061    0.176   20.381
  467.750   10.045    0.023    0.148   25.459
  468.000    8.386    0.030    0.367   30.658
  468.250    7.390    0.059    0.396   34.329
  468.500    6.181    0.101    0.398   36.899
  468.750    5.336    0.148    0.403   28.401
  469.000    4.935    0.158    0.417   24.306
  469.250    4.964    0.143    0.438   23.023
  469.500    5.408    0.155    0.452   21.191
  469.750    5.882    0.158    0.307   18.991
  470.000    7.035    0.125    0.250   17.403
  470.250    8.444    0.107    0.216   21.991
  470.500   10.482    0.123    0.190   26.640
  470.750   13.134    0.104    0.178   29.883
  471.000   17.565   -0.003    0.166   26.155
  471.250   25.354   -0.013    0.154   20.837
  471.500   30.153    0.006    0.147   17.903
  471.750   30.554   -0.011    0.164   17.232
  472.000   27.378    0.031    0.182   17.479
  472.250   24.716    0.035    0.169   19.377
  472.500   22.355    0.019    0.200   21.090
  472.750   21.621    0.093    0.238   23.049
  473.000   23.471    0.050    0.248   26.230
  473.250   26.595    0.009    0.226   28.128
  473.500   30.416    0.061    0.228   23.849
  473.750   34.721    0.003    0.215   23.606
  474.000   37.902    0.055    0.169   19.022
  474.250   40.840    0.037    0.148   18.168
  474.500   40.093   -0.007    0.140   19.515
  474.750   35.659   -0.026    0.134   22.207
  475.000   31.073   -0.027    0.128   24.349
  475.250   27.433   -0.022    0.122   20.010
  475.500   25.801    0.002    0.148   18.788
  475.750   24.448    0.036    0.197   20.930
  476.000   23.253    0.072    0.210   23.256
  476.250   22.657    0.035    0.179   20.017
  476.500   22.078    0.085    0.190   17.573
  476.750   21.593    0.086    0.197   18.859
  477.000   21.677    0.041    0.199   19.900
  477.250   22.170    0.008    0.197   20.880
  477.500   23.015   -0.011    0.185   20.760
  477.750   23.715   -0.000    0.166   17.582
  478.000   23.674    0.030    0.179   16.666
  478.250   22.142    0.045    0.199   16.974
  478.500   20.026    0.059    0.188   17.404
  478.750   18.282    0.073    0.200   18.140
  479.000   17.356    0.036    0.206   19.365
  479.250   17.102    0.019    0.209   21.567
  479.500   17.557    0.023    0.217   25.483
  479.750   18.294    0.023    0.214   27.136
  480.000   18.780   -0.005    0.196   25.853
  480.250   18.505   -0.021    0.171   26.161
  480.500   17.567   -0.023    0.198   29.220
  480.750   17.439   -0.021    0.215   32.340
  481.000   17.737   -0.007    0.224   34.483
  481.250   18.242    0.012    0.206   31.672
  481.500   19.293   -0.009    0.181   27.393
  481.750   20.405   -0.024    0.161   24.032
  482.000   21.661   -0.034    0.151   24.584
  482.250   22.196   -0.041    0.159   25.442
  482.500   20.376   -0.035    0.163   25.749
  482.750   18.056   -0.017    0.163   24.039
  483.000   15.588    0.004    0.167   23.490
  483.250   13.583    0.032    0.197   25.510
  483.500   12.059    0.061    0.302   27.346
  483.750   11.194    0.040    0.243   24.902
  484.000   10.568   -0.001    0.202   21.663
  484.250   10.221   -0.017    0.178   21.543
  484.500   10.091   -0.022    0.214   22.462
  484.750   10.262   -0.011    0.241   23.870
  485.000   10.976    0.023    0.249   24.116
  485.250   12.506    0.103    0.208   22.834
  485.500   13.857    0.085    0.185   22.714
  485.750   13.885    0.072    0.170   24.061
  486.000   12.794    0.018    0.160   24.674
  486.250   10.026    0.010    0.153   22.597
  486.500    8.672    0.044    0.176   21.376
  486.750    7.756    0.061    0.219   21.439
  487.000    7.349    0.051    0.260   22.419
  487.250    7.135    0.061    0.277   23.032
  487.500    7.083    0.079    0.273   22.789
  487.750    7.071    0.095    0.264   15.270
  488.000    7.085    0.076    0.253    3.470
  488.250    7.073    0.056    0.244    2.615
  488.500    7.074    0.088    0.242    2.250
  488.750    7.101    0.173    0.238    2.436
  489.000    7.142    0.204    0.235    2.621
  489.250    7.197    0.182    0.232    2.623
  489.500    7.252    0.107    0.238    2.869
  489.750    7.266    0.113    0.241    2.627
  490.000    7.227    0.123    0.243    2.506
