~VERSION INFORMATION
 VERS.                 2.0:   CWLS LOG ASCII STANDARD -VERSION 2.0
 WRAP.                  NO:   ONE LINE PER DEPTH STEP
~WELL INFORMATION BLOCK
#MNEM.UNIT           DATA                    DESCRIPTION OF MNEMONIC
#---------    -------------------            -------------------------------
# Generated from Intellog Unique Number	CW_76_78/WELL/2817
WELL.         SCURRY ATKINSON MCMULLEN 11-18 : Well_name    - WELL
LOC .         00/11-18-077-01W5/0            : Location     - LOCATION
UWI .         00/11-18-077-01W5/0            : Uwi          - UNIQUE WELL ID
ENTR.         JJ                             : Entered      - ENTERED BY
SRVC.         WESTERN ATLAS                  : Scn          - SERVICE COMPANY
DATE.         9 JAN 74                       : Date         - LOG DATE
STRT.M        493.776                        : top_depth    - START DEPTH
STOP.M        621.776                        : bot_depth    - STOP DEPTH
STEP.M        0.25                           : increment    - STEP LENGTH
 NULL. -999.2500:NULL Value
~CURVE INFORMATION BLOCK
#MNEM UNIT       ERCB CURVE CODE    CURVE DESCRIPTION
#-----------   ------------------   ----------------------------------
DEPT.M        00 001 00 00         : DEPTH        - DEPTH
DELT.US/F     00 520 00 00         : DELT         - SONIC TRAVEL TIME
CALI.MM       00 280 01 00         : CAL          - CALIPER
GR  .API      00 310 00 00         : GR           - GAMMA RAY
ILD .OHMM     00 120 00 00         : RESD         - DEEP RESISTIVITY (DIL)
~PARAMETER INFORMATION
#MNEM.UNIT           DATA             DESCRIPTION OF MNEMONIC
#---------         -----------     ------------------------------
GL  .M        694.944              : gl           - GROUND LEVEL ELEVATION
EREF.M        698.906              : kb           - ELEVATION OF DEPTH REFERENCE
DATM.M        694.944              : datum        - DATUM ELEVATION
TDD .M        621.182              : tdd          - TOTAL DEPTH DRILLER
RUN .         ONE                  : Run          - RUN NUMBER
ENG .         HOPP-GAU             : Engineer     - RECORDING ENGINEER
WIT .         KIRKPATRICK          : Witness      - WITNESSED BY
BASE.         EDMONTON             : Branch       - HOME BASE OF LOGGING UNIT
MUD .         GEL-CHEM             : Mud_type     - MUD TYPE
MATR.         SANDSTONE            : Logunit      - NEUTRON MATRIX
TMAX.C        23.8889              : BHT          - MAXIMUM RECORDED TEMPERATURE
BHTD.M        622.097              : BHTDEP       - MAXIMUM RECORDED TEMPERATURE
RMT .C        12.7778              : MDTP         - TEMPERATURE OF MUD
MUDD.KG/M     1128                 : MWT          - MUD DENSITY
NEUT.         1                    : NEUTRON      - NEUTRON TYPE
RESI.         0                    : RESIST       - RESISTIVITY TYPE
RM  .OHMM     4.5                  : RM           - RESISTIVITY OF MUD
RMC .OHMM     0                    : RMC          - RESISTIVITY OF MUD CAKE
RMF .OHMM     0                    : RMF          - RESISTIVITY OF MUD FILTRATE
SUFT.C        5                    : SUFT         - SURFACE TEMPERATURE
~A  DEPTH     DELT      CAL       GR     RESD
  493.776  316.169  220.044   76.274    8.873
  494.026  359.109  220.060   80.715    9.403
  494.276  375.156  219.869   88.310    9.846
  494.526  378.276  218.972   97.666    9.112
  494.776  394.325  217.975   93.612    7.402
  495.026  383.478  217.176   97.143    6.336
  495.276  367.539  216.787   97.337    5.579
  495.526  380.910  217.201   97.287    5.378
  495.776  380.179  219.239  101.426    5.331
  496.026  378.473  221.068  104.350    5.330
  496.276  377.874  223.610  102.422    5.417
  496.526  370.226  224.838  103.402    5.416
  496.776  363.101  225.254  107.417    5.437
  497.026  358.975  225.470  107.247    5.479
  497.276  360.271  225.176  103.678    5.632
  497.526  357.976  224.684   99.324    5.786
  497.776  355.876  223.888   96.846    5.917
  498.026  356.322  221.071   94.793    5.960
  498.276  357.944  216.837   92.804    6.025
  498.526  360.738  214.523   94.877    6.223
  498.776  365.229  214.133   97.621    6.355
  499.026  369.658  214.449   97.448    6.508
  499.276  375.131  215.979  100.191    6.462
  499.526  381.975  218.213  100.931    6.305
  499.776  387.118  222.273  100.945    6.171
  500.026  389.783  224.810  101.621    5.858
  500.276  392.320  227.249  104.001    5.790
  500.526  395.834  228.884  106.196    5.611
  500.776  397.193  229.095  107.724    5.431
  501.026  393.787  228.500  107.916    5.386
  501.276  390.319  225.278  105.321    5.295
  501.526  385.869  223.674  101.205    5.360
  501.776  382.202  223.788   97.757    5.513
  502.026  384.279  224.305   96.921    5.623
  502.276  387.989  224.215   97.780    5.710
  502.526  386.474  223.825   97.794    5.819
  502.776  385.748  224.949   97.196    5.995
  503.026  385.933  227.592   96.299    6.126
  503.276  390.034  226.191   97.827    6.146
  503.526  393.156  221.956   99.902    6.101
  503.776  391.579  217.719  100.033    6.077
  504.026  388.891  212.980   98.409    5.986
  504.276  390.578  210.263   96.779    5.785
  504.526  386.127  210.983   94.669    5.628
  504.776  380.893  214.129   94.861    5.382
  505.026  385.257  216.569   95.421    5.203
  505.276  383.091  215.976   95.312    5.180
  505.526  374.726  214.677   94.957    5.333
  505.776  358.984  215.498   92.722    5.797
  506.026  326.597  217.126   87.335    6.616
  506.276  347.474  219.870   87.589    7.169
  506.526  375.270  222.107   92.821    7.367
  506.776  385.506  224.342   95.681    6.944
  507.026  381.187  226.483   95.148    6.343
  507.276  385.093  226.897   94.308    5.543
  507.526  393.503  226.202   97.232    5.009
  507.776  394.863  223.180   99.976    4.941
  508.026  389.173  219.756  100.229    5.071
  508.276  382.439  218.656   95.750    5.226
  508.526  390.130  218.367   91.939    5.601
  508.776  390.312  218.277   92.255    5.977
  509.026  387.627  218.188   89.231    6.662
  509.276  385.656  217.897   87.790    7.060
  509.526  386.364  217.105   89.316    7.258
  509.776  386.876  216.508   91.329    7.167
  510.026  386.278  216.218   92.314    7.011
  510.276  386.855  215.931   92.749    6.654
  510.526  388.868  216.039   91.669    6.408
  510.776  386.831  216.051   87.371    6.273
  511.026  384.537  215.762   82.406    6.227
  511.276  381.001  215.166   81.082    6.248
  511.526  378.576  215.181   82.673    6.468
  511.776  370.600  217.820   86.567    6.888
  512.026  344.153  223.597   89.249    7.152
  512.276  315.226  225.632   86.651    7.040
  512.526  285.710  219.072   79.685    7.083
  512.776  286.352  213.930   74.964    7.458
  513.026  332.816  212.627   77.889    8.521
  513.276  347.949  212.134   88.031    9.562
  513.526  371.699  212.551  101.272    8.939
  513.776  380.434  213.170  110.869    8.050
  514.026  382.772  214.401  115.978    6.873
  514.276  385.045  215.527  111.984    6.494
  514.526  393.261  216.145  101.802    6.536
  514.776  396.839  216.763   94.229    6.867
  515.026  386.254  217.483   93.573    7.021
  515.276  374.690  217.900   97.528    6.598
  515.526  362.798  218.723   99.665    6.153
  515.776  343.531  219.241   98.704    6.062
  516.026  332.946  219.555   95.864    6.393
  516.276  353.888  219.568   94.784    6.791
  516.526  378.812  220.589   94.613    7.033
  516.776  378.671  223.232   95.231    6.920
  517.026  375.525  224.558   96.761    6.564
  517.276  374.405  224.874   97.925    6.229
  517.526  374.133  224.587  101.152    5.784
  517.776  374.384  224.799  105.896    5.672
  518.026  377.635  226.733  106.089    5.714
  518.276  378.472  229.982  105.797    5.890
  518.526  374.350  231.712  104.900    5.910
  518.776  375.905  227.782  102.120    6.042
  519.026  380.854  225.975  100.919    6.041
  519.276  379.278  225.787  101.840    6.016
  519.526  382.336  226.404  103.127    5.926
  519.776  387.742  228.036  104.836    5.813
  520.026  386.098  229.566  106.728    5.812
  520.276  390.526  230.792  109.049    5.788
  520.526  395.086  231.004  110.453    5.742
  520.776  397.947  229.703  113.802    5.651
  521.026  399.240  227.391  116.725    5.561
  521.276  397.338  224.068  114.251    5.559
  521.526  392.888  221.855  110.377    5.713
  521.776  375.253  220.856  107.356    5.866
  522.026  370.803  219.961  107.063    5.976
  522.276  371.117  219.870  107.924    6.041
  522.526  382.726  219.784  110.607    6.083
  522.776  385.978  219.897  110.980    6.170
  523.026  382.443  220.009  106.744    6.346
  523.276  380.931  223.156   99.171    6.433
  523.526  393.060  228.224   98.880    6.498
  523.776  398.207  224.394  105.687    6.585
  524.026  388.731  220.060  109.399    6.494
  524.276  368.420  219.972  110.869    6.337
  524.526  376.828  220.792  108.816    6.181
  524.776  384.715  221.412   98.997    5.824
  525.026  386.531  221.929  100.890    5.689
  525.276  386.326  222.147  105.756    5.732
  525.526  384.945  222.765  107.589    5.797
  525.776  379.319  224.193  102.988    6.105
  526.026  375.131  225.624   99.966    6.215
  526.276  371.072  226.038   98.945    6.235
  526.526  376.675  225.949   97.682    6.145
  526.776  378.490  225.356  100.789    6.032
  527.026  378.546  225.574   99.708    5.875
  527.276  383.366  225.987   99.176    5.674
  527.526  387.663  227.415  101.006    5.606
  527.776  387.782  226.517  104.050    5.582
  528.026  383.399  225.822  104.368    5.603
  528.276  376.009  227.250  100.008    5.756
  528.526  369.995  229.389   93.772    6.531
  528.776  343.483  227.580   90.869    7.594
  529.026  298.758  221.424   87.119    8.435
  529.276  304.621  217.392   82.579    9.698
  529.526  350.237  218.520   79.435    8.942
  529.776  356.755  220.959   82.058    8.231
  530.026  367.252  223.396   82.189    7.031
  530.276  371.419  224.724   82.989    6.585
  530.526  364.813  223.625   93.983    6.362
  530.776  358.796  221.512   98.667    6.338
  531.026  356.504  219.403  103.473    6.669
  531.276  354.535  219.821  105.973    7.177
  531.526  354.716  223.472  106.954    7.331
  531.776  356.666  229.348  104.660    7.441
  532.026  362.986  232.397  101.879    7.350
  532.276  368.133  232.712  104.805    7.105
  532.526  372.297  232.828  103.663    6.282
  532.776  374.049  232.536  101.916    5.814
  533.026  374.496  231.437  103.321    5.680
  533.276  374.617  229.731  106.123    5.811
  533.526  374.212  228.329  104.982    6.142
  533.776  369.892  227.129  108.755    6.340
  534.026  367.272  226.130  109.436    6.649
  534.276  366.999  225.332  109.205    6.802
  534.526  368.359  225.039  111.520    6.867
  534.776  368.089  225.760  109.775    6.910
  535.026  364.552  227.189  108.813    6.930
  535.276  366.758  228.113  107.126    6.929
  535.526  367.925  228.123  107.383    6.971
  535.776  366.802  227.833  106.724    6.970
  536.026  366.336  226.839  105.097    6.902
  536.276  366.129  226.243  106.444    6.744
  536.526  366.901  225.647  107.488    6.609
  536.776  368.000  225.863  103.555    6.497
  537.026  368.315  229.717  104.173    6.296
