~VERSION INFORMATION
 VERS.                 2.0:   CWLS LOG ASCII STANDARD -VERSION 2.0
 WRAP.                  NO:   ONE LINE PER DEPTH STEP
~WELL INFORMATION BLOCK
#MNEM.UNIT           DATA                    DESCRIPTION OF MNEMONIC
#---------    -------------------            -------------------------------
# Generated from Intellog Unique Number	CW_70_72/WELL/3034
NULL.         -999.25                        : NULL_VALUE
WELL.         MIAMI AMOCO HONDO 11-32        : Well_name    - WELL              
LOC .         11-32-070-02W5                 : Location     - LOCATION          
UWI .         00/11-32-070-02W5/0            : Uwi          - UNIQUE WELL ID    
ENTR.         J                              : Entered      - ENTERED BY        
SRVC.         SCHLUMBERGER                   : Scn          - SERVICE COMPANY   
DATE.         30 JAN 75                      : Date         - LOG DATE          
STRT.M        417.576                        : top_depth    - START DEPTH       
STOP.M        634.076                        : bot_depth    - STOP DEPTH        
STEP.M        0.25                           : increment    - STEP LENGTH       
~CURVE INFORMATION BLOCK
#MNEM UNIT       ERCB CURVE CODE    CURVE DESCRIPTION
#-----------   ------------------   ----------------------------------
DEPT.M        00 001 00 00         : DEPTH        - DEPTH                       
ILD .OHMM     00 120 00 00         : RESD         - DEEP RESISTIVITY (DIL)      
CALI.MM       00 280 01 00         : CAL          - CALIPER                     
GR  .API      00 310 00 00         : GR           - GAMMA RAY                   
NPHI.V/V      00 330 00 00         : PHIN         - NEUTRON POROSITY (SANDSTONE)
DPHI.V/V      00 890 00 00         : PHID         - DENSITY POROSITY (SANDSTONE)
~PARAMETER INFORMATION       
#MNEM.UNIT           DATA             DESCRIPTION OF MNEMONIC
#---------         -----------     ------------------------------
GL  .M        591.617              : gl           - GROUND LEVEL ELEVATION      
EREF.M        596.189              : kb           - ELEVATION OF DEPTH REFERENCE
DATM.M        591.617              : datum        - DATUM ELEVATION             
TDD .M        653.796              : tdd          - TOTAL DEPTH DRILLER         
RUN .         ONE                  : Run          - RUN NUMBER                  
ENG .         LAVERDIERE           : Engineer     - RECORDING ENGINEER          
WIT .         MCTAGGART            : Witness      - WITNESSED BY                
BASE.         EDM                  : Branch       - HOME BASE OF LOGGING UNIT   
MUD .         GEL                  : Mud_type     - MUD TYPE                    
MATR.         SANDSTONE            : Logunit      - NEUTRON MATRIX              
TMAX.C        28.3333              : BHT          - MAXIMUM RECORDED TEMPERATURE
BHTD.M        653.796              : BHTDEP       - MAXIMUM RECORDED TEMPERATURE
RMT .C        19.4444              : MDTP         - TEMPERATURE OF MUD          
MUDD.KG/M     1152                 : MWT          - MUD DENSITY                 
NEUT.         1                    : NEUTRON      - NEUTRON TYPE                
RESI.         0                    : RESIST       - RESISTIVITY TYPE            
RM  .OHMM     0.61                 : RM           - RESISTIVITY OF MUD          
RMC .OHMM     0.92                 : RMC          - RESISTIVITY OF MUD CAKE     
RMF .OHMM     0.25                 : RMF          - RESISTIVITY OF MUD FILTRATE 
SUFT.C        -17.7778             : SUFT         - SURFACE TEMPERATURE         
~A  DEPTH     RESD      CAL       GR     PHIN     PHID
# ...
  527.076    8.893  154.359   55.358    0.234    0.053
  527.326    8.749  152.924   57.976    0.267    0.104
  527.576    8.030  152.829   61.565    0.381    0.140
  527.826    7.104  153.350   65.459    0.425    0.212
  528.076    5.851  154.283   67.650    0.447    0.248
  528.326    3.785  154.908   66.439    0.456    0.258
  528.576    2.573  155.220   64.438    0.454    0.259
  528.826    2.043  155.537   62.800    0.447    0.263
  529.076    1.772  155.340   61.710    0.432    0.262
  529.326    1.638  155.447   61.593    0.414    0.259
  529.576    1.600  155.763   62.082    0.406    0.245
  529.826    1.583  155.975   63.362    0.398    0.219
  530.076    1.606  156.086   62.941    0.380    0.193
  530.326    1.666  155.988   60.088    0.367    0.189
  530.576    1.806  155.686   61.855    0.399    0.187
  530.826    1.955  155.691   63.438    0.430    0.217
  531.076    2.062  156.212   64.901    0.454    0.241
  531.326    2.070  156.631   62.231    0.450    0.233
  531.576    2.021  156.432   61.870    0.437    0.240
  531.826    1.935  156.233   63.636    0.425    0.246
  532.076    1.848  156.343   65.099    0.421    0.255
  532.326    1.785  156.454   64.434    0.424    0.259
  532.576    1.750  156.356   63.891    0.422    0.251
  532.826    1.731  156.055   66.205    0.426    0.250
  533.076    1.758  156.165   67.121    0.436    0.251
  533.326    1.785  156.067   66.395    0.441    0.246
  533.576    1.804  156.175   64.150    0.432    0.239
  533.826    1.821  155.771   61.358    0.411    0.224
  534.076    1.827  155.777   59.112    0.392    0.202
  534.326    1.893  155.783   55.653    0.326    0.172
  534.576    2.001  156.202   53.104    0.230    0.142
  534.826    2.196  157.031   50.737    0.188    0.054
  535.076    4.238  159.302   47.763    0.157   -0.005
  535.326    6.639  161.470   45.700    0.146   -0.016
  535.576    8.211  161.784   45.704    0.157   -0.012
  535.826    9.370  160.042   47.653    0.178    0.019
  536.076    9.478  158.711   50.878    0.218    0.075
  536.326    8.875  160.982   53.981    0.257    0.117
  536.576    7.723  161.503   59.759    0.300    0.155
  536.826    5.375  159.760   65.841    0.358    0.209
  537.076    3.334  158.738   70.646    0.402    0.228
  537.326    2.875  158.640   79.888    0.386    0.187
  537.576    2.530  158.443   86.273    0.397    0.161
  537.826    2.564  158.447   85.609    0.422    0.151
  538.076    2.703  158.660   79.170    0.423    0.170
  538.326    2.846  159.287   78.749    0.415    0.183
  538.576    2.936  159.496   80.759    0.410    0.180
  538.826    2.853  159.504   78.939    0.403    0.151
  539.076    2.770  160.025   76.755    0.427    0.188
  539.326    2.701  160.133   77.366    0.414    0.201
  539.576    2.671  160.140   79.680    0.404    0.175
  539.826    2.638  160.249   78.165    0.430    0.154
  540.076    2.616  160.153   74.582    0.411    0.167
  540.326    2.586  160.160   71.487    0.378    0.166
  540.576    2.551  159.961   73.010    0.386    0.157
  540.826    2.527  159.961   74.715    0.405    0.174
  541.076    2.476  159.771   77.697    0.421    0.177
  541.326    2.401  159.568   80.193    0.432    0.172
  541.576    2.349  159.060   84.573    0.438    0.176
  541.826    2.337  159.060   86.096    0.430    0.144
  542.076    2.416  158.459   81.177    0.397    0.145
  542.326    2.576  158.154   76.805    0.367    0.158
  542.576    2.798  157.851   79.119    0.374    0.153
  542.826    2.962  157.446   81.979    0.388    0.146
  543.076    3.147  157.250   84.657    0.403    0.139
  543.326    3.282  157.356   87.821    0.419    0.147
  543.576    3.356  157.776   89.831    0.431    0.152
  543.826    3.208  157.576   86.978    0.432    0.163
  544.076    3.075  158.200   85.402    0.427    0.175
  544.326    2.959  158.103   87.473    0.412    0.167
  544.576    2.849  157.903   88.144    0.390    0.156
  544.826    2.808  158.321   88.331    0.384    0.158
  545.076    2.778  158.638   88.395    0.397    0.137
  545.326    2.819  159.056   90.040    0.415    0.132
  545.576    2.921  160.091   92.171    0.420    0.140
  545.826    3.030  161.332   91.811    0.406    0.148
  546.076    3.137  162.472   90.599    0.409    0.138
  546.326    3.279  163.301   88.293    0.420    0.150
  546.576    3.408  164.133   84.711    0.426    0.138
  546.826    3.510  164.859   84.046    0.409    0.126
  547.076    3.569  165.379   91.829    0.403    0.118
  547.326    3.668  165.179   93.232    0.413    0.130
  547.576    3.703  162.922   90.682    0.424    0.126
  547.826    3.630  158.091   87.100    0.431    0.142
  548.076    3.507  156.863   89.961    0.422    0.162
  548.326    3.350  160.373   92.760    0.394    0.167
  548.576    3.172  160.272   91.246    0.401    0.151
  548.826    3.014  160.999   88.818    0.404    0.141
  549.076    2.833  160.594   86.451    0.399    0.138
  549.326    2.797  160.600   83.659    0.391    0.134
  549.576    2.983  160.195   79.652    0.384    0.123
  549.826    3.263  159.791   78.258    0.375    0.116
  550.076    3.564  159.798   79.356    0.372    0.114
  550.326    3.711  159.804   81.730    0.373    0.123
  550.576    3.725  160.222   86.475    0.379    0.136
  550.826    3.652  160.744   92.070    0.399    0.159
  551.076    3.553  160.955   93.836    0.409    0.142
  551.326    3.438  161.373   92.867    0.414    0.136
  551.576    3.291  161.688   90.684    0.421    0.145
  551.826    3.146  161.901   90.323    0.435    0.143
  552.076    3.077  162.010   88.869    0.446    0.143
  552.326    3.056  162.017   87.595    0.450    0.140
  552.576    3.045  162.435   85.108    0.447    0.137
  552.826    3.028  162.339   81.586    0.433    0.176
  553.076    3.007  161.418   79.645    0.432    0.193
  553.326    2.976  159.779   79.831    0.443    0.206
  553.576    2.991  158.859   78.072    0.452    0.189
  553.826    3.019  158.557   78.927    0.463    0.154
  554.076    3.060  158.975   82.213    0.469    0.145
  554.326    3.111  159.187   85.742    0.447    0.166
  554.576    3.162  159.195   84.592    0.457    0.152
  554.826    3.211  158.995   81.983    0.471    0.150
  555.076    3.212  159.618   82.411    0.465    0.141
  555.326    3.194  160.345   83.934    0.481    0.127
  555.576    3.119  161.381   84.789    0.478    0.099
  555.826    3.007  162.213   86.981    0.456    0.128
  556.076    2.998  162.940   87.654    0.440    0.151
  556.326    3.021  163.356   85.712    0.430    0.146
  556.576    3.076  164.084   86.385    0.427    0.135
  556.826    3.175  164.090   87.665    0.425    0.127
  557.076    3.256  164.817   87.061    0.407    0.130
  557.326    3.373  164.927   86.093    0.398    0.134
  557.576    3.480  165.139   90.351    0.407    0.127
  557.826    3.591  165.763   91.145    0.417    0.123
  558.076    3.632  166.079   88.596    0.402    0.116
  558.326    3.599  166.600   88.053    0.408    0.139
  558.576    3.496  166.297   90.063    0.413    0.150
  558.826    3.389  166.715   91.768    0.422    0.153
  559.076    3.215  166.310   85.754    0.425    0.137
  559.326    3.071  162.611   72.205    0.411    0.178
  559.576    2.877  156.443   63.943    0.391    0.221
  559.826    2.778  148.834   58.416    0.383    0.269
  560.076    2.612  150.179   55.989    0.389    0.271
  560.326    2.490  153.170   55.385    0.395    0.255
  560.576    2.405  154.514   55.814    0.385    0.245
  560.826    2.371  154.623   56.426    0.394    0.236
  561.076    2.420  154.527   55.822    0.402    0.223
  561.326    2.483  154.018   56.191    0.398    0.222
  561.576    2.571  152.893   55.465    0.396    0.232
  561.826    2.677  151.459   54.314    0.410    0.234
  562.076    2.692  153.627   53.589    0.404    0.240
  562.326    2.645  155.794   54.505    0.396    0.236
  562.576    2.574  157.139   56.696    0.392    0.237
  562.826    2.513  158.072   58.827    0.399    0.248
  563.076    2.468  157.872   55.671    0.399    0.242
  563.326    2.402  156.335   54.095    0.388    0.227
