~VERSION INFORMATION
 VERS.                 2.0:   CWLS LOG ASCII STANDARD -VERSION 2.0
 WRAP.                  NO:   ONE LINE PER DEPTH STEP
~WELL INFORMATION BLOCK
#MNEM.UNIT           DATA                    DESCRIPTION OF MNEMONIC
#---------    -------------------            -------------------------------
# Generated from Intellog Unique Number	CS_67_68/WELL/2215
WELL.         BP ATMORE                      : Well_name    - WELL
LOC .         00/13-20-067-17W4/0            : Location     - LOCATION
UWI .         00/13-20-067-17W4/0            : Uwi          - UNIQUE WELL ID
ENTR.         SP                             : Entered      - ENTERED BY
SRVC.         SCHLUMBERGER                   : Scn          - SERVICE COMPANY
STRT.M        345                            : top_depth    - START DEPTH
STOP.M        510                            : bot_depth    - STOP DEPTH
STEP.M        0.25                           : increment    - STEP LENGTH
 NULL. -999.2500:NULL Value
~CURVE INFORMATION BLOCK
#MNEM UNIT       ERCB CURVE CODE    CURVE DESCRIPTION
#-----------   ------------------   ----------------------------------
DEPT.M        00 001 00 00         : DEPTH        - DEPTH
ILD .OHMM     00 120 00 00         : RESD         - DEEP RESISTIVITY (DIL)
DPHI.V/V      00 890 00 00         : PHID         - DENSITY POROSITY (LIMESTONE)
NPHI.V/V      00 330 00 00         : PHIN         - NEUTRON POROSITY (LIMESTONE)
GR  .API      00 310 00 00         : GR           - GAMMA RAY
CALI.MM       00 280 01 00         : CAL          - CALIPER
~PARAMETER INFORMATION
#MNEM.UNIT           DATA             DESCRIPTION OF MNEMONIC
#---------         -----------     ------------------------------
GL  .M        582.64               : gl           - GROUND LEVEL ELEVATION
EREF.M        586.34               : kb           - ELEVATION OF DEPTH REFERENCE
DATM.M        586.34               : datum        - DATUM ELEVATION
TDD .M        537                  : tdd          - TOTAL DEPTH DRILLER
RUN .         ONE                  : Run          - RUN NUMBER
ENG .         BILL                 : Engineer     - RECORDING ENGINEER
WIT .         JIM                  : Witness      - WITNESSED BY
MUD .         GEL                  : Mud_type     - MUD TYPE
MATR.         LIMESTONE            : Logunit      - NEUTRON MATRIX
TMAX.C        13                   : BHT          - MAXIMUM RECORDED TEMPERATURE
BHTD.M        537                  : BHTDEP       - MAXIMUM RECORDED TEMPERATURE
MATR.         1                    : LOGUNIT      - NEUTRON MATRIX
RMT .C        25                   : MDTP         - TEMPERATURE OF MUD
NEUT.         1                    : NEUTRON      - NEUTRON TYPE
RESI.         0                    : RESIST       - RESISTIVITY TYPE
RMC .OHMM     0.25                 : RMC          - RESISTIVITY OF MUD CAKE
RMF .OHMM     0.25                 : RMF          - RESISTIVITY OF MUD FILTRATE
SUFT.C        15                   : SUFT         - SURFACE TEMPERATURE
~A  DEPTH     RESD     PHID     PHIN       GR      CAL
# ...
  454.500    1.928    0.292    0.432   61.904  151.850
  454.750    1.999    0.295    0.443   62.937  152.863
  455.000    2.211    0.285    0.453   63.909  154.281
  455.250    2.708    0.234    0.459   61.667  156.104
  455.500    3.212    0.187    0.426   60.273  157.522
  455.750    3.831    0.142    0.385   62.034  158.940
  456.000    4.449    0.130    0.323   64.037  159.550
  456.250    4.958    0.159    0.332   65.374  160.260
  456.500    5.349    0.141    0.296   68.226  161.577
  456.750    5.695    0.109    0.283   70.654  163.501
  457.000    6.075    0.126    0.327   73.143  165.425
  457.250    6.505    0.144    0.362   75.328  166.236
  457.500    6.861    0.171    0.382   75.330  161.185
  457.750    7.020    0.145    0.344   75.877  155.223
  458.000    5.439    0.141    0.367   78.063  155.327
  458.250    4.614    0.160    0.368   78.246  156.947
  458.500    4.058    0.165    0.339   76.732  159.781
  458.750    3.785    0.159    0.327   78.917  162.210
  459.000    3.604    0.176    0.385   82.619  164.134
  459.250    3.571    0.199    0.406   85.957  164.440
  459.500    3.717    0.217    0.419   85.534  163.735
  459.750    3.810    0.232    0.429   85.596  163.334
  460.000    3.884    0.219    0.418   85.841  162.629
  460.250    3.914    0.199    0.407   86.873  161.621
  460.500    3.938    0.208    0.417   88.149  161.017
  460.750    3.984    0.207    0.403   89.728  161.020
  461.000    4.022    0.193    0.407   90.761  161.630
  461.250    4.100    0.193    0.417   90.398  162.340
  461.500    4.156    0.201    0.405   88.459  162.747
  461.750    4.213    0.203    0.395   89.189  163.761
  462.000    4.270    0.205    0.392   90.343  163.865
  462.250    4.287    0.188    0.411   92.407  163.565
  462.500    4.280    0.165    0.418   95.199  163.770
  462.750    4.330    0.176    0.413   97.687  164.077
  463.000    4.364    0.167    0.422   97.507  164.281
  463.250    4.382    0.165    0.420   95.811  164.790
  463.500    4.408    0.168    0.418   96.965  165.298
  463.750    4.459    0.167    0.411   98.422  167.121
  464.000    4.580    0.171    0.411  100.062  168.842
  464.250    4.740    0.151    0.405  100.367  169.351
  464.500    4.915    0.134    0.393   98.731  169.151
  464.750    5.096    0.144    0.387   95.457  164.605
  465.000    5.295    0.131    0.381   93.033  162.485
  465.250    5.286    0.153    0.392   94.854  162.791
  465.500    5.091    0.169    0.404   95.948  163.097
  465.750    4.875    0.181    0.402   96.010  163.302
  466.000    4.678    0.162    0.393   97.649  163.306
  466.250    4.565    0.155    0.400   98.258  163.409
  466.500    4.531    0.163    0.407   97.592  163.412
  466.750    4.558    0.172    0.408   96.381  164.224
  467.000    4.594    0.170    0.409   98.809  165.339
  467.250    4.595    0.174    0.415  100.448  167.060
  467.500    4.597    0.191    0.421  100.875  168.378
  467.750    4.598    0.155    0.427  104.334  168.582
  468.000    4.504    0.156    0.428  104.942  168.181
  468.250    4.273    0.151    0.434  103.245  167.679
  468.500    3.992    0.140    0.445  101.549  167.580
  468.750    3.660    0.157    0.453   99.791  167.786
  469.000    3.287    0.165    0.457  103.554  168.091
  469.250    3.019    0.186    0.471   99.856  167.083
  469.500    2.789    0.184    0.452   95.490  162.032
  469.750    2.519    0.177    0.470  100.648  165.775
  470.000    2.431    0.207    0.501  106.533  171.945
  470.250    2.390    0.222    0.530  108.233  175.688
  470.500    2.364    0.214    0.533  107.568  176.702
  470.750    2.351    0.217    0.522  108.904  175.795
  471.000    2.343    0.194    0.514  111.029  175.797
  471.250    2.321    0.191    0.509  111.940  176.104
  471.500    2.486    0.191    0.490  111.881  177.219
  471.750    2.780    0.196    0.471  107.637  177.828
  472.000    3.034    0.208    0.450  102.665  177.831
  472.250    3.242    0.182    0.437   97.268  176.216
  472.500    3.439    0.162    0.430   96.118  172.378
  472.750    3.627    0.148    0.423  101.579  169.651
  473.000    3.761    0.161    0.422  104.977  169.452
  473.250    3.762    0.169    0.448  106.677  172.488
  473.500    3.699    0.162    0.461  106.012  174.108
  473.750    3.672    0.180    0.447  105.164  174.515
  474.000    3.903    0.137    0.433  106.501  174.013
  474.250    4.210    0.111    0.420  105.895  173.712
  474.500    4.718    0.123    0.418  103.714  173.311
  474.750    5.682    0.140    0.422   99.591  172.202
  475.000    5.980    0.149    0.412   94.679  170.183
  475.250    6.638    0.159    0.396   86.311  167.355
  475.500    7.424    0.169    0.371   80.732  162.405
  475.750    8.241    0.049    0.329   78.247  158.768
  476.000    8.626    0.059    0.304   76.490  156.345
  476.250    7.332    0.079    0.303   75.400  154.225
  476.500    6.510    0.090    0.295   73.340  159.384
  476.750    5.879    0.067    0.291   78.436  161.509
  477.000    5.309    0.088    0.328   84.686  162.826
  477.250    4.813    0.120    0.343   88.084  162.930
  477.500    4.574    0.133    0.362   91.846  162.832
  477.750    4.472    0.142    0.382   94.759  162.532
  478.000    4.516    0.129    0.400   93.063  162.333
  478.250    4.586    0.129    0.396   90.153  162.538
  478.500    4.649    0.138    0.386   92.581  162.642
  478.750    4.676    0.153    0.393   94.766  163.049
  479.000    4.740    0.169    0.402   96.830  164.265
  479.250    4.924    0.147    0.395   98.288  165.178
  479.500    4.991    0.167    0.390   99.442  165.383
  479.750    5.204    0.161    0.394   98.170  165.184
  480.000    5.396    0.134    0.389   96.716  164.984
  480.250    5.367    0.107    0.375   94.413  164.482
  480.500    5.073    0.110    0.364   97.933  163.979
  480.750    4.998    0.152    0.371  100.906  162.971
  481.000    4.980    0.164    0.375  102.910  164.187
  481.250    4.953    0.175    0.370  105.338  165.100
  481.500    4.954    0.185    0.369  104.854  166.216
  481.750    4.983    0.165    0.375  101.884  166.825
  482.000    5.080    0.165    0.383   98.550  166.726
  482.250    5.188    0.157    0.382   99.583  166.325
  482.500    5.329    0.155    0.375  102.617  166.024
  482.750    5.391    0.156    0.379  104.802  165.926
  483.000    5.372    0.175    0.371  105.774  166.232
  483.250    5.243    0.162    0.362  104.260  167.145
  483.500    5.204    0.163    0.357  105.293  167.654
  483.750    5.345    0.158    0.355  107.235  167.657
  484.000    5.532    0.159    0.365  108.329  167.659
  484.250    5.063    0.153    0.376  106.268  167.258
  484.500    4.563    0.133    0.385   94.261  171.102
  484.750    3.576    0.109    0.371   81.343  170.802
  485.000    3.005    0.128    0.388   88.927  165.143
  485.250    2.540    0.177    0.431   92.931  163.226
  485.500    2.246    0.209    0.480   96.876  172.327
  485.750    2.180    0.201    0.508  100.092  178.193
  486.000    2.181    0.189    0.520  100.397  180.218
  486.250    2.185    0.173    0.509   96.638  181.029
  486.500    2.236    0.166    0.490   97.671  183.863
  486.750    2.310    0.171    0.477  102.101  185.888
  487.000    2.497    0.165    0.485  100.526  185.486
  487.250    2.878    0.155    0.482   95.129  182.861
  487.500    3.446    0.149    0.446   89.611  180.336
  487.750    3.988    0.124    0.414   85.488  167.501
  488.000    4.774    0.098    0.398   83.549  161.842
  488.250    5.103    0.064    0.383   87.372  161.340
  488.500    5.281    0.139    0.372   96.472  162.960
  488.750    5.342    0.126    0.382   99.385  164.177
  489.000    5.374    0.115    0.389   95.202  164.786
  489.250    5.625    0.135    0.393   96.356  164.890
  489.500    6.046    0.148    0.392   96.115  164.185
  489.750    6.762    0.110    0.400   93.327  162.975
  490.000    7.664    0.088    0.392   88.415  162.270
  490.250    8.785    0.134    0.385   83.261  161.667
  490.500    9.975    0.191    0.351   76.227  161.568
  490.750   11.010    0.248    0.320   70.527  161.066
