~VERSION INFORMATION
 VERS.                 2.0:   CWLS LOG ASCII STANDARD -VERSION 2.0
 WRAP.                  NO:   ONE LINE PER DEPTH STEP
~WELL INFORMATION BLOCK
#MNEM.UNIT           DATA                    DESCRIPTION OF MNEMONIC
#---------    -------------------            -------------------------------
# Generated from Intellog Unique Number	CX_WELLS/WELL/4035
WELL.         PACIFIC AMADOU                 : Well_name    - WELL
LOC .         00/10-06-076-20W4/0            : Location     - LOCATION
UWI .         00/10-06-076-20W4/0            : Uwi          - UNIQUE WELL ID
ENTR.         T                              : Entered      - ENTERED BY
SRVC.         SCHLUMBERGER                   : Scn          - SERVICE COMPANY
STRT.F        1000                           : top_depth    - START DEPTH
STOP.F        1749.67                        : bot_depth    - STOP DEPTH
STEP.F        0.82                           : increment    - STEP LENGTH
 NULL. -999.2500:NULL Value
~CURVE INFORMATION BLOCK
#MNEM UNIT       ERCB CURVE CODE    CURVE DESCRIPTION
#-----------   ------------------   ----------------------------------
DEPT.F        00 001 00 00         : DEPTH        - DEPTH
GR  .API      00 310 00 00         : GR           - GAMMA RAY
NPHI.V/V      00 330 00 00         : PHIN         - NEUTRON POROSITY (SANDSTONE)
DPHI.V/V      00 890 00 00         : PHID         - DENSITY POROSITY (SANDSTONE)
ILD .OHMM     00 120 00 00         : RESD         - DEEP RESISTIVITY (DIL)
~PARAMETER INFORMATION
#MNEM.UNIT           DATA             DESCRIPTION OF MNEMONIC
#---------         -----------     ------------------------------
GL  .F        2101.6               : gl           - GROUND LEVEL ELEVATION
EREF.F        2109.8               : kb           - ELEVATION OF DEPTH REFERENCE
DATM.F        2109.8               : datum        - DATUM ELEVATION
TDD .F        1942                 : tdd          - TOTAL DEPTH DRILLER
RUN .         ONE                  : Run          - RUN NUMBER
ENG .         BILL                 : Engineer     - RECORDING ENGINEER
WIT .         JIM                  : Witness      - WITNESSED BY
MUD .         GEL                  : Mud_type     - MUD TYPE
MATR.         SANDSTONE            : Logunit      - NEUTRON MATRIX
TMAX.F        76                   : BHT          - MAXIMUM RECORDED TEMPERATURE
BHTD.F        1947                 : BHTDEP       - MAXIMUM RECORDED TEMPERATURE
MATR.         1                    : LOGUNIT      - NEUTRON MATRIX
RMT .F        77                   : MDTP         - TEMPERATURE OF MUD
NEUT.         1                    : NEUTRON      - NEUTRON TYPE
RESI.         4.42                 : RESIST       - RESISTIVITY TYPE
RMC .OHMM     4.3                  : RMC          - RESISTIVITY OF MUD CAKE
RMF .OHMM     3                    : RMF          - RESISTIVITY OF MUD FILTRATE
SUFT.F        39.2                 : SUFT         - SURFACE TEMPERATURE
~A  DEPTH       GR     PHIN     PHID     RESD
 1000.000   79.954    0.466    0.255    6.068
 1000.820   79.391    0.468    0.255    5.957
 1001.640   78.832    0.461    0.234    5.744
 1002.460   78.839    0.454    0.228    5.639
 1003.280   79.435    0.441    0.218    5.436
 1004.100   80.028    0.433    0.218    5.434
 1004.920   80.624    0.433    0.219    5.433
 1005.740   81.216    0.433    0.218    5.430
 1006.560   81.227    0.433    0.217    5.331
 1007.380   79.509    0.431    0.214    5.140
 1008.200   78.936    0.431    0.214    4.956
 1009.020   80.108    0.427    0.213    4.693
 1009.840   86.494    0.423    0.212    4.607
 1010.660   94.619    0.427    0.208    4.363
 1011.480   98.688    0.431    0.208    4.131
 1012.300   99.863    0.425    0.212    4.056
 1013.120   99.880    0.420    0.211    3.911
 1013.940   99.311    0.422    0.211    3.771
 1014.760   98.748    0.418    0.212    3.769
 1015.580   97.599    0.419    0.214    3.836
 1016.400   95.878    0.425    0.216    4.047
 1017.220   94.153    0.425    0.221    4.348
 1018.040   93.005    0.431    0.228    4.506
 1018.860   91.290    0.434    0.233    4.587
 1019.690   91.876    0.438    0.238    4.584
 1020.510   93.631    0.443    0.238    4.500
 1021.330   94.803    0.444    0.234    4.340
 1022.150   94.817    0.443    0.232    4.184
 1022.970   95.409    0.440    0.231    4.108
 1023.790   95.419    0.438    0.232    3.960
 1024.610   96.019    0.439    0.232    3.819
 1025.430   97.777    0.445    0.231    3.551
 1026.250   98.363    0.453    0.234    3.487
 1027.070   99.535    0.453    0.256    3.361
 1027.890  100.704    0.454    0.262    3.241
 1028.710  101.879    0.458    0.263    3.182
 1029.530  103.055    0.468    0.259    3.124
 1030.350  103.068    0.477    0.266    3.011
 1031.170  103.078    0.477    0.270    2.957
 1031.990  103.092    0.467    0.268    2.956
 1032.810  101.947    0.465    0.259    2.902
 1033.630   99.646    0.460    0.251    2.900
 1034.450   97.918    0.455    0.246    2.900
 1035.270   96.193    0.452    0.242    2.898
 1036.090   92.737    0.447    0.236    2.896
 1036.910   91.013    0.443    0.231    2.896
 1037.730   89.285    0.439    0.225    2.842
 1038.550   92.195    0.434    0.218    2.842
 1039.370   98.002    0.429    0.215    2.841
 1040.190   99.177    0.421    0.209    2.839
 1041.010   98.608    0.422    0.205    2.838
 1041.830   97.466    0.432    0.211    2.837
 1042.650   97.483    0.426    0.219    2.887
 1043.470   98.076    0.425    0.213    2.938
 1044.290   98.665    0.416    0.207    2.991
 1045.110   98.682    0.416    0.209    3.044
 1045.930   98.695    0.416    0.208    3.098
 1046.750   99.284    0.418    0.207    3.153
 1047.570  100.460    0.431    0.214    3.152
 1048.390  101.056    0.425    0.220    3.150
 1049.210  101.649    0.419    0.213    3.149
 1050.030  102.818    0.417    0.204    3.148
 1050.850  103.993    0.413    0.200    3.146
 1051.670  104.583    0.415    0.199    3.146
 1052.490  104.020    0.421    0.207    3.201
 1053.310  102.885    0.421    0.205    3.200
 1054.130  102.312    0.411    0.195    3.199
 1054.950  102.322    0.408    0.205    3.197
 1055.770  102.339    0.412    0.209    3.196
 1056.590  104.094    0.418    0.213    3.195
 1057.410  104.680    0.422    0.220    3.193
 1058.230  105.279    0.426    0.219    3.192
 1059.060  106.448    0.416    0.209    3.191
 1059.880  107.627    0.413    0.200    3.189
 1060.700  107.634    0.410    0.199    3.188
 1061.520  107.068    0.408    0.198    3.245
 1062.340  104.188    0.407    0.198    3.424
 1063.160  101.884    0.409    0.198    3.678
 1063.980  101.318    0.414    0.198    3.744
 1064.800  101.917    0.421    0.200    3.879
 1065.620  101.927    0.427    0.209    3.949
 1066.440   99.623    0.427    0.219    3.946
 1067.260   95.578    0.426    0.219    3.946
 1068.080   91.536    0.429    0.217    4.088
 1068.900   85.756    0.440    0.223    4.161
 1069.720   81.138    0.441    0.231    4.159
 1070.540   78.830    0.430    0.234    4.158
 1071.360   80.002    0.426    0.221    3.797
 1072.180   87.551    0.396    0.208    3.662
 1073.000   90.464    0.369    0.174    3.468
 1073.820   92.216    0.414    0.180    3.284
 1074.640   88.170    0.444    0.216    3.166
 1075.460   77.176    0.455    0.254    3.656
 1076.280   64.444    0.470    0.272    4.789
 1077.100   58.664    0.491    0.282    6.388
 1077.920   49.407    0.507    0.293    7.377
 1078.740   51.738    0.516    0.306    8.672
 1079.560   55.231    0.528    0.315    9.487
 1080.380   57.562    0.531    0.320    9.830
 1081.200   61.055    0.532    0.320    9.827
 1082.020   63.382    0.531    0.313   10.001
 1082.840   65.713    0.527    0.308    9.818
 1083.660   69.785    0.512    0.300    9.639
 1084.480   73.854    0.477    0.277    8.964
 1085.300   78.502    0.453    0.258    8.644
 1086.120   84.309    0.434    0.231    8.039
 1086.940   89.537    0.440    0.227    7.476
 1087.760   93.609    0.465    0.261    7.079
 1088.580   94.785    0.474    0.266    6.826
 1089.400   93.636    0.462    0.253    6.582
 1090.220   90.173    0.451    0.256    6.462
 1091.040   87.869    0.459    0.260    6.229
 1091.860   83.827    0.451    0.253    6.116
 1092.680   80.365    0.449    0.253    5.897
 1093.500   76.323    0.456    0.261    5.894
 1094.320   67.646    0.455    0.254    5.892
 1095.140   71.135    0.456    0.244    5.890
 1095.960   78.108    0.455    0.237    5.888
 1096.780   81.014    0.448    0.231    5.886
 1097.600   83.345    0.443    0.232    5.882
 1098.430   82.779    0.444    0.263    5.879
 1099.250   75.841    0.472    0.298    5.985
 1100.070   64.846    0.498    0.315    6.546
 1100.890   59.066    0.519    0.310    6.663
 1101.710   71.253    0.511    0.299    6.781
 1102.530   67.793    0.491    0.290    6.779
 1103.350   66.641    0.482    0.282    6.655
 1104.170   63.758    0.479    0.285    6.652
 1104.990   60.875    0.488    0.287    6.770
 1105.810   58.571    0.494    0.289    7.143
 1106.630   55.687    0.498    0.294    7.538
 1107.450   57.439    0.500    0.299    8.097
 1108.270   61.511    0.508    0.306    8.243
 1109.090   66.739    0.514    0.306    8.388
 1109.910   70.808    0.502    0.299    8.385
 1110.730   73.721    0.486    0.286    8.380
 1111.550   72.576    0.474    0.273    8.378
 1112.370   71.434    0.469    0.261    8.078
 1113.190   71.441    0.462    0.261    7.650
 1114.010   70.302    0.462    0.258    7.376
 1114.830   70.319    0.463    0.239    7.507
 1115.650   69.746    0.448    0.226    8.064
 1116.470   70.342    0.435    0.229    8.510
 1117.290   73.252    0.434    0.240    8.818
 1118.110   79.635    0.441    0.240    8.815
 1118.930   85.445    0.440    0.235    8.050
 1119.750   90.094    0.435    0.230    7.763
 1120.570   90.686    0.427    0.223    7.485
 1121.390   88.386    0.430    0.221    7.348
 1122.210   85.499    0.437    0.230    7.345
 1123.030   82.037    0.454    0.234    7.342
 1123.850   77.994    0.455    0.237    7.208
 1124.670   79.166    0.449    0.234    7.075
 1125.490   83.822    0.441    0.231    6.946
 1126.310   85.570    0.439    0.227    6.943
 1127.130   89.062    0.429    0.219    6.941
 1127.950   90.231    0.424    0.213    7.065
 1128.770   93.145    0.431    0.221    7.321
 1129.590   94.900    0.436    0.221    7.450
 1130.410   97.230    0.429    0.218    7.584
 1131.230   98.982    0.423    0.213    7.858
 1132.050   95.516    0.413    0.211    7.998
 1132.870   83.949    0.422    0.213    8.289
 1133.690   81.059    0.435    0.226    8.589
 1134.510   68.906    0.437    0.232    8.742
 1135.330   55.601    0.441    0.236    8.897
 1136.150   52.711    0.445    0.242    9.055
 1136.980   48.090    0.451    0.245    9.052
 1137.800   43.468    0.457    0.255    9.048
 1138.620   37.688    0.468    0.265    9.209
 1139.440   31.915    0.479    0.273    9.372
 1140.260   31.349    0.499    0.285    9.369
 1141.080   35.994    0.504    0.296    9.536
 1141.900   41.228    0.510    0.298    9.532
