~VERSION INFORMATION
 VERS.                 2.0:   CWLS LOG ASCII STANDARD -VERSION 2.0
 WRAP.                  NO:   ONE LINE PER DEPTH STEP
~WELL INFORMATION BLOCK
#MNEM.UNIT           DATA                    DESCRIPTION OF MNEMONIC
#---------    -------------------            -------------------------------
# Generated from Intellog Unique Number	CS_71_72/WELL/927
WELL.         ET AL SCHELTENS                : Well_name    - WELL
LOC .         00/16-13-071-01W4/0            : Location     - LOCATION
UWI .         00/16-13-071-01W4/0            : Uwi          - UNIQUE WELL ID
ENTR.         SP                             : Entered      - ENTERED BY
SRVC.         SCHLUMBERGER                   : Scn          - SERVICE COMPANY
STRT.M        365                            : top_depth    - START DEPTH
STOP.M        620                            : bot_depth    - STOP DEPTH
STEP.M        0.25                           : increment    - STEP LENGTH
 NULL. -999.2500:NULL Value
~CURVE INFORMATION BLOCK
#MNEM UNIT       ERCB CURVE CODE    CURVE DESCRIPTION
#-----------   ------------------   ----------------------------------
DEPT.M        00 001 00 00         : DEPTH        - DEPTH
ILD .OHMM     00 120 00 00         : RESD         - DEEP RESISTIVITY (DIL)
DPHI.V/V      00 890 00 00         : PHID         - DENSITY POROSITY (LIMESTONE)
NPHI.V/V      00 330 00 00         : PHIN         - NEUTRON POROSITY (LIMESTONE)
GR  .API      00 310 00 00         : GR           - GAMMA RAY
~PARAMETER INFORMATION
#MNEM.UNIT           DATA             DESCRIPTION OF MNEMONIC
#---------         -----------     ------------------------------
GL  .M        708.9                : gl           - GROUND LEVEL ELEVATION
EREF.M        713.2                : kb           - ELEVATION OF DEPTH REFERENCE
DATM.M        708.9                : datum        - DATUM ELEVATION
TDD .M        825                  : tdd          - TOTAL DEPTH DRILLER
RUN .         ONE                  : Run          - RUN NUMBER
ENG .         BILL                 : Engineer     - RECORDING ENGINEER
WIT .         JIM                  : Witness      - WITNESSED BY
MUD .         GEL                  : Mud_type     - MUD TYPE
MATR.         LIMESTONE            : Logunit      - NEUTRON MATRIX
TMAX.C        23                   : BHT          - MAXIMUM RECORDED TEMPERATURE
BHTD.M        825                  : BHTDEP       - MAXIMUM RECORDED TEMPERATURE
MATR.         1                    : LOGUNIT      - NEUTRON MATRIX
RMT .C        25                   : MDTP         - TEMPERATURE OF MUD
NEUT.         1                    : NEUTRON      - NEUTRON TYPE
RESI.         0                    : RESIST       - RESISTIVITY TYPE
RMC .OHMM     0.25                 : RMC          - RESISTIVITY OF MUD CAKE
RMF .OHMM     0.25                 : RMF          - RESISTIVITY OF MUD FILTRATE
SUFT.C        15                   : SUFT         - SURFACE TEMPERATURE
~A  DEPTH     RESD     PHID     PHIN       GR
# ...
  582.500    3.090    0.341    0.405   25.355
  582.750    3.172    0.356    0.415   24.587
  583.000    3.330    0.350    0.369   23.820
  583.250    3.477    0.339    0.344   23.481
  583.500    3.603    0.354    0.351   24.130
  583.750    3.706    0.366    0.341   25.448
  584.000    3.762    0.358    0.374   26.635
  584.250    3.761    0.346    0.427   25.499
  584.500    3.733    0.340    0.413   23.873
  584.750    3.656    0.326    0.377   24.087
  585.000    3.508    0.281    0.343   26.322
  585.250    3.303    0.298    0.316   29.173
  585.500    3.175    0.324    0.335   31.410
  585.750    3.035    0.346    0.354   33.279
  586.000    2.990    0.353    0.370   35.336
  586.250    2.939    0.348    0.383   37.204
  586.500    2.939    0.344    0.396   39.626
  586.750    2.956    0.344    0.410   41.987
  587.000    2.972    0.346    0.416   43.547
  587.250    2.983    0.351    0.404   43.026
  587.500    2.977    0.357    0.395   38.271
  587.750    2.966    0.363    0.390   32.781
  588.000    2.916    0.367    0.402   30.111
  588.250    2.899    0.367    0.423   33.266
  588.500    2.888    0.366    0.434   36.181
  588.750    2.915    0.371    0.429   36.575
  589.000    2.921    0.371    0.438   35.690
  589.250    2.942    0.350    0.424   36.634
  589.500    2.981    0.336    0.420   40.651
  589.750    3.043    0.342    0.427   44.608
  590.000    3.207    0.357    0.416   44.266
  590.250    3.243    0.362    0.404   43.990
  590.500    3.336    0.338    0.396   46.718
  590.750    3.411    0.315    0.384   53.309
  591.000    3.443    0.294    0.381   58.919
  591.250    3.437    0.303    0.401   62.506
  591.500    3.335    0.337    0.422   55.299
  591.750    3.170    0.356    0.435   47.354
  592.000    3.030    0.350    0.410   41.868
  592.250    2.968    0.346    0.391   39.564
  592.500    2.962    0.340    0.380   37.266
  592.750    2.984    0.333    0.375   36.003
  593.000    3.012    0.334    0.375   34.688
  593.250    3.006    0.357    0.384   33.672
  593.500    2.989    0.369    0.393   32.599
  593.750    2.933    0.379    0.384   31.037
  594.000    2.862    0.367    0.375   29.352
  594.250    2.825    0.361    0.371   28.023
  594.500    2.846    0.373    0.389   24.823
  594.750    2.899    0.383    0.409   24.221
  595.000    3.004    0.333    0.409   23.389
  595.250    3.143    0.305    0.411   27.527
  595.500    3.251    0.301    0.421   31.794
  595.750    3.381    0.319    0.400   34.828
  596.000    3.477    0.331    0.387   34.300
  596.250    3.536    0.303    0.372   33.104
  596.500    3.536    0.284    0.366   35.279
  596.750    3.457    0.271    0.366   36.720
  597.000    3.361    0.312    0.371   35.157
  597.250    3.255    0.335    0.379   30.828
  597.500    3.147    0.355    0.374   26.198
  597.750    3.123    0.363    0.362   23.651
  598.000    3.158    0.330    0.350   24.665
  598.250    3.423    0.332    0.356   26.412
  598.500    3.711    0.330    0.352   27.787
  598.750    3.882    0.311    0.337   29.227
  599.000    4.263    0.291    0.318   30.794
  599.250    4.401    0.270    0.300   30.941
  599.500    4.569    0.266    0.292   29.499
  599.750    4.753    0.277    0.311   34.191
  600.000    5.018    0.282    0.336   43.908
  600.250    5.094    0.279    0.364   58.291
  600.500    5.190    0.281    0.389   67.644
  600.750    5.239    0.284    0.400   72.823
  601.000    5.189    0.281    0.388   76.350
  601.250    5.054    0.286    0.387   77.177
  601.500    4.849    0.300    0.405   72.669
  601.750    4.601    0.309    0.407   68.341
  602.000    4.300    0.292    0.404   58.986
  602.250    4.018    0.262    0.399   40.922
  602.500    3.686    0.293    0.385   29.178
  602.750    3.530    0.314    0.377   20.927
  603.000    3.305    0.330    0.382   15.068
  603.250    3.207    0.345    0.379   11.172
  603.500    3.159    0.350    0.372   10.716
  603.750    3.141    0.353    0.368   12.832
  604.000    3.164    0.338    0.381   14.757
  604.250    3.242    0.337    0.396   16.506
  604.500    3.372    0.294    0.368   16.103
  604.750    3.588    0.271    0.337   15.887
  605.000    3.809    0.265    0.325   17.330
  605.250    3.874    0.269    0.326   20.545
  605.500    4.007    0.279    0.333   27.449
  605.750    4.052    0.285    0.351   32.384
  606.000    4.060    0.297    0.364   34.924
  606.250    3.939    0.305    0.363   33.358
  606.500    3.794    0.284    0.357   27.749
  606.750    3.667    0.272    0.355   26.426
  607.000    3.492    0.297    0.360   23.205
  607.250    3.313    0.313    0.356   19.739
  607.500    3.233    0.303    0.352   17.562
  607.750    3.155    0.303    0.360   17.160
  608.000    3.149    0.293    0.372   16.825
  608.250    3.184    0.282    0.369   15.258
  608.500    3.244    0.303    0.356   15.470
  608.750    3.269    0.315    0.346   16.361
  609.000    3.287    0.318    0.353   18.110
  609.250    3.286    0.314    0.344   19.056
  609.500    3.256    0.317    0.336   19.696
  609.750    3.237    0.337    0.336   18.069
  610.000    3.317    0.318    0.355   14.974
  610.250    3.589    0.300    0.381   13.407
  610.500    3.956    0.332    0.398   17.238
  610.750    4.667    0.262    0.396   25.427
  611.000    4.854    0.216    0.369   31.096
  611.250    5.252    0.220    0.354   36.400
  611.500    5.525    0.249    0.376   41.091
  611.750    5.758    0.249    0.393   43.818
  612.000    5.955    0.236    0.409   43.238
  612.250    6.033    0.221    0.414   39.157
  612.500    6.033    0.205    0.390   36.792
  612.750    5.898    0.228    0.377   37.190
  613.000    5.680    0.251    0.390   39.428
  613.250    5.502    0.279    0.407   40.501
  613.500    5.308    0.309    0.402   40.777
  613.750    5.122    0.341    0.387   41.111
  614.000    4.979    0.372    0.430   41.998
  614.250    4.733    0.219    0.503   42.640
  614.500    4.524    0.184    0.499   42.245
  614.750    4.316    0.214    0.456   40.430
  615.000    4.034    0.240    0.443   36.230
  615.250    3.899    0.262    0.432   32.272
  615.500    3.777    0.230    0.407   27.883
  615.750    3.637    0.218    0.368   28.097
  616.000    3.543    0.225    0.391   30.826
  616.250    3.623    0.246    0.421   29.505
  616.500    4.659    0.268    0.409   26.224
  616.750    7.394    0.204    0.352   23.492
  617.000   10.803    0.135    0.313   20.457
  617.250   14.371    0.026    0.209   17.296
  617.500   20.186    0.001    0.124   15.426
  617.750   25.668   -0.010    0.115   15.085
  618.000   29.162   -0.012    0.111   15.363
  618.250   31.611   -0.007    0.115   16.370
  618.500   31.787    0.003    0.127   19.161
  618.750   30.729    0.011    0.142   25.506
  619.000   29.705    0.016    0.166   33.263
  619.250   29.315    0.013    0.178   36.358
  619.500   29.645    0.012    0.183   34.550
  619.750   32.499    0.009    0.185   32.559
  620.000   35.032    0.007    0.183   31.725
