~VERSION INFORMATION
 VERS.                 2.0:   CWLS LOG ASCII STANDARD -VERSION 2.0
 WRAP.                  NO:   ONE LINE PER DEPTH STEP
~WELL INFORMATION BLOCK
#MNEM.UNIT           DATA                    DESCRIPTION OF MNEMONIC
#---------    -------------------            -------------------------------
# Generated from Intellog Unique Number	CS_67_68/WELL/2191
WELL.         MANNVILLE et al ATMORE         : Well_name    - WELL
LOC .         00/10-06-067-15W4/0            : Location     - LOCATION
UWI .         00/10-06-067-15W4/0            : Uwi          - UNIQUE WELL ID
ENTR.         SP                             : Entered      - ENTERED BY
SRVC.         SCHLUMBERGER                   : Scn          - SERVICE COMPANY
STRT.M        345                            : top_depth    - START DEPTH
STOP.M        534                            : bot_depth    - STOP DEPTH
STEP.M        0.25                           : increment    - STEP LENGTH
 NULL. -999.2500:NULL Value
~CURVE INFORMATION BLOCK
#MNEM UNIT       ERCB CURVE CODE    CURVE DESCRIPTION
#-----------   ------------------   ----------------------------------
DEPT.M        00 001 00 00         : DEPTH        - DEPTH
ILD .OHMM     00 120 00 00         : RESD         - DEEP RESISTIVITY (DIL)
DPHI.V/V      00 890 00 00         : PHID         - DENSITY POROSITY (LIMESTONE)
NPHI.V/V      00 330 00 00         : PHIN         - NEUTRON POROSITY (LIMESTONE)
GR  .API      00 310 00 00         : GR           - GAMMA RAY
CALI.MM       00 280 01 00         : CAL          - CALIPER
~PARAMETER INFORMATION
#MNEM.UNIT           DATA             DESCRIPTION OF MNEMONIC
#---------         -----------     ------------------------------
GL  .M        588                  : gl           - GROUND LEVEL ELEVATION
EREF.M        592.1                : kb           - ELEVATION OF DEPTH REFERENCE
DATM.M        592.1                : datum        - DATUM ELEVATION
TDD .M        534.7                : tdd          - TOTAL DEPTH DRILLER
RUN .         ONE                  : Run          - RUN NUMBER
ENG .         BILL                 : Engineer     - RECORDING ENGINEER
WIT .         JIM                  : Witness      - WITNESSED BY
MUD .         GEL                  : Mud_type     - MUD TYPE
MATR.         LIMESTONE            : Logunit      - NEUTRON MATRIX
TMAX.C        27                   : BHT          - MAXIMUM RECORDED TEMPERATURE
BHTD.M        535                  : BHTDEP       - MAXIMUM RECORDED TEMPERATURE
MATR.         1                    : LOGUNIT      - NEUTRON MATRIX
RMT .C        25                   : MDTP         - TEMPERATURE OF MUD
NEUT.         1                    : NEUTRON      - NEUTRON TYPE
RESI.         0                    : RESIST       - RESISTIVITY TYPE
RMC .OHMM     0.25                 : RMC          - RESISTIVITY OF MUD CAKE
RMF .OHMM     0.25                 : RMF          - RESISTIVITY OF MUD FILTRATE
SUFT.C        15                   : SUFT         - SURFACE TEMPERATURE
~A  DEPTH     RESD     PHID     PHIN       GR      CAL
# ...
  454.500    1.903    0.306    0.410   68.816  151.574
  454.750    1.977    0.317    0.417   67.760  151.250
  455.000    2.138    0.329    0.432   70.888  150.307
  455.250    2.400    0.338    0.449   73.031  150.392
  455.500    2.624    0.347    0.435   70.928  150.987
  455.750    2.879    0.334    0.412   68.455  151.484
  456.000    3.118    0.301    0.381   69.552  152.186
  456.250    3.264    0.249    0.333   67.509  152.988
  456.500    3.028    0.134    0.224   61.960  154.099
  456.750    2.699    0.075    0.233   56.225  155.411
  457.000    2.317    0.105    0.272   59.968  156.114
  457.250    2.046    0.206    0.342   63.834  156.198
  457.500    1.887    0.246    0.378   66.656  155.257
  457.750    1.814    0.279    0.400   65.474  153.187
  458.000    1.764    0.288    0.417   63.741  151.425
  458.250    1.765    0.286    0.428   67.299  150.688
  458.500    1.779    0.293    0.422   68.765  150.465
  458.750    1.797    0.298    0.420   68.141  150.551
  459.000    1.821    0.299    0.428   70.098  151.968
  459.250    1.829    0.299    0.433   71.135  153.386
  459.500    1.833    0.307    0.428   70.507  154.702
  459.750    1.827    0.307    0.423   69.819  155.403
  460.000    1.817    0.298    0.416   68.764  155.589
  460.250    1.801    0.289    0.412   67.767  155.572
  460.500    1.795    0.286    0.407   66.711  155.550
  460.750    1.792    0.290    0.413   65.716  155.740
  461.000    1.793    0.292    0.421   64.658  155.821
  461.250    1.797    0.295    0.421   63.601  155.703
  461.500    1.821    0.298    0.421   63.590  155.582
  461.750    1.878    0.300    0.426   64.010  155.155
  462.000    1.944    0.296    0.429   67.754  155.034
  462.250    2.054    0.296    0.422   69.774  154.810
  462.500    2.229    0.298    0.415   67.855  154.795
  462.750    2.488    0.290    0.413   66.613  155.083
  463.000    2.720    0.276    0.410   72.510  155.782
  463.250    2.907    0.258    0.405   82.040  156.481
  463.500    3.137    0.182    0.401   91.693  157.594
  463.750    3.333    0.157    0.397   97.099  158.191
  464.000    3.430    0.163    0.398  100.843  158.892
  464.250    3.438    0.168    0.407  101.939  159.386
  464.500    3.420    0.168    0.403  101.067  159.062
  464.750    3.389    0.169    0.399   98.903  158.940
  465.000    3.384    0.176    0.406   99.014  159.639
  465.250    3.411    0.182    0.421   99.249  160.441
  465.500    3.425    0.184    0.432   99.424  161.040
  465.750    3.414    0.183    0.432   99.103  161.738
  466.000    3.338    0.180    0.428   98.970  162.029
  466.250    3.192    0.172    0.423   99.389  162.116
  466.500    3.034    0.189    0.434  100.304  162.097
  466.750    2.846    0.205    0.448  102.016  161.669
  467.000    2.610    0.204    0.435  103.975  159.804
  467.250    2.408    0.134    0.421  102.426  157.324
  467.500    2.212    0.121    0.414   93.674  158.125
  467.750    2.071    0.188    0.433   93.110  159.647
  468.000    1.999    0.221    0.446  101.222  161.167
  468.250    2.050    0.227    0.455  107.122  162.279
  468.500    2.137    0.222    0.473  112.650  163.183
  468.750    2.284    0.223    0.479  115.964  163.473
  469.000    2.428    0.218    0.471  116.261  163.354
  469.250    2.570    0.211    0.467  115.388  163.541
  469.500    2.701    0.203    0.462  113.161  164.134
  469.750    2.801    0.194    0.447  109.580  164.117
  470.000    2.844    0.188    0.436  108.093  164.000
  470.250    2.782    0.183    0.429  106.605  165.212
  470.500    2.731    0.181    0.423  104.870  165.810
  470.750    2.732    0.181    0.434  105.845  165.792
  471.000    2.958    0.186    0.441  108.725  164.334
  471.250    3.241    0.187    0.432  110.315  163.807
  471.500    3.570    0.178    0.421  109.874  163.172
  471.750    3.955    0.171    0.408  106.171  162.437
  472.000    4.482    0.178    0.387   97.973  162.111
  472.250    4.994    0.200    0.362   90.146  160.349
  472.500    5.460    0.129    0.331   86.873  158.176
  472.750    5.608    0.073    0.307   82.552  156.826
  473.000    5.321    0.054    0.296   76.263  155.371
  473.250    4.843    0.063    0.319   72.192  155.046
  473.500    4.359    0.099    0.349   78.828  156.771
  473.750    4.058    0.155    0.366   85.526  158.703
  474.000    3.785    0.178    0.383   91.424  160.224
  474.250    3.558    0.185    0.399   96.091  158.564
  474.500    3.499    0.172    0.411  100.204  157.622
  474.750    3.574    0.164    0.419  100.686  157.398
  475.000    3.644    0.163    0.418   97.597  157.997
  475.250    3.807    0.158    0.405   96.047  158.389
  475.500    4.008    0.159    0.392   96.222  158.577
  475.750    4.180    0.166    0.381   96.457  160.508
  476.000    4.310    0.172    0.412   95.585  162.027
  476.250    4.393    0.173    0.428   96.374  162.831
  476.500    4.379    0.167    0.426   96.178  163.325
  476.750    4.282    0.163    0.418   92.721  163.820
  477.000    4.109    0.171    0.411   93.695  163.495
  477.250    3.929    0.177    0.410   97.007  162.245
  477.500    3.820    0.176    0.412   99.090  161.303
  477.750    3.772    0.166    0.409  100.372  160.976
  478.000    3.787    0.159    0.411   99.929  161.472
  478.250    3.796    0.158    0.413   99.058  161.865
  478.500    3.783    0.171    0.406  101.201  161.745
  478.750    3.756    0.181    0.400  101.682  160.804
  479.000    3.722    0.175    0.393   98.406  160.066
  479.250    3.688    0.168    0.399   97.413  160.051
  479.500    3.634    0.170    0.408   99.741  160.334
  479.750    3.581    0.179    0.413  101.330  160.425
  480.000    3.549    0.185    0.415  102.121  160.505
  480.250    3.571    0.179    0.413  102.664  160.798
  480.500    3.612    0.177    0.410  102.961  159.238
  480.750    3.697    0.169    0.405  103.134  158.094
  481.000    3.812    0.156    0.397  100.907  157.461
  481.250    3.938    0.142    0.390   97.881  157.854
  481.500    4.076    0.144    0.380   95.900  158.350
  481.750    4.202    0.156    0.367   95.336  158.228
  482.000    4.349    0.142    0.340   93.479  158.517
  482.250    4.434    0.090    0.346   82.019  158.193
  482.500    4.402    0.114    0.362   73.761  158.379
  482.750    4.265    0.163    0.381   78.921  158.977
  483.000    4.139    0.176    0.396   92.758  160.597
  483.250    4.125    0.185    0.399   99.702  162.018
  483.500    4.166    0.192    0.395  102.893  163.335
  483.750    4.207    0.193    0.389  103.374  164.240
  484.000    4.241    0.189    0.382  102.440  164.629
  484.250    4.242    0.182    0.378  100.643  164.202
  484.500    4.157    0.178    0.383  100.202  164.390
  484.750    4.127    0.175    0.388  103.392  164.476
  485.000    4.128    0.166    0.389   99.073  164.765
  485.250    3.999    0.150    0.388   97.154  164.542
  485.500    3.738    0.129    0.381   97.266  164.111
  485.750    3.313    0.109    0.369   93.132  163.171
  486.000    2.887    0.125    0.363   92.075  162.843
  486.250    2.535    0.180    0.393   93.295  162.827
  486.500    2.286    0.205    0.433   92.607  162.604
  486.750    2.100    0.219    0.439   90.196  163.301
  487.000    1.956    0.226    0.436   94.000  163.697
  487.250    1.862    0.222    0.437   97.929  164.089
  487.500    1.832    0.215    0.445  101.058  164.481
  487.750    1.874    0.201    0.456  101.662  164.771
  488.000    1.922    0.185    0.463  100.358  164.239
  488.250    1.959    0.171    0.469  101.762  163.915
  488.500    2.009    0.183    0.477  103.722  163.487
  488.750    2.048    0.194    0.469  106.173  163.674
  489.000    2.104    0.204    0.463  105.670  164.064
  489.250    2.206    0.204    0.470  106.090  164.767
  489.500    2.345    0.202    0.478  107.248  165.569
  489.750    2.544    0.196    0.484  108.408  166.472
  490.000    2.729    0.193    0.462  108.828  167.071
  490.250    2.962    0.196    0.434  108.448  167.666
  490.500    3.189    0.191    0.405  106.898  167.342
  490.750    3.377    0.181    0.401  103.440  166.505
