~VERSION INFORMATION
 VERS.                 2.0:   CWLS LOG ASCII STANDARD -VERSION 2.0
 WRAP.                  NO:   ONE LINE PER DEPTH STEP
~WELL INFORMATION BLOCK
#MNEM.UNIT           DATA                    DESCRIPTION OF MNEMONIC
#---------    -------------------            -------------------------------
# Generated from Intellog Unique Number	CS_73_76/WELL/3279
WELL.         BAAY LAND CONSULTANTS LTD.     : Well_name    - WELL
LOC .         00/16-04-075-05W4/0            : Location     - LOCATION
UWI .         00/16-04-075-05W4/0            : Uwi          - UNIQUE WELL ID
ENTR.         SP                             : Entered      - ENTERED BY
SRVC.         SCHLUMBERGER                   : Scn          - SERVICE COMPANY
STRT.M        243.84                         : top_depth    - START DEPTH
STOP.M        460.09                         : bot_depth    - STOP DEPTH
STEP.M        0.25                           : increment    - STEP LENGTH
 NULL. -999.2500:NULL Value
~CURVE INFORMATION BLOCK
#MNEM UNIT       ERCB CURVE CODE    CURVE DESCRIPTION
#-----------   ------------------   ----------------------------------
DEPT.M        00 001 00 00         : DEPTH        - DEPTH
GR  .API      00 310 00 00         : GR           - GAMMA RAY
DPHI.V/V      00 890 00 00         : PHID         - DENSITY POROSITY (SANDSTONE)
NPHI.V/V      00 330 00 00         : PHIN         - NEUTRON POROSITY (SANDSTONE)
ILD .OHMM     00 120 00 00         : RESD         - DEEP RESISTIVITY (DIL)
~PARAMETER INFORMATION
#MNEM.UNIT           DATA             DESCRIPTION OF MNEMONIC
#---------         -----------     ------------------------------
GL  .M        649.834              : gl           - GROUND LEVEL ELEVATION
EREF.M        652.272              : kb           - ELEVATION OF DEPTH REFERENCE
DATM.M        649.834              : datum        - DATUM ELEVATION
TDD .M        559.308              : tdd          - TOTAL DEPTH DRILLER
RUN .         ONE                  : Run          - RUN NUMBER
ENG .         BILL                 : Engineer     - RECORDING ENGINEER
WIT .         JIM                  : Witness      - WITNESSED BY
MUD .         GEL                  : Mud_type     - MUD TYPE
MATR.         SANDSTONE            : Logunit      - NEUTRON MATRIX
TMAX.C        26.6667              : BHT          - MAXIMUM RECORDED TEMPERATURE
BHTD.M        559.308              : BHTDEP       - MAXIMUM RECORDED TEMPERATURE
MATR.         1                    : LOGUNIT      - NEUTRON MATRIX
RMT .C        25                   : MDTP         - TEMPERATURE OF MUD
NEUT.         1                    : NEUTRON      - NEUTRON TYPE
RESI.         0                    : RESIST       - RESISTIVITY TYPE
RMC .OHMM     0.25                 : RMC          - RESISTIVITY OF MUD CAKE
RMF .OHMM     0.25                 : RMF          - RESISTIVITY OF MUD FILTRATE
SUFT.C        15                   : SUFT         - SURFACE TEMPERATURE
~A  DEPTH       GR     PHID     PHIN     RESD
  243.840   98.809    0.252    0.574    2.973
  244.090   97.127    0.244    0.585    2.965
  244.340   98.006    0.244    0.591    3.028
  244.590   98.335    0.253    0.583    3.079
  244.840   95.525    0.240    0.574    3.114
  245.090   96.772    0.248    0.585    3.152
  245.340   97.653    0.231    0.564    3.308
  245.590   97.220    0.222    0.533    3.437
  245.840   94.446    0.192    0.519    3.578
  246.090   91.838    0.134    0.518    3.757
  246.340   94.274    0.147    0.528    3.740
  246.590   98.954    0.236    0.527    3.622
  246.840  102.881    0.226    0.527    3.487
  247.090  106.839    0.217    0.545    3.507
  247.340  106.087    0.224    0.562    3.621
  247.590  103.479    0.231    0.554    3.764
  247.840  101.519    0.244    0.555    3.976
  248.090   96.984    0.248    0.552    4.038
  248.340   93.232    0.226    0.571    3.894
  248.590   94.689    0.212    0.575    3.669
  248.840   95.700    0.196    0.566    3.504
  249.090   96.972    0.207    0.569    3.361
  249.340   98.986    0.229    0.574    3.297
  249.590   99.089    0.240    0.569    3.398
  249.840   97.812    0.230    0.558    3.502
  250.090   97.727    0.240    0.554    3.607
  250.340   97.394    0.229    0.551    3.789
  250.590   95.490    0.233    0.561    3.881
  250.840   92.442    0.227    0.554    3.947
  251.090   94.194    0.218    0.551    3.955
  251.340   98.881    0.212    0.563    3.871
  251.590  102.397    0.219    0.570    3.816
  251.840  101.867    0.213    0.564    3.699
  252.090  101.232    0.221    0.551    3.592
  252.340  100.328    0.235    0.538    3.590
  252.590   98.563    0.245    0.536    3.889
  252.840   98.999    0.238    0.539    4.178
  253.090   99.429    0.221    0.550    5.153
  253.340   93.875    0.172    0.534    5.964
  253.590   85.416    0.069    0.517    8.186
  253.840   77.915    0.074    0.493   11.608
  254.090   73.287   -0.002    0.337   14.129
  254.340   77.722   -0.013    0.368   16.218
  254.590   82.430    0.300    0.393   16.273
  254.840   81.963    0.303    0.393   15.882
  255.090   85.984    0.282    0.399   14.954
  255.340   91.379    0.278    0.407   13.768
  255.590   97.522    0.223    0.411   12.990
  255.840   99.538    0.226    0.419   12.561
  256.090   99.936    0.218    0.408   13.296
  256.340   98.385    0.229    0.420   14.271
  256.590   98.423    0.248    0.429   14.739
  256.840   93.883    0.242    0.430   14.365
  257.090   83.291    0.263    0.418   13.515
  257.340   77.340    0.273    0.382   12.341
  257.590   79.264    0.280    0.367   11.265
  257.840   85.190    0.240    0.387   10.287
  258.090   93.629    0.209    0.425    9.505
  258.340  102.879    0.218    0.449    9.673
  258.590  105.021    0.237    0.455   10.103
  258.840  100.871    0.240    0.451   10.713
  259.090   95.209    0.261    0.459   11.618
  259.340   90.085    0.281    0.468   11.951
  259.590   92.510    0.261    0.473   12.329
  259.840   96.081    0.260    0.465   12.465
  260.090   96.336    0.258    0.455   12.597
  260.340   95.829    0.255    0.448   13.036
  260.590   90.347    0.260    0.444   13.648
  260.840   86.433    0.274    0.451   13.817
  261.090   82.431    0.290    0.458   13.231
  261.340   79.563    0.310    0.447   11.690
  261.590   80.263    0.317    0.424   10.191
  261.840   86.629    0.239    0.425    8.854
  262.090   96.901    0.190    0.442    8.192
  262.340  100.686    0.214    0.461    7.727
  262.590   96.077    0.217    0.446    7.975
  262.840   93.837    0.192    0.405    8.865
  263.090   94.795    0.166    0.395    9.540
  263.340   94.508    0.156    0.410   10.464
  263.590   86.655    0.155    0.421   11.347
  263.840   78.236    0.163    0.404   12.038
  264.090   75.465    0.134    0.377   12.779
  264.340   81.419    0.182    0.390   13.474
  264.590   85.858    0.208    0.400   13.888
  264.840   84.179    0.206    0.381   14.566
  265.090   75.103    0.228    0.382   14.482
  265.340   69.117    0.241    0.382   14.012
  265.590   62.545    0.254    0.384   12.223
  265.840   58.301    0.244    0.401   10.500
  266.090   58.084    0.236    0.413    9.019
  266.340   63.410    0.246    0.416    8.170
  266.590   72.645    0.254    0.411    7.509
  266.840   86.405    0.203    0.425    6.851
  267.090  101.968    0.160    0.450    6.390
  267.340  111.504    0.176    0.469    5.832
  267.590  113.766    0.183    0.473    5.502
  267.840  111.388    0.160    0.474    5.060
  268.090  115.280    0.227    0.488    4.758
  268.340  122.372    0.235    0.500    4.325
  268.590  126.526    0.241    0.514    3.962
  268.840  125.973    0.229    0.522    3.693
  269.090  123.599    0.252    0.524    3.424
  269.340  121.628    0.250    0.525    3.293
  269.590  120.686    0.249    0.532    3.186
  269.840  119.731    0.250    0.552    3.287
  270.090  118.857    0.251    0.568    3.954
  270.340  118.416    0.235    0.573    4.880
  270.590  116.800    0.238    0.572    5.975
  270.840  114.250    0.251    0.563    7.334
  271.090  107.982    0.258    0.497    9.223
  271.340   99.123    0.274    0.452   11.465
  271.590   91.118    0.267    0.424   14.622
  271.840   85.495    0.263    0.409   18.033
  272.090   74.487    0.297    0.371   23.944
  272.340   63.565    0.330    0.333   30.755
  272.590   52.199    0.373    0.310   34.663
  272.840   47.443    0.386    0.290   34.426
  273.090   45.742    0.379    0.282   30.362
  273.340   46.011    0.373    0.287   25.415
  273.590   46.966    0.356    0.305   20.304
  273.840   49.559    0.330    0.332   18.135
  274.090   55.370    0.311    0.364   17.256
  274.340   62.918    0.307    0.377   19.471
  274.590   64.378    0.314    0.375   21.233
  274.840   61.317    0.336    0.360   23.470
  275.090   60.721    0.361    0.351   21.913
  275.340   65.230    0.351    0.365   20.123
  275.590   70.900    0.328    0.380   18.169
  275.840   77.791    0.307    0.392   16.342
  276.090   82.736    0.304    0.401   15.345
  276.340   86.889    0.310    0.410   14.749
  276.590   89.254    0.299    0.418   14.086
  276.840   90.375    0.279    0.427   13.756
  277.090   93.764    0.266    0.435   14.100
  277.340   91.796    0.280    0.443   14.503
  277.590   88.085    0.292    0.433   15.373
  277.840   89.967    0.290    0.441   16.317
  278.090   90.487    0.292    0.439   17.582
  278.340   81.837    0.295    0.417   18.740
  278.590   75.530    0.305    0.320   19.916
  278.840   71.313    0.300    0.303   20.332
  279.090   70.424    0.286    0.297   19.147
  279.340   72.581    0.314    0.311   17.206
  279.590   71.295    0.338    0.334   15.489
  279.840   70.114    0.339    0.313   14.671
  280.090   69.562    0.292    0.295   13.329
  280.340   71.389    0.264    0.321   12.159
  280.590   74.014    0.271    0.342   11.363
  280.840   75.959    0.260    0.340   11.187
  281.090   78.326    0.238    0.353   11.272
  281.340   81.657    0.228    0.372   11.395
  281.590   82.128    0.234    0.397   11.590
  281.840   79.477    0.242    0.408   11.848
  282.090   75.692    0.262    0.396   11.589
  282.340   73.363    0.282    0.387   11.446
  282.590   71.159    0.282    0.405   11.337
  282.840   70.175    0.288    0.421   10.957
  283.090   74.432    0.285    0.430   10.844
  283.340   77.080    0.272    0.424   10.773
  283.590   80.506    0.272    0.416   10.945
  283.840   84.959    0.264    0.415   11.004
  284.090   91.590    0.255    0.410   11.342
  284.340   93.037    0.265    0.422   11.475
  284.590   83.016    0.269    0.432   11.790
  284.840   75.593    0.258    0.429   11.533
  285.090   72.100    0.228    0.423   11.408
  285.340   70.053    0.260    0.418   11.050
  285.590   70.287    0.282    0.435   10.706
  285.840   71.236    0.296    0.451   10.694
  286.090   73.098    0.313    0.456   10.653
  286.340   75.986    0.287    0.451   10.501
  286.590   80.683    0.301    0.448   10.295
  286.840   81.396    0.313    0.461   10.092
  287.090   77.951    0.313    0.456    9.976
