~VERSION INFORMATION
 VERS.                 2.0:   CWLS LOG ASCII STANDARD -VERSION 2.0
 WRAP.                  NO:   ONE LINE PER DEPTH STEP
~WELL INFORMATION BLOCK
#MNEM.UNIT           DATA                    DESCRIPTION OF MNEMONIC
#---------    -------------------            -------------------------------
# Generated from Intellog Unique Number	CW_73_75/WELL/2740
WELL.         SUNDALE ET AL FRANCIS 10-16    : Well_name    - WELL
LOC .         00/10-16-073-21W4/0            : Location     - LOCATION
UWI .         00/10-16-073-21W4/0            : Uwi          - UNIQUE WELL ID
ENTR.         JAYE                           : Entered      - ENTERED BY
SRVC.         SCHLUMBERGER                   : Scn          - SERVICE COMPANY
DATE.         11 FEB 1976                    : Date         - LOG DATE
STRT.M        377.952                        : top_depth    - START DEPTH
STOP.M        579.202                        : bot_depth    - STOP DEPTH
STEP.M        0.25                           : increment    - STEP LENGTH
 NULL. -999.2500:NULL Value
~CURVE INFORMATION BLOCK
#MNEM UNIT       ERCB CURVE CODE    CURVE DESCRIPTION
#-----------   ------------------   ----------------------------------
DEPT.M        00 001 00 00         : DEPTH        - DEPTH
ILD .OHMM     00 120 00 00         : RESD         - DEEP RESISTIVITY (DIL)
NPHI.V/V      00 330 00 00         : PHIN         - NEUTRON POROSITY (SANDSTONE)
DPHI.V/V      00 890 00 00         : PHID         - DENSITY POROSITY (SANDSTONE)
GR  .API      00 310 00 00         : GR           - GAMMA RAY
CALI.MM       00 280 01 00         : CAL          - CALIPER
~PARAMETER INFORMATION
#MNEM.UNIT           DATA             DESCRIPTION OF MNEMONIC
#---------         -----------     ------------------------------
GL  .M        668.731              : gl           - GROUND LEVEL ELEVATION
EREF.M        672.998              : kb           - ELEVATION OF DEPTH REFERENCE
DATM.M        668.731              : datum        - DATUM ELEVATION
TDD .M        609.6                : tdd          - TOTAL DEPTH DRILLER
RUN .         ONE                  : Run          - RUN NUMBER
MUD .         GEL CHEM             : Mud_type     - MUD TYPE
MATR.         SANDSTONE            : Logunit      - NEUTRON MATRIX
TMAX.C        21.6667              : BHT          - MAXIMUM RECORDED TEMPERATURE
BHTD.M        578.206              : BHTDEP       - MAXIMUM RECORDED TEMPERATURE
RMT .C        16.6667              : MDTP         - TEMPERATURE OF MUD
MUDD.KG/M     1080                 : MWT          - MUD DENSITY
NEUT.         1                    : NEUTRON      - NEUTRON TYPE
RESI.         0                    : RESIST       - RESISTIVITY TYPE
RM  .OHMM     3.62                 : RM           - RESISTIVITY OF MUD
RMC .OHMM     0                    : RMC          - RESISTIVITY OF MUD CAKE
RMF .OHMM     2.9                  : RMF          - RESISTIVITY OF MUD FILTRATE
SUFT.C        0                    : SUFT         - SURFACE TEMPERATURE
~A  DEPTH     RESD     PHIN     PHID       GR      CAL
# ...
  523.952    6.404    0.429    0.150   97.397  153.108
  524.202    6.460    0.460    0.148   95.431  153.945
  524.452    6.553    0.453    0.138   95.372  155.200
  524.702    6.623    0.442    0.128   98.450  155.204
  524.952    6.620    0.438    0.151  102.573  153.959
  525.202    6.667    0.429    0.179  104.298  153.338
  525.452    6.751    0.427    0.171   99.196  153.967
  525.702    6.886    0.421    0.193   95.939  154.806
  525.952    7.128    0.409    0.182   96.495  155.435
  526.202    7.365    0.394    0.166   99.081  156.272
  526.452    7.241    0.398    0.150  102.281  156.798
  526.702    6.762    0.407    0.132  106.958  156.905
  526.952    6.468    0.424    0.141  108.867  156.597
  527.202    6.255    0.437    0.144  109.484  156.289
  527.452    6.093    0.447    0.134  110.225  155.877
  527.702    6.102    0.448    0.117  112.319  155.569
  527.952    6.179    0.429    0.147  115.827  155.574
  528.202    6.291    0.406    0.174  106.973  155.787
  528.452    6.584    0.380    0.174  101.318  155.999
  528.702    6.879    0.356    0.161   97.446  156.108
  528.952    7.186    0.380    0.171   99.847  156.113
  529.202    7.774    0.400    0.148   97.205  156.117
  529.452    8.535    0.404    0.113   88.783  155.912
  529.702    9.439    0.327    0.075   77.223  155.814
  529.952   11.423    0.301    0.074   64.003  155.817
  530.202   13.900    0.288    0.085   60.070  156.030
  530.452   16.126    0.254    0.046   59.212  156.034
  530.702   19.160    0.209    0.015   59.645  156.247
  530.952   24.144    0.210    0.002   62.292  155.940
  531.202   26.850    0.268    0.023   69.121  155.839
  531.452   19.636    0.300    0.053   77.918  155.531
  531.702   16.820    0.309    0.073   88.006  155.327
  531.952   14.042    0.316    0.081   95.143  155.332
  532.202   10.595    0.352    0.098   99.451  155.128
  532.452    9.042    0.400    0.117   98.408  155.236
  532.702    8.291    0.402    0.117   98.964  155.345
  532.952    7.901    0.400    0.122  102.410  155.245
  533.202    7.543    0.401    0.134  105.057  155.458
  533.452    7.268    0.412    0.144  104.876  155.462
  533.702    7.224    0.418    0.142  104.263  155.675
  533.952    7.208    0.408    0.136  102.175  155.784
  534.202    7.219    0.400    0.133  100.947  155.892
  534.452    7.296    0.401    0.131  101.012  155.793
  534.702    7.401    0.412    0.121  100.952  155.589
  534.952    7.467    0.408    0.105   95.297  155.697
  535.202    7.588    0.391    0.097   98.436  155.598
  535.452    7.740    0.411    0.103  100.653  155.498
  535.702    7.924    0.421    0.116  100.963  155.399
  535.952    8.054    0.408    0.126  101.396  155.299
  536.202    8.185    0.396    0.141  102.321  155.199
  536.452    8.302    0.391    0.130  103.308  155.203
  536.702    8.376    0.402    0.114  104.295  155.207
  536.952    8.434    0.396    0.111  105.219  155.211
  537.202    8.370    0.395    0.116  107.621  155.112
  537.452    8.213    0.400    0.143  108.976  155.117
  537.702    8.061    0.389    0.137  102.706  155.225
  537.952    7.911    0.380    0.122   99.695  155.438
  538.202    7.764    0.381    0.112  100.128  155.546
  538.452    7.536    0.358    0.100  100.807  155.550
  538.702    7.409    0.357    0.112  104.561  155.659
  538.952    7.312    0.394    0.131  107.208  155.664
  539.202    7.309    0.412    0.133  101.061  155.668
  539.452    7.319    0.404    0.123   98.603  155.672
  539.702    7.398    0.375    0.091  100.082  155.781
  539.952    7.504    0.366    0.088  101.930  156.099
  540.202    7.543    0.385    0.112  104.331  156.102
  540.452    7.568    0.435    0.142  103.903  156.002
  540.702    7.441    0.531    0.162  103.783  155.904
  540.952    6.088    0.563    0.208  105.630  155.803
  541.202    4.602    0.542    0.197  106.371  155.911
  541.452    3.920    0.525    0.195  105.943  156.021
  541.702    3.464    0.544    0.203  107.298  156.233
  541.952    2.946    0.551    0.191  108.531  156.237
  542.202    2.647    0.532    0.183  108.534  156.242
  542.452    2.431    0.430    0.172  103.247  156.455
  542.702    2.404    0.431    0.127   97.592  156.459
  542.952    2.474    0.422    0.163   98.886  156.775
  543.202    2.692    0.396    0.152   99.811  157.197
  543.452    3.027    0.399    0.092  102.827  157.617
  543.702    3.550    0.415    0.130  106.028  158.142
  543.952    4.044    0.439    0.150  109.413  158.356
  544.202    4.822    0.394    0.151  100.867  158.672
  544.452    5.835    0.296    0.077   90.107  158.364
  544.702    6.255    0.314    0.014   88.634  158.369
  544.952    6.475    0.370   -0.008   93.802  158.373
  545.202    6.641    0.400    0.067   98.725  158.689
  545.452    7.015    0.403    0.081  100.450  158.694
  545.702    7.673    0.411    0.069  102.236  158.698
  545.952    7.986    0.426    0.089  104.883  158.702
  546.202    7.983    0.434    0.102  105.562  158.811
  546.452    7.864    0.430    0.118  106.364  158.920
  546.702    7.661    0.439    0.112  108.949  158.716
  546.952    6.909    0.434    0.111  113.380  158.825
  547.202    6.596    0.392    0.106  119.348  159.037
  547.452    6.679    0.392    0.093  123.164  159.146
  547.702    6.838    0.399    0.105  122.920  159.255
  547.952    7.078    0.436    0.102  123.784  159.363
  548.202    7.313    0.419    0.106  128.952  159.575
  548.452    7.419    0.414    0.116  137.319  159.475
  548.702    7.484    0.433    0.117  130.003  159.377
  548.952    7.345    0.422    0.111  123.733  159.380
  549.202    7.051    0.430    0.089  113.649  159.281
  549.452    6.781    0.427    0.054  104.242  159.181
  549.702    6.462    0.433    0.069  110.088  158.978
  549.952    6.261    0.458    0.096  112.489  158.774
  550.202    6.145    0.465    0.105  112.737  158.465
  550.452    6.063    0.460    0.101  112.063  158.262
  550.702    5.940    0.447    0.131  111.020  158.058
  550.952    5.829    0.420    0.107  108.440  157.854
  551.202    5.658    0.411    0.125  106.167  157.754
  551.452    5.412    0.394    0.122  107.646  157.550
  551.702    5.176    0.387    0.084  110.293  157.035
  551.952    5.300    0.400    0.104  111.956  157.038
  552.202    5.691    0.410    0.119  113.250  156.834
  552.452    6.056    0.422    0.111  113.253  156.630
  552.702    6.326    0.425    0.093  112.579  156.740
  552.952    6.418    0.411    0.096  112.828  156.640
  553.202    6.462    0.376    0.071  113.260  156.852
  553.452    6.284    0.382    0.064  110.742  156.960
  553.702    6.316    0.405    0.079  105.394  157.069
  553.952    6.721    0.422    0.098   94.941  156.865
  554.202    7.271    0.431    0.109   60.197  156.453
  554.452    7.568    0.429    0.097   35.969  156.041
  554.702    7.496    0.401    0.075   22.195  154.795
  554.952    7.438    0.392    0.093   16.356  152.300
  555.202    7.828    0.411    0.112   16.666  152.201
  555.452    9.756    0.450    0.094   16.177  152.309
  555.702   13.306    0.437    0.075   15.995  153.251
  555.952   20.982    0.410    0.001   15.751  153.673
  556.202   33.209    0.415    0.016   15.569  153.468
  556.452   56.570    0.446    0.096   15.756  152.952
  556.702   87.262    0.496    0.232   15.944  152.644
  556.952  129.506    0.529    0.263   15.885  152.232
  557.202  142.439    0.533    0.258   15.826  151.820
  557.452  125.651    0.530    0.240   15.767  151.615
  557.702  112.281    0.523    0.221   15.831  151.516
  557.952  108.185    0.505    0.196   15.833  151.624
  558.202  107.153    0.494    0.174   16.020  151.837
  558.452  102.673    0.487    0.168   16.269  151.737
  558.702  100.952    0.479    0.156   16.579  151.846
  558.952  103.731    0.466    0.158   16.705  152.058
  559.202  110.785    0.443    0.150   16.892  152.167
  559.452  124.800    0.450    0.150   15.849  151.547
  559.702  141.880    0.454    0.120   12.469  151.134
  559.952  166.115    0.414    0.108   13.210  151.243
  560.202  176.110    0.387    0.078   15.488  151.664
