~VERSION INFORMATION
 VERS.                 2.0:   CWLS LOG ASCII STANDARD -VERSION 2.0
 WRAP.                  NO:   ONE LINE PER DEPTH STEP
~WELL INFORMATION BLOCK
#MNEM.UNIT           DATA                    DESCRIPTION OF MNEMONIC
#---------    -------------------            -------------------------------
# Generated from Intellog Unique Number	CN_94_101/WELL/5000
WELL.         10-02-099-13W4                 : Well_name    - WELL
LOC .         00/10-02-099-13W4/0            : Location     - LOCATION
UWI .         00/10-02-099-13W400            : Uwi          - UNIQUE WELL ID
ENTR.         TOP                            : Entered      - ENTERED BY
SRVC.         SCHLUMBERGER                   : Scn          - SERVICE COMPANY
DATE.         08/11/92                       : Date         - LOG DATE
STRT.M        375                            : top_depth    - START DEPTH
STOP.M        575                            : bot_depth    - STOP DEPTH
STEP.M        0.25                           : increment    - STEP LENGTH
 NULL. -999.2500:NULL Value
~CURVE INFORMATION BLOCK
#MNEM UNIT       ERCB CURVE CODE    CURVE DESCRIPTION
#-----------   ------------------   ----------------------------------
DEPT.M        00 001 00 00         : DEPTH        - DEPTH
GR  .API      00 310 00 00         : GR           - GAMMA RAY
ILD .OHMM     00 120 00 00         : RESD         - DEEP RESISTIVITY (DIL)
NPHI.V/V      00 330 00 00         : PHIN         - NEUTRON POROSITY (SANDSTONE)
DPHI.V/V      00 890 00 00         : PHID         - DENSITY POROSITY (SANDSTONE)
~PARAMETER INFORMATION
#MNEM.UNIT           DATA             DESCRIPTION OF MNEMONIC
#---------         -----------     ------------------------------
GL  .M        827                  : gl           - GROUND LEVEL ELEVATION
EREF.M        830                  : kb           - ELEVATION OF DEPTH REFERENCE
DATM.M        830                  : datum        - DATUM ELEVATION
TDD .M        564                  : tdd          - TOTAL DEPTH DRILLER
RUN .         ONE                  : Run          - RUN NUMBER
ENG .         BILL                 : Engineer     - RECORDING ENGINEER
WIT .         JIM                  : Witness      - WITNESSED BY
MUD .         GEL                  : Mud_type     - MUD TYPE
MATR.         SANDSTONE            : Logunit      - NEUTRON MATRIX
TMAX.C        27                   : BHT          - MAXIMUM RECORDED TEMPERATURE
BHTD.M        564                  : BHTDEP       - MAXIMUM RECORDED TEMPERATURE
RMT .C        12                   : MDTP         - TEMPERATURE OF MUD
MUDD.KG/M     1090                 : MWT          - MUD DENSITY
NEUT.         1                    : NEUTRON      - NEUTRON TYPE
RESI.         0                    : RESIST       - RESISTIVITY TYPE
RM  .OHMM     5.8                  : RM           - RESISTIVITY OF MUD
RMC .OHMM     1.8                  : RMC          - RESISTIVITY OF MUD CAKE
RMF .OHMM     5.8                  : RMF          - RESISTIVITY OF MUD FILTRATE
SUFT.C        4                    : SUFT         - SURFACE TEMPERATURE
~A  DEPTH       GR     RESD     PHIN     PHID
  375.000   88.804    5.725    0.449    0.227
  375.250   88.855    5.843    0.462    0.222
  375.500   88.307    5.960    0.475    0.221
  375.750   87.734    5.975    0.485    0.225
  376.000   85.975    5.871    0.487    0.238
  376.250   85.388    5.771    0.483    0.251
  376.500   86.077    5.671    0.480    0.261
  376.750   87.353    5.579    0.478    0.263
  377.000   87.379    5.586    0.478    0.248
  377.250   86.844    5.700    0.474    0.237
  377.500   86.270    5.818    0.473    0.251
  377.750   86.921    5.935    0.472    0.265
  378.000   89.421    5.947    0.469    0.259
  378.250   93.769    5.956    0.462    0.250
  378.500   94.420    5.857    0.452    0.243
  378.750   94.497    5.862    0.443    0.248
  379.000   93.911    5.763    0.448    0.257
  379.250   93.350    5.772    0.459    0.270
  379.500   91.578    5.674    0.477    0.273
  379.750   89.806    5.683    0.486    0.267
  380.000   88.608    5.694    0.478    0.263
  380.250   87.435    5.600    0.469    0.259
  380.500   86.874    5.609    0.461    0.263
  380.750   90.012    5.615    0.454    0.292
  381.000   90.663    5.522    0.447    0.316
  381.250   90.102    5.433    0.440    0.327
  381.500   89.541    5.334    0.445    0.323
  381.750   89.593    5.243    0.456    0.314
  382.000   92.092    5.156    0.471    0.267
  382.250   93.993    5.067    0.483    0.259
  382.500   94.044    4.983    0.479    0.268
  382.750   93.484    4.896    0.477    0.282
  383.000   91.699    4.906    0.478    0.296
  383.250   90.539    4.916    0.479    0.305
  383.500   90.565    4.830    0.483    0.306
  383.750   91.840    4.836    0.485    0.307
  384.000   91.305    4.758    0.480    0.306
  384.250   90.719    4.763    0.443    0.300
  384.500   90.770    4.681    0.445    0.296
  384.750   89.623    4.692    0.463    0.290
  385.000   88.425    4.696    0.482    0.288
  385.250   87.265    4.705    0.482    0.287
  385.500   86.105    4.711    0.472    0.287
  385.750   86.156    4.809    0.466    0.288
  386.000   86.794    4.819    0.464    0.288
  386.250   86.846    4.825    0.473    0.289
  386.500   85.686    4.928    0.478    0.290
  386.750   84.552    4.934    0.463    0.292
  387.000   84.590    5.033    0.444    0.296
  387.250   84.616    5.042    0.439    0.301
  387.500   85.279    5.149    0.437    0.306
  387.750   84.719    5.058    0.440    0.302
  388.000   84.158    4.883    0.448    0.293
  388.250   85.434    4.709    0.460    0.287
  388.500   89.157    4.542    0.472    0.278
  388.750   90.446    4.304    0.483    0.277
  389.000   91.097    4.229    0.490    0.295
  389.250   92.398    4.155    0.484    0.306
  389.500   92.424    4.745    0.462    0.320
  389.750   91.251    5.321    0.451    0.327
  390.000   85.793    5.744    0.441    0.332
  390.250   83.397    5.973    0.423    0.332
  390.500   81.625    5.765    0.412    0.329
  390.750   81.064    5.560    0.418    0.328
  391.000   81.115    5.266    0.428    0.329
  391.250   81.766    5.079    0.436    0.330
  391.500   83.654    4.904    0.446    0.332
  391.750   85.541    4.910    0.461    0.335
  392.000   86.843    5.010    0.469    0.337
  392.250   86.881    5.016    0.463    0.338
  392.500   86.933    5.120    0.444    0.342
  392.750   86.984    5.227    0.437    0.344
  393.000   89.484    5.334    0.442    0.348
  393.250   90.772    5.341    0.445    0.349
  393.500   88.975    5.349    0.449    0.344
  393.750   86.578    5.163    0.450    0.339
  394.000   87.241    4.981    0.445    0.339
  394.250   90.353    4.805    0.439    0.345
  394.500   93.465    4.465    0.434    0.351
  394.750   95.965    4.228    0.434    0.351
  395.000   91.731    3.927    0.442    0.329
  395.250   89.959    3.518    0.447    0.325
  395.500   90.610    3.391    0.454    0.327
  395.750   91.286    3.398    0.464    0.329
  396.000   91.338    3.738    0.473    0.338
  396.250   87.092    4.034    0.484    0.351
  396.500   86.531    4.521    0.498    0.359
  396.750   85.983    4.976    0.499    0.348
  397.000   84.198    5.475    0.490    0.339
  397.250   81.814    5.691    0.462    0.331
  397.500   80.616    5.923    0.449    0.326
  397.750   80.055    6.040    0.434    0.327
  398.000   79.507    6.167    0.398    0.328
  398.250   77.723    6.291    0.385    0.327
  398.500   77.761    6.544    0.370    0.326
  398.750   77.226    6.934    0.358    0.327
  399.000   76.640    7.486    0.343    0.331
  399.250   71.795    8.238    0.338    0.335
  399.500   66.350    8.728    0.344    0.361
  399.750   68.850    9.427    0.349    0.364
  400.000   70.126    9.795    0.355    0.367
  400.250   71.414   10.579    0.361    0.365
  400.500   72.077   11.204    0.371    0.367
  400.750   72.129   11.871    0.369    0.377
  401.000   72.779   11.670    0.368    0.374
  401.250   73.456   10.255    0.369    0.375
  401.500   74.106    9.353    0.375    0.364
  401.750   76.606    8.526    0.385    0.318
  402.000   81.567    7.632    0.395    0.300
  402.250   84.666    7.092    0.406    0.288
  402.500   87.778    6.470    0.418    0.282
  402.750   89.079    6.240    0.425    0.284
  403.000   86.670    6.020    0.430    0.286
  403.250   84.273    5.704    0.433    0.288
  403.500   83.100    5.603    0.434    0.292
  403.750   83.789    5.508    0.437    0.299
  404.000   83.815    5.313    0.442    0.306
  404.250   83.866    5.227    0.444    0.314
  404.500   83.918    5.136    0.449    0.318
  404.750   83.969    5.047    0.457    0.324
  405.000   84.633    4.963    0.452    0.329
  405.250   85.908    4.879    0.453    0.334
  405.500   87.809    4.887    0.462    0.339
  405.750   89.696    4.804    0.465    0.340
  406.000   89.748    4.812    0.454    0.346
  406.250   87.351    4.817    0.445    0.352
  406.500   86.777    5.015    0.445    0.356
  406.750   86.217    5.213    0.442    0.359
  407.000   86.880    5.318    0.428    0.365
  407.250   85.108    5.744    0.422    0.378
  407.500   82.698    6.321    0.413    0.374
  407.750   77.853    6.692    0.406    0.355
  408.000   73.021    7.646    0.398    0.368
  408.250   69.387    8.410    0.370    0.360
  408.500   61.481    9.613    0.344    0.354
  408.750   59.696    9.802    0.298    0.354
  409.000   59.148   10.386    0.288    0.361
  409.250   58.588   10.800    0.311    0.394
  409.500   58.626   11.240    0.331    0.405
  409.750   58.066   11.249    0.348    0.437
  410.000   58.117   11.267    0.362    0.443
  410.250   58.781   11.285    0.423    0.442
  410.500   59.444   11.308    0.439    0.436
  410.750   60.720   11.111    0.438    0.429
  411.000   62.008   10.728    0.432    0.393
  411.250   63.896   10.541    0.419    0.382
  411.500   66.396   10.358    0.402    0.408
  411.750   68.283    9.811    0.386    0.430
  412.000   68.335    9.290    0.378    0.423
  412.250   70.222    8.959    0.387    0.399
  412.500   72.110    8.174    0.393    0.383
  412.750   71.549    7.595    0.389    0.379
  413.000   69.764    7.469    0.398    0.379
  413.250   71.040    7.478    0.407    0.384
  413.500   73.553    7.487    0.400    0.386
  413.750   73.604    7.789    0.385    0.395
  414.000   73.031    7.946    0.379    0.396
  414.250   71.858    8.426    0.376    0.374
  414.500   72.521    9.100    0.394    0.362
  414.750   73.185    9.283    0.397    0.362
  415.000   73.249    9.474    0.394    0.360
  415.250   70.852    9.490    0.382    0.352
  415.500   69.080    9.155    0.377    0.350
  415.750   68.494    8.996    0.383    0.348
  416.000   68.545    8.363    0.381    0.346
  416.250   71.045    7.918    0.355    0.343
  416.500   72.933    7.500    0.349    0.342
  416.750   74.846    7.233    0.345    0.338
  417.000   76.109    6.981    0.345    0.330
  417.250   78.621    6.857    0.380    0.323
  417.500   79.884    6.618    0.393    0.330
  417.750   79.936    6.382    0.409    0.336
  418.000   76.314    6.157    0.416    0.344
  418.250   76.978    5.940    0.425    0.350
