~VERSION INFORMATION
 VERS.                 2.0:   CWLS LOG ASCII STANDARD -VERSION 2.0
 WRAP.                  NO:   ONE LINE PER DEPTH STEP
~WELL INFORMATION BLOCK
#MNEM.UNIT           DATA                    DESCRIPTION OF MNEMONIC
#---------    -------------------            -------------------------------
# Generated from Intellog Unique Number	CW_73_75/WELL/927
WELL.         MANNVILLE ALGAS MARTENH 10-18  : Well_name    - WELL
LOC .         00/10-18-074-24W4/0            : Location     - LOCATION
UWI .         00/10-18-074-24W4/0            : Uwi          - UNIQUE WELL ID
ENTR.         JAYE                           : Entered      - ENTERED BY
SRVC.         SCHLUMBERGER                   : Scn          - SERVICE COMPANY
DATE.         7 DEC 80                       : Date         - LOG DATE
STRT.M        415                            : top_depth    - START DEPTH
STOP.M        645                            : bot_depth    - STOP DEPTH
STEP.M        0.25                           : increment    - STEP LENGTH
 NULL. -999.2500:NULL Value
~CURVE INFORMATION BLOCK
#MNEM UNIT       ERCB CURVE CODE    CURVE DESCRIPTION
#-----------   ------------------   ----------------------------------
DEPT.M        00 001 00 00         : DEPTH        - DEPTH
ILD .OHMM     00 120 00 00         : RESD         - DEEP RESISTIVITY (DIL)
NPHI.V/V      00 330 00 00         : PHIN         - NEUTRON POROSITY (SANDSTONE)
DPHI.V/V      00 890 00 00         : PHID         - DENSITY POROSITY (SANDSTONE)
CALI.MM       00 280 01 00         : CAL          - CALIPER
GR  .API      00 310 00 00         : GR           - GAMMA RAY
~PARAMETER INFORMATION
#MNEM.UNIT           DATA             DESCRIPTION OF MNEMONIC
#---------         -----------     ------------------------------
GL  .M        686.4                : gl           - GROUND LEVEL ELEVATION
EREF.M        689.5                : kb           - ELEVATION OF DEPTH REFERENCE
DATM.M        686.4                : datum        - DATUM ELEVATION
TDD .M        644                  : tdd          - TOTAL DEPTH DRILLER
RUN .         ONE                  : Run          - RUN NUMBER
BASE.         EDM                  : Branch       - HOME BASE OF LOGGING UNIT
MUD .         GEL CHEM             : Mud_type     - MUD TYPE
MATR.         SANDSTONE            : Logunit      - NEUTRON MATRIX
TMAX.C        33.3                 : BHT          - MAXIMUM RECORDED TEMPERATURE
BHTD.M        645.2                : BHTDEP       - MAXIMUM RECORDED TEMPERATURE
RMT .C        12.8                 : MDTP         - TEMPERATURE OF MUD
MUDD.KG/M     1190                 : MWT          - MUD DENSITY
NEUT.         1                    : NEUTRON      - NEUTRON TYPE
RESI.         0                    : RESIST       - RESISTIVITY TYPE
RM  .OHMM     3.2                  : RM           - RESISTIVITY OF MUD
RMC .OHMM     0                    : RMC          - RESISTIVITY OF MUD CAKE
RMF .OHMM     2.13                 : RMF          - RESISTIVITY OF MUD FILTRATE
SUFT.C        0                    : SUFT         - SURFACE TEMPERATURE
~A  DEPTH     RESD     PHIN     PHID      CAL       GR
# ...
  451.500    3.418    0.444    0.274  151.702  102.785
  451.750    3.418    0.440    0.283  151.624   98.735
  452.000    3.437    0.454    0.276  151.754  100.131
  452.250    3.502    0.441    0.266  151.989  106.651
  452.500    3.725    0.422    0.257  152.226  114.423
  452.750    3.911    0.413    0.244  152.360  122.760
  453.000    4.083    0.398    0.234  152.176  120.587
  453.250    4.199    0.373    0.237  152.412  114.847
  453.500    4.279    0.367    0.234  152.230  104.981
  453.750    4.327    0.385    0.223  152.261   98.553
  454.000    4.231    0.380    0.240  152.291   89.061
  454.250    4.083    0.385    0.268  152.103   75.815
  454.500    3.910    0.411    0.276  152.028   76.209
  454.750    3.753    0.459    0.292  151.954   81.354
  455.000    3.635    0.456    0.300  151.877   85.186
  455.250    3.456    0.421    0.290  151.796   81.761
  455.500    3.248    0.421    0.291  151.931   75.709
  455.750    3.088    0.442    0.300  152.266   69.659
  456.000    2.986    0.436    0.303  152.503   70.862
  456.250    2.833    0.424    0.303  153.051   80.637
  456.500    2.654    0.414    0.286  154.016   90.164
  456.750    2.462    0.464    0.267  155.085   98.123
  457.000    2.358    0.526    0.252  159.075  107.774
  457.250    2.327    0.590    0.248  166.192  114.108
  457.500    2.376    0.545    0.243  166.222  109.307
  457.750    2.527    0.464    0.244  158.116   93.809
  458.000    2.658    0.409    0.280  152.512   83.880
  458.250    2.812    0.394    0.300  149.933   72.386
  458.500    2.881    0.384    0.335  149.546   67.148
  458.750    2.886    0.391    0.351  149.778   64.286
  459.000    2.843    0.411    0.337  150.019   61.237
  459.250    2.801    0.422    0.327  150.045   62.506
  459.500    2.785    0.433    0.315  150.073   66.587
  459.750    2.811    0.434    0.303  150.514   73.611
  460.000    2.940    0.430    0.289  151.165   81.197
  460.250    3.081    0.417    0.283  152.242   84.027
  460.500    3.211    0.415    0.277  152.889   85.544
  460.750    3.278    0.433    0.271  154.170   83.496
  461.000    3.333    0.439    0.266  155.341   84.827
  461.250    3.365    0.470    0.260  156.829   89.597
  461.500    3.396    0.516    0.307  158.419   90.676
  461.750    3.441    0.482    0.332  159.174   91.506
  462.000    3.486    0.455    0.305  152.009   94.399
  462.250    3.572    0.438    0.273  151.516   98.544
  462.500    3.687    0.483    0.212  153.731   79.419
  462.750    3.908    0.297    0.096  153.865   64.046
  463.000    4.340    0.301    0.130  151.701   69.570
  463.250    4.651    0.332    0.229  149.645   85.411
  463.500    4.703    0.413    0.250  149.046   90.057
  463.750    4.677    0.435    0.250  148.970   84.818
  464.000    4.564    0.445    0.279  149.206   82.832
  464.250    4.438    0.461    0.297  149.439   83.662
  464.500    4.347    0.458    0.292  149.571   84.491
  464.750    4.283    0.433    0.298  150.015   87.073
  465.000    4.203    0.418    0.297  150.563   93.219
  465.250    4.195    0.403    0.263  151.111  101.430
  465.500    4.172    0.432    0.239  152.183   96.256
  465.750    4.164    0.432    0.209  153.253   96.335
  466.000    4.171    0.415    0.192  155.677   99.167
  466.250    4.171    0.426    0.184  157.580  100.558
  466.500    4.140    0.425    0.171  159.067   95.695
  466.750    4.148    0.432    0.215  159.406   81.823
  467.000    4.140    0.452    0.262  155.993   71.831
  467.250    4.124    0.444    0.293  151.539   64.965
  467.500    4.086    0.428    0.319  150.524   68.424
  467.750    4.086    0.409    0.314  150.653   69.565
  468.000    4.078    0.409    0.308  150.892   71.646
  468.250    4.055    0.415    0.320  151.022   78.357
  468.500    4.063    0.415    0.315  151.160   85.754
  468.750    4.101    0.399    0.299  151.285   91.525
  469.000    4.194    0.409    0.285  151.312   98.672
  469.250    4.370    0.428    0.276  151.342   95.875
  469.500    4.562    0.445    0.274  151.366   92.763
  469.750    4.640    0.430    0.281  151.600   93.219
  470.000    4.631    0.449    0.298  155.382   98.613
  470.250    4.605    0.494    0.288  161.142   99.882
  470.500    4.613    0.476    0.278  158.355   96.269
  470.750    4.639    0.451    0.270  152.961   93.282
  471.000    4.639    0.439    0.267  148.823   90.045
  471.250    4.665    0.457    0.295  147.176   92.438
  471.500    4.674    0.471    0.300  145.746   95.896
  471.750    4.622    0.482    0.290  145.040   93.348
  472.000    4.570    0.459    0.280  144.239   90.799
  472.250    4.544    0.440    0.264  143.848   92.191
  472.500    4.510    0.451    0.260  143.352   95.711
  472.750    4.312    0.432    0.256  143.169   91.161
  473.000    4.192    0.447    0.247  143.301   84.422
  473.250    4.046    0.464    0.220  143.642   78.245
  473.500    3.904    0.452    0.243  144.399   72.818
  473.750    3.832    0.440    0.276  144.632   69.958
  474.000    3.796    0.443    0.315  145.180   71.850
  474.250    3.768    0.432    0.322  145.729   75.308
  474.500    3.615    0.438    0.322  145.861   76.449
  474.750    3.489    0.446    0.325  145.788   75.027
  475.000    3.431    0.454    0.332  145.394   74.982
  475.250    3.411    0.456    0.340  145.736   75.121
  475.500    3.386    0.453    0.339  145.866   70.822
  475.750    3.386    0.444    0.330  146.101   69.152
  476.000    3.360    0.441    0.327  146.656   71.042
  476.250    3.317    0.457    0.332  147.095   78.127
  476.500    3.298    0.475    0.331  147.225   75.203
  476.750    3.273    0.474    0.327  147.774   70.591
  477.000    3.261    0.475    0.330  148.114   72.234
  477.250    3.237    0.468    0.334  148.349   78.569
  477.500    3.267    0.453    0.327  148.485   86.842
  477.750    3.436    0.451    0.312  148.615   91.486
  478.000    3.669    0.463    0.288  148.849   89.566
  478.250    4.167    0.483    0.272  149.086   74.379
  478.500    4.760    0.363    0.241  148.905   67.829
  478.750    5.446    0.348    0.192  148.828   62.776
  479.000    5.612    0.345    0.188  148.437   65.857
  479.250    5.549    0.354    0.218  148.358   71.567
  479.500    5.643    0.371    0.252  148.701   74.524
  479.750    6.139    0.455    0.277  149.040   72.850
  480.000    6.843    0.439    0.231  149.695   69.551
  480.250    7.758    0.249    0.112  150.136   70.195
  480.500    8.746    0.272    0.124  151.206   70.210
  480.750   10.331    0.313    0.158  151.652   65.848
  481.000   11.516    0.348    0.070  151.682   54.540
  481.250   11.031    0.211    0.018  151.706   45.298
  481.500   10.026    0.195    0.064  151.317   45.191
  481.750    8.518    0.249    0.103  151.030   58.718
  482.000    7.251    0.284    0.207  150.951   71.308
  482.250    6.372    0.351    0.277  151.084   79.835
  482.500    5.759    0.407    0.293  151.949   83.977
  482.750    5.225    0.472    0.272  152.703   90.061
  483.000    4.958    0.457    0.262  152.628   84.072
  483.250    4.875    0.425    0.262  151.713   80.899
  483.500    4.911    0.413    0.268  151.014   81.291
  483.750    4.866    0.406    0.267  150.413   83.559
  484.000    4.793    0.401    0.251  150.022   87.954
  484.250    4.731    0.399    0.233  150.056   91.161
  484.500    4.686    0.400    0.242  150.076   93.930
  484.750    4.625    0.416    0.239  150.003   96.700
  485.000    4.565    0.449    0.231  149.924   98.278
  485.250    4.497    0.441    0.224  149.951   94.042
  485.500    4.430    0.431    0.224  149.981   94.933
  485.750    4.307    0.426    0.227  150.320   98.076
  486.000    4.164    0.429    0.232  150.451   98.344
  486.250    4.118    0.432    0.228  150.379   96.296
  486.500    4.133    0.432    0.222  150.399   98.752
  486.750    4.133    0.430    0.218  150.427   97.704
  487.000    4.203    0.426    0.208  150.870   95.469
  487.250    4.283    0.420    0.198  152.461   99.428
  487.500    4.396    0.416    0.191  154.577  107.137
  487.750    4.581    0.419    0.183  155.643  110.657
