~VERSION INFORMATION
 VERS.                 2.0:   CWLS LOG ASCII STANDARD -VERSION 2.0
 WRAP.                  NO:   ONE LINE PER DEPTH STEP
~WELL INFORMATION BLOCK
#MNEM.UNIT           DATA                    DESCRIPTION OF MNEMONIC
#---------    -------------------            -------------------------------
# Generated from Intellog Unique Number	CW_70_72/WELL/1043
NULL.         -999.25                        : NULL_VALUE
WELL.         NORCEN WESTBURNE SPUR 10-26    : Well_name    - WELL              
LOC .         10-26-072-02W5                 : Location     - LOCATION          
UWI .         00/10-26-072-02W5/0            : Uwi          - UNIQUE WELL ID    
ENTR.         JAYE                           : Entered      - ENTERED BY        
SRVC.         COMPUTALOG                     : Scn          - SERVICE COMPANY   
DATE.         25 JAN 85                      : Date         - LOG DATE          
STRT.M        385                            : top_depth    - START DEPTH       
STOP.M        618                            : bot_depth    - STOP DEPTH        
STEP.M        0.25                           : increment    - STEP LENGTH       
~CURVE INFORMATION BLOCK
#MNEM UNIT       ERCB CURVE CODE    CURVE DESCRIPTION
#-----------   ------------------   ----------------------------------
DEPT.M        00 001 00 00         : DEPTH        - DEPTH                       
DPHI.V/V      00 890 00 00         : PHID         - DENSITY POROSITY (SANDSTONE)
NPHI.V/V      00 330 00 00         : PHIN         - NEUTRON POROSITY (SANDSTONE)
GR  .API      00 310 00 00         : GR           - GAMMA RAY                   
CALI.MM       00 280 01 00         : CAL          - CALIPER                     
ILD .OHMM     00 120 00 00         : RESD         - DEEP RESISTIVITY (DIL)      
~PARAMETER INFORMATION       
#MNEM.UNIT           DATA             DESCRIPTION OF MNEMONIC
#---------         -----------     ------------------------------
GL  .M        594.25               : gl           - GROUND LEVEL ELEVATION      
EREF.M        598.3                : kb           - ELEVATION OF DEPTH REFERENCE
DATM.M        594.25               : datum        - DATUM ELEVATION             
TDD .M        627                  : tdd          - TOTAL DEPTH DRILLER         
RUN .         ONE                  : Run          - RUN NUMBER                  
ENG .         HUDSON               : Engineer     - RECORDING ENGINEER          
WIT .         MCLEOD               : Witness      - WITNESSED BY                
BASE.         GRANDE PRAIRIE       : Branch       - HOME BASE OF LOGGING UNIT   
MUD .         GEL CHEM             : Mud_type     - MUD TYPE                    
MATR.         SANDSTONE            : Logunit      - NEUTRON MATRIX              
TMAX.C        36                   : BHT          - MAXIMUM RECORDED TEMPERATURE
BHTD.M        623.2                : BHTDEP       - MAXIMUM RECORDED TEMPERATURE
RMT .C        14                   : MDTP         - TEMPERATURE OF MUD          
MUDD.KG/M     1130                 : MWT          - MUD DENSITY                 
NEUT.         1                    : NEUTRON      - NEUTRON TYPE                
RESI.         0                    : RESIST       - RESISTIVITY TYPE            
RM  .OHMM     4                    : RM           - RESISTIVITY OF MUD          
RMC .OHMM     3.4                  : RMC          - RESISTIVITY OF MUD CAKE     
RMF .OHMM     3.5                  : RMF          - RESISTIVITY OF MUD FILTRATE 
SUFT.C        32                   : SUFT         - SURFACE TEMPERATURE         
~A  DEPTH     PHID     PHIN       GR      CAL     RESD
  385.000    0.206    0.465   98.020  209.627    2.395
  385.250    0.227    0.471   99.895  206.333    2.442
  385.500    0.223    0.469  101.957  201.770    2.484
  385.750    0.228    0.458  104.590  196.893    2.498
  386.000    0.222    0.509  106.212  194.124    2.508
  386.250    0.206    0.526  106.192  194.826    2.503
  386.500    0.207    0.519  106.172  197.427    2.498
  386.750    0.212    0.466  102.489  201.387    2.498
  387.000    0.207    0.437  100.700  204.092    2.498
  387.250    0.198    0.446  102.446  205.218    2.498
  387.500    0.189    0.472  104.698  207.184    2.498
  387.750    0.187    0.501  106.635  208.515    2.503
  388.000    0.190    0.529  106.616  209.327    2.503
  388.250    0.199    0.524  103.500  210.660    2.494
  388.500    0.196    0.501  100.447  211.364    2.494
  388.750    0.204    0.479   98.282  208.066    2.484
  389.000    0.214    0.486   97.377  204.032    2.479
  389.250    0.217    0.497  103.167  203.678    2.456
  389.500    0.211    0.496  108.136  203.333    2.447
  389.750    0.201    0.492  108.114  204.140    2.428
  390.000    0.192    0.493  102.853  208.105    2.442
  390.250    0.186    0.490   96.831  211.124    2.494
  390.500    0.186    0.480   94.917  211.933    2.576
  390.750    0.196    0.484   95.781  211.160    2.727
  391.000    0.207    0.493   94.433  208.598    2.921
  391.250    0.209    0.487   90.815  205.091    3.128
  391.500    0.201    0.441   87.065  202.217    3.357
  391.750    0.193    0.422   90.583  200.813    3.300
  392.000    0.197    0.440   95.300  200.778    3.029
  392.250    0.232    0.465   98.943  200.740    2.656
  392.500    0.259    0.476   89.890  200.710    2.513
  392.750    0.270    0.479   79.701  200.678    2.581
  393.000    0.254    0.415   74.311  199.483    2.697
  393.250    0.226    0.400   69.934  199.652    2.910
  393.500    0.217    0.406   68.966  200.462    3.250
  393.750    0.212    0.409   71.282  201.693    3.643
  394.000    0.206    0.402   73.092  203.136    3.977
  394.250    0.200    0.390   76.169  204.786    3.685
  394.500    0.192    0.406   80.696  206.539    3.351
  394.750    0.201    0.424   85.283  208.089    3.064
  395.000    0.205    0.435   86.970  209.629    2.712
  395.250    0.207    0.445   88.844  210.864    2.424
  395.500    0.215    0.460   90.971  212.722    2.196
  395.750    0.235    0.482   95.244  215.636    2.094
  396.000    0.259    0.500   99.015  218.130    2.118
  396.250    0.267    0.437   88.700  215.252    2.303
  396.500    0.247    0.424   77.374  209.640    2.682
  396.750    0.229    0.405   68.764  204.658    3.029
  397.000    0.206    0.402   61.101  199.677    3.307
  397.250    0.207    0.400   66.195  197.010    3.609
  397.500    0.247    0.384   69.586  196.975    3.735
  397.750    0.256    0.373   71.333  195.363    3.778
  398.000    0.251    0.385   70.871  194.381    3.757
  398.250    0.232    0.401   70.027  195.083    3.700
  398.500    0.234    0.416   69.062  197.681    3.644
  398.750    0.239    0.429   66.451  198.593    3.528
  399.000    0.224    0.444   62.956  197.403    3.429
  399.250    0.208    0.439   60.096  196.420    3.295
  399.500    0.253    0.403   56.536  195.859    3.082
  399.750    0.276    0.378   54.181  195.714    2.939
  400.000    0.284    0.377   60.413  195.890    2.911
  400.250    0.271    0.400   66.834  196.594    2.978
  400.500    0.258    0.408   71.614  197.298    3.042
  400.750    0.240    0.408   76.707  198.318    3.148
  401.000    0.226    0.414   83.572  199.236    3.214
  401.250    0.206    0.441   91.068  201.408    3.264
  401.500    0.188    0.464   95.532  204.325    3.257
  401.750    0.180    0.460   94.562  207.447    3.233
  402.000    0.184    0.434   96.818  208.465    3.270
  402.250    0.184    0.417  103.429  206.427    3.384
  402.500    0.194    0.411  107.133  205.025    3.624
  402.750    0.198    0.408  107.808  204.149    3.859
  403.000    0.185    0.400  107.345  202.748    4.047
  403.250    0.175    0.388  106.316  201.136    4.079
  403.500    0.180    0.384  100.926  199.632    4.048
  403.750    0.187    0.396   95.727  198.014    3.949
  404.000    0.186    0.410   99.307  198.617    3.737
  404.250    0.189    0.409  100.548  202.160    3.536
  404.500    0.189    0.397   91.939  204.337    3.352
  404.750    0.193    0.395   91.729  205.882    3.172
  405.000    0.217    0.442   96.509  207.003    3.060
  405.250    0.233    0.454   98.888  208.230    3.002
  405.500    0.228    0.446   99.624  208.411    2.991
  405.750    0.200    0.441  100.111  205.635    3.013
  406.000    0.176    0.451  103.689  204.754    3.095
  406.250    0.166    0.458  107.014  204.518    3.191
  406.500    0.172    0.439  103.204  204.264    3.302
  406.750    0.172    0.426   97.945  204.025    3.443
  407.000    0.177    0.430   90.661  203.359    3.709
  407.250    0.183    0.396   83.691  202.693    3.890
  407.500    0.193    0.388   80.578  201.609    4.134
  407.750    0.200    0.398   77.589  200.734    4.142
  408.000    0.209    0.394   74.410  199.963    4.103
  408.250    0.209    0.374   73.695  200.558    3.838
  408.500    0.198    0.357   81.380  202.839    3.523
  408.750    0.183    0.369   89.821  204.702    3.149
  409.000    0.183    0.448   98.329  207.089    2.863
  409.250    0.190    0.475  111.572  209.474    2.751
  409.500    0.180    0.467   98.982  210.600    2.809
  409.750    0.150    0.427   89.046  209.513    3.037
  410.000    0.129    0.393   94.456  205.479    3.315
  410.250    0.154    0.369   96.078  201.868    3.681
  410.500    0.154    0.356   87.595  199.722    3.995
  410.750    0.165    0.347   75.196  198.849    3.774
  411.000    0.234    0.333   63.490  198.183    3.444
  411.250    0.256    0.323   55.575  197.307    3.043
  411.500    0.270    0.320   47.470  196.748    2.694
  411.750    0.270    0.318   45.176  197.348    2.496
  412.000    0.271    0.315   45.788  195.417    2.394
  412.250    0.277    0.321   47.914  193.380    2.340
  412.500    0.287    0.330   50.736  191.239    2.322
  412.750    0.292    0.342   50.399  190.470    2.318
  413.000    0.294    0.344   48.484  190.438    2.318
  413.250    0.294    0.350   47.833  191.871    2.327
  413.500    0.291    0.355   49.265  193.211    2.358
  413.750    0.285    0.359   52.211  194.438    2.385
  414.000    0.278    0.354   57.434  195.878    2.450
  414.250    0.271    0.359   59.622  197.739    2.559
  414.500    0.263    0.365   63.015  198.654    2.694
  414.750    0.252    0.358   69.752  196.938    2.853
  415.000    0.226    0.359   76.742  195.745    3.026
  415.250    0.206    0.356   82.911  195.389    3.150
  415.500    0.212    0.346   86.553  195.571    3.303
  415.750    0.213    0.373   86.155  196.484    3.399
  416.000    0.206    0.381   88.658  198.239    3.551
  416.250    0.203    0.387   94.448  199.992    3.682
  416.500    0.204    0.399  102.198  201.748    3.891
  416.750    0.207    0.413  107.798  203.393    4.066
  417.000    0.201    0.410  104.242  204.523    4.248
  417.250    0.181    0.401  108.262  205.438    4.027
  417.500    0.168    0.416  112.158  206.454    3.498
  417.750    0.191    0.468  114.033  207.476    2.821
  418.000    0.216    0.503  114.392  209.335    2.436
  418.250    0.259    0.495  114.812  212.878    2.232
  418.500    0.256    0.476  117.507  216.635    2.049
  418.750    0.250    0.504  120.709  219.863    2.108
  419.000    0.252    0.511  117.971  221.934    2.288
  419.250    0.245    0.447  110.120  220.848    2.536
  419.500    0.227    0.433  105.174  209.447    2.752
  419.750    0.212    0.437  104.080  204.886    3.010
  420.000    0.211    0.427   99.574  203.377    3.285
  420.250    0.220    0.412   89.322  201.027    3.465
  420.500    0.220    0.389   81.784  197.619    3.669
  420.750    0.199    0.372   75.008  195.381    3.775
  421.000    0.174    0.394   77.388  193.451    3.790
  421.250    0.197    0.428   78.060  192.361    3.552
