~VERSION INFORMATION
 VERS.                 2.0:   CWLS LOG ASCII STANDARD -VERSION 2.0
 WRAP.                  NO:   ONE LINE PER DEPTH STEP
~WELL INFORMATION BLOCK
#MNEM.UNIT           DATA                    DESCRIPTION OF MNEMONIC
#---------    -------------------            -------------------------------
# Generated from Intellog Unique Number	CW_70_72/WELL/1063
NULL.         -999.25                        : NULL_VALUE
WELL.         JOFFRE ET AL CALLW 11-35       : Well_name    - WELL              
LOC .         11-35-072-20W4                 : Location     - LOCATION          
UWI .         00/11-35-072-20W4/0            : Uwi          - UNIQUE WELL ID    
ENTR.         JAYE                           : Entered      - ENTERED BY        
SRVC.         SCHLUMBERGER                   : Scn          - SERVICE COMPANY   
DATE.         5 JAN 79                       : Date         - LOG DATE          
STRT.M        355                            : top_depth    - START DEPTH       
STOP.M        565                            : bot_depth    - STOP DEPTH        
STEP.M        0.25                           : increment    - STEP LENGTH       
~CURVE INFORMATION BLOCK
#MNEM UNIT       ERCB CURVE CODE    CURVE DESCRIPTION
#-----------   ------------------   ----------------------------------
DEPT.M        00 001 00 00         : DEPTH        - DEPTH                       
DPHI.V/V      00 890 00 00         : PHID         - DENSITY POROSITY (SANDSTONE)
NPHI.V/V      00 330 00 00         : PHIN         - NEUTRON POROSITY (SANDSTONE)
GR  .API      00 310 00 00         : GR           - GAMMA RAY                   
CALI.MM       00 280 01 00         : CAL          - CALIPER                     
ILD .OHMM     00 120 00 00         : RESD         - DEEP RESISTIVITY (DIL)      
~PARAMETER INFORMATION       
#MNEM.UNIT           DATA             DESCRIPTION OF MNEMONIC
#---------         -----------     ------------------------------
GL  .M        643.2                : gl           - GROUND LEVEL ELEVATION      
EREF.M        646.5                : kb           - ELEVATION OF DEPTH REFERENCE
DATM.M        643.2                : datum        - DATUM ELEVATION             
TDD .M        605                  : tdd          - TOTAL DEPTH DRILLER         
RUN .         ONE                  : Run          - RUN NUMBER                  
WIT .         O'REILY              : Witness      - WITNESSED BY                
BASE.         LLOYD                : Branch       - HOME BASE OF LOGGING UNIT   
MUD .         GEL CHEM             : Mud_type     - MUD TYPE                    
MATR.         SANDSTONE            : Logunit      - NEUTRON MATRIX              
TMAX.C        0                    : BHT          - MAXIMUM RECORDED TEMPERATURE
BHTD.M        604.5                : BHTDEP       - MAXIMUM RECORDED TEMPERATURE
RMT .C        10                   : MDTP         - TEMPERATURE OF MUD          
MUDD.KG/M     1102                 : MWT          - MUD DENSITY                 
NEUT.         1                    : NEUTRON      - NEUTRON TYPE                
RESI.         0                    : RESIST       - RESISTIVITY TYPE            
RM  .OHMM     5.21                 : RM           - RESISTIVITY OF MUD          
RMC .OHMM     0                    : RMC          - RESISTIVITY OF MUD CAKE     
RMF .OHMM     3.6                  : RMF          - RESISTIVITY OF MUD FILTRATE 
SUFT.C        0                    : SUFT         - SURFACE TEMPERATURE         
~A  DEPTH     PHID     PHIN       GR      CAL     RESD
# ...
  428.000    0.352    0.428  110.448  162.082    5.483
  428.250    0.350    0.428  113.787  162.813    5.511
  428.500    0.347    0.421  116.445  163.751    5.518
  428.750    0.341    0.418  117.069  164.789    5.517
  429.000    0.335    0.429  114.116  166.240    5.504
  429.250    0.326    0.433  113.691  168.513    5.514
  429.500    0.321    0.433  117.708  167.189    5.518
  429.750    0.307    0.430  122.525  165.146    5.590
  430.000    0.285    0.412  114.207  163.203    5.637
  430.250    0.229    0.244  109.094  161.674    5.718
  430.500    0.192    0.185  101.391  161.582    5.760
  430.750   -0.015    0.142   96.094  165.604    5.768
  431.000   -0.020    0.137   95.731  171.988    5.775
  431.250   -0.022    0.139   96.850  173.748    5.795
  431.500   -0.017    0.143   98.336  173.760    5.846
  431.750   -0.004    0.152   99.823  173.773    5.929
  432.000    0.019    0.170  101.558  174.606    6.059
  432.250    0.083    0.193  103.292  175.237    6.158
  432.500    0.110    0.232  106.568  174.837    6.224
  432.750    0.137    0.279  109.473  173.101    6.373
  433.000    0.253    0.417  112.565  170.541    6.858
  433.250    0.314    0.456  115.224  167.469    7.632
  433.500    0.317    0.468  115.663  164.603    8.909
  433.750    0.303    0.458  113.018  162.764   11.178
  434.000    0.298    0.454  112.039  161.748   14.798
  434.250    0.323    0.449  112.601  160.938   20.553
  434.500    0.321    0.432  114.273  160.643   24.898
  434.750    0.327    0.435  116.131  160.550   28.534
  435.000    0.322    0.453  117.556  160.462   30.037
  435.250    0.316    0.463  119.290  160.266   25.851
  435.500    0.312    0.464  120.777  160.175   20.394
  435.750    0.318    0.474  122.943  160.906   15.651
  436.000    0.319    0.469  120.730  162.563   11.616
  436.250    0.317    0.457  120.491  165.452    8.419
  436.500    0.318    0.457  124.075  167.110    6.994
  436.750    0.323    0.439  128.029  163.112    6.234
  437.000    0.321    0.431  130.504  161.891    6.017
  437.250    0.305    0.438  133.780  161.595    5.915
  437.500    0.263    0.447  134.835  161.915    5.879
  437.750    0.219    0.460  130.526  161.826    5.844
  438.000    0.187    0.436  125.660  162.351    5.854
  438.250    0.080    0.338  120.732  165.241    5.895
  438.500    0.097    0.324  122.158  168.952    5.925
  438.750    0.178    0.413  134.501  172.356    5.955
  439.000    0.216    0.438  140.121  169.592    5.984
  439.250    0.233    0.449  142.163  173.305    6.027
  439.500    0.237    0.454  145.501  166.738    6.138
  439.750    0.235    0.452  149.147  167.777    6.201
  440.000    0.237    0.444  151.066  171.696    6.291
  440.250    0.233    0.431  154.404  171.091    6.452
  440.500    0.218    0.425  153.116  170.177    6.818
  440.750    0.226    0.444  149.546  169.266    7.337
  441.000    0.219    0.458  147.887  168.557    7.926
  441.250    0.227    0.443  148.388  166.102    8.595
  441.500    0.232    0.436  154.439  166.936    9.250
  441.750    0.230    0.450  151.549  169.415    9.737
  442.000    0.225    0.452  147.731  173.127    9.768
  442.250    0.211    0.434  144.901  175.709    9.034
  442.500    0.198    0.416  147.006  173.871    8.158
  442.750    0.205    0.420  148.370  171.931    7.615
  443.000    0.210    0.435  149.240  171.532    7.254
  443.250    0.216    0.448  150.665  171.953    6.975
  443.500    0.208    0.459  151.844  173.199    6.745
  443.750    0.186    0.451  152.098  174.754    6.655
  444.000    0.197    0.433  151.797  176.513    6.651
  444.250    0.204    0.436  152.297  178.272    6.760
  444.500    0.209    0.450  156.375  178.797    6.921
  444.750    0.221    0.465  157.123  174.491    7.126
  445.000    0.225    0.472  149.913  172.550    7.322
  445.250    0.209    0.464  149.427  173.796    7.526
  445.500    0.219    0.466  152.087  175.658    7.622
  445.750    0.235    0.484  155.917  180.193    7.631
  446.000    0.238    0.503  155.431  183.495    7.599
  446.250    0.231    0.490  150.628  183.814    7.582
  446.500    0.234    0.446  147.119  175.499    7.565
  446.750    0.237    0.429  144.350  171.091    7.505
  447.000    0.243    0.442  140.348  173.056    7.419
  447.250    0.254    0.465  136.717  172.657    7.227
  447.500    0.279    0.468  133.270  170.613    6.808
  447.750    0.296    0.448  128.959  169.187    6.262
  448.000    0.264    0.407  122.860  168.994    5.760
  448.250    0.166    0.350  117.871  169.929    5.288
  448.500    0.170    0.321  118.125  171.690    4.927
  448.750    0.214    0.372  125.102  172.113    4.676
  449.000    0.269    0.403  131.339  171.301    4.581
  449.250    0.264    0.438  133.011  167.200    4.629
  449.500    0.266    0.456  135.239  164.026    4.757
  449.750    0.266    0.460  135.925  162.805    5.007
  450.000    0.253    0.454  134.452  162.613    5.370
  450.250    0.264    0.441  133.656  163.239    5.768
  450.500    0.266    0.451  135.884  164.077    6.243
  450.750    0.238    0.452  140.085  164.601    6.731
  451.000    0.235    0.451  142.992  165.742    6.893
  451.250    0.235    0.444  142.875  166.987    6.889
  451.500    0.236    0.435  145.843  167.617    6.990
  451.750    0.229    0.450  144.431  167.731    6.998
  452.000    0.224    0.462  144.130  167.126    6.729
  452.250    0.223    0.446  147.899  171.352    6.387
  452.500    0.225    0.443  148.030  174.756    6.073
  452.750    0.239    0.453  145.508  175.899    6.003
  453.000    0.254    0.437  141.198  176.221    6.011
  453.250    0.274    0.446  136.456  169.549    6.042
  453.500    0.293    0.451  132.269  161.441    6.074
  453.750    0.295    0.464  130.487  158.267    6.116
  454.000    0.290    0.459  134.997  158.587    6.103
  454.250    0.293    0.442  137.656  160.346    6.055
  454.500    0.298    0.453  134.888  161.592    5.909
  454.750    0.292    0.440  130.516  162.630    5.777
  455.000    0.181    0.402  124.787  165.726    5.647
  455.250    0.121    0.350  120.600  169.337    5.540
  455.500    0.120    0.324  116.906  172.021    5.449
  455.750    0.158    0.317  115.803  174.809    5.404
  456.000    0.221    0.329  120.559  175.642    5.352
  456.250    0.262    0.353  128.338  171.234    5.290
  456.500    0.302    0.395  135.006  164.255    5.270
  456.750    0.299    0.452  131.930  164.989    5.295
  457.000    0.304    0.450  128.483  166.747    5.472
  457.250    0.299    0.436  129.477  168.302    5.634
  457.500    0.300    0.439  133.493  168.313    6.374
  457.750    0.313    0.456  136.399  167.604    7.468
  458.000    0.281    0.452  135.604  165.972    8.143
  458.250    0.244    0.407  131.170  163.105    8.170
  458.500    0.007    0.171  129.820  169.902    7.884
  458.750    0.002    0.163  133.467  173.204    7.211
  459.000   -0.011    0.161  126.566  173.937    6.452
  459.250   -0.009    0.157  113.929  173.946    5.729
  459.500    0.017    0.148  108.509  173.958    5.221
  459.750    0.020    0.138  103.334  174.280    5.048
  460.000    0.017    0.126  100.196  174.600    5.036
  460.250    0.033    0.134  101.437  174.507    5.177
  460.500    0.049    0.152  105.206  175.033    5.458
  460.750    0.069    0.164  108.729  175.354    6.006
  461.000    0.083    0.180  109.785  175.468    6.683
  461.250    0.107    0.213  109.361  175.480    7.532
  461.500    0.153    0.267  112.883  175.390    9.075
  461.750    0.210    0.325  116.652  168.823   11.261
  462.000    0.252    0.377  121.409  163.797   13.074
  462.250    0.314    0.426  127.275  162.884   14.627
  462.500    0.324    0.440  128.825  162.279   15.712
  462.750    0.314    0.441  127.474  161.882   16.541
  463.000    0.317    0.440  127.914  161.583   17.675
  463.250    0.328    0.454  128.908  161.288   18.670
  463.500    0.308    0.462  130.148  161.608   20.168
  463.750    0.320    0.451  131.636  161.619   19.754
  464.000    0.331    0.438  133.679  161.940   18.169
  464.250    0.320    0.430  135.844  161.953   15.581
