~VERSION INFORMATION
 VERS.                 2.0:   CWLS LOG ASCII STANDARD -VERSION 2.0
 WRAP.                  NO:   ONE LINE PER DEPTH STEP
~WELL INFORMATION BLOCK
#MNEM.UNIT           DATA                    DESCRIPTION OF MNEMONIC
#---------    -------------------            -------------------------------
# Generated from Intellog Unique Number	CS_67_68/WELL/2217
WELL.         15-01-067-06W4                 : Well_name    - WELL
LOC .         00/15-01-067-06W4/0            : Location     - LOCATION
UWI .         00/15-01-067-06W4/0            : Uwi          - UNIQUE WELL ID
ENTR.         SP                             : Entered      - ENTERED BY
SRVC.         SCHLUMBERGER                   : Scn          - SERVICE COMPANY
STRT.M        315                            : top_depth    - START DEPTH
STOP.M        535                            : bot_depth    - STOP DEPTH
STEP.M        0.25                           : increment    - STEP LENGTH
 NULL. -999.2500:NULL Value
~CURVE INFORMATION BLOCK
#MNEM UNIT       ERCB CURVE CODE    CURVE DESCRIPTION
#-----------   ------------------   ----------------------------------
DEPT.M        00 001 00 00         : DEPTH        - DEPTH
ILD .OHMM     00 120 00 00         : RESD         - DEEP RESISTIVITY (DIL)
DPHI.V/V      00 890 00 00         : PHID         - DENSITY POROSITY (LIMESTONE)
NPHI.V/V      00 330 00 00         : PHIN         - NEUTRON POROSITY (LIMESTONE)
GR  .API      00 310 00 00         : GR           - GAMMA RAY
CALI.MM       00 280 01 00         : CAL          - CALIPER
~PARAMETER INFORMATION
#MNEM.UNIT           DATA             DESCRIPTION OF MNEMONIC
#---------         -----------     ------------------------------
GL  .M        647.05               : gl           - GROUND LEVEL ELEVATION
EREF.M        650.03               : kb           - ELEVATION OF DEPTH REFERENCE
DATM.M        650.03               : datum        - DATUM ELEVATION
TDD .M        542                  : tdd          - TOTAL DEPTH DRILLER
RUN .         ONE                  : Run          - RUN NUMBER
ENG .         BILL                 : Engineer     - RECORDING ENGINEER
WIT .         JIM                  : Witness      - WITNESSED BY
MUD .         GEL                  : Mud_type     - MUD TYPE
MATR.         LIMESTONE            : Logunit      - NEUTRON MATRIX
TMAX.C        18.8                 : BHT          - MAXIMUM RECORDED TEMPERATURE
BHTD.M        544                  : BHTDEP       - MAXIMUM RECORDED TEMPERATURE
MATR.         1                    : LOGUNIT      - NEUTRON MATRIX
RMT .C        25                   : MDTP         - TEMPERATURE OF MUD
NEUT.         1                    : NEUTRON      - NEUTRON TYPE
RESI.         0                    : RESIST       - RESISTIVITY TYPE
RMC .OHMM     0.25                 : RMC          - RESISTIVITY OF MUD CAKE
RMF .OHMM     0.25                 : RMF          - RESISTIVITY OF MUD FILTRATE
SUFT.C        15                   : SUFT         - SURFACE TEMPERATURE
~A  DEPTH     RESD     PHID     PHIN       GR      CAL
# ...
  497.500   12.819    0.318    0.420   52.140  158.307
  497.750   12.070    0.331    0.379   53.902  158.400
  498.000   11.153    0.355    0.451   56.882  158.495
  498.250   10.153    0.362    0.483   57.669  158.691
  498.500    9.294    0.353    0.467   56.142  158.887
  498.750    8.605    0.345    0.444   56.441  159.082
  499.000    8.271    0.345    0.466   58.447  159.175
  499.250    7.803    0.355    0.498   60.452  159.372
  499.500    7.319    0.353    0.537   61.543  159.668
  499.750    6.918    0.343    0.484   61.905  159.863
  500.000    6.551    0.330    0.452   64.275  159.755
  500.250    6.562    0.318    0.450   66.098  159.037
  500.500    6.636    0.325    0.454   65.241  158.521
  500.750    6.773    0.340    0.467   62.618  158.412
  501.000    6.953    0.350    0.485   61.334  158.710
  501.250    7.098    0.354    0.496   63.279  158.804
  501.500    6.670    0.342    0.476   67.172  158.695
  501.750    6.210    0.321    0.467   67.411  158.180
  502.000    5.837    0.308    0.469   65.579  157.563
  502.250    5.313    0.326    0.464   65.453  156.744
  502.500    4.864    0.338    0.457   66.484  155.417
  502.750    4.503    0.332    0.454   68.672  154.800
  503.000    4.138    0.312    0.468   70.737  153.981
  503.250    4.030    0.276    0.479   71.403  153.973
  503.500    4.029    0.233    0.428   70.181  154.270
  503.750    4.082    0.219    0.402   73.038  155.075
  504.000    4.144    0.234    0.388   76.688  156.081
  504.250    4.222    0.230    0.375   80.398  156.582
  504.500    4.293    0.218    0.381   83.135  157.488
  504.750    4.301    0.208    0.390   85.201  157.989
  505.000    4.260    0.202    0.401   87.693  158.387
  505.250    4.268    0.194    0.408   89.942  158.684
  505.500    4.275    0.189    0.407   91.339  159.488
  505.750    4.389    0.186    0.406   92.978  160.393
  506.000    4.488    0.183    0.404   93.400  161.299
  506.250    4.513    0.187    0.416   92.299  162.206
  506.500    4.487    0.197    0.424   90.772  162.504
  506.750    4.241    0.210    0.425   87.540  162.497
  507.000    4.054    0.242    0.426   84.308  161.169
  507.250    3.970    0.259    0.431   81.746  158.016
  507.500    4.045    0.275    0.430   85.334  156.282
  507.750    4.279    0.265    0.422   88.436  155.564
  508.000    4.335    0.247    0.415   92.755  154.845
  508.250    4.006    0.239    0.407   89.705  154.839
  508.500    3.626    0.246    0.399   83.185  154.933
  508.750    3.203    0.268    0.393   70.757  155.027
  509.000    2.809    0.290    0.399   63.566  155.020
  509.250    2.600    0.314    0.407   58.749  154.909
  509.500    2.571    0.321    0.410   57.040  154.801
  509.750    2.639    0.326    0.406   56.122  154.590
  510.000    2.807    0.327    0.406   57.153  154.482
  510.250    3.003    0.323    0.409   61.532  154.373
  510.500    3.225    0.308    0.403   65.427  154.060
  510.750    3.450    0.296    0.391   70.111  153.851
  511.000    3.747    0.284    0.385   76.745  153.639
  511.250    4.131    0.276    0.394   85.632  153.733
  511.500    4.453    0.276    0.403   90.256  153.930
  511.750    4.790    0.274    0.407   92.749  154.226
  512.000    5.020    0.251    0.413   94.449  154.422
  512.250    5.134    0.233    0.418   94.201  154.719
  512.500    5.047    0.219    0.400   88.107  154.813
  512.750    4.770    0.207    0.375   77.018  154.297
  513.000    4.416    0.216    0.364   69.158  153.275
  513.250    4.182    0.235    0.363   64.220  152.862
  513.500    3.975    0.255    0.369   60.014  153.361
  513.750    3.857    0.272    0.381   60.192  153.963
  514.000    3.828    0.276    0.389   65.911  154.361
  514.250    3.878    0.241    0.392   68.648  154.354
  514.500    3.973    0.226    0.402   71.141  154.144
  514.750    4.132    0.237    0.395   76.313  154.340
  515.000    4.322    0.236    0.377   79.353  154.231
  515.250    4.504    0.225    0.385   77.582  153.614
  515.500    4.641    0.216    0.393   80.197  153.505
  515.750    4.809    0.216    0.398   86.708  153.599
  516.000    5.011    0.206    0.379   92.794  154.200
  516.250    5.002    0.193    0.350   97.966  154.701
  516.500    4.908    0.181    0.335   96.865  155.708
  516.750    4.780    0.213    0.365   84.254  156.513
  517.000    4.621    0.243    0.378   77.612  156.403
  517.250    4.761    0.252    0.376   79.130  155.686
  517.500    4.999    0.240    0.374   90.575  155.171
  517.750    5.219    0.200    0.340   96.965  155.671
  518.000    5.398    0.174    0.356  102.807  156.374
  518.250    5.572    0.162    0.371  107.309  157.077
  518.500    5.763    0.160    0.379  109.375  157.882
  518.750    5.817    0.155    0.385  105.230  158.280
  519.000    5.697    0.158    0.378   86.650  157.461
  519.250    5.033    0.182    0.370   74.283  156.437
  519.500    4.651    0.201    0.359   61.489  155.923
  519.750    4.116    0.227    0.338   55.334  155.611
  520.000    3.684    0.254    0.346   53.624  155.908
  520.250    3.236    0.280    0.366   66.835  156.002
  520.500    3.423    0.284    0.383   82.055  156.197
  520.750    3.795    0.260    0.373   90.638  156.494
  521.000    4.460    0.220    0.363   97.089  157.299
  521.250    5.010    0.198    0.384  102.992  158.712
  521.500    5.370    0.180    0.398  107.494  159.923
  521.750    5.309    0.166    0.404  110.779  160.626
  522.000    5.239    0.154    0.400  108.581  160.211
  522.250    5.170    0.147    0.413  107.358  159.292
  522.500    5.112    0.152    0.426  106.502  158.370
  522.750    5.092    0.162    0.439  105.767  157.855
  523.000    5.120    0.169    0.456  104.727  157.644
  523.250    5.168    0.169    0.449  102.895  157.231
  523.500    5.265    0.166    0.435  100.516  156.919
  523.750    5.415    0.165    0.420  102.886  156.709
  524.000    5.507    0.169    0.414  103.613  156.701
  524.250    5.558    0.169    0.409  103.060  156.592
  524.500    5.578    0.166    0.405  102.690  156.381
  524.750    5.588    0.167    0.396  103.234  156.069
  525.000    5.588    0.171    0.390  103.107  155.860
  525.250    5.598    0.174    0.389  102.189  155.954
  525.500    5.597    0.176    0.392  101.637  156.048
  525.750    5.586    0.178    0.396  103.094  156.040
  526.000    5.575    0.183    0.400  101.323  155.728
  526.250    5.553    0.191    0.402   98.335  155.923
  526.500    5.522    0.194    0.399   98.148  155.914
  526.750    5.500    0.175    0.395  101.005  156.111
  527.000    5.479    0.164    0.390  104.593  156.002
  527.250    5.448    0.157    0.413  106.417  156.097
  527.500    5.406    0.160    0.418  108.056  155.683
  527.750    5.355    0.167    0.424  106.712  155.676
  528.000    5.315    0.185    0.429  100.496  155.465
  528.250    5.245    0.200    0.420   94.218  154.950
  528.500    5.205    0.205    0.394   95.249  154.638
  528.750    5.156    0.176    0.380   97.376  154.123
  529.000    5.117    0.171    0.391  101.452  153.507
  529.250    5.049    0.181    0.405  106.990  152.890
  529.500    4.983    0.186    0.416  110.944  152.376
  529.750    4.982    0.194    0.416  111.731  152.063
  530.000    4.982    0.197    0.401  111.238  151.650
  530.250    5.009    0.199    0.388  110.199  151.540
  530.500    5.047    0.196    0.396  108.063  151.736
  530.750    5.113    0.185    0.401  105.866  152.135
  531.000    5.239    0.175    0.382   87.896  152.534
  531.250    5.625    0.078    0.384   75.285  152.932
  531.500    6.178    0.058    0.360   67.059  153.432
  531.750    7.059    0.043    0.302   61.878  154.033
  532.000    8.156    0.038    0.282   55.601  154.634
  532.250    9.656    0.041    0.259   55.413  155.338
  532.500   11.433    0.044    0.260   56.932  155.838
  532.750   12.370    0.046    0.262   62.286  155.932
  533.000   13.060    0.050    0.265   64.535  155.416
  533.250   13.508    0.052    0.272   65.810  154.598
  533.500   14.182    0.048    0.287   66.475  153.778
  533.750   15.316    0.037    0.297   66.774  152.958
