~VERSION INFORMATION
 VERS.                 2.0:   CWLS LOG ASCII STANDARD -VERSION 2.0
 WRAP.                  NO:   ONE LINE PER DEPTH STEP
~WELL INFORMATION BLOCK
#MNEM.UNIT           DATA                    DESCRIPTION OF MNEMONIC
#---------    -------------------            -------------------------------
# Generated from Intellog Unique Number	CW_70_72/WELL/1047
NULL.         -999.25                        : NULL_VALUE
WELL.         SUNDANCE ET AL TOMATO 10-33    : Well_name    - WELL              
LOC .         10-33-072-23W4                 : Location     - LOCATION          
UWI .         00/10-33-072-23W4/0            : Uwi          - UNIQUE WELL ID    
ENTR.         JAYE                           : Entered      - ENTERED BY        
SRVC.         SCHLUMBERGER                   : Scn          - SERVICE COMPANY   
DATE.         11 JAN 74                      : Date         - LOG DATE          
STRT.M        414.528                        : top_depth    - START DEPTH       
STOP.M        637.028                        : bot_depth    - STOP DEPTH        
STEP.M        0.25                           : increment    - STEP LENGTH       
~CURVE INFORMATION BLOCK
#MNEM UNIT       ERCB CURVE CODE    CURVE DESCRIPTION
#-----------   ------------------   ----------------------------------
DEPT.M        00 001 00 00         : DEPTH        - DEPTH                       
DPHI.V/V      00 890 00 00         : PHID         - DENSITY POROSITY (SANDSTONE)
NPHI.V/V      00 330 00 00         : PHIN         - NEUTRON POROSITY (SANDSTONE)
GR  .API      00 310 00 00         : GR           - GAMMA RAY                   
CALI.MM       00 280 01 00         : CAL          - CALIPER                     
ILD .OHMM     00 120 00 00         : RESD         - DEEP RESISTIVITY (DIL)      
~PARAMETER INFORMATION       
#MNEM.UNIT           DATA             DESCRIPTION OF MNEMONIC
#---------         -----------     ------------------------------
GL  .M        670.103              : gl           - GROUND LEVEL ELEVATION      
EREF.M        673.151              : kb           - ELEVATION OF DEPTH REFERENCE
DATM.M        670.103              : datum        - DATUM ELEVATION             
TDD .M        647.09               : tdd          - TOTAL DEPTH DRILLER         
RUN .         ONE                  : Run          - RUN NUMBER                  
MATR.         SANDSTONE            : Logunit      - NEUTRON MATRIX              
TMAX.C        41.6667              : BHT          - MAXIMUM RECORDED TEMPERATURE
BHTD.M        646.176              : BHTDEP       - MAXIMUM RECORDED TEMPERATURE
RMT .C        14.4444              : MDTP         - TEMPERATURE OF MUD          
MUDD.KG/M     0                    : MWT          - MUD DENSITY                 
NEUT.         1                    : NEUTRON      - NEUTRON TYPE                
RESI.         0                    : RESIST       - RESISTIVITY TYPE            
RM  .OHMM     3.72                 : RM           - RESISTIVITY OF MUD          
RMC .OHMM     0                    : RMC          - RESISTIVITY OF MUD CAKE     
RMF .OHMM     2.21                 : RMF          - RESISTIVITY OF MUD FILTRATE 
SUFT.C        0                    : SUFT         - SURFACE TEMPERATURE         
~A  DEPTH     PHID     PHIN       GR      CAL     RESD
# ...
  560.528    0.161    0.425   94.095  163.442    7.362
  560.778    0.171    0.431   97.609  166.586    6.994
  561.028    0.166    0.420   97.991  168.061    6.969
  561.278    0.154    0.435   96.039  166.632    7.139
  561.528    0.157    0.425   94.273  165.404    7.367
  561.778    0.149    0.400   92.751  163.348    7.673
  562.028    0.130    0.369   90.739  162.229    8.095
  562.278    0.080    0.296   86.514  161.316    8.587
  562.528    0.060    0.286   74.002  160.401    9.330
  562.778    0.080    0.326   80.587  159.699    9.916
  563.028    0.140    0.392   94.108  158.991   10.558
  563.278    0.155    0.420  101.428  157.871    9.774
  563.528    0.160    0.458  103.101  159.662    8.867
  563.778    0.151    0.455  102.560  161.451    8.148
  564.028    0.138    0.445  101.592  163.865    7.641
  564.278    0.113    0.437  105.044  164.719    7.476
  564.528    0.108    0.445  105.794  157.985    7.354
  564.778    0.138    0.439  102.982  158.943    7.288
  565.028    0.152    0.449  102.013  161.671    7.262
  565.278    0.149    0.449  105.465  163.255    7.223
  565.528    0.155    0.417   98.050  164.218    7.198
  565.778    0.156    0.393   96.283  164.031    7.199
  566.028    0.155    0.407   97.954  163.326    7.213
  566.278    0.146    0.432   97.047  162.825    7.254
  566.528    0.164    0.458   93.560  162.430    7.309
  566.778    0.151    0.445   94.310  162.141    7.351
  567.028    0.154    0.421   96.841  161.229    7.420
  567.278    0.145    0.431   93.294  160.732    7.503
  567.528    0.143    0.445   88.642  159.924    7.574
  567.778    0.138    0.441   86.689  159.010    7.645
  568.028    0.149    0.428   89.528  157.683    7.703
  568.278    0.175    0.416   87.208  157.184    7.732
  568.528    0.155    0.413   85.993  156.481    7.748
  568.778    0.134    0.435   85.823  155.776    7.778
  569.028    0.132    0.445   86.635  156.420    7.793
  569.278    0.142    0.412   87.875  159.771    7.809
  569.528    0.148    0.407   90.161  161.457    7.796
  569.778    0.146    0.410   92.999  162.732    7.840
  570.028    0.141    0.396   95.161  163.479    7.856
  570.278    0.130    0.418   92.657  164.232    7.871
  570.528    0.145    0.474   92.978  165.086    7.887
  570.778    0.168    0.466   95.448  165.318    7.903
  571.028    0.158    0.441   98.471  165.129    7.890
  571.278    0.137    0.430   98.544  164.845    7.891
  571.528    0.140    0.443   96.470  164.759    7.863
  571.778    0.139    0.453   96.546  164.887    7.864
  572.028    0.133    0.438   98.524  164.911    7.851
  572.278    0.120    0.448   99.090  165.035    7.838
  572.528    0.134    0.436   98.305  163.915    7.825
  572.778    0.150    0.423   96.415  160.300    7.783
  573.028    0.165    0.417   93.790  155.332    7.727
  573.278    0.173    0.408   90.978  155.666    7.728
  573.528    0.152    0.394   86.387  154.860    8.168
  573.778    0.123    0.380   81.549  155.504    9.225
  574.028    0.101    0.355   77.141  159.477   10.060
  574.278    0.073    0.348   72.796  163.244   11.195
  574.528    0.085    0.339   71.152  163.996   12.643
  574.778    0.031    0.300   70.858  163.808   13.992
  575.028    0.050    0.313   77.686  163.834   12.212
  575.278    0.125    0.386   93.173  163.855   10.639
  575.528    0.137    0.402   97.424  163.878    9.546
  575.778    0.133    0.405   99.832  163.901    8.424
  576.028    0.150    0.405  102.731  164.237    7.339
  576.278    0.138    0.406  105.139  164.673    6.972
  576.528    0.126    0.410  104.661  164.179    6.871
  576.778    0.116    0.410  107.069  162.329    6.897
  577.028    0.130    0.418  108.065  162.767    6.975
  577.278    0.132    0.428  106.298  163.937    7.158
  577.528    0.138    0.443  103.856  164.377    7.279
  577.778    0.124    0.451  106.634  164.811    7.456
  578.028    0.108    0.454  109.716  164.733    7.568
  578.278    0.145    0.396  112.246  164.443    7.752
  578.528    0.140    0.369  113.796  164.360    8.030
  578.778    0.129    0.360  107.178  163.864    8.317
  579.028    0.122    0.370  101.051  162.744    8.758
  579.278    0.115    0.384   94.149  162.232    9.274
  579.528    0.116    0.342   90.704  159.409   11.949
  579.778    0.132    0.375   89.590  157.107   12.205
  580.028    0.145    0.387   91.116  156.056   11.624
  580.278    0.166    0.419   94.422  155.522   10.308
  580.528    0.169    0.413   97.482  155.923    9.447
  580.778    0.180    0.387   99.622  156.949    8.642
  581.028    0.146    0.400   92.126  158.803    9.158
  581.278    0.092    0.397   81.008  160.659   11.326
  581.528    0.069    0.323   72.714  162.929   13.374
  581.778    0.044    0.201   63.928  164.164   16.601
  582.028    0.020    0.210   56.862  164.878   20.379
  582.278    0.012    0.239   60.229  165.278   24.649
  582.528    0.029    0.304   66.235  165.369   27.856
  582.778    0.042    0.362   75.617  165.353   18.612
  583.028    0.103    0.368   82.360  165.337   14.063
  583.278    0.102    0.348   84.806  165.012   11.356
  583.528    0.098    0.361   86.210  163.753   10.067
  583.778    0.109    0.368   89.761  162.489    9.041
  584.028    0.123    0.367   93.251  162.475    8.708
  584.278    0.123    0.377   94.408  162.982    8.437
  584.528    0.139    0.390   94.707  163.797    8.365
  584.778    0.125    0.388   94.514  164.303    8.374
  585.028    0.111    0.388   93.647  164.913    8.429
  585.278    0.118    0.409   97.566  165.212    8.499
  585.528    0.125    0.406   99.890  165.299    8.522
  585.778    0.130    0.376  100.372  165.181    8.408
  586.028    0.145    0.380  101.468  164.855    8.401
  586.278    0.146    0.398  103.670  165.153    8.425
  586.528    0.125    0.378  102.372  165.241    8.543
  586.778    0.100    0.389   98.497  165.124    8.758
  587.028    0.088    0.396   94.007  164.797    9.078
  587.278    0.097    0.387   91.298  164.783    9.256
  587.528    0.105    0.363   90.309  164.147    9.334
  587.778    0.114    0.358   97.727  162.677    9.291
  588.028    0.126    0.378  100.234  158.920    9.199
  588.278    0.136    0.378   98.077  157.345    9.140
  588.528    0.121    0.371   98.497  158.372    9.066
  588.778    0.107    0.357   98.920  160.955    8.960
  589.028    0.095    0.351   99.709  164.058    8.919
  589.278    0.110    0.356  100.867  165.394    8.980
  589.528    0.106    0.350  100.797  165.070    8.987
  589.778    0.069    0.351   99.807  163.081    8.897
  590.028    0.101    0.360  102.253  163.479    8.712
  590.278    0.118    0.372  101.262  164.403    8.563
  590.528    0.109    0.375   99.106  165.220    8.430
  590.778    0.119    0.364   95.844  165.826    8.377
  591.028    0.118    0.352   90.312  166.022    8.370
  591.278    0.097    0.320   83.369  165.904    8.471
  591.528    0.086    0.340   83.544  165.576    8.528
  591.778    0.131    0.354   89.734  165.042    8.568
  592.028    0.125    0.366   93.591  164.718    8.735
  592.278    0.112    0.345   92.970  165.743    8.888
  592.528    0.097    0.322   94.373  166.974    8.865
  592.778    0.094    0.342   99.766  167.897    7.978
  593.028    0.128    0.383  106.631  169.960    7.022
  593.278    0.130    0.522  113.374  173.271    5.880
  593.528    0.147    0.573  111.770  173.984    4.315
  593.778    0.171    0.555  108.631  173.969    3.309
  594.028    0.150    0.534  104.081  174.372    2.859
  594.278    0.172    0.529  107.325  174.981    2.795
  594.528    0.168    0.527  106.764  175.695    2.844
  594.778    0.141    0.556  106.142  171.212    3.304
  595.028    0.134    0.541  110.676  166.104    3.775
  595.278    0.127    0.394  106.739  165.466    4.575
  595.528    0.112    0.374  100.286  165.868    5.474
  595.778    0.104    0.364  102.425  166.893    6.359
  596.028    0.091    0.358  103.952  168.332    7.252
  596.278    0.079    0.369  104.004  170.396    6.659
  596.528    0.072    0.417  111.177  172.564    5.915
  596.778    0.091    0.398  112.948  172.135    5.845
