~VERSION INFORMATION
 VERS.                 2.0:   CWLS LOG ASCII STANDARD -VERSION 2.0
 WRAP.                  NO:   ONE LINE PER DEPTH STEP
~WELL INFORMATION BLOCK
#MNEM.UNIT           DATA                    DESCRIPTION OF MNEMONIC
#---------    -------------------            -------------------------------
# Generated from Intellog Unique Number	CS_73_76/WELL/820
WELL.         BRASCAN RESOURCES LTD          : Well_name    - WELL
LOC .         00/10-17-073-17W4/0            : Location     - LOCATION
UWI .         00/10-17-073-17W4/0            : Uwi          - UNIQUE WELL ID
ENTR.         SP                             : Entered      - ENTERED BY
SRVC.         SCHLUMBERGER                   : Scn          - SERVICE COMPANY
STRT.M        249.936                        : top_depth    - START DEPTH
STOP.M        419.186                        : bot_depth    - STOP DEPTH
STEP.M        0.25                           : increment    - STEP LENGTH
 NULL. -999.2500:NULL Value
~CURVE INFORMATION BLOCK
#MNEM UNIT       ERCB CURVE CODE    CURVE DESCRIPTION
#-----------   ------------------   ----------------------------------
DEPT.M        00 001 00 00         : DEPTH        - DEPTH
GR  .API      00 310 00 00         : GR           - GAMMA RAY
DPHI.V/V      00 890 00 00         : PHID         - DENSITY POROSITY (SANDSTONE)
NPHI.V/V      00 330 00 00         : PHIN         - NEUTRON POROSITY (SANDSTONE)
ILD .OHMM     00 120 00 00         : RESD         - DEEP RESISTIVITY (DIL)
~PARAMETER INFORMATION
#MNEM.UNIT           DATA             DESCRIPTION OF MNEMONIC
#---------         -----------     ------------------------------
GL  .M        579.272              : gl           - GROUND LEVEL ELEVATION
EREF.M        582.473              : kb           - ELEVATION OF DEPTH REFERENCE
DATM.M        579.272              : datum        - DATUM ELEVATION
TDD .M        499.872              : tdd          - TOTAL DEPTH DRILLER
RUN .         ONE                  : Run          - RUN NUMBER
ENG .         BILL                 : Engineer     - RECORDING ENGINEER
WIT .         JIM                  : Witness      - WITNESSED BY
MUD .         GEL                  : Mud_type     - MUD TYPE
MATR.         SANDSTONE            : Logunit      - NEUTRON MATRIX
TMAX.C        17.7778              : BHT          - MAXIMUM RECORDED TEMPERATURE
BHTD.M        499.872              : BHTDEP       - MAXIMUM RECORDED TEMPERATURE
MATR.         1                    : LOGUNIT      - NEUTRON MATRIX
RMT .C        25                   : MDTP         - TEMPERATURE OF MUD
NEUT.         1                    : NEUTRON      - NEUTRON TYPE
RESI.         0                    : RESIST       - RESISTIVITY TYPE
RMC .OHMM     0.25                 : RMC          - RESISTIVITY OF MUD CAKE
RMF .OHMM     0.25                 : RMF          - RESISTIVITY OF MUD FILTRATE
SUFT.C        15                   : SUFT         - SURFACE TEMPERATURE
~A  DEPTH       GR     PHID     PHIN     RESD
# ...
  380.436   65.103    0.291    0.444    3.793
  380.686   65.134    0.295    0.472    3.805
  380.936   65.147    0.311    0.463    3.806
  381.186   65.104    0.306    0.452    3.807
  381.436   64.657    0.300    0.465    3.809
  381.686   63.997    0.304    0.481    3.809
  381.936   64.092    0.299    0.503    3.807
  382.186   64.179    0.303    0.481    3.742
  382.436   63.505    0.313    0.467    3.748
  382.686   63.595    0.315    0.460    3.750
  382.936   63.636    0.304    0.450    3.832
  383.186   63.800    0.292    0.447    3.746
  383.436   64.859    0.297    0.459    3.754
  383.686   65.770    0.303    0.475    3.714
  383.936   68.416    0.307    0.486    3.691
  384.186   70.746    0.310    0.505    3.691
  384.436   74.477    0.311    0.522    3.693
  384.686   76.791    0.299    0.536    3.697
  384.936   80.724    0.286    0.473    3.639
  385.186   87.353    0.269    0.481    3.602
  385.436   93.459    0.257    0.512    3.561
  385.686   98.395    0.246    0.526    3.391
  385.936  102.218    0.247    0.535    3.300
  386.186  102.863    0.252    0.542    3.143
  386.436  101.855    0.235    0.545    3.053
  386.686  101.714    0.226    0.573    2.962
  386.936  102.325    0.228    0.590    2.877
  387.186  102.341    0.234    0.581    2.818
  387.436  102.207    0.226    0.571    2.823
  387.686   98.603    0.244    0.588    2.820
  387.936   95.301    0.260    0.604    2.883
  388.186   93.603    0.272    0.564    2.878
  388.436   96.618    0.265    0.584    2.922
  388.686   99.773    0.270    0.559    2.928
  388.936  101.425    0.258    0.539    2.991
  389.186  102.709    0.250    0.582    3.025
  389.436   99.560    0.247    0.594    3.123
  389.686   97.338    0.240    0.546    3.219
  389.936   97.373    0.220    0.519    3.289
  390.186   97.422    0.194    0.503    3.307
  390.436   97.258    0.165    0.488    3.465
  390.686  101.515    0.144    0.527    3.569
  390.936  104.283    0.181    0.571    3.674
  391.186  105.991    0.201    0.546    3.669
  391.436  104.503    0.199    0.529    3.643
  391.686  104.733    0.214    0.526    3.610
  391.936  107.635    0.220    0.508    3.558
  392.186  112.402    0.214    0.475    3.524
  392.436  114.388    0.225    0.458    3.483
  392.686  113.448    0.220    0.440    3.417
  392.936  110.269    0.214    0.415    3.427
  393.186  107.638    0.211    0.403    3.675
  393.436   95.757    0.206    0.423    3.903
  393.686   91.416    0.204    0.426    4.310
  393.936   87.446    0.250    0.413    4.811
  394.186   86.218    0.254    0.404    5.164
  394.436   82.132    0.214    0.389    5.666
  394.686   79.114    0.240    0.376    6.091
  394.936   72.913    0.214    0.391    6.736
  395.186   69.197    0.161    0.349    7.426
  395.436   66.993    0.084    0.308    8.063
  395.686   67.823    0.062    0.272    9.111
  395.936   68.790    0.100    0.267   10.289
  396.186   70.581    0.140    0.318   10.919
  396.436   74.707    0.173    0.385   11.134
  396.686   76.637    0.171    0.420    9.487
  396.936   70.936    0.127    0.366    8.675
  397.186   62.460    0.101    0.323    7.968
  397.436   59.300    0.079    0.303    8.751
  397.686   64.573    0.067    0.288   10.416
  397.936   72.362    0.077    0.326   12.104
  398.186   77.056    0.088    0.350   12.745
  398.436   86.107    0.116    0.381   10.793
  398.686   89.491    0.154    0.409    9.614
  398.936   90.430    0.188    0.399    8.808
  399.186   92.416    0.180    0.423    7.843
  399.436   95.445    0.178    0.442    7.083
  399.686   97.245    0.180    0.444    6.677
  399.936   96.667    0.195    0.424    6.303
  400.186   95.547    0.198    0.427    6.126
  400.436   99.266    0.199    0.425    5.882
  400.686  103.051    0.194    0.412    5.771
  400.936  103.951    0.188    0.396    5.583
  401.186  103.625    0.181    0.443    5.432
  401.436  102.980    0.176    0.462    5.387
  401.686  104.354    0.186    0.461    5.289
  401.936  107.246    0.181    0.452    5.297
  402.186  109.604    0.174    0.441    5.301
  402.436  110.450    0.194    0.461    5.303
  402.686  108.178    0.189    0.470    5.301
  402.936  104.605    0.185    0.454    5.395
  403.186  102.441    0.178    0.442    5.554
  403.436  103.393    0.158    0.449    5.687
  403.686  105.355    0.165    0.451    5.595
  403.936  107.774    0.153    0.430    5.659
  404.186  109.364    0.143    0.430    5.719
  404.436  110.753    0.199    0.419    5.819
  404.686  112.657    0.185    0.401    5.713
  404.936  112.318    0.200    0.386    5.729
  405.186  108.156    0.206    0.385    5.634
  405.436  105.148    0.195    0.401    5.519
  405.686  105.264    0.182    0.417    5.533
  405.936  104.563    0.169    0.419    5.527
  406.186  102.943    0.174    0.403    5.665
  406.436   99.648    0.171    0.390    5.845
  406.686   95.193    0.131    0.366    5.852
  406.936  100.027    0.128    0.361    5.854
  407.186  103.382    0.171    0.396    5.504
  407.436  107.222    0.183    0.436    5.317
  407.686  109.748    0.164    0.452    5.043
  407.936  111.104    0.190    0.452    4.332
  408.186  115.495    0.216    0.528    3.717
  408.436  122.914    0.231    0.568    3.101
  408.686  131.418    0.231    0.586    2.580
  408.936  142.091    0.223    0.604    2.184
  409.186  149.766    0.222    0.622    1.839
  409.436  149.665    0.235    0.630    1.695
  409.686  146.983    0.227    0.613    1.571
  409.936  143.760    0.206    0.582    1.577
  410.186  137.187    0.188    0.543    1.616
  410.436  131.186    0.179    0.495    1.781
  410.686  125.909    0.171    0.439    2.210
  410.936  119.980    0.157    0.397    2.599
  411.186  111.101    0.144    0.377    3.497
  411.436  104.026    0.126    0.383    4.381
  411.686  106.878    0.181    0.412    5.188
  411.936  111.273    0.182    0.427    5.405
  412.186  117.670    0.169    0.440    5.126
  412.436  114.395    0.151    0.449    5.225
  412.686  107.272    0.123    0.370    5.564
  412.936  101.285    0.089    0.335    6.090
  413.186   98.079    0.073    0.313    6.470
  413.436  101.692    0.133    0.392    5.814
  413.686  105.535    0.140    0.439    4.947
  413.936  109.465    0.160    0.530    4.317
  414.186  113.122    0.164    0.459    3.708
  414.436  111.563    0.174    0.442    3.381
  414.686  106.375    0.178    0.414    3.311
  414.936  105.117    0.164    0.416    3.500
  415.186  106.165    0.153    0.426    3.998
  415.436  107.651    0.159    0.425    4.498
  415.686  107.716    0.173    0.429    5.088
  415.936  106.826    0.176    0.433    5.455
  416.186  104.364    0.151    0.417    5.714
  416.436  102.864    0.149    0.403    5.889
  416.686  100.771    0.140    0.397    6.196
  416.936  101.134    0.118    0.392    6.278
  417.186  100.401    0.102    0.398    6.303
  417.436   98.313    0.137    0.408    6.309
  417.686   97.380    0.125    0.413    6.223
  417.936   96.442    0.123    0.404    6.128
  418.186   95.467    0.116    0.393    5.470
  418.436   94.820    0.117    0.410    5.004
  418.686   93.730    0.133    0.427    4.586
  418.936   93.238    0.146    0.435    4.326
  419.186   92.282    0.163    0.442    4.258
