~VERSION INFORMATION
 VERS.                 2.0:   CWLS LOG ASCII STANDARD -VERSION 2.0
 WRAP.                  NO:   ONE LINE PER DEPTH STEP
~WELL INFORMATION BLOCK
#MNEM.UNIT           DATA                    DESCRIPTION OF MNEMONIC
#---------    -------------------            -------------------------------
# Generated from Intellog Unique Number	CW_79_81/WELL/2482
WELL.         11-09-080-21W4                 : Well_name    - WELL
LOC .         00/11-09-080-21W4/0            : Location     - LOCATION
UWI .         00/11-09-080-21W4/0            : Uwi          - UNIQUE WELL ID
ENTR.         MAX                            : Entered      - ENTERED BY
SRVC.         WESTERN ATLAS                  : Scn          - SERVICE COMPANY
STRT.M        213.36                         : top_depth    - START DEPTH
STOP.M        447.86                         : bot_depth    - STOP DEPTH
STEP.M        0.25                           : increment    - STEP LENGTH
 NULL. -999.2500:NULL Value
~CURVE INFORMATION BLOCK
#MNEM UNIT       ERCB CURVE CODE    CURVE DESCRIPTION
#-----------   ------------------   ----------------------------------
DEPT.M        00 001 00 00         : DEPTH        - DEPTH
ILD .OHMM     00 120 00 00         : RESD         - DEEP RESISTIVITY (DIL)
NPHI.V/V      00 330 00 00         : PHIN         - NEUTRON POROSITY (SANDSTONE)
DPHI.V/V      00 890 00 00         : PHID         - DENSITY POROSITY (SANDSTONE)
GR  .API      00 310 00 00         : GR           - GAMMA RAY
CALI.MM       00 280 01 00         : CAL          - CALIPER
~PARAMETER INFORMATION
#MNEM.UNIT           DATA             DESCRIPTION OF MNEMONIC
#---------         -----------     ------------------------------
GL  .M        584.545              : gl           - GROUND LEVEL ELEVATION
EREF.M        588.051              : kb           - ELEVATION OF DEPTH REFERENCE
DATM.M        584.545              : datum        - DATUM ELEVATION
TDD .M        496.214              : tdd          - TOTAL DEPTH DRILLER
RUN .         ONE                  : Run          - RUN NUMBER
ENG .         BILL                 : Engineer     - RECORDING ENGINEER
WIT .         JIM                  : Witness      - WITNESSED BY
MUD .         GEL                  : Mud_type     - MUD TYPE
MATR.         SANDSTONE            : Logunit      - NEUTRON MATRIX
TMAX.C        19.4444              : BHT          - MAXIMUM RECORDED TEMPERATURE
BHTD.M        496.214              : BHTDEP       - MAXIMUM RECORDED TEMPERATURE
MATR.         1                    : LOGUNIT      - NEUTRON MATRIX
RMT .C        20                   : MDTP         - TEMPERATURE OF MUD
NEUT.         1                    : NEUTRON      - NEUTRON TYPE
RESI.         0                    : RESIST       - RESISTIVITY TYPE
RMC .OHMM     4                    : RMC          - RESISTIVITY OF MUD CAKE
RMF .OHMM     7.1                  : RMF          - RESISTIVITY OF MUD FILTRATE
SUFT.C        -6.66667             : SUFT         - SURFACE TEMPERATURE
~A  DEPTH     RESD     PHIN     PHID       GR      CAL
# ...
  359.360   15.043    0.371    0.187  117.126  160.256
  359.610   14.761    0.380    0.185  118.056  161.634
  359.860   14.588    0.389    0.183  117.057  163.110
  360.110   14.597    0.396    0.187  114.071  164.122
  360.360   14.695    0.406    0.188  115.528  163.289
  360.610   14.790    0.405    0.190  118.328  162.490
  360.860   14.482    0.398    0.190  118.673  163.470
  361.110   14.159    0.393    0.188  117.967  164.452
  361.360   14.046    0.393    0.185  117.145  164.643
  361.610   14.301    0.388    0.182  116.573  164.155
  361.860   14.617    0.384    0.181  116.082  163.734
  362.110   14.394    0.382    0.181  115.609  161.350
  362.360   14.098    0.379    0.183  115.663  160.748
  362.610   13.526    0.376    0.185  116.359  161.135
  362.860   12.849    0.373    0.191  117.465  163.304
  363.110   12.412    0.370    0.208  118.882  170.865
  363.360   12.124    0.366    0.222  121.312  177.041
  363.610   12.025    0.362    0.203  112.892  167.930
  363.860   12.125    0.357    0.157  110.782  162.676
  364.110   12.337    0.351    0.144  112.530  161.479
  364.360   12.600    0.345    0.173  115.506  162.659
  364.610   13.037    0.338    0.210  117.098  162.650
  364.860   13.949    0.337    0.234  118.067  162.642
  365.110   15.088    0.333    0.221  116.659  163.820
  365.360   16.413    0.328    0.202  114.200  163.515
  365.610   18.140    0.321    0.183  110.222  161.528
  365.860   20.315    0.313    0.164  105.365  158.451
  366.110   22.703    0.293    0.137  100.654  155.505
  366.360   23.742    0.279    0.077   96.997  154.673
  366.610   23.379    0.301    0.156  100.732  154.665
  366.860   22.515    0.327    0.207   99.909  154.656
  367.110   21.292    0.338    0.230   97.567  155.241
  367.360   20.198    0.335    0.234   96.743  156.223
  367.610   19.945    0.334    0.239  100.624  156.527
  367.860   20.235    0.331    0.240  101.350  156.105
  368.110   21.269    0.334    0.239   99.007  156.097
  368.360   21.649    0.339    0.236   98.242  156.090
  368.610   21.631    0.341    0.226   97.536  156.082
  368.860   21.457    0.340    0.204   95.953  156.173
  369.110   21.312    0.335    0.163   93.191  156.558
  369.360   21.456    0.333    0.154   93.428  156.548
  369.610   22.067    0.337    0.087   91.788  156.541
  369.860   22.331    0.340    0.057   91.900  156.829
  370.110   22.148    0.340    0.087   96.687  157.019
  370.360   21.656    0.337    0.153  103.404  156.912
  370.610   21.007    0.335    0.185  104.265  156.425
  370.860   20.209    0.337    0.188  107.426  156.002
  371.110   19.611    0.337    0.192  109.291  157.183
  371.360   19.030    0.339    0.192  108.351  157.472
  371.610   18.674    0.343    0.187  108.580  156.672
  371.860   18.658    0.348    0.183  110.095  155.278
  372.110   19.136    0.351    0.208  108.132  154.476
  372.360   19.563    0.359    0.274  103.013  154.466
  372.610   20.270    0.356    0.203   93.190  155.251
  372.860   21.567    0.353    0.107   91.781  156.034
  373.110   22.693    0.349    0.111   91.426  156.422
  373.360   23.178    0.347    0.205   89.317  156.216
  373.610   23.118    0.353    0.245   87.255  155.333
  373.860   22.928    0.357    0.261   87.493  154.912
  374.110   22.247    0.358    0.247   86.788  154.904
  374.360   21.831    0.361    0.237   86.608  155.192
  374.610   21.497    0.363    0.232   86.837  155.580
  374.860   21.246    0.360    0.233   87.708  155.869
  375.110   21.227    0.352    0.235   89.612  155.940
  375.360   21.208    0.345    0.230   88.633  156.344
  375.610   21.656    0.337    0.222   85.122  156.337
  375.860   22.353    0.329    0.214   82.487  156.328
  376.110   23.164    0.324    0.226   80.845  156.122
  376.360   24.212    0.320    0.251   79.555  155.917
  376.610   26.409    0.310    0.207   76.870  156.302
  376.860   28.487    0.298    0.008   75.160  156.292
  377.110   31.921    0.285    0.041   76.558  156.681
  377.360   33.075    0.274    0.075   78.657  157.069
  377.610   32.563    0.275    0.100   81.925  157.456
  377.860   31.076    0.289    0.119   85.310  157.349
  378.110   28.431    0.319    0.152   86.044  155.425
  378.360   26.348    0.358    0.202   85.066  153.769
  378.610   24.644    0.361    0.147   85.528  155.738
  378.860   22.924    0.358    0.159   87.217  156.819
  379.110   21.624    0.359    0.186   89.784  157.207
  379.360   20.687    0.365    0.202   92.643  157.100
  379.610   19.695    0.369    0.209   95.316  156.694
  379.860   19.238    0.364    0.202   97.017  156.688
  380.110   18.806    0.362    0.187  100.051  157.471
  380.360   18.385    0.360    0.181  102.734  158.551
  380.610   17.974    0.357    0.183  104.717  159.532
  380.860   17.571    0.355    0.191  106.289  160.315
  381.110   17.094    0.356    0.205  108.777  161.344
  381.360   16.694    0.362    0.207  110.720  162.572
  381.610   16.201    0.370    0.206  113.287  162.961
  381.860   15.722    0.377    0.195  112.173  163.349
  382.110   15.202    0.380    0.182  110.064  162.945
  382.360   14.676    0.378    0.168  108.773  162.046
  382.610   14.263    0.379    0.140  109.624  162.365
  382.860   14.361    0.376    0.091  111.567  164.007
  383.110   14.452    0.371    0.119  115.069  165.979
  383.360   14.152    0.366    0.110  115.941  164.685
  383.610   13.633    0.362    0.105  116.287  163.884
  383.860   13.091    0.360    0.125  117.333  165.260
  384.110   12.703    0.364    0.181  120.114  168.995
  384.360   12.691    0.372    0.203  123.518  171.873
  384.610   13.628    0.367    0.211  120.475  169.095
  384.860   14.028    0.358    0.218  118.132  167.206
  385.110   14.017    0.350    0.225  116.491  167.791
  385.360   13.803    0.349    0.229  115.609  170.948
  385.610   13.671    0.358    0.224  115.068  173.399
  385.860   14.082    0.356    0.190  112.384  163.906
  386.110   14.277    0.345    0.093  113.313  162.710
  386.360   14.162    0.334    0.120  114.244  162.701
  386.610   13.844    0.331    0.181  114.006  164.276
  386.860   13.511    0.336    0.223  111.489  166.050
  387.110   13.519    0.333    0.210  105.005  164.275
  387.360   14.138    0.330    0.093  101.834  161.380
  387.610   15.622    0.325    0.127  105.568  160.183
  387.860   17.363    0.336    0.173  108.252  159.878
  388.110   19.156    0.347    0.197  108.599  159.869
  388.360   20.828    0.352    0.194  106.782  159.861
  388.610   22.492    0.349    0.170  103.757  159.852
  388.860   22.993    0.347    0.096  100.342  159.844
  389.110   23.821    0.344    0.141   99.168  159.835
  389.360   24.944    0.340    0.184  101.325  160.421
  389.610   25.670    0.340    0.207  104.243  160.611
  389.860   25.744    0.346    0.206  106.167  160.306
  390.110   25.415    0.357    0.185  105.917  160.296
  390.360   24.821    0.353    0.166  104.695  160.288
  390.610   24.267    0.353    0.113  106.794  159.883
  390.860   23.590    0.351    0.121  109.945  159.776
  391.110   22.808    0.350    0.157  112.513  159.768
  391.360   21.852    0.348    0.194  113.035  159.562
  391.610   20.148    0.340    0.204  110.369  158.843
  391.860   18.125    0.336    0.206  111.093  159.246
  392.110   17.332    0.337    0.213  106.181  164.779
  392.360   17.602    0.336    0.220   96.358  165.861
  392.610   18.433    0.335    0.226   88.170  164.269
  392.860   19.661    0.334    0.233   81.913  161.786
  393.110   22.037    0.330    0.239   70.207  159.781
  393.360   25.478    0.333    0.237   63.140  157.711
  393.610   29.368    0.332    0.206   58.226  157.306
  393.860   34.589    0.323    0.159   54.188  157.200
  394.110   40.639    0.323    0.156   49.275  156.994
  394.360   46.504    0.335    0.210   44.534  156.590
  394.610   51.724    0.356    0.284   43.875  156.183
  394.860   54.926    0.362    0.281   44.114  156.174
  395.110   56.492    0.357    0.281   45.044  156.167
  395.360   56.873    0.355    0.283   47.202  156.159
  395.610   56.208    0.355    0.284   48.717  155.953
