~VERSION INFORMATION
 VERS.                 2.0:   CWLS LOG ASCII STANDARD -VERSION 2.0
 WRAP.                  NO:   ONE LINE PER DEPTH STEP
~WELL INFORMATION BLOCK
#MNEM.UNIT           DATA                    DESCRIPTION OF MNEMONIC
#---------    -------------------            -------------------------------
# Generated from Intellog Unique Number	CS_77_79/WELL/1010
WELL.         MAYNARD ET AL THORNBURY        : Well_name    - WELL
LOC .         00/11-35-079-12W4/0            : Location     - LOCATION
UWI .         00/11-35-079-12W4/0            : Uwi          - UNIQUE WELL ID
ENTR.         JHS                            : Entered      - ENTERED BY
SRVC.         SCHLUMBERGER                   : Scn          - SERVICE COMPANY
STRT.M        215                            : top_depth    - START DEPTH
STOP.M        480                            : bot_depth    - STOP DEPTH
STEP.M        0.25                           : increment    - STEP LENGTH
 NULL. -999.2500:NULL Value
~CURVE INFORMATION BLOCK
#MNEM UNIT       ERCB CURVE CODE    CURVE DESCRIPTION
#-----------   ------------------   ----------------------------------
DEPT.M        00 001 00 00         : DEPTH        - DEPTH
DPHI.V/V      00 890 00 00         : PHID         - DENSITY POROSITY (LIMESTONE)
NPHI.V/V      00 330 00 00         : PHIN         - NEUTRON POROSITY (LIMESTONE)
GR  .API      00 310 00 00         : GR           - GAMMA RAY
ILD .OHMM     00 120 00 00         : RESD         - DEEP RESISTIVITY (DIL)
RHOB.KG/M3    00 350 00 00         : DENS         - BULK DENSITY
~PARAMETER INFORMATION
#MNEM.UNIT           DATA             DESCRIPTION OF MNEMONIC
#---------         -----------     ------------------------------
GL  .M        681.99               : gl           - GROUND LEVEL ELEVATION
EREF.M        685.19               : kb           - ELEVATION OF DEPTH REFERENCE
DATM.M        685.19               : datum        - DATUM ELEVATION
TDD .M        495                  : tdd          - TOTAL DEPTH DRILLER
RUN .         ONE                  : Run          - RUN NUMBER
ENG .         BILL                 : Engineer     - RECORDING ENGINEER
WIT .         JIM                  : Witness      - WITNESSED BY
MUD .         GEL                  : Mud_type     - MUD TYPE
MATR.         LIMESTONE            : Logunit      - NEUTRON MATRIX
TMAX.C        20                   : BHT          - MAXIMUM RECORDED TEMPERATURE
BHTD.M        495                  : BHTDEP       - MAXIMUM RECORDED TEMPERATURE
MATR.         1                    : LOGUNIT      - NEUTRON MATRIX
RMT .C        25                   : MDTP         - TEMPERATURE OF MUD
NEUT.         1                    : NEUTRON      - NEUTRON TYPE
RESI.         0                    : RESIST       - RESISTIVITY TYPE
RMC .OHMM     0.25                 : RMC          - RESISTIVITY OF MUD CAKE
RMF .OHMM     0.25                 : RMF          - RESISTIVITY OF MUD FILTRATE
SUFT.C        15                   : SUFT         - SURFACE TEMPERATURE
~A  DEPTH     PHID     PHIN       GR     RESD     DENS
# ...
  324.500    0.336    0.395   46.700   23.045    0.000
  324.750    0.337    0.391   46.116   23.045    0.000
  325.000    0.340    0.392   48.618   23.868    0.000
  325.250    0.341    0.397   44.955   23.868    0.000
  325.500    0.339    0.404   44.983   23.868    0.000
  325.750    0.330    0.412   46.870   23.045    0.000
  326.000    0.329    0.420   46.289   22.222    0.000
  326.250    0.320    0.429   43.854   22.222    0.000
  326.500    0.313    0.431   42.031   22.222    0.000
  326.750    0.331    0.421   40.835   22.222    0.000
  327.000    0.323    0.416   39.636   22.222    0.000
  327.250    0.322    0.416   40.283   21.399    0.000
  327.500    0.320    0.409   42.167   22.222    0.000
  327.750    0.312    0.406   43.440   21.399    0.000
  328.000    0.311    0.406   43.464   21.399    0.000
  328.250    0.312    0.407   44.134   21.399    0.000
  328.500    0.310    0.403   44.149   22.222    0.000
  328.750    0.312    0.401   44.179   22.222    0.000
  329.000    0.318    0.403   44.215   22.222    0.000
  329.250    0.319    0.408   45.487   22.222    0.000
  329.500    0.324    0.408   46.751   22.222    0.000
  329.750    0.324    0.407   46.790   22.222    0.000
  330.000    0.323    0.407   46.202   22.222    0.000
  330.250    0.327    0.405   46.232   22.222    0.000
  330.500    0.325    0.398   47.499   22.222    0.000
  330.750    0.323    0.393   48.769   22.222    0.000
  331.000    0.319    0.393   50.037   22.222    0.000
  331.250    0.314    0.393   48.833   22.222    0.000
  331.500    0.309    0.390   46.398   22.222    0.000
  331.750    0.308    0.390   44.578   22.222    0.000
  332.000    0.306    0.391   40.910   22.222    0.000
  332.250    0.304    0.389   39.092   22.222    0.000
  332.500    0.298    0.388   42.835   22.222    0.000
  332.750    0.291    0.386   42.869   22.222    0.000
  333.000    0.288    0.387   42.897   22.222    0.000
  333.250    0.286    0.381   45.406   22.222    0.000
  333.500    0.296    0.376   47.282   22.222    0.000
  333.750    0.305    0.374   48.550   21.399    0.000
  334.000    0.315    0.374   49.201   21.399    0.000
  334.250    0.319    0.375   49.855   20.047    0.000
  334.500    0.318    0.385   49.885   19.801    0.000
  334.750    0.323    0.398   49.307   19.061    0.000
  335.000    0.317    0.408   48.721   18.896    0.000
  335.250    0.313    0.412   48.133   18.897    0.000
  335.500    0.312    0.415   48.165   18.815    0.000
  335.750    0.305    0.414   50.672   18.816    0.000
  336.000    0.307    0.408   50.089   18.816    0.000
  336.250    0.313    0.408   50.122   18.899    0.000
  336.500    0.316    0.410   52.006   18.899    0.000
  336.750    0.317    0.415   53.279   18.900    0.000
  337.000    0.319    0.421   53.304   18.900    0.000
  337.250    0.317    0.429   54.575   18.818    0.000
  337.500    0.314    0.432   54.605   18.654    0.000
  337.750    0.316    0.429   55.258   18.572    0.000
  338.000    0.316    0.424   57.145   18.573    0.000
  338.250    0.316    0.417   55.335   18.573    0.000
  338.500    0.312    0.416   55.360   18.738    0.000
  338.750    0.302    0.417   56.016   18.903    0.000
  339.000    0.300    0.419   54.813   19.151    0.000
  339.250    0.296    0.418   54.226   19.151    0.000
  339.500    0.288    0.417   55.494   19.069    0.000
  339.750    0.293    0.418   57.383   19.152    0.000
  340.000    0.310    0.416   58.644   19.152    0.000
  340.250    0.303    0.411   61.764   19.235    0.000
  340.500    0.308    0.406   61.185   19.400    0.000
  340.750    0.295    0.404   63.063   19.565    0.000
  341.000    0.282    0.403   63.100   19.566    0.000
  341.250    0.276    0.403   62.519   19.072    0.000
  341.500    0.272    0.406   65.025   17.674    0.000
  341.750    0.269    0.411   66.283   15.452    0.000
  342.000    0.291    0.421   66.933   13.477    0.000
  342.250    0.285    0.434   73.758   11.749    0.000
  342.500    0.285    0.435   75.650   10.515    0.000
  342.750    0.279    0.433   73.828    9.939    0.000
  343.000    0.270    0.419   72.006   10.022    0.000
  343.250    0.271    0.414   72.045   10.681    0.000
  343.500    0.292    0.414   70.223   11.669    0.000
  343.750    0.295    0.414   65.934   13.645    0.000
  344.000    0.296    0.418   64.121   15.538    0.000
  344.250    0.298    0.423   62.926   17.843    0.000
  344.500    0.309    0.425   62.946   19.078    0.000
  344.750    0.312    0.424   62.365   19.325    0.000
  345.000    0.305    0.421   61.779   18.914    0.000
  345.250    0.296    0.425   62.434   18.338    0.000
  345.500    0.281    0.420   64.317   18.010    0.000
  345.750    0.276    0.417   63.736   17.846    0.000
  346.000    0.277    0.415   62.537   17.681    0.000
  346.250    0.292    0.418   61.947   17.600    0.000
  346.500    0.293    0.422   61.976   17.600    0.000
  346.750    0.301    0.427   59.548   17.683    0.000
  347.000    0.315    0.432   61.448   17.766    0.000
  347.250    0.310    0.432   62.706   17.848    0.000
  347.500    0.302    0.433   64.584   17.684    0.000
  347.750    0.290    0.435   67.085   16.944    0.000
  348.000    0.275    0.438   70.822   15.298    0.000
  348.250    0.266    0.443   76.408   12.665    0.000
  348.500    0.259    0.445   84.477   10.608    0.000
  348.750    0.253    0.449   88.200    9.867    0.000
  349.000    0.242    0.458   93.175    8.880    0.000
  349.250    0.243    0.473   97.531    7.728    0.000
  349.500    0.261    0.472   99.410    6.659    0.000
  349.750    0.268    0.467   98.826    6.330    0.000
  350.000    0.283    0.456   93.314    6.330    0.000
  350.250    0.279    0.448   91.491    6.413    0.000
  350.500    0.282    0.442   89.056    6.414    0.000
  350.750    0.269    0.460   88.472    6.414    0.000
  351.000    0.255    0.485   93.450    6.250    0.000
  351.250    0.246    0.498   96.563    5.674    0.000
  351.500    0.230    0.508  100.294    4.934    0.000
  351.750    0.212    0.527  104.038    3.864    0.000
  352.000    0.194    0.549  105.922    3.453    0.000
  352.250    0.196    0.556  106.570    3.289    0.000
  352.500    0.201    0.558  105.368    3.043    0.000
  352.750    0.213    0.561  104.785    2.961    0.000
  353.000    0.238    0.558  109.147    2.879    0.000
  353.250    0.238    0.553  109.797    2.879    0.000
  353.500    0.229    0.552  109.201    2.880    0.000
  353.750    0.218    0.563  112.949    2.880    0.000
  354.000    0.208    0.568  114.208    2.881    0.000
  354.250    0.207    0.549  113.008    2.799    0.000
  354.500    0.217    0.546  109.343    2.635    0.000
  354.750    0.223    0.538  108.754    2.553    0.000
  355.000    0.225    0.528  111.256    2.471    0.000
  355.250    0.230    0.517  106.966    2.471    0.000
  355.500    0.245    0.515  103.914    2.472    0.000
  355.750    0.251    0.516  105.814    2.555    0.000
  356.000    0.252    0.522  105.841    2.802    0.000
  356.250    0.238    0.529  104.636    3.049    0.000
  356.500    0.224    0.528  103.439    3.297    0.000
  356.750    0.222    0.508  105.321    3.791    0.000
  357.000    0.226    0.497  105.348    4.121    0.000
  357.250    0.231    0.483  101.068    4.450    0.000
  357.500    0.233    0.475   98.630    4.862    0.000
  357.750    0.237    0.468   98.661    5.274    0.000
  358.000    0.245    0.466   95.618    5.439    0.000
  358.250    0.255    0.465   91.330    5.687    0.000
  358.500    0.267    0.458   87.654    6.016    0.000
  358.750    0.254    0.459   83.369    6.428    0.000
  359.000    0.245    0.463   83.399    6.676    0.000
  359.250    0.239    0.458   86.522    6.594    0.000
  359.500    0.228    0.459   90.878    6.347    0.000
  359.750    0.236    0.476   93.990    5.607    0.000
  360.000    0.228    0.505   98.346    4.949    0.000
  360.250    0.226    0.527  103.937    4.209    0.000
  360.500    0.218    0.535  107.668    3.551    0.000
  360.750    0.215    0.528  110.792    3.304    0.000
