~VERSION INFORMATION
 VERS.                 2.0:   CWLS LOG ASCII STANDARD -VERSION 2.0
 WRAP.                  NO:   ONE LINE PER DEPTH STEP
~WELL INFORMATION BLOCK
#MNEM.UNIT           DATA                    DESCRIPTION OF MNEMONIC
#---------    -------------------            -------------------------------
# Generated from Intellog Unique Number	CW_73_75/WELL/1040
WELL.         11-16-074-21W4                 : Well_name    - WELL
LOC .         00/11-16-074-21W4/0            : Location     - LOCATION
UWI .         00/11-16-074-21W4/0            : Uwi          - UNIQUE WELL ID
ENTR.         JAYE                           : Entered      - ENTERED BY
SRVC.         SCHLUMBERGER                   : Scn          - SERVICE COMPANY
DATE.         2 JAN 77                       : Date         - LOG DATE
STRT.M        387.096                        : top_depth    - START DEPTH
STOP.M        600.346                        : bot_depth    - STOP DEPTH
STEP.M        0.25                           : increment    - STEP LENGTH
 NULL. -999.2500:NULL Value
~CURVE INFORMATION BLOCK
#MNEM UNIT       ERCB CURVE CODE    CURVE DESCRIPTION
#-----------   ------------------   ----------------------------------
DEPT.M        00 001 00 00         : DEPTH        - DEPTH
DPHI.V/V      00 890 00 00         : PHID         - DENSITY POROSITY (SANDSTONE)
NPHI.V/V      00 330 00 00         : PHIN         - NEUTRON POROSITY (SANDSTONE)
GR  .API      00 310 00 00         : GR           - GAMMA RAY
CALI.MM       00 280 01 00         : CAL          - CALIPER
ILD .OHMM     00 120 00 00         : RESD         - DEEP RESISTIVITY (DIL)
~PARAMETER INFORMATION
#MNEM.UNIT           DATA             DESCRIPTION OF MNEMONIC
#---------         -----------     ------------------------------
GL  .M        685.495              : gl           - GROUND LEVEL ELEVATION
EREF.M        689.458              : kb           - ELEVATION OF DEPTH REFERENCE
DATM.M        685.495              : datum        - DATUM ELEVATION
TDD .M        664.464              : tdd          - TOTAL DEPTH DRILLER
RUN .         ONE                  : Run          - RUN NUMBER
ENG .         MCDONALD             : Engineer     - RECORDING ENGINEER
WIT .         SMAILES              : Witness      - WITNESSED BY
BASE.         EDMONTON             : Branch       - HOME BASE OF LOGGING UNIT
MUD .         GEL CHEM             : Mud_type     - MUD TYPE
MATR.         SANDSTONE            : Logunit      - NEUTRON MATRIX
TMAX.C        26.1111              : BHT          - MAXIMUM RECORDED TEMPERATURE
BHTD.M        663.245              : BHTDEP       - MAXIMUM RECORDED TEMPERATURE
RMT .C        10                   : MDTP         - TEMPERATURE OF MUD
MUDD.KG/M     0                    : MWT          - MUD DENSITY
NEUT.         1                    : NEUTRON      - NEUTRON TYPE
RESI.         0                    : RESIST       - RESISTIVITY TYPE
RM  .OHMM     4.63                 : RM           - RESISTIVITY OF MUD
RMC .OHMM     4.67                 : RMC          - RESISTIVITY OF MUD CAKE
RMF .OHMM     4.66                 : RMF          - RESISTIVITY OF MUD FILTRATE
SUFT.C        -17.7778             : SUFT         - SURFACE TEMPERATURE
~A  DEPTH     PHID     PHIN       GR      CAL     RESD
# ...
  533.096    0.268    0.452   95.092  203.732    5.503
  533.346    0.261    0.442   94.438  204.881    5.673
  533.596    0.247    0.431   90.573  205.927    5.957
  533.846    0.210    0.391   83.076  206.765    6.244
  534.096    0.173    0.331   77.213  208.633    6.472
  534.346    0.156    0.321   88.186  210.805    6.550
  534.596    0.181    0.464   99.219  212.772    6.389
  534.846    0.255    0.508  104.862  215.869    6.141
  535.096    0.246    0.528  101.544  217.835    5.794
  535.346    0.243    0.536   99.436  219.907    5.539
  535.596    0.246    0.496  100.902  221.875    5.503
  535.846    0.244    0.488  101.882  223.332    5.508
  536.096    0.248    0.488  102.620  224.170    5.493
  536.346    0.259    0.472  103.055  225.113    5.488
  536.596    0.260    0.446  103.854  226.362    5.494
  536.846    0.254    0.454  104.956  227.510    5.518
  537.096    0.252    0.465  102.848  228.863    5.462
  537.346    0.254    0.476  100.195  230.424    5.349
  537.596    0.254    0.490   94.090  231.979    5.275
  537.846    0.250    0.518   93.921  233.435    5.299
  538.096    0.260    0.541  100.473  234.274    5.333
  538.346    0.269    0.511  100.908  234.910    5.348
  538.596    0.268    0.526   97.468  235.545    5.373
  538.846    0.240    0.561   94.815  236.384    5.387
  539.096    0.235    0.585   96.704  237.226    5.442
  539.346    0.230    0.589   97.382  237.552    5.488
  539.596    0.223    0.558   96.969  237.675    5.533
  539.846    0.227    0.536   96.557  237.591    5.631
  540.096    0.250    0.525   97.174  237.201    5.837
  540.346    0.257    0.473   97.428  236.708    5.952
  540.596    0.264    0.418   96.350  235.909    5.990
  540.846    0.277    0.409   95.755  235.518    5.984
  541.096    0.273    0.406   95.464  234.102    5.924
  541.346    0.261    0.406   93.841  233.608    5.810
  541.596    0.258    0.417   91.855  234.038    5.699
  541.846    0.258    0.438   91.139  234.572    5.590
  542.096    0.255    0.444   94.240  234.591    5.463
  542.346    0.253    0.448   99.156  233.481    5.367
  542.596    0.253    0.461  103.286  231.758    5.402
  542.846    0.268    0.470  104.691  229.932    5.579
  543.096    0.252    0.439  103.309  224.927    6.079
  543.346    0.231    0.376   98.294  220.846    6.550
  543.596    0.196    0.363   97.277  214.814    7.045
  543.846    0.182    0.375   97.592  207.247    7.384
  544.096    0.199    0.458   97.300  204.396    7.432
  544.346    0.231    0.502   95.193  202.466    7.223
  544.596    0.257    0.515   94.538  201.460    6.865
  544.846    0.237    0.513   95.398  200.967    6.360
  545.096    0.235    0.443   95.166  200.373    6.045
  545.346    0.225    0.407   92.029  199.777    6.278
  545.596    0.209    0.325   84.230  199.798    7.006
  545.846    0.173    0.304   75.400  200.738    8.008
  546.096    0.097    0.289   68.810  201.888    9.783
  546.346    0.095    0.281   71.366  203.137   11.058
  546.596    0.099    0.337   81.126  205.208   11.484
  546.846    0.104    0.376   86.467  207.279   10.677
  547.096    0.129    0.445   92.475  209.245    8.937
  547.346    0.167    0.468   97.633  211.828    7.790
  547.596    0.186    0.435   99.401  214.412    7.006
  547.846    0.228    0.435   99.292  216.996    6.431
  548.096    0.241    0.418  101.604  219.989    6.284
  548.346    0.239    0.429  103.372  222.470    6.186
  548.596    0.230    0.464  101.871  225.156    6.113
  548.846    0.227    0.536  101.033  227.841    6.165
  549.096    0.229    0.578   99.956  230.424    6.273
  549.346    0.235    0.598   99.785  232.085    6.348
  549.596    0.227    0.531   98.646  234.157    6.436
  549.846    0.222    0.444  100.596  234.997    6.490
  550.096    0.231    0.410  102.605  235.323    6.484
  550.346    0.239    0.426  104.676  236.780    6.407
  550.596    0.236    0.438  106.868  237.825    6.389
  550.846    0.219    0.425  109.060  238.561    6.383
  551.096    0.209    0.429  108.647  239.505    6.401
  551.346    0.213    0.412  105.086  240.139    6.395
  551.596    0.206    0.379  101.768  240.365    6.401
  551.846    0.192    0.384   99.841  240.487    6.348
  552.096    0.184    0.409   99.066  240.506    6.192
  552.346    0.220    0.436   97.321  240.424    6.106
  552.596    0.237    0.431   95.334  240.238    6.001
  552.846    0.230    0.419   95.769  239.746    5.908
  553.096    0.218    0.405   97.296  239.354    5.892
  553.346    0.210    0.392   94.763  238.759    5.897
  553.596    0.198    0.410   97.198  238.778    5.957
  553.846    0.212    0.400   97.270  238.797    6.006
  554.096    0.232    0.391   95.526  238.715    6.023
  554.346    0.224    0.408   95.839  238.734    5.896
  554.596    0.211    0.426   98.152  238.447    5.323
  554.846    0.207    0.448  101.858  237.031    4.286
  555.096    0.268    0.486  103.202  235.104    3.634
  555.346    0.315    0.544  103.335  233.276    2.862
  555.596    0.326    0.596  103.346  231.349    2.339
  555.846    0.301    0.554  102.147  229.932    2.111
  556.096    0.297    0.560  104.035  229.440    1.988
  556.346    0.286    0.574  106.288  228.742    1.954
  556.596    0.278    0.556  107.208  227.632    2.007
  556.846    0.261    0.536  108.068  226.526    2.092
  557.096    0.259    0.505  105.415  225.108    2.221
  557.346    0.247    0.490  102.883  224.204    2.515
  557.596    0.232    0.432   99.685  223.302    2.945
  557.846    0.218    0.411   94.065  222.401    3.525
  558.096    0.192    0.388   91.230  221.602    4.180
  558.346    0.185    0.380   93.846  221.006    4.876
  558.596    0.224    0.394   95.856  220.203    5.226
  558.846    0.220    0.393   92.174  219.403    5.538
  559.096    0.196    0.392   85.040  217.386    6.001
  559.346    0.174    0.423   75.665  218.005    6.514
  559.596    0.103    0.403   71.558  210.949    6.891
  559.846    0.101    0.426   77.081  209.739    6.872
  560.096    0.157    0.431   89.628  210.784    6.740
  560.346    0.177    0.447   96.543  211.726    6.574
  560.596    0.205    0.377   97.221  212.361    6.113
  560.846    0.203    0.368   97.293  212.484    5.853
  561.096    0.201    0.380   98.092  212.811    5.563
  561.346    0.211    0.393   95.863  213.240    5.298
  561.596    0.228    0.380   93.089  214.490    5.245
  561.846    0.206    0.361   92.434  215.638    5.477
  562.096    0.192    0.352   94.263  216.684    5.751
  562.346    0.179    0.353   97.060  217.423    6.050
  562.596    0.167    0.368  100.342  217.751    6.101
  562.846    0.184    0.379  104.290  217.565    5.885
  563.096    0.212    0.390  105.815  217.277    5.688
  563.346    0.206    0.401  104.495  217.295    5.558
  563.596    0.211    0.409  103.174  217.317    5.492
  563.846    0.231    0.422  101.914  217.642    5.487
  564.096    0.220    0.443   99.625  218.277    5.522
  564.346    0.215    0.470   96.730  219.322    5.549
  564.596    0.216    0.523   96.014  220.471    5.543
  564.846    0.218    0.567   99.659  221.311    5.337
  565.096    0.210    0.589  105.303  221.742    4.972
  565.346    0.209    0.571  110.825  222.067    4.666
  565.596    0.220    0.500  113.925  222.497    4.467
  565.846    0.220    0.426  113.997  222.927    4.262
  566.096    0.231    0.425  114.011  223.667    4.074
  566.346    0.229    0.424  113.718  224.299    3.966
  566.596    0.236    0.439  112.942  225.242    3.941
  566.846    0.229    0.455  111.137  226.390    3.959
  567.096    0.223    0.446  109.029  227.537    4.112
  567.346    0.225    0.423  111.403  228.480    4.278
  567.596    0.230    0.428  115.411  229.219    4.468
  567.846    0.225    0.448  116.028  229.546    4.648
  568.096    0.223    0.442  114.405  230.796    4.881
  568.346    0.212    0.414  112.359  232.456    5.154
  568.596    0.191    0.394  111.219  233.296    5.482
  568.846    0.182    0.383  110.504  232.906    5.715
  569.096    0.190    0.400  114.814  232.105    5.772
  569.346    0.253    0.416  121.064  231.099    5.683
