~VERSION INFORMATION
 VERS.                 2.0:   CWLS LOG ASCII STANDARD -VERSION 2.0
 WRAP.                  NO:   ONE LINE PER DEPTH STEP
~WELL INFORMATION BLOCK
#MNEM.UNIT           DATA                    DESCRIPTION OF MNEMONIC
#---------    -------------------            -------------------------------
# Generated from Intellog Unique Number	CS_71_72/WELL/887
WELL.         AMOCO AEC IPIATIK KIRBY        : Well_name    - WELL
LOC .         00/11-06-072-05W4/0            : Location     - LOCATION
UWI .         00/11-06-072-05W4/0            : Uwi          - UNIQUE WELL ID
ENTR.         SP                             : Entered      - ENTERED BY
SRVC.         SCHLUMBERGER                   : Scn          - SERVICE COMPANY
STRT.M        295                            : top_depth    - START DEPTH
STOP.M        535                            : bot_depth    - STOP DEPTH
STEP.M        0.25                           : increment    - STEP LENGTH
 NULL. -999.2500:NULL Value
~CURVE INFORMATION BLOCK
#MNEM UNIT       ERCB CURVE CODE    CURVE DESCRIPTION
#-----------   ------------------   ----------------------------------
DEPT.M        00 001 00 00         : DEPTH        - DEPTH
ILD .OHMM     00 120 00 00         : RESD         - DEEP RESISTIVITY (DIL)
DPHI.V/V      00 890 00 00         : PHID         - DENSITY POROSITY (LIMESTONE)
NPHI.V/V      00 330 00 00         : PHIN         - NEUTRON POROSITY (LIMESTONE)
GR  .API      00 310 00 00         : GR           - GAMMA RAY
~PARAMETER INFORMATION
#MNEM.UNIT           DATA             DESCRIPTION OF MNEMONIC
#---------         -----------     ------------------------------
GL  .M        668.3                : gl           - GROUND LEVEL ELEVATION
EREF.M        673.01               : kb           - ELEVATION OF DEPTH REFERENCE
DATM.M        668.3                : datum        - DATUM ELEVATION
TDD .M        562                  : tdd          - TOTAL DEPTH DRILLER
RUN .         ONE                  : Run          - RUN NUMBER
ENG .         BILL                 : Engineer     - RECORDING ENGINEER
WIT .         JIM                  : Witness      - WITNESSED BY
MUD .         GEL                  : Mud_type     - MUD TYPE
MATR.         LIMESTONE            : Logunit      - NEUTRON MATRIX
TMAX.C        20                   : BHT          - MAXIMUM RECORDED TEMPERATURE
BHTD.M        5622                 : BHTDEP       - MAXIMUM RECORDED TEMPERATURE
MATR.         1                    : LOGUNIT      - NEUTRON MATRIX
RMT .C        25                   : MDTP         - TEMPERATURE OF MUD
NEUT.         1                    : NEUTRON      - NEUTRON TYPE
RESI.         0                    : RESIST       - RESISTIVITY TYPE
RMC .OHMM     0.25                 : RMC          - RESISTIVITY OF MUD CAKE
RMF .OHMM     0.25                 : RMF          - RESISTIVITY OF MUD FILTRATE
SUFT.C        15                   : SUFT         - SURFACE TEMPERATURE
~A  DEPTH     RESD     PHID     PHIN       GR
# ...
  338.500   10.469    0.327    0.404   46.732
  338.750   10.469    0.315    0.400   50.345
  339.000   10.468    0.304    0.389   51.548
  339.250   10.468    0.282    0.383   52.149
  339.500   10.468    0.279    0.383   52.751
  339.750   10.468    0.294    0.403   50.340
  340.000   10.467    0.305    0.412   50.338
  340.250   10.467    0.288    0.409   52.746
  340.500   10.664    0.285    0.404   52.745
  340.750   10.664    0.310    0.404   48.526
  341.000   10.466    0.326    0.410   46.717
  341.250   10.466    0.326    0.418   47.921
  341.500   10.466    0.310    0.414   49.727
  341.750   10.663    0.299    0.398   48.521
  342.000   10.663    0.296    0.390   50.928
  342.250   10.662    0.293    0.383   62.373
  342.500   10.662    0.309    0.388   81.046
  342.750   10.271    0.298    0.387  102.129
  343.000    9.356    0.262    0.444  110.561
  343.250    8.364    0.237    0.494  111.162
  343.500    7.762    0.228    0.500  108.751
  343.750    7.339    0.233    0.472  106.942
  344.000    7.070    0.235    0.455  105.736
  344.250    6.811    0.223    0.469  105.734
  344.500    6.810    0.229    0.474  105.130
  344.750    6.939    0.244    0.479  102.117
  345.000    7.202    0.252    0.478   99.706
  345.250    7.476    0.264    0.471   96.090
  345.500    7.761    0.278    0.451   91.872
  345.750    7.907    0.286    0.439   94.882
  346.000    8.207    0.262    0.439   96.688
  346.250    8.362    0.251    0.440   99.096
  346.500    8.519    0.246    0.456   97.287
  346.750    8.519    0.248    0.473   94.876
  347.000    8.361    0.250    0.456   90.658
  347.250    8.519    0.257    0.449   86.439
  347.500    8.679    0.264    0.452   84.029
  347.750    9.179    0.253    0.457   82.220
  348.000    9.707    0.254    0.452   79.206
  348.250   10.076    0.264    0.443   74.988
  348.500   10.076    0.271    0.435   71.373
  348.750   10.076    0.278    0.432   71.973
  349.000    9.889    0.276    0.433   78.598
  349.250    9.350    0.269    0.444   83.416
  349.500    8.517    0.265    0.465   87.029
  349.750    8.053    0.269    0.469   88.835
  350.000    7.903    0.291    0.480   84.014
  350.250    7.757    0.306    0.473   81.001
  350.500    7.903    0.324    0.485   79.794
  350.750    8.052    0.323    0.506   80.998
  351.000    8.358    0.320    0.497   79.189
  351.250    8.515    0.315    0.477   79.790
  351.500    8.839    0.306    0.469   79.788
  351.750    8.839    0.301    0.459   76.775
  352.000    9.005    0.296    0.449   74.364
  352.250    9.005    0.295    0.446   73.760
  352.500    9.005    0.296    0.442   76.168
  352.750    9.005    0.282    0.438   78.576
  353.000    8.838    0.262    0.445   80.382
  353.250    8.838    0.247    0.456   80.381
  353.500    8.674    0.248    0.467   80.379
  353.750    8.356    0.272    0.472   80.980
  354.000    8.356    0.286    0.476   80.376
  354.250    8.201    0.274    0.480   77.965
  354.500    8.201    0.269    0.457   79.168
  354.750    8.355    0.264    0.446   80.372
  355.000    8.513    0.263    0.467   78.563
  355.250    9.172    0.089    0.346   68.321
  355.500    9.883   -0.007    0.296   54.464
  355.750   11.263   -0.002    0.208   41.812
  356.000   11.691    0.015    0.174   50.846
  356.250   13.574    0.069    0.202   58.074
  356.500   14.902    0.207    0.364   62.891
  356.750   15.182    0.295    0.403   63.493
  357.000   13.076    0.318    0.421   64.696
  357.250   11.474    0.321    0.434   67.707
  357.500    9.699    0.315    0.445   72.524
  357.750    8.510    0.312    0.433   74.330
  358.000    7.898    0.303    0.437   75.534
  358.250    7.752    0.302    0.442   75.532
  358.500    7.898    0.297    0.436   74.326
  358.750    8.198    0.293    0.428   74.324
  359.000    8.352    0.298    0.425   76.130
  359.250    8.509    0.309    0.416   76.731
  359.500    8.669    0.292    0.402   77.332
  359.750    8.669    0.281    0.388   77.933
  360.000    8.669    0.281    0.406   79.136
  360.250    8.669    0.286    0.425   78.532
  360.500    8.508    0.292    0.436   73.711
  360.750    8.351    0.296    0.439   72.505
  361.000    8.351    0.302    0.444   72.504
  361.250    8.196    0.306    0.433   74.309
  361.500    8.196    0.307    0.420   79.127
  361.750    8.196    0.291    0.408   80.933
  362.000    8.044    0.277    0.410   85.751
  362.250    8.044    0.264    0.427   87.557
  362.500    8.043    0.253    0.447   88.760
  362.750    8.043    0.262    0.457   85.746
  363.000    8.043    0.277    0.467   78.516
  363.250    8.043    0.291    0.477   71.286
  363.500    8.043    0.301    0.472   66.465
  363.750    8.042    0.312    0.472   65.259
  364.000    7.894    0.320    0.464   68.871
  364.250    7.747    0.313    0.458   70.075
  364.500    7.463    0.314    0.450   71.880
  364.750    7.463    0.329    0.444   72.482
  365.000    7.463    0.324    0.461   71.878
  365.250    7.325    0.313    0.472   68.262
  365.500    7.325    0.309    0.470   64.044
  365.750    7.324    0.311    0.460   61.030
  366.000    7.189    0.317    0.454   59.222
  366.250    7.189    0.324    0.456   61.027
  366.500    7.188    0.330    0.456   62.833
  366.750    7.188    0.337    0.453   64.639
  367.000    7.055    0.334    0.447   68.251
  367.250    7.055    0.326    0.442   68.853
  367.500    7.055    0.325    0.439   68.249
  367.750    7.055    0.331    0.448   63.428
  368.000    7.055    0.323    0.470   60.415
  368.250    6.924    0.319    0.481   61.617
  368.500    6.924    0.322    0.482   64.026
  368.750    6.923    0.330    0.470   65.832
  369.000    6.795    0.335    0.458   66.432
  369.250    6.795    0.326    0.458   66.431
  369.500    6.669    0.317    0.472   65.827
  369.750    6.669    0.313    0.477   65.224
  370.000    6.669    0.312    0.466   61.608
  370.250    6.546    0.311    0.456   64.618
  370.500    6.424    0.308    0.450   67.026
  370.750    6.424    0.314    0.459   66.423
  371.000    6.305    0.322    0.449   65.216
  371.250    6.188    0.329    0.453   65.817
  371.500    6.188    0.324    0.464   65.213
  371.750    6.074    0.325    0.471   65.212
  372.000    6.074    0.329    0.465   65.812
  372.250    5.961    0.295    0.460   66.414
  372.500    5.961    0.264    0.435   70.027
  372.750    5.961    0.240    0.422   77.254
  373.000    5.961    0.229    0.439   82.674
  373.250    5.961    0.223    0.450   86.287
  373.500    5.960    0.204    0.438   88.695
  373.750    5.960    0.193    0.435   89.296
  374.000    5.742    0.204    0.448   89.897
  374.250    5.742    0.220    0.445   93.510
  374.500    5.635    0.204    0.442   96.521
  374.750    5.328    0.229    0.456   85.676
  375.000    5.133    0.261    0.470   74.832
  375.250    4.763    0.302    0.477   62.179
  375.500    4.339    0.328    0.444   60.371
  375.750    3.952    0.303    0.448   67.598
  376.000    3.807    0.295    0.476   73.018
  376.250    3.600    0.305    0.484   74.824
  376.500    3.403    0.316    0.488   70.606
  376.750    3.158    0.320    0.471   60.363
  377.000    3.100    0.329    0.447   56.145
  377.250    2.931    0.333    0.425   54.939
  377.500    2.720    0.337    0.424   55.540
  377.750    2.524    0.341    0.438   57.345
  378.000    2.343    0.346    0.456   57.946
  378.250    2.094    0.352    0.465   54.932
  378.500    2.056    0.352    0.432   53.124
  378.750    1.943    0.344    0.418   51.918
  379.000    1.907    0.342    0.430   53.723
  379.250    1.907    0.333    0.439   56.131
  379.500    1.907    0.322    0.420   56.130
  379.750    1.943    0.318    0.415   56.730
  380.000    1.980    0.313    0.407   57.934
  380.250    2.017    0.306    0.409   59.138
  380.500    2.094    0.317    0.454   65.763
  380.750    2.133    0.334    0.487   71.785
  381.000    2.173    0.295    0.460   79.615
  381.250    2.299    0.221    0.447   91.059
  381.500    2.477    0.209    0.438   98.287
  381.750    2.719    0.200    0.448  101.298
