~VERSION INFORMATION
 VERS.                 2.0:   CWLS LOG ASCII STANDARD -VERSION 2.0
 WRAP.                  NO:   ONE LINE PER DEPTH STEP
~WELL INFORMATION BLOCK
#MNEM.UNIT           DATA                    DESCRIPTION OF MNEMONIC
#---------    -------------------            -------------------------------
# Generated from Intellog Unique Number	CW_70_72/WELL/1034
NULL.         -999.25                        : NULL_VALUE
WELL.         SUNDANCE ET AL SMITH 10-10     : Well_name    - WELL              
LOC .         10-10-071-23W4                 : Location     - LOCATION          
UWI .         00/10-10-071-23W4/0            : Uwi          - UNIQUE WELL ID    
ENTR.         J                              : Entered      - ENTERED BY        
SRVC.         SCHLUMBERGER                   : Scn          - SERVICE COMPANY   
DATE.         25 FEB 1976                    : Date         - LOG DATE          
STRT.M        423.672                        : top_depth    - START DEPTH       
STOP.M        612.672                        : bot_depth    - STOP DEPTH        
STEP.M        0.25                           : increment    - STEP LENGTH       
~CURVE INFORMATION BLOCK
#MNEM UNIT       ERCB CURVE CODE    CURVE DESCRIPTION
#-----------   ------------------   ----------------------------------
DEPT.M        00 001 00 00         : DEPTH        - DEPTH                       
DPHI.V/V      00 890 00 00         : PHID         - DENSITY POROSITY (SANDSTONE)
NPHI.V/V      00 330 00 00         : PHIN         - NEUTRON POROSITY (SANDSTONE)
GR  .API      00 310 00 00         : GR           - GAMMA RAY                   
CALI.MM       00 280 01 00         : CAL          - CALIPER                     
ILD .OHMM     00 120 00 00         : RESD         - DEEP RESISTIVITY (DIL)      
~PARAMETER INFORMATION       
#MNEM.UNIT           DATA             DESCRIPTION OF MNEMONIC
#---------         -----------     ------------------------------
GL  .M        662.026              : gl           - GROUND LEVEL ELEVATION      
EREF.M        665.683              : kb           - ELEVATION OF DEPTH REFERENCE
DATM.M        661.721              : datum        - DATUM ELEVATION             
TDD .M        620.268              : tdd          - TOTAL DEPTH DRILLER         
RUN .         ONE                  : Run          - RUN NUMBER                  
BASE.         EDM                  : Branch       - HOME BASE OF LOGGING UNIT   
MUD .         GEL CHEM             : Mud_type     - MUD TYPE                    
MATR.         SANDSTONE            : Logunit      - NEUTRON MATRIX              
TMAX.C        24.4444              : BHT          - MAXIMUM RECORDED TEMPERATURE
BHTD.M        620.268              : BHTDEP       - MAXIMUM RECORDED TEMPERATURE
RMT .C        -17.7778             : MDTP         - TEMPERATURE OF MUD          
MUDD.KG/M     0                    : MWT          - MUD DENSITY                 
NEUT.         1                    : NEUTRON      - NEUTRON TYPE                
RESI.         0                    : RESIST       - RESISTIVITY TYPE            
RM  .OHMM     0                    : RM           - RESISTIVITY OF MUD          
RMC .OHMM     0                    : RMC          - RESISTIVITY OF MUD CAKE     
RMF .OHMM     0                    : RMF          - RESISTIVITY OF MUD FILTRATE 
SUFT.C        0                    : SUFT         - SURFACE TEMPERATURE         
~A  DEPTH     PHID     PHIN       GR      CAL     RESD
# ...
  460.172    0.333    0.445   82.354  165.130    4.203
  460.422    0.316    0.461   81.934  163.791    4.521
  460.672    0.300    0.473   86.546  162.869    5.243
  460.922    0.289    0.469   87.743  162.260    6.082
  461.172    0.268    0.427   83.034  161.866    7.016
  461.422    0.195    0.399   77.705  162.209    8.474
  461.672    0.192    0.384   71.257  162.754    9.615
  461.922    0.180    0.374   70.404  163.625    8.412
  462.172    0.195    0.362   75.700  164.067    7.428
  462.422    0.261    0.432   82.301  164.519    6.149
  462.672    0.323    0.487   85.110  165.064    4.729
  462.922    0.314    0.487   86.430  165.829    3.965
  463.172    0.301    0.488   86.446  165.851    3.897
  463.422    0.297    0.495   87.393  165.560    3.988
  463.672    0.296    0.482   88.462  165.482    4.164
  463.922    0.250    0.461   92.516  165.928    4.340
  464.172    0.221    0.464   95.139  166.690    4.532
  464.422    0.227    0.476   92.235  167.130    4.672
  464.672    0.219    0.468   95.976  167.687    4.763
  464.922    0.222    0.466   98.478  167.813    4.839
  465.172    0.238    0.470   96.502  167.942    4.826
  465.422    0.260    0.477   91.485  168.285    4.725
  465.672    0.275    0.470   89.697  168.095    4.634
  465.922    0.275    0.463   91.203  166.752    4.553
  466.172    0.253    0.454   96.375  164.464    4.466
  466.422    0.230    0.489   97.135  163.543    4.396
  466.672    0.206    0.510   94.853  164.091    4.368
  466.922    0.264    0.462   95.052  164.431    4.380
  467.172    0.239    0.444   95.998  165.405    4.474
  467.422    0.219    0.463   97.131  165.849    4.621
  467.672    0.222    0.486   98.637  166.189    4.754
  467.922    0.235    0.497  101.572  166.327    4.901
  468.172    0.216    0.496  102.706  165.925    4.960
  468.422    0.225    0.465  101.043  166.476    5.001
  468.672    0.196    0.478  100.499  166.714    4.997
  468.922    0.191    0.483  100.887  167.999    4.919
  469.172    0.186    0.468  101.832  169.600    4.842
  469.422    0.176    0.478  101.660  171.205    4.767
  469.672    0.162    0.488   95.772  171.859    4.771
  469.922    0.166    0.493   89.448  171.885    4.909
  470.172    0.187    0.503   82.256  168.437    5.251
  470.422    0.218    0.511   70.402  163.307    5.892
  470.672    0.391    0.529   58.364  160.911    6.599
  470.922    0.448    0.573   48.002  159.465    7.570
  471.172    0.592    0.670   40.746  158.543    8.354
  471.422    0.513    0.740   37.469  158.045    7.957
  471.672    0.340    0.502   41.645  157.748    7.357
  471.922    0.270    0.385   46.134  157.672    6.593
  472.172    0.252    0.380   49.443  158.008    5.853
  472.422    0.267    0.395   50.326  158.349    5.178
  472.672    0.276    0.413   51.087  158.484    4.683
  472.922    0.288    0.424   49.299  158.513    4.314
  473.172    0.308    0.431   46.831  158.845    3.945
  473.422    0.292    0.437   45.351  158.771    3.608
  473.672    0.302    0.437   45.740  158.791    3.348
  473.922    0.323    0.434   47.619  158.606    3.177
  474.172    0.323    0.428   49.559  158.629    3.065
  474.422    0.318    0.418   49.326  158.652    2.990
  474.672    0.311    0.425   47.352  159.101    2.943
  474.922    0.317    0.427   45.379  159.123    2.930
  475.172    0.307    0.413   45.954  158.726    2.932
  475.422    0.297    0.409   46.962  158.331    2.941
  475.672    0.294    0.417   48.528  157.835    2.949
  475.922    0.303    0.427   50.098  157.645    2.946
  476.172    0.280    0.432   51.229  157.041    2.927
  476.422    0.292    0.436   52.051  157.379    2.892
  476.672    0.312    0.439   51.508  156.774    2.863
  476.922    0.303    0.447   49.472  156.585    2.834
  477.172    0.303    0.452   47.684  156.300    2.800
  477.422    0.319    0.453   47.947  156.109    2.772
  477.672    0.328    0.440   48.645  156.030    2.749
  477.922    0.330    0.417   49.158  156.164    2.731
  478.172    0.316    0.423   49.607  156.084    2.724
  478.422    0.320    0.433   49.621  156.004    2.711
  478.672    0.328    0.442   48.952  156.028    2.714
  478.922    0.310    0.451   47.848  155.942    2.701
  479.172    0.304    0.459   47.863  155.652    2.698
  479.422    0.308    0.457   48.562  155.258    2.721
  479.672    0.302    0.443   51.124  154.754    2.743
  479.922    0.305    0.444   53.002  154.050    2.772
  480.172    0.334    0.436   49.352  153.651    2.795
  480.422    0.323    0.429   48.433  153.673    2.782
  480.672    0.309    0.436   49.007  153.908    2.789
  480.922    0.297    0.448   49.644  154.248    2.787
  481.172    0.294    0.447   50.842  154.484    2.784
  481.422    0.313    0.442   51.974  155.246    2.771
  481.672    0.326    0.434   52.983  156.428    2.754
  481.922    0.317    0.429   53.493  157.613    2.761
  482.172    0.327    0.424   54.442  158.056    2.764
  482.422    0.313    0.424   54.889  158.184    2.756
  482.672    0.305    0.444   55.526  158.102    2.763
  482.922    0.327    0.450   55.727  157.816    2.761
  483.172    0.319    0.443   56.239  156.892    2.753
  483.422    0.318    0.436   56.688  153.968    2.756
  483.672    0.325    0.443   57.076  150.415    2.753
  483.922    0.333    0.456   57.091  152.544    2.741
  484.172    0.330    0.460   57.042  155.201    2.733
  484.422    0.308    0.452   56.746  155.439    2.721
  484.672    0.312    0.442   55.706  155.357    2.713
  484.922    0.312    0.443   55.034  155.484    2.726
  485.172    0.319    0.452   55.112  155.832    2.733
  485.422    0.319    0.460   55.810  156.066    2.740
  485.672    0.320    0.457   57.067  156.406    2.743
  485.922    0.324    0.447   58.450  156.851    2.736
  486.172    0.329    0.439   60.267  156.981    2.728
  486.422    0.330    0.444   62.829  157.111    2.695
  486.672    0.333    0.447   64.023  157.131    2.698
  486.922    0.336    0.450   63.541  157.054    2.685
  487.172    0.341    0.454   62.748  157.187    2.678
  487.422    0.331    0.456   62.264  157.316    2.656
  487.672    0.324    0.453   60.664  157.444    2.633
  487.922    0.305    0.446   55.583  157.363    2.593
  488.172    0.313    0.449   57.463  156.649    2.591
  488.422    0.320    0.458   59.279  156.570    2.578
  488.672    0.335    0.468   59.480  156.385    2.562
  488.922    0.344    0.464   58.873  156.723    2.540
  489.172    0.340    0.459   58.578  156.751    2.496
  489.422    0.353    0.457   59.090  156.775    2.471
  489.672    0.360    0.458   58.605  156.484    2.455
  489.922    0.357    0.464   55.267  156.191    2.453
  490.172    0.339    0.478   55.342  155.794    2.455
  490.422    0.328    0.487   56.849  150.983    2.444
  490.672    0.345    0.498   58.479  149.004    2.437
  490.922    0.340    0.495   60.730  150.926    2.431
  491.172    0.327    0.483   62.981  153.898    2.433
  491.422    0.331    0.470   60.325  156.658    2.435
  491.672    0.343    0.471   57.666  158.574    2.450
  491.922    0.346    0.479   55.444  158.494    2.457
  492.172    0.331    0.473   56.145  159.680    2.478
  492.422    0.334    0.459   57.275  159.390    2.498
  492.672    0.323    0.450   57.290  158.989    2.524
  492.922    0.300    0.447   56.435  159.016    2.607
  493.172    0.290    0.450   55.891  159.143    2.687
  493.422    0.296    0.462   58.142  159.064    2.800
  493.672    0.293    0.468   59.586  158.885    3.154
  493.922    0.275    0.457   58.109  158.592    3.665
  494.172    0.244    0.388   55.390  158.408    4.863
  494.422    0.084    0.336   52.298  158.951    6.597
  494.672    0.051    0.228   50.324  162.137   11.043
  494.922    0.030    0.179   53.197  164.263   13.388
  495.172    0.031    0.173   53.028  164.498   12.681
  495.422    0.046    0.168   53.537  163.369   11.877
  495.672    0.040    0.159   57.156  163.080   10.220
  495.922    0.005    0.164   59.221  163.099    8.080
  496.172    0.034    0.191   59.422  163.859    6.965
  496.422    0.054    0.222   60.679  164.201    6.254
