~VERSION INFORMATION
 VERS.                 2.0:   CWLS LOG ASCII STANDARD -VERSION 2.0
 WRAP.                  NO:   ONE LINE PER DEPTH STEP
~WELL INFORMATION BLOCK
#MNEM.UNIT           DATA                    DESCRIPTION OF MNEMONIC
#---------    -------------------            -------------------------------
# Generated from Intellog Unique Number	CW_73_75/WELL/3525
WELL.         HCO ET AL FRANCIS              : Well_name    - WELL
LOC .         00/11-01-073-21W4/0            : Location     - LOCATION
UWI .         00/11-01-073-21W4/0            : Uwi          - UNIQUE WELL ID
ENTR.         TIM                            : Entered      - ENTERED BY
SRVC.         SCHLUMBERGER                   : Scn          - SERVICE COMPANY
STRT.M        320                            : top_depth    - START DEPTH
STOP.M        575                            : bot_depth    - STOP DEPTH
STEP.M        0.25                           : increment    - STEP LENGTH
 NULL. -999.2500:NULL Value
~CURVE INFORMATION BLOCK
#MNEM UNIT       ERCB CURVE CODE    CURVE DESCRIPTION
#-----------   ------------------   ----------------------------------
DEPT.M        00 001 00 00         : DEPTH        - DEPTH
GR  .API      00 310 00 00         : GR           - GAMMA RAY
CALI.MM       00 280 01 00         : CAL          - CALIPER
NPHI.V/V      00 330 00 00         : PHIN         - NEUTRON POROSITY (SANDSTONE)
DPHI.V/V      00 890 00 00         : PHID         - DENSITY POROSITY (SANDSTONE)
ILD .OHMM     00 120 00 00         : RESD         - DEEP RESISTIVITY (DIL)
~PARAMETER INFORMATION
#MNEM.UNIT           DATA             DESCRIPTION OF MNEMONIC
#---------         -----------     ------------------------------
GL  .M        658.2                : gl           - GROUND LEVEL ELEVATION
EREF.M        661.7                : kb           - ELEVATION OF DEPTH REFERENCE
DATM.M        661.7                : datum        - DATUM ELEVATION
TDD .M        587                  : tdd          - TOTAL DEPTH DRILLER
RUN .         ONE                  : Run          - RUN NUMBER
ENG .         BILL                 : Engineer     - RECORDING ENGINEER
WIT .         JIM                  : Witness      - WITNESSED BY
MUD .         GEL                  : Mud_type     - MUD TYPE
MATR.         SANDSTONE            : Logunit      - NEUTRON MATRIX
TMAX.C        26                   : BHT          - MAXIMUM RECORDED TEMPERATURE
BHTD.M        487                  : BHTDEP       - MAXIMUM RECORDED TEMPERATURE
MATR.         1                    : LOGUNIT      - NEUTRON MATRIX
RMT .C        18                   : MDTP         - TEMPERATURE OF MUD
NEUT.         1                    : NEUTRON      - NEUTRON TYPE
RESI.         0                    : RESIST       - RESISTIVITY TYPE
RMC .OHMM     3.39                 : RMC          - RESISTIVITY OF MUD CAKE
RMF .OHMM     3.39                 : RMF          - RESISTIVITY OF MUD FILTRATE
SUFT.C        5                    : SUFT         - SURFACE TEMPERATURE
~A  DEPTH       GR      CAL     PHIN     PHID     RESD
# ...
  429.500   39.424  161.206    0.427    0.360    5.381
  429.750   40.622  161.218    0.428    0.360    5.384
  430.000   40.640  161.248    0.432    0.356    5.291
  430.250   40.061  161.272    0.438    0.353    5.201
  430.500   39.485  161.296    0.439    0.350    5.113
  430.750   39.499  161.320    0.427    0.350    5.022
  431.000   39.514  161.344    0.417    0.353    4.936
  431.250   38.941  161.373    0.408    0.355    4.943
  431.500   38.949  161.385    0.408    0.355    4.858
  431.750   38.376  161.421    0.422    0.358    4.775
  432.000   38.394  161.439    0.437    0.363    4.779
  432.250   38.405  161.475    0.444    0.365    4.695
  432.500   39.013  162.477    0.429    0.362    4.700
  432.750   39.024  162.495    0.414    0.356    4.707
  433.000   39.632  162.525    0.407    0.351    4.713
  433.250   40.237  162.537    0.412    0.349    4.717
  433.500   40.842  162.567    0.418    0.349    4.723
  433.750   40.852  162.603    0.426    0.351    4.726
  434.000   41.457  162.615    0.424    0.352    4.732
  434.250   42.062  162.645    0.415    0.353    4.740
  434.500   42.666  162.669    0.404    0.354    4.742
  434.750   43.275  161.709    0.409    0.354    4.747
  435.000   43.285  161.727    0.416    0.354    4.844
  435.250   44.480  159.795    0.426    0.352    4.850
  435.500   45.089  159.813    0.441    0.353    4.854
  435.750   45.103  158.860    0.435    0.354    4.860
  436.000   43.937  158.872    0.430    0.354    4.866
  436.250   44.541  157.924    0.419    0.353    4.870
  436.500   46.327  157.936    0.409    0.352    4.877
  436.750   48.702  156.976    0.416    0.352    4.881
  437.000   48.716  156.016    0.436    0.350    4.889
  437.250   48.731  156.046    0.432    0.352    4.986
  437.500   48.151  156.070    0.415    0.354    4.990
  437.750   48.169  155.116    0.414    0.355    4.994
  438.000   48.191  155.134    0.416    0.358    5.001
  438.250   48.788  155.152    0.421    0.356    5.099
  438.500   49.400  155.176    0.425    0.354    5.107
  438.750   50.001  155.212    0.427    0.350    5.114
  439.000   50.602  155.230    0.432    0.349    5.118
  439.250   50.602  155.248    0.439    0.346    5.123
  439.500   49.458  155.278    0.434    0.344    5.130
  439.750   48.874  155.302    0.431    0.342    5.135
  440.000   48.889  155.332    0.429    0.340    5.141
  440.250   49.493  155.356    0.428    0.338    5.147
  440.500   49.508  155.380    0.426    0.337    5.153
  440.750   49.533  155.404    0.424    0.338    5.158
  441.000   50.134  155.428    0.422    0.338    5.163
  441.250   50.145  154.474    0.422    0.339    5.168
  441.500   50.746  154.492    0.429    0.339    5.174
  441.750   52.538  154.516    0.438    0.339    5.087
  442.000   53.730  154.540    0.441    0.341    5.093
  442.250   54.921  154.558    0.439    0.340    5.004
  442.500   56.710  154.582    0.435    0.335    5.009
  442.750   57.904  154.612    0.437    0.325    5.016
  443.000   59.690  155.619    0.436    0.318    5.022
  443.250   61.475  156.627    0.435    0.316    5.027
  443.500   62.670  158.619    0.429    0.314    5.033
  443.750   60.323  159.632    0.424    0.289    5.131
  444.000   50.310  160.628    0.408    0.242    5.434
  444.250   50.908  161.642    0.346    0.191    5.643
  444.500   46.790  161.672    0.275    0.120    6.198
  444.750   41.496  162.674    0.167    0.076    6.933
  445.000   40.924  162.703    0.143    0.030   14.037
  445.250   41.525  163.705    0.126    0.003   20.357
  445.500   42.129  163.729    0.110   -0.017   27.933
  445.750   43.324  164.743    0.102   -0.032   33.038
  446.000   45.113  164.761    0.101   -0.029   39.808
  446.250   45.710  165.775    0.101   -0.024   43.720
  446.500   46.905  165.793    0.102   -0.025   30.780
  446.750   46.920  165.816    0.102   -0.026   18.005
  447.000   45.163  164.863    0.100   -0.025   11.987
  447.250   43.407  163.909    0.140   -0.017    9.971
  447.500   46.963  162.937    0.180    0.006    7.992
  447.750   49.928  161.977    0.297    0.065    6.647
  448.000   54.075  161.018    0.369    0.149    6.295
  448.250   57.631  159.074    0.406    0.241    5.963
  448.500   57.652  160.082    0.418    0.305    5.752
  448.750   54.125  162.073    0.425    0.318    5.446
  449.000   51.188  165.060    0.416    0.325    5.065
  449.250   50.616  165.072    0.408    0.330    4.975
  449.500   51.217  165.102    0.416    0.332    4.799
  449.750   51.228  165.132    0.430    0.331    4.631
  450.000   51.246  165.144    0.410    0.332    4.638
  450.250   51.260  165.174    0.404    0.341    4.641
  450.500   51.865  165.204    0.418    0.341    4.647
  450.750   52.466  165.228    0.421    0.331    4.739
  451.000   54.845  166.242    0.404    0.321    4.834
  451.250   56.039  166.254    0.386    0.316    4.839
  451.500   56.054  166.284    0.419    0.314    4.843
  451.750   55.474  166.302    0.431    0.306    4.674
  452.000   53.135  166.332    0.431    0.299    4.592
  452.250   51.965  166.350    0.427    0.297    4.431
  452.500   50.799  165.396    0.416    0.294    4.118
  452.750   52.584  164.442    0.412    0.290    3.688
  453.000   54.366  164.454    0.417    0.285    3.430
  453.250   57.922  163.494    0.429    0.281    3.562
  453.500   61.478  163.524    0.412    0.278    3.840
  453.750   67.992  162.558    0.396    0.285    4.298
  454.000   69.187  161.605    0.446    0.318    4.720
  454.250   68.607  161.623    0.444    0.322    5.089
  454.500   66.264  161.653    0.427    0.320    5.192
  454.750   64.504  160.699    0.410    0.326    5.103
  455.000   61.575  160.711    0.409    0.330    4.920
  455.250   60.405  160.735    0.417    0.318    4.748
  455.500   59.825  160.759    0.423    0.318    4.753
  455.750   58.076  159.805    0.416    0.327    4.757
  456.000   57.497  158.845    0.399    0.335    4.851
  456.250   56.327  158.869    0.396    0.341    5.042
  456.500   53.980  157.921    0.406    0.341    5.238
  456.750   51.637  157.939    0.415    0.338    5.441
  457.000   50.471  157.963    0.421    0.336    5.653
  457.250   49.895  157.981    0.428    0.340    5.873
  457.500   50.496  158.017    0.427    0.340    5.991
  457.750   52.875  158.035    0.425    0.329    5.996
  458.000   57.022  158.059    0.423    0.314    5.786
  458.250   61.164  158.089    0.423    0.301    5.377
  458.500   66.491  158.107    0.423    0.294    4.643
  458.750   70.050  158.125    0.424    0.300    4.316
  459.000   71.835  158.161    0.427    0.306    4.087
  459.250   70.079  158.179    0.435    0.314    4.169
  459.500   65.962  159.193    0.447    0.320    4.330
  459.750   61.844  159.216    0.447    0.328    4.415
  460.000   58.321  159.234    0.442    0.330    4.675
  460.250   57.151  159.264    0.437    0.335    4.766
  460.500   55.395  159.276    0.437    0.334    4.860
  460.750   55.409  159.300    0.436    0.330    5.242
  461.000   57.194  159.324    0.432    0.325    5.343
  461.250   60.754  159.354    0.421    0.323    5.983
  461.500   60.181  159.378    0.415    0.326    6.212
  461.750   59.012  159.396    0.415    0.331    6.698
  462.000   59.613  159.426    0.402    0.332    6.705
  462.250   62.582  159.462    0.405    0.332    6.233
  462.500   64.957  159.480    0.430    0.331    5.583
  462.750   66.152  159.498    0.440    0.330    5.095
  463.000   66.753  159.522    0.436    0.325    4.649
  463.250   66.775  158.568    0.431    0.314    4.403
  463.500   66.782  157.608    0.432    0.299    4.169
  463.750   65.620  157.626    0.437    0.295    4.097
  464.000   65.044  157.656    0.431    0.303    4.338
  464.250   65.054  157.680    0.424    0.316    4.678
  464.500   65.666  157.704    0.435    0.330    4.769
  464.750   66.267  157.728    0.438    0.326    4.956
  465.000   68.056  157.746    0.437    0.314    4.960
  465.250   69.247  157.770    0.432    0.305    4.967
  465.500   69.856  157.794    0.424    0.310    4.974
  465.750   69.276  159.792    0.422    0.311    4.885
