~VERSION INFORMATION
 VERS.                 2.0:   CWLS LOG ASCII STANDARD -VERSION 2.0
 WRAP.                  NO:   ONE LINE PER DEPTH STEP
~WELL INFORMATION BLOCK
#MNEM.UNIT           DATA                    DESCRIPTION OF MNEMONIC
#---------    -------------------            -------------------------------
# Generated from Intellog Unique Number	CS_73_76/WELL/3265
WELL.         CHEVRON N CLYDE                : Well_name    - WELL
LOC .         00/11-21-075-11W4/0            : Location     - LOCATION
UWI .         00/11-21-075-11W4/0            : Uwi          - UNIQUE WELL ID
ENTR.         SP                             : Entered      - ENTERED BY
SRVC.         SCHLUMBERGER                   : Scn          - SERVICE COMPANY
STRT.M        274.32                         : top_depth    - START DEPTH
STOP.M        502.57                         : bot_depth    - STOP DEPTH
STEP.M        0.25                           : increment    - STEP LENGTH
 NULL. -999.2500:NULL Value
~CURVE INFORMATION BLOCK
#MNEM UNIT       ERCB CURVE CODE    CURVE DESCRIPTION
#-----------   ------------------   ----------------------------------
DEPT.M        00 001 00 00         : DEPTH        - DEPTH
GR  .API      00 310 00 00         : GR           - GAMMA RAY
DPHI.V/V      00 890 00 00         : PHID         - DENSITY POROSITY (SANDSTONE)
NPHI.V/V      00 330 00 00         : PHIN         - NEUTRON POROSITY (SANDSTONE)
ILD .OHMM     00 120 00 00         : RESD         - DEEP RESISTIVITY (DIL)
~PARAMETER INFORMATION
#MNEM.UNIT           DATA             DESCRIPTION OF MNEMONIC
#---------         -----------     ------------------------------
GL  .M        656.387              : gl           - GROUND LEVEL ELEVATION
EREF.M        660.502              : kb           - ELEVATION OF DEPTH REFERENCE
DATM.M        656.387              : datum        - DATUM ELEVATION
TDD .M        506.273              : tdd          - TOTAL DEPTH DRILLER
RUN .         ONE                  : Run          - RUN NUMBER
ENG .         BILL                 : Engineer     - RECORDING ENGINEER
WIT .         JIM                  : Witness      - WITNESSED BY
MUD .         GEL                  : Mud_type     - MUD TYPE
MATR.         SANDSTONE            : Logunit      - NEUTRON MATRIX
TMAX.C        20.7264              : BHT          - MAXIMUM RECORDED TEMPERATURE
BHTD.M        905                  : BHTDEP       - MAXIMUM RECORDED TEMPERATURE
MATR.         1                    : LOGUNIT      - NEUTRON MATRIX
RMT .C        25                   : MDTP         - TEMPERATURE OF MUD
NEUT.         1                    : NEUTRON      - NEUTRON TYPE
RESI.         0                    : RESIST       - RESISTIVITY TYPE
RMC .OHMM     0.25                 : RMC          - RESISTIVITY OF MUD CAKE
RMF .OHMM     0.25                 : RMF          - RESISTIVITY OF MUD FILTRATE
SUFT.C        15                   : SUFT         - SURFACE TEMPERATURE
~A  DEPTH       GR     PHID     PHIN     RESD
# ...
  317.820   76.230    0.268    0.391    8.367
  318.070   81.791    0.268    0.461    7.654
  318.320   86.537    0.260    0.496    7.185
  318.570   90.878    0.251    0.507    6.893
  318.820   94.077    0.233    0.524    7.138
  319.070   94.682    0.234    0.538    7.475
  319.320   92.481    0.242    0.522    8.056
  319.570   89.482    0.253    0.513    8.834
  319.820   87.035    0.264    0.517    9.850
  320.070   86.856    0.260    0.518   11.292
  320.320   85.400    0.267    0.503   12.286
  320.570   81.382    0.280    0.521   13.625
  320.820   75.685    0.293    0.522   14.442
  321.070   71.108    0.314    0.536   15.373
  321.320   66.841    0.311    0.537   16.175
  321.570   63.492    0.312    0.521   16.636
  321.820   60.777    0.316    0.506   16.958
  322.070   60.566    0.319    0.489   17.021
  322.320   60.527    0.313    0.455   17.251
  322.570   61.589    0.312    0.434   16.254
  322.820   61.935    0.317    0.416   14.251
  323.070   64.332    0.312    0.421   11.530
  323.320   71.554    0.297    0.430    8.879
  323.570   81.078    0.277    0.439    7.695
  323.820   90.004    0.237    0.477    6.673
  324.070   93.598    0.226    0.534    7.017
  324.320   92.161    0.252    0.568    8.024
  324.570   84.709    0.271    0.599    9.740
  324.820   78.284    0.292    0.603   11.900
  325.070   71.993    0.305    0.576   14.083
  325.320   65.558    0.310    0.498   15.432
  325.570   60.257    0.306    0.514   16.497
  325.820   55.429    0.305    0.474   17.221
  326.070   52.037    0.306    0.453   17.601
  326.320   50.125    0.307    0.438   17.621
  326.570   48.658    0.299    0.432   17.903
  326.820   49.164    0.296    0.431   17.895
  327.070   49.764    0.299    0.443   17.894
  327.320   49.963    0.312    0.469   17.860
  327.570   47.632    0.316    0.482   18.258
  327.820   46.793    0.314    0.489   18.222
  328.070   46.391    0.317    0.475   18.463
  328.320   46.225    0.308    0.469   18.552
  328.570   46.211    0.301    0.456   18.562
  328.820   46.211    0.312    0.444   18.572
  329.070   46.208    0.322    0.444   18.633
  329.320   46.255    0.319    0.449   18.914
  329.570   45.563    0.321    0.446   18.908
  329.820   45.619    0.308    0.448   18.906
  330.070   45.644    0.309    0.445   18.906
  330.320   45.915    0.320    0.445   18.906
  330.570   46.291    0.324    0.436   18.906
  330.820   47.904    0.316    0.431   18.906
  331.070   48.694    0.325    0.445   18.906
  331.320   48.642    0.329    0.435   18.906
  331.570   48.696    0.330    0.450   18.906
  331.820   47.886    0.326    0.457   18.906
  332.070   46.839    0.321    0.466   18.906
  332.320   50.829    0.332    0.452   18.923
  332.570   53.775    0.335    0.441   19.009
  332.820   55.776    0.329    0.433   19.963
  333.070   55.997    0.327    0.453   20.152
  333.320   53.806    0.330    0.466   20.340
  333.570   50.687    0.334    0.481   20.358
  333.820   48.879    0.337    0.494   20.496
  334.070   49.299    0.339    0.488   20.722
  334.320   50.771    0.345    0.481   20.724
  334.570   51.081    0.345    0.467   20.698
  334.820   50.503    0.344    0.452   21.101
  335.070   49.486    0.342    0.441   21.100
  335.320   49.413    0.338    0.450   21.103
  335.570   50.382    0.335    0.454   21.131
  335.820   51.797    0.331    0.460   20.687
  336.070   51.697    0.330    0.459   20.722
  336.320   51.732    0.330    0.452   20.727
  336.570   50.691    0.336    0.438   20.761
  336.820   47.288    0.340    0.429   20.329
  337.070   45.187    0.329    0.450   20.356
  337.320   45.276    0.330    0.466   20.378
  337.570   46.315    0.339    0.472   19.974
  337.820   46.661    0.343    0.496   19.985
  338.070   47.680    0.338    0.520   19.980
  338.320   48.703    0.337    0.520   19.974
  338.570   49.014    0.339    0.492   19.763
  338.820   50.051    0.343    0.455   19.622
  339.070   51.041    0.345    0.454   19.613
  339.320   52.017    0.339    0.461   19.616
  339.570   52.966    0.337    0.446   19.623
  339.820   52.931    0.341    0.433   19.324
  340.070   52.940    0.341    0.429   19.266
  340.320   52.945    0.338    0.456   19.256
  340.570   52.878    0.334    0.471   19.293
  340.820   53.566    0.330    0.460   18.868
  341.070   54.144    0.328    0.449   18.906
  341.320   54.455    0.341    0.437   18.906
  341.570   55.365    0.347    0.449   18.906
  341.820   55.913    0.354    0.449   18.906
  342.070   55.916    0.344    0.446   18.899
  342.320   55.809    0.332    0.446   18.870
  342.570   54.255    0.324    0.460   18.248
  342.820   53.478    0.323    0.476   17.978
  343.070   54.255    0.331    0.489   16.869
  343.320   56.836    0.330    0.465   14.919
  343.570   57.171    0.327    0.448   13.785
  343.820   56.566    0.322    0.433   13.593
  344.070   55.949    0.314    0.444   14.431
  344.320   55.946    0.318    0.464   15.263
  344.570   56.564    0.329    0.490   15.732
  344.820   56.502    0.328    0.496   15.323
  345.070   57.157    0.333    0.489   14.215
  345.320   56.078    0.333    0.505   13.188
  345.570   55.278    0.329    0.506   12.435
  345.820   56.880    0.327    0.481   12.922
  346.070   61.428    0.329    0.489   13.966
  346.320   64.433    0.325    0.513   14.685
  346.570   65.009    0.322    0.494   15.473
  346.820   64.626    0.316    0.493   16.257
  347.070   63.611    0.311    0.486   16.752
  347.320   62.630    0.315    0.468   16.933
  347.570   61.917    0.318    0.484   16.934
  347.820   62.658    0.316    0.500   16.933
  348.070   63.156    0.313    0.514   16.933
  348.320   63.857    0.307    0.518   16.956
  348.570   63.748    0.303    0.495   16.549
  348.820   63.192    0.301    0.479   16.333
  349.070   64.413    0.307    0.475   15.886
  349.320   65.707    0.313    0.495   15.438
  349.570   66.346    0.324    0.522   15.258
  349.820   64.248    0.327    0.541   14.890
  350.070   59.572    0.326    0.550   14.612
  350.320   56.879    0.333    0.537   14.652
  350.570   57.432    0.336    0.539   14.327
  350.820   59.031    0.328    0.547   14.349
  351.070   59.434    0.328    0.546   14.927
  351.320   59.868    0.272    0.532   16.411
  351.570   60.993    0.151    0.528   19.354
  351.820   58.227   -0.005    0.532   24.822
  352.070   53.829   -0.000    0.178   30.297
  352.320   50.399    0.001    0.150   32.032
  352.570   48.533    0.055    0.176   31.485
  352.820   49.027    0.096    0.218   24.637
  353.070   54.989    0.171    0.439   20.436
  353.320   58.991    0.247    0.474   18.068
  353.570   60.891    0.330    0.515   16.322
  353.820   64.571    0.331    0.547   15.231
  354.070   66.796    0.319    0.546   14.820
  354.320   68.660    0.312    0.539   14.146
  354.570   69.349    0.308    0.529   12.874
  354.820   69.283    0.318    0.527   12.268
  355.070   69.838    0.305    0.518   10.820
  355.320   70.118    0.281    0.495    9.589
  355.570   71.126    0.251    0.470    8.714
  355.820   71.587    0.228    0.460    8.224
  356.070   71.705    0.222    0.459    7.932
  356.320   71.726    0.209    0.467    7.533
  356.570   71.301    0.206    0.462    7.172
  356.820   71.153    0.232    0.449    6.929
  357.070   71.120    0.243    0.445    6.641
  357.320   72.265    0.227    0.443    6.314
  357.570   76.654    0.215    0.441    6.135
  357.820   79.398    0.208    0.445    5.960
  358.070   80.817    0.212    0.440    5.620
  358.320   80.642    0.215    0.425    5.305
  358.570   81.029    0.210    0.440    5.004
  358.820   82.751    0.206    0.465    4.532
  359.070   85.080    0.216    0.500    4.096
  359.320   85.324    0.228    0.539    3.750
  359.570   88.294    0.233    0.575    3.376
  359.820   90.983    0.243    0.582    3.066
  360.070   94.837    0.231    0.624    2.943
  360.320   96.611    0.236    0.604    2.842
  360.570   97.498    0.239    0.640    2.948
  360.820   96.970    0.235    0.657    3.003
  361.070   92.534    0.225    0.613    3.142
