~VERSION INFORMATION
 VERS.                 2.0:   CWLS LOG ASCII STANDARD -VERSION 2.0
 WRAP.                  NO:   ONE LINE PER DEPTH STEP
~WELL INFORMATION BLOCK
#MNEM.UNIT           DATA                    DESCRIPTION OF MNEMONIC
#---------    -------------------            -------------------------------
# Generated from Intellog Unique Number	CW_82_90/WELL/3451
WELL.         CDN SUP                        : Well_name    - WELL
LOC .         00/11-21-090-23W4/0            : Location     - LOCATION
UWI .         00/11-21-090-23W4/0            : Uwi          - UNIQUE WELL ID
ENTR.         MAX                            : Entered      - ENTERED BY
SRVC.         SCHLUMBERGER                   : Scn          - SERVICE COMPANY
STRT.M        167.64                         : top_depth    - START DEPTH
STOP.M        249.89                         : bot_depth    - STOP DEPTH
STEP.M        0.25                           : increment    - STEP LENGTH
 NULL. -999.2500:NULL Value
~CURVE INFORMATION BLOCK
#MNEM UNIT       ERCB CURVE CODE    CURVE DESCRIPTION
#-----------   ------------------   ----------------------------------
DEPT.M        00 001 00 00         : DEPTH        - DEPTH
ILD .OHMM     00 120 00 00         : RESD         - DEEP RESISTIVITY (DIL)
NPHI.V/V      00 330 00 00         : PHIN         - NEUTRON POROSITY (SANDSTONE)
DPHI.V/V      00 890 00 00         : PHID         - DENSITY POROSITY (SANDSTONE)
CALI.MM       00 280 01 00         : CAL          - CALIPER
GR  .API      00 310 00 00         : GR           - GAMMA RAY
~PARAMETER INFORMATION
#MNEM.UNIT           DATA             DESCRIPTION OF MNEMONIC
#---------         -----------     ------------------------------
GL  .M        519.379              : gl           - GROUND LEVEL ELEVATION
EREF.M        523.646              : kb           - ELEVATION OF DEPTH REFERENCE
DATM.M        519.379              : datum        - DATUM ELEVATION
TDD .M        268.224              : tdd          - TOTAL DEPTH DRILLER
RUN .         ONE                  : Run          - RUN NUMBER
ENG .         BILL                 : Engineer     - RECORDING ENGINEER
WIT .         JIM                  : Witness      - WITNESSED BY
MUD .         GEL                  : Mud_type     - MUD TYPE
MATR.         SANDSTONE            : Logunit      - NEUTRON MATRIX
TMAX.C        22.7778              : BHT          - MAXIMUM RECORDED TEMPERATURE
BHTD.M        268.224              : BHTDEP       - MAXIMUM RECORDED TEMPERATURE
MATR.         1                    : LOGUNIT      - NEUTRON MATRIX
RMT .C        15.5556              : MDTP         - TEMPERATURE OF MUD
NEUT.         1                    : NEUTRON      - NEUTRON TYPE
RESI.         0                    : RESIST       - RESISTIVITY TYPE
RMC .OHMM     2.55                 : RMC          - RESISTIVITY OF MUD CAKE
RMF .OHMM     2.7                  : RMF          - RESISTIVITY OF MUD FILTRATE
SUFT.C        -10                  : SUFT         - SURFACE TEMPERATURE
~A  DEPTH     RESD     PHIN     PHID      CAL       GR
  167.640    8.079    0.392    0.091  214.497   86.076
  167.890    7.307    0.397    0.068  213.011   88.170
  168.140    6.255    0.401    0.048  213.548   90.265
  168.390    5.454    0.408    0.004  215.605   91.767
  168.640    4.799    0.417   -0.032  217.153   89.410
  168.890    4.420    0.415   -0.024  218.196   87.644
  169.140    4.381    0.405   -0.024  218.223   84.991
  169.390    4.803    0.339   -0.045  218.254   85.604
  169.640    4.984    0.375    0.007  219.296   88.886
  169.890    4.986    0.427    0.047  218.825   93.056
  170.140    4.551    0.448    0.053  218.852  102.570
  170.390    4.004    0.449    0.047  219.389  111.790
  170.640    3.722    0.450    0.058  219.420  109.136
  170.890    3.590    0.450    0.033  219.960  105.001
  171.140    3.525    0.450    0.044  221.003  102.051
  171.390    3.559    0.450    0.047  223.056  100.881
  171.640    3.561    0.450    0.047  222.582  102.085
  171.890    3.627    0.450    0.056  220.590  102.103
  172.140    3.764    0.451    0.065  220.624  100.043
  172.390    4.165    0.448    0.060  220.659   97.684
  172.640    4.780    0.399    0.078  219.671   93.249
  172.890    5.537    0.356    0.067  219.200   90.002
  173.140    6.126    0.338    0.062  218.219   87.052
  173.390    6.716    0.338    0.074  217.741   84.994
  173.640    7.637    0.343    0.088  217.772   83.231
  173.890    8.450    0.341    0.077  214.768   83.248
  174.140    9.787    0.340    0.052  216.324   83.265
  174.390   11.441    0.339    0.028  216.857   80.016
  174.640   13.131    0.335    0.067  216.884   73.803
  174.890   14.265    0.333    0.104  217.926   69.668
  175.140   14.668    0.343    0.098  216.444   69.087
  175.390   14.808    0.351    0.116  216.977   70.890
  175.640   14.678    0.356    0.105  219.034   74.761
  175.890   14.284    0.362    0.084  218.559   78.933
  176.140   13.158    0.368    0.075  219.602   83.699
  176.390    8.957    0.386    0.075  220.648   88.168
  176.640    7.125    0.396    0.070  220.169   92.639
  176.890    6.044    0.411    0.067  219.189   97.702
  177.140    5.671    0.397    0.062  220.741  102.767
  177.390    4.989    0.375    0.065  219.254  104.268
  177.640    4.390    0.361    0.057  220.810  103.989
  177.890    4.640    0.343    0.048  221.339  102.226
  178.140    5.040    0.325    0.040  220.861   99.275
  178.390    5.680    0.331    0.024  219.374   96.026
  178.640    6.460    0.339    0.031  218.903   93.671
  178.890    6.521    0.347    0.048  219.946   94.579
  179.140    6.464    0.354    0.062  219.977   96.377
  179.390    6.290    0.361    0.052  218.490   98.173
  179.640    6.066    0.373    0.046  219.023   99.377
  179.890    5.639    0.399    0.056  218.050   97.913
  180.140    5.195    0.404    0.065  218.073   95.851
  180.390    5.009    0.401    0.088  218.108   92.606
  180.640    5.294    0.404    0.101  219.147   89.356
  180.890    6.303    0.399    0.089  219.181   74.832
  181.140    7.784    0.391    0.101  218.707   68.322
  181.390    9.439    0.366    0.060  219.749   67.150
  181.640   11.551    0.366    0.067  218.263   69.249
  181.890   11.877    0.371    0.086  216.275   70.449
  182.140   11.990    0.375    0.093  215.796   69.875
  182.390   11.995    0.369    0.088  212.291   70.484
  182.640   12.220    0.363    0.064  211.812   72.878
  182.890   12.337    0.355    0.091  215.391   75.564
  183.140   11.056    0.373    0.090  217.943   81.221
  183.390    7.526    0.402    0.078  218.479   86.582
  183.640    5.463    0.435    0.101  219.016   87.787
  183.890    4.306    0.444    0.110  219.556   90.178
  184.140    3.489    0.449    0.102  218.572   93.460
  184.390    2.987    0.449    0.091  219.618   93.777
  184.640    2.803    0.429    0.063  220.159   93.203
  184.890    2.803    0.381    0.044  219.684   92.325
  185.140    2.990    0.353    0.046  218.696   89.969
  185.390    3.400    0.346    0.045  219.236   89.392
  185.640    4.316    0.347    0.039  219.271   87.928
  185.890    5.479    0.353    0.033  220.309   87.352
  186.140    7.150    0.358   -0.003  220.842   86.180
  186.390    8.591    0.359   -0.025  218.344   85.309
  186.640    9.247    0.354   -0.024  217.870   85.623
  186.890    8.596    0.355    0.008  219.421   88.309
  187.140    8.065    0.361    0.022  219.452   92.185
  187.390    7.849    0.370    0.043  217.966   91.609
  187.640    7.569    0.376    0.068  218.503   89.551
  187.890    7.502    0.370    0.054  218.534   88.085
  188.140    7.714    0.362    0.040  218.572   86.618
  188.390    7.932    0.357    0.025  218.090   85.154
  188.640    8.155    0.353    0.021  217.619   84.276
  188.890    8.233    0.351    0.020  216.133   82.513
  189.140    8.312    0.351    0.035  214.646   79.268
  189.390    8.314    0.350    0.054  214.681   76.315
  189.640    8.628    0.347    0.069  214.202   70.991
  189.890    9.722    0.344    0.057  212.716   67.447
  190.140   10.956    0.340    0.027  212.245   67.167
  190.390   12.346    0.328    0.030  213.288   70.153
  190.640   11.905    0.303    0.048  213.311   73.437
  190.890   10.669    0.308    0.062  212.334   77.016
  191.140    9.561    0.322    0.058  213.878   80.300
  191.390    8.807    0.342    0.056  215.936   82.689
  191.640    8.416    0.358    0.050  215.975   85.083
  191.890    7.682    0.394    0.048  216.002   86.881
  192.140    6.884    0.406    0.060  216.534   89.570
  192.390    5.043    0.427    0.084  219.094   90.475
  192.640    4.161    0.425    0.098  219.631   89.602
  192.890    3.530    0.413    0.090  218.148   88.138
  193.140    3.765    0.407    0.092  217.677   85.185
  193.390    4.958    0.395    0.095  216.697   78.970
  193.640    6.123    0.375    0.102  217.226   69.790
  193.890    7.631    0.355    0.109  217.762   67.430
  194.140    9.254    0.357    0.072  218.303   67.151
  194.390    9.781    0.348    0.065  218.334   68.949
  194.640    9.874    0.340    0.060  217.353   70.747
  194.890    9.877    0.329    0.052  216.369   71.952
  195.140    9.701    0.322    0.018  216.403   73.156
  195.390    9.185    0.324    0.023  216.431   74.361
  195.640    8.696    0.329    0.032  217.979   76.755
  195.890    8.620    0.294    0.038  218.009   75.288
  196.140    9.364    0.276    0.010  217.535   72.637
  196.390   10.361    0.249   -0.016  216.554   68.794
  196.640   11.568    0.215   -0.053  216.585   68.516
  196.890   13.156    0.204   -0.053  220.160   67.344
  197.140   14.291    0.193   -0.060  220.693   63.800
  197.390   15.526    0.179   -0.067  218.705   62.635
  197.640   19.000    0.182   -0.060  216.709   62.648
  197.890   20.830    0.200   -0.021  215.728   65.339
  198.140   21.029    0.264    0.018  216.771   68.027
  198.390   17.195    0.282    0.030  218.322   71.901
  198.640   13.066    0.297    0.026  218.353   80.822
  198.890   11.083    0.310    0.000  218.894   82.916
  199.140   10.209    0.301    0.002  219.427   81.747
  199.390   10.402    0.294    0.015  219.461   81.467
  199.640   11.614    0.285   -0.029  220.504   77.330
  199.890   13.701    0.276   -0.069  218.512   77.052
  200.140   14.348    0.257   -0.084  218.037   80.928
  200.390   14.354    0.243   -0.078  217.056   85.694
  200.640   14.358    0.320   -0.008  216.076   87.195
  200.890   13.595    0.339    0.000  216.111   88.107
  201.140   12.523    0.334    0.019  215.628   89.011
  201.390   11.641    0.320    0.023  215.153   90.809
  201.640   11.226    0.313    0.023  215.188   90.233
  201.890   10.925    0.313    0.029  215.223   88.177
  202.140   10.929    0.314    0.040  215.756   86.409
  202.390   11.033    0.313    0.040  216.288   82.569
  202.640   11.037    0.306    0.016  215.312   76.057
  202.890   10.741    0.254   -0.060  213.822   67.764
  203.140    9.986    0.215   -0.115  212.841   59.472
  203.390   10.947    0.183   -0.137  214.903   53.850
  203.640   15.091    0.143   -0.078  215.435   56.539
  203.890   16.545    0.197   -0.059  215.976   60.711
