~VERSION INFORMATION
 VERS.                 2.0:   CWLS LOG ASCII STANDARD -VERSION 2.0
 WRAP.                  NO:   ONE LINE PER DEPTH STEP
~WELL INFORMATION BLOCK
#MNEM.UNIT           DATA                    DESCRIPTION OF MNEMONIC
#---------    -------------------            -------------------------------
# Generated from Intellog Unique Number	CS_77_79/WELL/961
WELL.         PCI PCEJ CHARD                 : Well_name    - WELL
LOC .         00/10-25-079-07W4/0            : Location     - LOCATION
UWI .         00/10-25-079-07W4/0            : Uwi          - UNIQUE WELL ID
ENTR.         JHS                            : Entered      - ENTERED BY
SRVC.         SCHLUMBERGER                   : Scn          - SERVICE COMPANY
STRT.M        125                            : top_depth    - START DEPTH
STOP.M        365                            : bot_depth    - STOP DEPTH
STEP.M        0.25                           : increment    - STEP LENGTH
 NULL. -999.2500:NULL Value
~CURVE INFORMATION BLOCK
#MNEM UNIT       ERCB CURVE CODE    CURVE DESCRIPTION
#-----------   ------------------   ----------------------------------
DEPT.M        00 001 00 00         : DEPTH        - DEPTH
DPHI.V/V      00 890 00 00         : PHID         - DENSITY POROSITY (LIMESTONE)
NPHI.V/V      00 330 00 00         : PHIN         - NEUTRON POROSITY (LIMESTONE)
GR  .API      00 310 00 00         : GR           - GAMMA RAY
ILD .OHMM     00 120 00 00         : RESD         - DEEP RESISTIVITY (DIL)
RHOB.KG/M3    00 350 00 00         : DENS         - BULK DENSITY
~PARAMETER INFORMATION
#MNEM.UNIT           DATA             DESCRIPTION OF MNEMONIC
#---------         -----------     ------------------------------
GL  .M        565.7                : gl           - GROUND LEVEL ELEVATION
EREF.M        569.4                : kb           - ELEVATION OF DEPTH REFERENCE
DATM.M        569.4                : datum        - DATUM ELEVATION
TDD .M        391                  : tdd          - TOTAL DEPTH DRILLER
RUN .         ONE                  : Run          - RUN NUMBER
ENG .         BILL                 : Engineer     - RECORDING ENGINEER
WIT .         JIM                  : Witness      - WITNESSED BY
MUD .         GEL                  : Mud_type     - MUD TYPE
MATR.         LIMESTONE            : Logunit      - NEUTRON MATRIX
TMAX.C        19                   : BHT          - MAXIMUM RECORDED TEMPERATURE
BHTD.M        391                  : BHTDEP       - MAXIMUM RECORDED TEMPERATURE
MATR.         1                    : LOGUNIT      - NEUTRON MATRIX
RMT .C        25                   : MDTP         - TEMPERATURE OF MUD
NEUT.         1                    : NEUTRON      - NEUTRON TYPE
RESI.         0                    : RESIST       - RESISTIVITY TYPE
RMC .OHMM     0.25                 : RMC          - RESISTIVITY OF MUD CAKE
RMF .OHMM     0.25                 : RMF          - RESISTIVITY OF MUD FILTRATE
SUFT.C        15                   : SUFT         - SURFACE TEMPERATURE
~A  DEPTH     PHID     PHIN       GR     RESD     DENS
# ...
  234.500    0.265    0.463   71.140    7.597    0.000
  234.750    0.270    0.464   69.882    7.604    0.000
  235.000    0.275    0.453   75.557    7.758    0.000
  235.250    0.279    0.439   74.299    8.064    0.000
  235.500    0.276    0.423   71.781    8.386    0.000
  235.750    0.256    0.416   72.414    8.394    0.000
  236.000    0.250    0.440   74.308    8.089    0.000
  236.250    0.265    0.464   76.831    7.948    0.000
  236.500    0.279    0.447   78.094    7.953    0.000
  236.750    0.296    0.448   78.097    8.269    0.000
  237.000    0.300    0.463   75.579    8.597    0.000
  237.250    0.292    0.464   71.169    9.282    0.000
  237.500    0.294    0.449   69.281   10.021    0.000
  237.750    0.305    0.433   70.545   10.617    0.000
  238.000    0.315    0.421   71.177   11.247    0.000
  238.250    0.311    0.435   69.289   11.918    0.000
  238.500    0.305    0.443   64.881   12.157    0.000
  238.750    0.309    0.439   66.773   12.407    0.000
  239.000    0.311    0.418   71.819   12.414    0.000
  239.250    0.309    0.415   68.669   12.664    0.000
  239.500    0.309    0.420   62.370   12.675    0.000
  239.750    0.309    0.424   64.894   12.454    0.000
  240.000    0.304    0.426   66.787   12.466    0.000
  240.250    0.294    0.433   68.051   12.012    0.000
  240.500    0.291    0.441   68.683   11.800    0.000
  240.750    0.284    0.418   68.687   11.589    0.000
  241.000    0.276    0.415   71.210   11.172    0.000
  241.250    0.272    0.401   74.994   10.769    0.000
  241.500    0.268    0.386   75.627   10.577    0.000
  241.750    0.265    0.400   76.260   10.195    0.000
  242.000    0.262    0.421   79.414   10.013    0.000
  242.250    0.266    0.420   74.374    9.649    0.000
  242.500    0.275    0.414   73.117    9.300    0.000
  242.750    0.268    0.424   75.640    8.797    0.000
  243.000    0.252    0.461   75.644    8.162    0.000
  243.250    0.272    0.470   74.385    7.435    0.000
  243.500    0.287    0.439   73.127    7.030    0.000
  243.750    0.265    0.443   73.130    6.525    0.000
  244.000    0.261    0.458   75.654    6.171    0.000
  244.250    0.297    0.471   79.439    5.727    0.000
  244.500    0.297    0.475   79.440    5.733    0.000
  244.750    0.285    0.464   77.553    5.525    0.000
  245.000    0.277    0.470   78.186    5.031    0.000
  245.250    0.273    0.504   80.710    4.496    0.000
  245.500    0.270    0.518   83.864    4.017    0.000
  245.750    0.273    0.513   87.648    3.659    0.000
  246.000    0.293    0.524   91.432    3.395    0.000
  246.250    0.281    0.533   92.695    3.336    0.000
  246.500    0.275    0.528   85.766    3.401    0.000
  246.750    0.290    0.538   81.356    3.742    0.000
  247.000    0.330    0.553   77.577    4.197    0.000
  247.250    0.351    0.534   75.689    4.888    0.000
  247.500    0.335    0.498   75.691    5.585    0.000
  247.750    0.317    0.486   75.695    6.507    0.000
  248.000    0.306    0.495   73.806    6.892    0.000
  248.250    0.223    0.465   69.397    7.729    0.000
  248.500    0.209    0.429   70.030    8.187    0.000
  248.750    0.252    0.430   75.075    8.513    0.000
  249.000    0.273    0.437   79.489    8.521    0.000
  249.250    0.282    0.450   80.122    8.692    0.000
  249.500    0.288    0.460   78.864    9.210    0.000
  249.750    0.282    0.462   80.128    9.045    0.000
  250.000    0.266    0.461   80.760    8.555    0.000
  250.250    0.254    0.454   81.394    8.090    0.000
  250.500    0.264    0.462   80.136    7.511    0.000
  250.750    0.258    0.475   81.399    7.239    0.000
  251.000    0.248    0.484   83.923    7.384    0.000
  251.250    0.247    0.465   83.925    7.531    0.000
  251.500    0.256    0.445   83.928    7.538    0.000
  251.750    0.264    0.440   82.670    7.132    0.000
  252.000    0.256    0.455   80.782    6.873    0.000
  252.250    0.249    0.457   80.785    6.260    0.000
  252.500    0.284    0.444   82.048    5.807    0.000
  252.750    0.313    0.452   88.353    4.632    0.000
  253.000    0.306    0.532   92.768    3.426    0.000
  253.250    0.301    0.555   89.620    2.838    0.000
  253.500    0.304    0.556   87.101    2.584    0.000
  253.750    0.304    0.560   85.843    2.491    0.000
  254.000    0.309    0.593   80.803    2.541    0.000
  254.250    0.304    0.596   75.134    2.642    0.000
  254.500    0.304    0.561   77.028    2.747    0.000
  254.750    0.296    0.524   81.442    2.966    0.000
  255.000    0.264    0.512   83.966    3.141    0.000
  255.250    0.249    0.504   83.338    3.456    0.000
  255.500    0.268    0.490   75.148    3.950    0.000
  255.750    0.289    0.492   72.000    4.514    0.000
  256.000    0.293    0.500   75.153    5.062    0.000
  256.250    0.302    0.481   78.307    5.676    0.000
  256.500    0.289    0.450   75.788    6.486    0.000
  256.750    0.234    0.450   68.859    7.413    0.000
  257.000    0.125    0.366   60.668    8.312    0.000
  257.250    0.055    0.256   50.586   10.641    0.000
  257.500    0.061    0.218   48.068   14.148    0.000
  257.750    0.109    0.237   53.743   17.442    0.000
  258.000    0.120    0.283   56.898   19.188    0.000
  258.250    0.188    0.307   58.791   19.577    0.000
  258.500    0.273    0.331   66.356   17.494    0.000
  258.750    0.322    0.366   72.032   14.490    0.000
  259.000    0.307    0.395   74.555   10.516    0.000
  259.250    0.279    0.420   75.188    8.711    0.000
  259.500    0.287    0.448   75.191    8.397    0.000
  259.750    0.311    0.462   73.303    8.567    0.000
  260.000    0.321    0.457   69.524    8.905    0.000
  260.250    0.319    0.442   68.266    9.084    0.000
  260.500    0.308    0.430   69.530    9.095    0.000
  260.750    0.294    0.422   72.683    9.102    0.000
  261.000    0.282    0.414   75.207    9.113    0.000
  261.250    0.284    0.413   75.209    9.122    0.000
  261.500    0.280    0.421   75.212    9.132    0.000
  261.750    0.267    0.428   80.258    9.137    0.000
  262.000    0.262    0.437   80.890    9.147    0.000
  262.250    0.277    0.436   79.632    9.158    0.000
  262.500    0.287    0.433   77.744    9.343    0.000
  262.750    0.275    0.418   77.117    9.178    0.000
  263.000    0.268    0.411   78.380    9.014    0.000
  263.250    0.265    0.426   77.123    8.687    0.000
  263.500    0.278    0.452   77.125    8.531    0.000
  263.750    0.290    0.433   81.539    8.223    0.000
  264.000    0.282    0.419   85.954    8.076    0.000
  264.250    0.262    0.414   84.696    7.785    0.000
  264.500    0.268    0.404   82.808    7.364    0.000
  264.750    0.267    0.406   85.332    7.232    0.000
  265.000    0.260    0.429   85.964    7.106    0.000
  265.250    0.260    0.452   82.187    7.247    0.000
  265.500    0.262    0.451   80.297    7.533    0.000
  265.750    0.252    0.426   75.258    7.982    0.000
  266.000    0.248    0.414   70.849    8.296    0.000
  266.250    0.257    0.422   67.070    8.961    0.000
  266.500    0.277    0.433   69.594    9.314    0.000
  266.750    0.298    0.438   67.706    9.325    0.000
  267.000    0.309    0.424   65.187    8.986    0.000
  267.250    0.313    0.421   75.275    8.500    0.000
  267.500    0.287    0.426   79.058    8.037    0.000
  267.750    0.268    0.442   78.431    7.458    0.000
  268.000    0.273    0.467   79.064    6.793    0.000
  268.250    0.273    0.468   78.436    6.303    0.000
  268.500    0.266    0.444   75.918    5.739    0.000
  268.750    0.264    0.432   79.072    5.532    0.000
  269.000    0.273    0.442   83.487    5.538    0.000
  269.250    0.266    0.467   82.859    5.441    0.000
  269.500    0.264    0.462   79.081    5.447    0.000
  269.750    0.270    0.457   79.713    5.350    0.000
  270.000    0.274    0.462   81.606    5.156    0.000
  270.250    0.270    0.493   80.979    5.063    0.000
  270.500    0.273    0.538   77.831    5.070    0.000
  270.750    0.288    0.524   74.051    5.269    0.000
