~VERSION INFORMATION
 VERS.                 2.0:   CWLS LOG ASCII STANDARD -VERSION 2.0
 WRAP.                  NO:   ONE LINE PER DEPTH STEP
~WELL INFORMATION BLOCK
#MNEM.UNIT           DATA                    DESCRIPTION OF MNEMONIC
#---------    -------------------            -------------------------------
# Generated from Intellog Unique Number	CW_76_78/WELL/1031
WELL.         CHIEFCO PR ETAL PELICAN 11-34  : Well_name    - WELL
LOC .         00/11-34-077-22W4/0            : Location     - LOCATION
UWI .         00/11-34-077-22W4/0            : Uwi          - UNIQUE WELL ID
ENTR.         jj                             : Entered      - ENTERED BY
SRVC.         SCHLUMBERGER                   : Scn          - SERVICE COMPANY
DATE.         3 MAR 73                       : Date         - LOG DATE
STRT.M        277.368                        : top_depth    - START DEPTH
STOP.M        530.368                        : bot_depth    - STOP DEPTH
STEP.M        0.25                           : increment    - STEP LENGTH
 NULL. -999.2500:NULL Value
~CURVE INFORMATION BLOCK
#MNEM UNIT       ERCB CURVE CODE    CURVE DESCRIPTION
#-----------   ------------------   ----------------------------------
DEPT.M        00 001 00 00         : DEPTH        - DEPTH
DPHI.V/V      00 890 00 00         : PHID         - DENSITY POROSITY (SANDSTONE)
NPHI.V/V      00 330 00 00         : PHIN         - NEUTRON POROSITY (SANDSTONE)
GR  .API      00 310 00 00         : GR           - GAMMA RAY
CALI.MM       00 280 01 00         : CAL          - CALIPER
ILD .OHMM     00 120 00 00         : RESD         - DEEP RESISTIVITY (DIL)
~PARAMETER INFORMATION
#MNEM.UNIT           DATA             DESCRIPTION OF MNEMONIC
#---------         -----------     ------------------------------
GL  .M        606.095              : gl           - GROUND LEVEL ELEVATION
EREF.M        608.381              : kb           - ELEVATION OF DEPTH REFERENCE
DATM.M        606.095              : datum        - DATUM ELEVATION
TDD .M        534.01               : tdd          - TOTAL DEPTH DRILLER
RUN .         ONE                  : Run          - RUN NUMBER
MUD .         GEL CHEM             : Mud_type     - MUD TYPE
MATR.         SANDSTONE            : Logunit      - NEUTRON MATRIX
TMAX.C        24.4444              : BHT          - MAXIMUM RECORDED TEMPERATURE
BHTD.M        534.01               : BHTDEP       - MAXIMUM RECORDED TEMPERATURE
RMT .C        17.2222              : MDTP         - TEMPERATURE OF MUD
MUDD.KG/M     1080                 : MWT          - MUD DENSITY
NEUT.         1                    : NEUTRON      - NEUTRON TYPE
RESI.         0                    : RESIST       - RESISTIVITY TYPE
RM  .OHMM     3.07                 : RM           - RESISTIVITY OF MUD
RMC .OHMM     0                    : RMC          - RESISTIVITY OF MUD CAKE
RMF .OHMM     2.17                 : RMF          - RESISTIVITY OF MUD FILTRATE
SUFT.C        4.5                  : SUFT         - SURFACE TEMPERATURE
~A  DEPTH     PHID     PHIN       GR      CAL     RESD
# ...
  313.868    0.170    0.502  104.591  160.979    5.189
  314.118    0.186    0.524  107.455  161.113    5.341
  314.368    0.172    0.526  107.661  160.388    5.589
  314.618    0.173    0.516  105.652  163.202    5.926
  314.868    0.181    0.480  103.767  162.806    6.471
  315.118    0.194    0.472   91.879  162.182    7.319
  315.368    0.215    0.473   88.348  160.815    7.918
  315.618    0.230    0.502   86.022  157.947    8.395
  315.868    0.248    0.495   83.632  155.829    8.531
  316.118    0.272    0.465   79.722  152.961    8.369
  316.368    0.281    0.462   74.356  150.306    8.016
  316.618    0.274    0.466   72.220  148.512    7.778
  316.868    0.259    0.453   71.284  145.749    7.575
  317.118    0.248    0.442   69.401  143.095    7.256
  317.368    0.238    0.450   65.364  142.373    7.040
  317.618    0.243    0.448   62.974  143.582    6.780
  317.868    0.247    0.448   62.105  146.071    6.579
  318.118    0.247    0.475   62.436  148.026    6.360
  318.368    0.250    0.499   63.214  149.230    6.137
  318.618    0.239    0.481   64.048  149.260    6.032
  318.868    0.231    0.462   65.207  148.426    6.007
  319.118    0.238    0.453   65.473  147.166    6.036
  319.368    0.264    0.464   64.350  146.013    6.179
  319.618    0.259    0.493   58.982  145.505    6.407
  319.868    0.239    0.486   55.643  145.430    6.693
  320.118    0.233    0.472   53.316  145.555    7.044
  320.368    0.241    0.454   51.495  146.119    7.593
  320.618    0.252    0.447   49.105  147.005    8.462
  320.868    0.261    0.447   45.829  147.672    9.839
  321.118    0.277    0.449   44.070  146.845   11.251
  321.368    0.298    0.456   42.821  145.798   12.285
  321.618    0.315    0.453   42.268  144.000   12.764
  321.868    0.320    0.439   42.347  142.095   12.946
  322.118    0.315    0.429   43.501  140.514   12.468
  322.368    0.310    0.432   45.735  140.110   12.098
  322.618    0.314    0.451   47.648  144.426   11.847
  322.868    0.316    0.457   48.992  147.239   11.775
  323.118    0.316    0.463   49.643  148.233   11.766
  323.368    0.315    0.475   49.910  148.260   11.738
  323.618    0.324    0.483   50.178  148.072   11.687
  323.868    0.326    0.481   47.218  147.777   11.637
  324.118    0.315    0.482   45.081  147.371   11.738
  324.368    0.318    0.488   45.855  146.758   11.861
  324.618    0.320    0.510   47.771  146.030   12.009
  324.868    0.317    0.530   48.927  146.060   12.201
  325.118    0.323    0.512   49.069  146.624   12.331
  325.368    0.315    0.488   48.832  147.075   12.323
  325.618    0.304    0.476   48.532  147.746   12.247
  325.868    0.293    0.478   48.803  147.987   12.239
  326.118    0.293    0.494   49.005  148.011   12.232
  326.368    0.320    0.489   48.956  148.468   12.292
  326.618    0.319    0.466   48.023  148.601   12.284
  326.868    0.313    0.454   46.392  148.519   12.210
  327.118    0.315    0.447   44.064  147.583   12.023
  327.368    0.312    0.450   42.687  146.537   11.904
  327.618    0.315    0.487   42.830  144.633   11.853
  327.868    0.310    0.492   43.224  142.730   11.846
  328.118    0.301    0.468   44.190  141.042   11.860
  328.368    0.298    0.462   45.156  139.782   11.875
  328.618    0.311    0.471   46.248  139.591   11.868
  328.868    0.304    0.488   47.086  141.334   11.795
  329.118    0.301    0.476   48.116  143.397   11.657
  329.368    0.292    0.468   48.068  145.675   11.651
  329.618    0.296    0.500   45.993  148.383   11.578
  329.868    0.320    0.517   45.123  150.872   11.658
  330.118    0.333    0.481   44.632  152.186   11.694
  330.368    0.331    0.459   43.952  152.321   11.708
  330.618    0.324    0.456   42.955  152.025   11.765
  330.868    0.313    0.461   42.019  151.517   11.844
  331.118    0.315    0.470   41.021  151.111   11.903
  331.368    0.336    0.483   41.355  151.139   12.007
  331.618    0.338    0.464   41.686  150.735   11.932
  331.868    0.327    0.448   41.828  149.584   11.815
  332.118    0.311    0.445   41.528  148.001   11.678
  332.368    0.296    0.458   40.973  146.205   11.629
  332.618    0.291    0.445   40.545  144.733   11.642
  332.868    0.331    0.442   40.561  144.437   11.678
  333.118    0.321    0.450   40.576  145.534   11.801
  333.368    0.328    0.465   41.543  147.493   11.838
  333.618    0.328    0.465   42.824  148.911   11.678
  333.868    0.318    0.454   43.599  149.151   11.063
  334.118    0.314    0.453   44.755  148.535   10.345
  334.368    0.307    0.468   48.569  147.058    9.674
  334.618    0.282    0.510   53.839  145.800    8.702
  334.868    0.268    0.477   56.261  145.717    7.406
  335.118    0.271    0.464   53.743  147.677    7.266
  335.368    0.255    0.455   51.100  148.238    7.761
  335.618    0.243    0.447   48.520  148.156    8.243
  335.868    0.255    0.434   40.557  148.291    8.659
  336.118    0.257    0.424   36.015  147.779    8.897
  336.368    0.250    0.515   40.462  147.059    8.957
  336.618    0.274    0.541   45.860  146.975    8.675
  336.868    0.304    0.543   48.850  146.572    8.309
  337.118    0.301    0.522   50.323  145.848    7.544
  337.368    0.282    0.479   51.225  145.554    6.900
  337.618    0.247    0.468   53.711  145.797    6.287
  337.868    0.234    0.487   57.397  145.713    5.666
  338.118    0.244    0.504   64.378  145.740    5.164
  338.368    0.253    0.503   73.700  146.948    4.611
  338.618    0.224    0.510   82.516  149.329    4.209
  338.868    0.187    0.524   88.802  154.716    4.107
  339.118    0.193    0.541   90.781  158.067    4.251
  339.368    0.206    0.544   90.477  158.631    4.870
  339.618    0.244    0.479   72.450  157.801    5.800
  339.868    0.302    0.454   58.915  156.217    6.807
  340.118    0.323    0.452   52.029  153.564    8.553
  340.368    0.337    0.463   45.017  151.769   10.299
  340.618    0.332    0.467   46.997  150.615   10.858
  340.868    0.325    0.471   47.644  150.210   11.197
  341.118    0.318    0.476   46.519  149.810   11.316
  341.368    0.316    0.489   46.094  149.945   11.309
  341.618    0.334    0.502   46.044  149.650   11.197
  341.868    0.333    0.490   45.680  149.566   11.067
  342.118    0.328    0.472   44.367  149.593   11.000
  342.368    0.342    0.467   45.204  149.728   10.952
  342.618    0.350    0.479   47.436  149.862   10.986
  342.868    0.337    0.486   47.136  149.673   11.081
  343.118    0.339    0.495   46.835  149.054   11.114
  343.368    0.328    0.510   46.343  148.224   11.026
  343.618    0.309    0.504   46.105  148.359   10.877
  343.868    0.312    0.496   45.931  149.247   10.731
  344.118    0.329    0.497   46.074  149.590   10.567
  344.368    0.336    0.496   45.899  149.722   10.444
  344.618    0.331    0.502   45.662  149.754   10.438
  344.868    0.342    0.510   44.917  149.563   10.412
  345.118    0.344    0.529   45.185  149.481   10.425
  345.368    0.339    0.536   45.328  148.755   10.476
  345.618    0.325    0.536   46.103  147.819   10.508
  345.868    0.322    0.533   47.704  147.310   10.522
  346.118    0.311    0.513   47.528  146.906   10.516
  346.368    0.302    0.488   45.772  146.290   10.509
  346.618    0.306    0.475   44.584  146.851   10.580
  346.868    0.313    0.469   44.471  148.382   10.690
  347.118    0.318    0.472   46.893  149.155   10.804
  347.368    0.325    0.507   48.175  150.042   10.998
  347.618    0.330    0.507   45.596  150.495   11.134
  347.868    0.331    0.526   43.079  150.951   11.190
  348.118    0.328    0.529   41.512  151.513   11.059
  348.368    0.324    0.509   40.893  151.968   10.890
  348.618    0.325    0.494   40.085  152.210   10.744
  348.868    0.335    0.486   41.114  152.236   10.463
  349.118    0.330    0.512   44.232  151.939   10.152
  349.368    0.310    0.559   48.238  151.648    9.796
  349.618    0.308    0.556   49.772  151.243    9.558
  349.868    0.309    0.543   49.217  150.950    9.394
  350.118    0.309    0.528   47.271  150.758    9.319
