~VERSION INFORMATION
 VERS.                 2.0:   CWLS LOG ASCII STANDARD -VERSION 2.0
 WRAP.                  NO:   ONE LINE PER DEPTH STEP
~WELL INFORMATION BLOCK
#MNEM.UNIT           DATA                    DESCRIPTION OF MNEMONIC
#---------    -------------------            -------------------------------
# Generated from Intellog Unique Number	CW_76_78/WELL/992
WELL.         GULF POC DROWNED 10-35         : Well_name    - WELL
LOC .         00/10-35-076-21W4/0            : Location     - LOCATION
UWI .         00/10-35-076-21W4/0            : Uwi          - UNIQUE WELL ID
ENTR.         JAYE                           : Entered      - ENTERED BY
SRVC.         SCHLUMBERGER                   : Scn          - SERVICE COMPANY
DATE.         26 FEB 77                      : Date         - LOG DATE
STRT.M        408.432                        : top_depth    - START DEPTH
STOP.M        597.432                        : bot_depth    - STOP DEPTH
STEP.M        0.25                           : increment    - STEP LENGTH
 NULL. -999.2500:NULL Value
~CURVE INFORMATION BLOCK
#MNEM UNIT       ERCB CURVE CODE    CURVE DESCRIPTION
#-----------   ------------------   ----------------------------------
DEPT.M        00 001 00 00         : DEPTH        - DEPTH
ILD .OHMM     00 120 00 00         : RESD         - DEEP RESISTIVITY (DIL)
NPHI.V/V      00 330 00 00         : PHIN         - NEUTRON POROSITY (SANDSTONE)
DPHI.V/V      00 890 00 00         : PHID         - DENSITY POROSITY (SANDSTONE)
GR  .API      00 310 00 00         : GR           - GAMMA RAY
CALI.MM       00 280 01 00         : CAL          - CALIPER
~PARAMETER INFORMATION
#MNEM.UNIT           DATA             DESCRIPTION OF MNEMONIC
#---------         -----------     ------------------------------
GL  .M        738.835              : gl           - GROUND LEVEL ELEVATION
EREF.M        742.188              : kb           - ELEVATION OF DEPTH REFERENCE
DATM.M        738.835              : datum        - DATUM ELEVATION
TDD .M        608.076              : tdd          - TOTAL DEPTH DRILLER
RUN .         ONE                  : Run          - RUN NUMBER
MATR.         SANDSTONE            : Logunit      - NEUTRON MATRIX
TMAX.C        26.1111              : BHT          - MAXIMUM RECORDED TEMPERATURE
BHTD.M        608.076              : BHTDEP       - MAXIMUM RECORDED TEMPERATURE
RMT .C        18.3333              : MDTP         - TEMPERATURE OF MUD
MUDD.KG/M     0                    : MWT          - MUD DENSITY
NEUT.         1                    : NEUTRON      - NEUTRON TYPE
RESI.         0                    : RESIST       - RESISTIVITY TYPE
RM  .OHMM     5.13                 : RM           - RESISTIVITY OF MUD
RMC .OHMM     0                    : RMC          - RESISTIVITY OF MUD CAKE
RMF .OHMM     5.09                 : RMF          - RESISTIVITY OF MUD FILTRATE
SUFT.C        -17.7778             : SUFT         - SURFACE TEMPERATURE
~A  DEPTH     RESD     PHIN     PHID       GR      CAL
# ...
  554.432    5.754    0.408    0.163  103.288  152.178
  554.682    5.390    0.442    0.192  108.814  152.013
  554.932    5.256    0.452    0.220  111.790  152.302
  555.182    5.230    0.440    0.225  110.259  152.369
  555.432    5.262    0.426    0.232  106.763  152.316
  555.682    5.402    0.416    0.222  104.186  152.056
  555.932    5.586    0.421    0.202  104.814  151.770
  556.182    5.788    0.429    0.222  106.217  151.829
  556.432    5.943    0.414    0.225  111.351  151.897
  556.682    6.022    0.401    0.212  114.196  152.168
  556.932    6.126    0.409    0.224  113.974  152.674
  557.182    6.175    0.411    0.216  113.679  152.729
  557.432    6.179    0.405    0.212  112.996  152.572
  557.682    6.160    0.396    0.203  112.900  152.304
  557.932    6.140    0.395    0.196  114.117  152.136
  558.182    6.088    0.392    0.204  117.155  151.537
  558.432    6.025    0.396    0.195  120.458  150.932
  558.682    5.940    0.409    0.193  125.328  152.875
  558.932    5.868    0.419    0.208  127.982  153.711
  559.182    5.808    0.424    0.196  128.145  154.207
  559.432    5.789    0.426    0.188  128.839  155.042
  559.682    5.761    0.425    0.198  131.027  155.341
  559.932    5.764    0.418    0.190  133.872  155.173
  560.182    5.736    0.411    0.207  130.643  155.225
  560.432    5.771    0.413    0.195  131.460  155.284
  560.682    5.827    0.432    0.184  134.830  155.356
  560.932    6.037    0.446    0.182  135.256  155.403
  561.182    6.255    0.441    0.194  132.811  155.471
  561.432    6.433    0.425    0.185  129.972  155.644
  561.682    6.520    0.430    0.163  127.064  155.919
  561.932    6.584    0.437    0.159  124.354  155.987
  562.182    6.563    0.413    0.178  126.482  155.819
  562.432    6.460    0.398    0.174  125.014  155.772
  562.682    6.300    0.393    0.186  119.953  156.064
  562.932    6.099    0.393    0.198  116.465  156.110
  563.182    6.124    0.386    0.221  118.196  155.956
  563.432    6.451    0.376    0.201  122.673  156.018
  563.682    7.062    0.387    0.181  130.880  156.844
  563.932    7.888    0.402    0.166  142.088  158.452
  564.182    8.682    0.399    0.164  140.491  161.835
  564.432    8.995    0.363    0.182  133.991  158.243
  564.682    8.902    0.324    0.154  122.459  154.652
  564.932    8.370    0.304    0.102  111.188  154.491
  565.182    7.853    0.337    0.130  122.402  154.552
  565.432    7.382    0.351    0.165  128.709  154.394
  565.682    7.160    0.368    0.182  133.647  153.904
  565.932    7.112    0.383    0.185  134.861  153.080
  566.182    7.355    0.386    0.172  126.332  152.690
  566.432    7.861    0.373    0.166  118.395  151.771
  566.682    8.175    0.358    0.177  115.490  151.716
  566.932    8.001    0.358    0.149  118.339  151.762
  567.182    7.467    0.345    0.145  120.920  151.947
  567.432    6.905    0.325    0.128  115.666  152.547
  567.682    6.909    0.362    0.113  119.817  153.836
  567.932    6.938    0.397    0.146  124.687  154.667
  568.182    6.993    0.397    0.165  123.809  154.720
  568.432    7.087    0.372    0.165  119.335  152.458
  568.682    7.210    0.369    0.165  118.784  151.314
  568.932    7.361    0.364    0.159  121.368  151.699
  569.182    7.407    0.348    0.171  119.702  153.079
  569.432    7.223    0.346    0.165  114.640  155.472
  569.682    6.929    0.346    0.151  117.421  156.304
  569.932    6.682    0.351    0.125  116.541  155.809
  570.182    6.422    0.370    0.154  121.674  154.655
  570.432    6.240    0.375    0.178  125.245  153.395
  570.682    6.186    0.377    0.191  125.540  152.562
  570.932    6.133    0.387    0.184  127.732  152.407
  571.182    6.092    0.405    0.150  130.705  152.684
  571.432    6.095    0.428    0.129  140.676  153.522
  571.682    6.122    0.431    0.141  141.756  154.238
  571.932    6.125    0.422    0.139  134.408  154.971
  572.182    6.163    0.403    0.153  127.583  155.692
  572.432    6.166    0.404    0.147  125.003  156.422
  572.682    6.137    0.404    0.131  119.484  156.810
  572.932    6.117    0.395    0.150  128.016  157.304
  573.182    5.998    0.396    0.167  129.683  157.827
  573.432    5.893    0.411    0.148  129.788  157.995
  573.682    5.821    0.416    0.145  130.473  158.159
  573.932    5.718    0.403    0.161  132.144  158.659
  574.182    5.587    0.401    0.172  132.114  159.389
  574.432    5.408    0.404    0.161  127.901  159.666
  574.682    4.946    0.394    0.167  124.734  159.941
  574.932    4.417    0.364    0.158  121.764  159.896
  575.182    3.873    0.354    0.139  124.217  159.625
  575.432    3.433    0.367    0.134  131.180  159.236
  575.682    2.849    0.379    0.169  134.553  159.085
  575.932    2.185    0.391    0.157  130.468  159.472
  576.182    1.857    0.409    0.173  126.065  160.525
  576.432    1.637    0.460    0.195  124.003  163.136
  576.682    1.932    0.505    0.218  121.817  164.632
  576.932    2.383    0.526    0.236  119.963  165.247
  577.182    2.928    0.514    0.261  118.491  165.192
  577.432    4.113    0.511    0.253  116.959  160.830
  577.682    5.642    0.510    0.239  113.400  157.571
  577.932    6.622    0.477    0.220  107.621  156.077
  578.182    6.761    0.357    0.200  102.427  154.491
  578.432    6.630    0.333    0.146   97.037  154.217
  578.682    6.164    0.322    0.123   98.445  154.490
  578.932    5.317    0.333    0.098  103.059  154.997
  579.182    4.594    0.393    0.088  106.164  155.276
  579.432    4.013    0.366    0.134  103.520  155.449
  579.682    3.684    0.334    0.180  102.118  155.503
  579.932    3.727    0.319    0.176  106.923  155.909
  580.182    3.969    0.327    0.153  120.878  156.068
  580.432    4.243    0.384    0.164  127.323  156.239
  580.682    4.618    0.434    0.188  122.980  156.641
  580.932    5.430    0.430    0.178  118.506  156.698
  581.182    6.492    0.379    0.154  113.507  156.980
  581.432    7.132    0.362    0.141  109.429  157.048
  581.682    7.032    0.372    0.166  107.893  156.664
  581.932    6.998    0.353    0.165  109.300  156.281
  582.182    7.002    0.343    0.141  114.366  155.780
  582.432    6.993    0.354    0.088  128.847  155.851
  582.682    6.832    0.387    0.105  139.338  156.232
  582.932    6.399    0.394    0.116  146.041  159.281
  583.182    6.368    0.365    0.130  142.219  160.231
  583.432    6.525    0.362    0.126  132.584  159.069
  583.682    6.936    0.381    0.143  128.176  157.800
  583.932    7.468    0.394    0.152  120.759  157.194
  584.182    8.450    0.339    0.183  110.404  157.257
  584.432    9.216    0.314    0.173  101.357  156.763
  584.682    9.392    0.303    0.167   92.505  155.167
  584.932    9.160    0.306    0.145   94.175  154.339
  585.182    8.982    0.292    0.116   95.647  154.184
  585.432    8.712    0.281    0.097   97.646  154.243
  585.682    8.542    0.292    0.104  102.253  154.302
  585.932    8.210    0.312    0.112  113.465  154.358
  586.182    8.020    0.332    0.127  121.930  154.762
  586.432    7.807    0.341    0.137  129.875  155.261
  586.682    7.614    0.344    0.150  135.662  155.540
  586.932    7.507    0.347    0.143  140.467  155.940
  587.182    7.361    0.355    0.141  143.246  156.213
  587.432    7.205    0.341    0.142  138.903  156.267
  587.682    7.001    0.350    0.137  136.720  156.670
  587.932    6.966    0.364    0.143  137.996  157.276
  588.182    7.165    0.376    0.151  138.491  158.113
  588.432    7.701    0.362    0.170  133.818  158.507
  588.682    8.890    0.335    0.173  123.662  157.676
  588.932   10.378    0.308    0.204  112.260  153.421
  589.182   11.698    0.245    0.275  101.773  149.829
  589.432   12.993    0.231    0.308   76.582  146.348
  589.682   14.172    0.247    0.321   79.298  144.533
  589.932   13.999    0.257    0.297   80.248  145.362
  590.182   13.330    0.264    0.291   80.937  146.650
  590.432   12.671    0.275    0.286   83.723  147.475
  590.682   11.695    0.290    0.269   88.460  148.319
