~VERSION INFORMATION
 VERS.                 2.0:   CWLS LOG ASCII STANDARD -VERSION 2.0
 WRAP.                  NO:   ONE LINE PER DEPTH STEP
~WELL INFORMATION BLOCK
#MNEM.UNIT           DATA                    DESCRIPTION OF MNEMONIC
#---------    -------------------            -------------------------------
# Generated from Intellog Unique Number	CC_84_87/WELL/1184
NULL.         -999.25                        : NULL_VALUE
WELL.         PCI PCEJ HANGST                : Well_name    - WELL              
LOC .         10-08-084-09W4                 : Location     - LOCATION          
UWI .         00/10-08-084-09W400            : Uwi          - UNIQUE WELL ID    
ENTR.         RJA                            : Entered      - ENTERED BY        
SRVC.         SCHLUMBERGER                   : Scn          - SERVICE COMPANY   
DATE.         17 MAR 85                      : Date         - LOG DATE
STRT.M        175                            : top_depth    - START DEPTH       
STOP.M        475.892                        : bot_depth    - STOP DEPTH        
STEP.M        0.3                            : increment    - STEP LENGTH       
~CURVE INFORMATION BLOCK
#MNEM UNIT       ERCB CURVE CODE    CURVE DESCRIPTION
#-----------   ------------------   ----------------------------------
DEPT.M        00 001 00 00         : DEPTH        - DEPTH                       
DPHI.V/V      00 890 00 00         : PHID         - DENSITY POROSITY (LIMESTONE)
NPHI.V/V      00 330 00 00         : PHIN         - NEUTRON POROSITY (LIMESTONE)
GR  .API      00 310 00 00         : GR           - GAMMA RAY                   
ILD .OHMM     00 120 00 00         : RESD         - DEEP RESISTIVITY (DIL)      
~PARAMETER INFORMATION       
#MNEM.UNIT           DATA             DESCRIPTION OF MNEMONIC
#---------         -----------     ------------------------------
GL  .M        716.37               : gl           - GROUND LEVEL ELEVATION      
EREF.M        719.37               : kb           - ELEVATION OF DEPTH REFERENCE
DATM.M        719.37               : datum        - DATUM ELEVATION             
TDD .M        488                  : tdd          - TOTAL DEPTH DRILLER         
RUN .         ONE                  : Run          - RUN NUMBER                  
ENG .         BILL                 : Engineer     - RECORDING ENGINEER          
WIT .         JIM                  : Witness      - WITNESSED BY                
MUD .         GEL                  : Mud_type     - MUD TYPE                    
MATR.         LIMESTONE            : Logunit      - NEUTRON MATRIX              
TMAX.C        19                   : BHT          - MAXIMUM RECORDED TEMPERATURE
BHTD.M        488                  : BHTDEP       - MAXIMUM RECORDED TEMPERATURE
MATR.         1                    : LOGUNIT      - NEUTRON MATRIX              
RMT .C        25                   : MDTP         - TEMPERATURE OF MUD          
NEUT.         1                    : NEUTRON      - NEUTRON TYPE                
RESI.         0                    : RESIST       - RESISTIVITY TYPE            
RMC .OHMM     0.25                 : RMC          - RESISTIVITY OF MUD CAKE     
RMF .OHMM     0.25                 : RMF          - RESISTIVITY OF MUD FILTRATE 
SUFT.C        4                    : SUFT         - SURFACE TEMPERATURE         
~A  DEPTH     PHID     PHIN       GR     RESD
  175.000    0.262    0.409   75.282    7.785
  175.300    0.270    0.424   78.882    7.932
  175.600    0.268    0.440   84.326    8.081
  175.900    0.265    0.455   87.945    8.234
  176.200    0.272    0.456   89.116    8.233
  176.500    0.276    0.415   89.707    8.081
  176.800    0.273    0.425   88.465    8.081
  177.100    0.262    0.440   81.754    8.546
  177.400    0.259    0.419   79.908    8.546
  177.700    0.256    0.409   81.699    8.387
  178.000    0.259    0.399   84.707    8.232
  178.300    0.265    0.410   84.675    8.079
  178.600    0.277    0.434   81.612    8.079
  178.900    0.275    0.428   78.544    8.387
  179.200    0.289    0.417   78.509    8.870
  179.500    0.286    0.416   80.310    9.207
  179.800    0.281    0.422   79.063    9.380
  180.100    0.287    0.383   80.853    9.207
  180.400    0.239    0.425   85.077    8.869
  180.700    0.235    0.436   83.835    8.543
  181.000    0.257    0.417   83.199    9.036
  181.300    0.263    0.396   85.599    9.920
  181.600    0.266    0.399   87.999    9.736
  181.900    0.261    0.411   91.008    9.205
  182.200    0.254    0.409   89.757    8.867
  182.500    0.261    0.392   83.055    8.703
  182.800    0.245    0.402   79.991    9.034
  183.100    0.243    0.397   84.818    9.378
  183.400    0.262    0.396   86.006    9.734
  183.700    0.272    0.397   81.717    9.734
  184.000    0.260    0.398   80.473    9.554
  184.300    0.251    0.406   79.840    9.377
  184.600    0.261    0.414   80.420    9.376
  184.900    0.266    0.404   83.422    9.553
  185.200    0.257    0.413   82.786    9.733
  185.500    0.258    0.401   79.715    9.732
  185.800    0.252    0.385   78.484    9.916
  186.100    0.246    0.387   77.242   10.102
  186.400    0.261    0.393   77.204   10.293
  186.700    0.274    0.396   76.577   10.486
  187.000    0.270    0.382   76.551   10.486
  187.300    0.271    0.376   82.593   10.684
  187.600    0.300    0.406   86.201    9.374
  187.900    0.347    0.454   92.846    7.632
  188.200    0.366    0.528   94.644    6.951
  188.500    0.376    0.558   92.185    7.491
  188.800    0.375    0.546   80.017   10.484
  189.100    0.386    0.480   78.772   13.366
  189.400    0.403    0.505   79.354   18.023
  189.700    0.408    0.517   61.716   24.301
  190.000    0.376    0.413   51.367   26.679
  190.300    0.363    0.402   48.910   31.563
  190.600    0.357    0.390   48.266   34.012
  190.900    0.360    0.419   48.848   34.011
  191.200    0.356    0.432   47.610   33.380
  191.500    0.362    0.409   43.938   34.009
  191.800    0.372    0.408   39.657   35.302
  192.100    0.378    0.413   36.593   35.301
  192.400    0.381    0.412   34.743   35.966
  192.700    0.376    0.368   35.925   35.965
  193.000    0.367    0.383   31.043   37.333
  193.300    0.349    0.404   31.011   38.036
  193.600    0.341    0.404   33.409   38.035
  193.900    0.336    0.365   30.345   37.330
  194.200    0.343    0.358   28.496   36.638
  194.500    0.357    0.365   32.718   36.637
  194.800    0.364    0.403   43.008   35.958
  195.100    0.369    0.426   47.835   35.957
  195.400    0.372    0.417   42.952   35.956
  195.700    0.359    0.396   32.597   35.290
  196.000    0.356    0.380   29.531   35.289
  196.300    0.352    0.401   29.498   35.953
  196.600    0.335    0.387   34.337   35.952
  196.900    0.320    0.384   55.550   36.629
  197.200    0.316    0.408   51.885   37.319
  197.500    0.323    0.358   37.891   37.318
  197.800    0.325    0.329   31.185   37.317
  198.100    0.292    0.320   41.476   34.629
  198.400    0.263    0.328   48.731   32.740
  198.700    0.297    0.374   48.705   29.268
  199.000    0.335    0.389   41.993   23.389
  199.300    0.340    0.384   39.540   19.769
  199.600    0.291    0.372   44.973   16.709
  199.900    0.289    0.364   54.656   14.937
  200.200    0.297    0.405   54.630   13.861
  200.500    0.322    0.414   77.064   16.707
  200.800    0.328    0.385   57.604   23.826
  201.100    0.312    0.388   44.222   29.261
  201.400    0.321    0.374   37.509   31.531
  201.700    0.332    0.344   35.046   28.187
  202.000    0.332    0.340   35.026   22.950
  202.300    0.322    0.375   45.321   20.136
  202.600    0.365    0.414   68.966   16.704
  202.900    0.310    0.444   75.013   16.395
  203.200    0.319    0.452   58.589   20.134
  203.500    0.340    0.457   44.597   24.727
  203.800    0.354    0.429   36.669   30.368
  204.100    0.339    0.418   35.428   33.969
  204.400    0.337    0.379   36.010   32.116
  204.700    0.350    0.362   33.551   30.938
  205.000    0.375    0.388   40.808   31.520
  205.300    0.365    0.415   41.993   33.337
  205.600    0.330    0.342   37.106   35.257
  205.900    0.354    0.392   37.685   35.256
  206.200    0.362    0.410   47.975   33.962
  206.500    0.362    0.377   48.553   32.716
  206.800    0.367    0.375   36.986   32.715
  207.100    0.388    0.422   30.285   33.331
  207.400    0.398    0.453   29.032   35.916
  207.700    0.404    0.466   30.834   36.592
  208.000    0.378    0.432   29.592   37.281
  208.300    0.372    0.422   27.120   35.913
  208.600    0.368    0.381   26.496   34.595
  208.900    0.360    0.415   30.107   32.708
  209.200    0.357    0.432   36.749   32.102
  209.500    0.362    0.414   39.158   30.924
  209.800    0.367    0.425   45.804   30.351
  210.100    0.359    0.413   50.637   29.237
  210.400    0.359    0.420   51.812   27.131
  210.700    0.394    0.451   46.930   22.090
  211.000    0.399    0.417   49.334   18.671
  211.300    0.250    0.421   76.627   16.382
  211.600    0.273    0.419   72.347   16.381
  211.900    0.314    0.437   44.998   21.679
  212.200    0.345    0.390   38.898   27.126
  212.500    0.336    0.357   48.582   31.498
  212.800    0.346    0.406   46.726   30.342
  213.100    0.364    0.438   43.666   27.636
  213.400    0.367    0.439   47.886   27.123
  213.700    0.351    0.428   49.069   25.644
  214.000    0.389    0.444   39.932   22.924
  214.300    0.388    0.391   35.654   17.981
  214.600    0.345    0.374   67.202   13.088
  214.900    0.275    0.423   85.386   10.459
  215.200    0.263    0.442   91.418    9.350
  215.500    0.273    0.453   88.964    8.516
  215.800    0.279    0.485   91.972    8.358
  216.100    0.280    0.454   96.192    8.051
  216.400    0.291    0.411   96.166    7.612
  216.700    0.315    0.452   94.319    7.612
  217.000    0.335    0.493   93.076    7.332
  217.300    0.306    0.485   96.078    7.332
  217.600    0.313    0.474   97.261    7.196
  217.900    0.330    0.499   96.620    6.678
  218.200    0.306    0.503   97.808    6.433
  218.500    0.297    0.514  106.891    6.314
  218.800    0.296    0.514  111.719    7.900
  219.100    0.292    0.452  114.121    9.702
  219.400    0.276    0.417  112.271   10.853
  219.700    0.265    0.405  107.988   11.266
  220.000    0.275    0.437  110.389   11.915
  220.300    0.288    0.439  112.783   11.694
  220.600    0.287    0.441  112.755   11.477
  220.900    0.287    0.461  109.697   11.264
  221.200    0.300    0.475   96.920   11.264
  221.500    0.296    0.478   87.167   11.692
  221.800    0.321    0.436   93.824   12.366
  222.100    0.394    0.475  103.510   12.599
  222.400    0.396    0.474  102.257   12.137
  222.700    0.310    0.419  100.416   10.068
  223.000    0.296    0.440  107.662    8.670
  223.300    0.309    0.475  107.645    7.466
  223.600    0.204    0.486   96.687    6.430
  223.900    0.196    0.476   88.766    5.856
  224.201    0.233    0.470   94.797    5.138
  224.501    0.282    0.474   95.386    4.593
  224.801    0.294    0.479   85.635    4.858
  225.101    0.278    0.472   82.577    5.536
  225.401    0.277    0.445   79.508    5.855
  225.701    0.287    0.455   82.513    6.309
  226.001    0.297    0.466   92.797    5.965
  226.301    0.292    0.471   94.605    5.640
  226.601    0.289    0.477   93.357    5.433
  226.901    0.275    0.509   90.887    5.746
