~VERSION INFORMATION
 VERS.                 2.0:   CWLS LOG ASCII STANDARD -VERSION 2.0
 WRAP.                  NO:   ONE LINE PER DEPTH STEP
~WELL INFORMATION BLOCK
#MNEM.UNIT           DATA                    DESCRIPTION OF MNEMONIC
#---------    -------------------            -------------------------------
# Generated from Intellog Unique Number	CW_76_78/WELL/992
WELL.         GULF POC DROWNED 10-35         : Well_name    - WELL
LOC .         00/10-35-076-21W4/0            : Location     - LOCATION
UWI .         00/10-35-076-21W4/0            : Uwi          - UNIQUE WELL ID
ENTR.         JAYE                           : Entered      - ENTERED BY
SRVC.         SCHLUMBERGER                   : Scn          - SERVICE COMPANY
DATE.         26 FEB 77                      : Date         - LOG DATE
STRT.M        408.432                        : top_depth    - START DEPTH
STOP.M        597.432                        : bot_depth    - STOP DEPTH
STEP.M        0.25                           : increment    - STEP LENGTH
 NULL. -999.2500:NULL Value
~CURVE INFORMATION BLOCK
#MNEM UNIT       ERCB CURVE CODE    CURVE DESCRIPTION
#-----------   ------------------   ----------------------------------
DEPT.M        00 001 00 00         : DEPTH        - DEPTH
ILD .OHMM     00 120 00 00         : RESD         - DEEP RESISTIVITY (DIL)
NPHI.V/V      00 330 00 00         : PHIN         - NEUTRON POROSITY (SANDSTONE)
DPHI.V/V      00 890 00 00         : PHID         - DENSITY POROSITY (SANDSTONE)
GR  .API      00 310 00 00         : GR           - GAMMA RAY
CALI.MM       00 280 01 00         : CAL          - CALIPER
~PARAMETER INFORMATION
#MNEM.UNIT           DATA             DESCRIPTION OF MNEMONIC
#---------         -----------     ------------------------------
GL  .M        738.835              : gl           - GROUND LEVEL ELEVATION
EREF.M        742.188              : kb           - ELEVATION OF DEPTH REFERENCE
DATM.M        738.835              : datum        - DATUM ELEVATION
TDD .M        608.076              : tdd          - TOTAL DEPTH DRILLER
RUN .         ONE                  : Run          - RUN NUMBER
MATR.         SANDSTONE            : Logunit      - NEUTRON MATRIX
TMAX.C        26.1111              : BHT          - MAXIMUM RECORDED TEMPERATURE
BHTD.M        608.076              : BHTDEP       - MAXIMUM RECORDED TEMPERATURE
RMT .C        18.3333              : MDTP         - TEMPERATURE OF MUD
MUDD.KG/M     0                    : MWT          - MUD DENSITY
NEUT.         1                    : NEUTRON      - NEUTRON TYPE
RESI.         0                    : RESIST       - RESISTIVITY TYPE
RM  .OHMM     5.13                 : RM           - RESISTIVITY OF MUD
RMC .OHMM     0                    : RMC          - RESISTIVITY OF MUD CAKE
RMF .OHMM     5.09                 : RMF          - RESISTIVITY OF MUD FILTRATE
SUFT.C        -17.7778             : SUFT         - SURFACE TEMPERATURE
~A  DEPTH     RESD     PHIN     PHID       GR      CAL
# ...
  517.932   10.291    0.476    0.262   93.056  145.473
  518.182   11.265    0.464    0.258   90.737  146.305
  518.432   12.747    0.446    0.293   89.332  146.698
  518.682   14.056    0.423    0.283   88.324  145.979
  518.932   16.078    0.379    0.265   84.437  145.487
  519.182   18.629    0.353    0.245   80.486  146.771
  519.432   21.786    0.283    0.221   76.279  151.040
  519.682   24.289    0.241    0.129   72.913  152.753
  519.932   26.785    0.209    0.098   66.871  155.355
  520.182   28.840    0.195    0.078   61.221  158.514
  520.432   30.321    0.183    0.060   59.298  158.913
  520.682   29.841    0.162    0.039   57.960  157.974
  520.932   29.103    0.147    0.014   55.122  157.482
  521.182   28.642    0.133    0.013   51.693  157.211
  521.432   28.140    0.123    0.023   49.700  156.174
  521.682   27.745    0.125    0.003   53.004  155.781
  521.932   27.406    0.133    0.001   54.807  155.842
  522.182   27.273    0.144    0.011   55.559  156.349
  522.432   27.188    0.150    0.023   55.986  156.405
  522.682   26.465    0.152    0.034   56.614  156.248
  522.932   24.607    0.150    0.039   57.562  156.091
  523.182   19.867    0.147    0.016   58.446  156.261
  523.432   13.723    0.144    0.014   59.726  156.647
  523.682   11.060    0.147    0.031   61.263  156.594
  523.932    9.296    0.152    0.030   63.061  156.333
  524.182    7.901    0.163    0.039   64.732  156.723
  524.432    7.360    0.219    0.076   66.858  156.442
  524.682    6.931    0.333    0.105   71.794  155.839
  524.932    6.516    0.379    0.233   75.362  152.469
  525.182    6.059    0.437    0.286   77.358  146.774
  525.432    5.675    0.424    0.276   80.139  145.617
  525.682    5.413    0.416    0.247   84.880  147.226
  525.932    5.165    0.408    0.228   90.992  148.181
  526.182    5.158    0.396    0.238   98.020  149.354
  526.432    5.305    0.402    0.227  108.576  150.622
  526.682    5.437    0.426    0.206  116.981  152.785
  526.932    5.489    0.433    0.186  118.909  154.284
  527.182    5.533    0.435    0.196  119.864  155.120
  527.432    5.618    0.445    0.206  119.833  155.736
  527.682    5.726    0.434    0.219  119.931  156.010
  527.932    5.813    0.429    0.231  120.684  156.069
  528.182    5.871    0.419    0.230  121.702  156.135
  528.432    5.874    0.414    0.220  121.606  156.531
  528.682    5.878    0.417    0.208  121.056  156.804
  528.932    5.859    0.432    0.200  120.369  157.093
  529.182    5.841    0.434    0.210  118.901  157.926
  529.432    5.813    0.431    0.216  116.258  159.531
  529.682    5.783    0.447    0.226  111.850  158.153
  529.932    5.776    0.448    0.217  110.518  153.683
  530.182    5.770    0.442    0.216  110.548  150.645
  530.432    5.794    0.431    0.240  110.258  150.149
  530.682    5.829    0.442    0.231  109.574  150.428
  530.932    5.865    0.451    0.218  111.441  151.041
  531.182    5.858    0.438    0.220  116.377  150.883
  531.432    5.829    0.422    0.225  122.363  150.948
  531.682    5.779    0.423    0.219  125.009  151.336
  531.932    5.729    0.425    0.217  122.432  151.735
  532.182    5.649    0.422    0.209  119.329  151.894
  532.432    5.591    0.414    0.211  118.192  151.845
  532.682    5.553    0.421    0.216  118.946  154.670
  532.932    5.566    0.441    0.200  120.092  160.046
  533.182    5.580    0.442    0.207  121.173  156.451
  533.432    5.635    0.435    0.212  121.930  151.199
  533.682    5.689    0.428    0.212  122.817  150.824
  533.932    5.809    0.426    0.206  123.172  151.763
  534.182    5.887    0.438    0.215  123.209  152.937
  534.432    5.934    0.442    0.218  124.945  153.888
  534.682    5.981    0.440    0.218  128.116  154.940
  534.932    6.051    0.420    0.210  130.439  155.884
  535.182    6.110    0.415    0.222  126.685  156.387
  535.432    6.192    0.440    0.225  124.500  156.333
  535.682    6.253    0.438    0.218  123.814  154.074
  535.932    6.269    0.421    0.214  125.224  152.578
  536.182    6.226    0.406    0.207  126.699  151.425
  536.432    6.072    0.411    0.199  126.143  150.267
  536.682    5.932    0.425    0.203  120.103  150.218
  536.932    5.796    0.425    0.203  115.758  151.052
  537.182    5.631    0.418    0.208  115.140  152.773
  537.432    5.432    0.413    0.228  117.463  154.821
  537.682    5.336    0.412    0.222  124.232  156.541
  537.932    5.300    0.411    0.211  127.207  158.375
  538.182    5.382    0.414    0.197  126.262  160.981
  538.432    5.710    0.416    0.179  127.281  163.142
  538.682    6.104    0.420    0.212  129.537  165.202
  538.932    6.312    0.421    0.227  132.905  166.363
  539.182    6.178    0.420    0.199  135.816  166.310
  539.432    5.734    0.412    0.256  126.375  161.613
  539.682    5.430    0.398    0.234  122.162  152.931
  539.932    5.276    0.400    0.224  124.423  148.901
  540.182    5.337    0.414    0.225  126.679  150.402
  540.432    5.622    0.427    0.218  126.191  152.671
  540.682    6.087    0.443    0.208  123.809  155.496
  540.932    6.435    0.449    0.192  117.898  156.553
  541.182    6.486    0.437    0.210  110.484  155.837
  541.432    6.290    0.424    0.199  110.390  154.799
  541.682    5.882    0.419    0.202  116.696  153.750
  541.932    5.509    0.415    0.204  122.092  153.257
  542.182    5.141    0.412    0.227  113.173  153.533
  542.432    5.013    0.408    0.254  107.787  153.605
  542.682    5.184    0.415    0.260  104.097  153.657
  542.932    5.542    0.445    0.256   99.955  153.617
  543.182    6.202    0.470    0.250   97.047  153.787
  543.432    7.004    0.483    0.244   94.795  154.731
  543.682    7.569    0.479    0.233   92.541  155.008
  543.932    7.755    0.393    0.223   87.154  154.745
  544.182    7.703    0.362    0.189   81.633  154.244
  544.432    6.905    0.313    0.146   78.204  153.748
  544.682    6.021    0.335    0.123   82.164  154.025
  544.932    5.269    0.356    0.157   86.252  154.756
  545.182    4.819    0.381    0.191   91.385  155.366
  545.432    4.665    0.411    0.258   95.341  155.881
  545.682    4.600    0.427    0.275   97.926  155.822
  545.932    4.544    0.437    0.271  100.771  155.881
  546.182    4.530    0.450    0.262  102.181  156.284
  546.432    4.549    0.467    0.249  101.105  156.007
  546.682    4.594    0.461    0.234   97.609  156.060
  546.932    4.656    0.444    0.228   97.906  156.232
  547.182    4.798    0.431    0.233   98.859  156.527
  547.432    4.970    0.423    0.245   98.501  156.691
  547.682    5.511    0.419    0.257   99.582  156.315
  547.932    6.328    0.417    0.263  103.014  156.377
  548.182    7.172    0.413    0.258  100.436  156.316
  548.432    8.733    0.415    0.246   94.200  156.480
  548.682   10.008    0.394    0.234   87.633  156.434
  548.932   10.955    0.240    0.214   77.478  156.165
  549.182   10.802    0.218    0.187   72.020  155.785
  549.432    9.646    0.202    0.119   63.691  155.287
  549.682    7.521    0.212    0.058   60.916  155.241
  549.932    5.449    0.244    0.043   73.174  154.750
  550.182    4.875    0.287    0.058   84.711  154.254
  550.432    4.728    0.358    0.074   94.029  153.981
  550.682    4.784    0.381    0.105  105.434  153.046
  550.932    4.857    0.431    0.188  108.541  150.671
  551.182    4.968    0.428    0.203  105.049  149.067
  551.432    5.119    0.419    0.211  101.752  153.553
  551.682    5.313    0.418    0.215   98.976  153.509
  551.932    5.597    0.418    0.222   97.183  152.791
  552.182    5.873    0.413    0.216   98.393  152.074
  552.432    6.706    0.417    0.216  100.717  152.143
  552.682    8.470    0.436    0.233  101.731  152.201
  552.932   10.445    0.403    0.235   98.043  152.158
  553.182   10.822    0.333    0.208   92.132  152.103
  553.432   10.439    0.294    0.110   85.501  152.606
  553.682    9.796    0.225    0.082   76.582  152.668
  553.932    8.636    0.258    0.034   75.050  152.618
  554.182    6.563    0.378    0.077   95.411  152.447
