~VERSION INFORMATION
 VERS.                 2.0:   CWLS LOG ASCII STANDARD -VERSION 2.0
 WRAP.                  NO:   ONE LINE PER DEPTH STEP
~WELL INFORMATION BLOCK
#MNEM.UNIT           DATA                    DESCRIPTION OF MNEMONIC
#---------    -------------------            -------------------------------
# Generated from Intellog Unique Number	CN_91_93/WELL/3217
WELL.         UNIVERSAL GAS CO.LTD.          : Well_name    - WELL
LOC .         00/11-30-092-19W4/0            : Location     - LOCATION
UWI .         00/11-30-092-19W4/0            : Uwi          - UNIQUE WELL ID
ENTR.         JOETTE                         : Entered      - ENTERED BY
SRVC.         SCHLUMBERGER                   : Scn          - SERVICE COMPANY
DATE.         04/14/92                       : Date         - LOG DATE
STRT.M        100                            : top_depth    - START DEPTH
STOP.M        255                            : bot_depth    - STOP DEPTH
STEP.M        0.25                           : increment    - STEP LENGTH
 NULL. -999.2500:NULL Value
~CURVE INFORMATION BLOCK
#MNEM UNIT       ERCB CURVE CODE    CURVE DESCRIPTION
#-----------   ------------------   ----------------------------------
DEPT.M        00 001 00 00         : DEPTH        - DEPTH
CALI.MM       00 280 01 00         : CAL          - CALIPER
GR  .API      00 310 00 00         : GR           - GAMMA RAY
NPHI.V/V      00 330 00 00         : PHIN         - NEUTRON POROSITY (SANDSTONE)
DPHI.V/V      00 890 00 00         : PHID         - DENSITY POROSITY (SANDSTONE)
ILD .OHMM     00 120 00 00         : RESD         - DEEP RESISTIVITY (DIL)
~PARAMETER INFORMATION
#MNEM.UNIT           DATA             DESCRIPTION OF MNEMONIC
#---------         -----------     ------------------------------
GL  .M        529                  : gl           - GROUND LEVEL ELEVATION
EREF.M        532                  : kb           - ELEVATION OF DEPTH REFERENCE
DATM.M        532                  : datum        - DATUM ELEVATION
TDD .M        306                  : tdd          - TOTAL DEPTH DRILLER
RUN .         ONE                  : Run          - RUN NUMBER
ENG .         BILL                 : Engineer     - RECORDING ENGINEER
WIT .         JIM                  : Witness      - WITNESSED BY
MUD .         GEL                  : Mud_type     - MUD TYPE
MATR.         SANDSTONE            : Logunit      - NEUTRON MATRIX
TMAX.C        20.5                 : BHT          - MAXIMUM RECORDED TEMPERATURE
BHTD.M        306                  : BHTDEP       - MAXIMUM RECORDED TEMPERATURE
RMT .C        23.8                 : MDTP         - TEMPERATURE OF MUD
MUDD.KG/M     1140                 : MWT          - MUD DENSITY
NEUT.         1                    : NEUTRON      - NEUTRON TYPE
RESI.         0                    : RESIST       - RESISTIVITY TYPE
RM  .OHMM     2.94                 : RM           - RESISTIVITY OF MUD
RMC .OHMM     2.94                 : RMC          - RESISTIVITY OF MUD CAKE
RMF .OHMM     2.7                  : RMF          - RESISTIVITY OF MUD FILTRATE
SUFT.C        4                    : SUFT         - SURFACE TEMPERATURE
~A  DEPTH      CAL       GR     PHIN     PHID     RESD
# ...
  209.500  227.011   88.596    0.407    0.322   17.632
  209.750  226.998   87.966    0.417    0.340   17.298
  210.000  226.978   85.468    0.420    0.400   16.971
  210.250  226.965   87.327    0.445    0.417   24.835
  210.500  227.986   85.448    0.453    0.414   28.373
  210.750  227.973   82.329    0.448    0.422   34.322
  211.000  227.966   76.097    0.414    0.372   37.034
  211.250  227.950   70.484    0.349    0.218   35.647
  211.500  227.937   74.836    0.346    0.240   25.786
  211.750  227.923   80.428    0.403    0.268   19.377
  212.000  227.913   82.912    0.466    0.320   15.713
  212.250  227.900   85.394    0.508    0.356   14.015
  212.500  228.924   85.386    0.524    0.363   12.986
  212.750  234.095   83.511    0.517    0.258   12.740
  213.000  235.116   81.636    0.477    0.184   12.263
  213.250  235.110   89.720    0.471    0.221   11.580
  213.500  235.090   94.067    0.491    0.322   11.361
  213.750  235.080   97.174    0.496    0.349   11.801
  214.000  235.080   99.656    0.498    0.356   11.799
  214.250  232.969   97.156    0.493    0.357   12.024
  214.500  233.999   93.411    0.497    0.357   12.255
  214.750  233.990   94.026    0.514    0.360   12.489
  215.000  233.976   92.773    0.516    0.355   12.728
  215.250  233.960   89.655    0.503    0.316   12.727
  215.500  233.950   87.777    0.493    0.306   12.970
  215.750  233.937   87.769    0.490    0.280   12.724
  216.000  233.917   89.629    0.487    0.257   12.723
  216.250  233.910   93.356    0.502    0.291   12.482
  216.500  233.897   91.480    0.519    0.328   12.014
  216.750  233.884   88.983    0.505    0.289   11.786
  217.000  234.902   87.107    0.509    0.247   11.563
  217.250  235.926   92.704    0.514    0.241   11.130
  217.500  235.916   98.918    0.506    0.248   10.713
  217.750  237.974  102.645    0.519    0.317   10.116
  218.000  237.961   93.300    0.525    0.310    9.738
  218.250  232.764   87.690    0.516    0.268    9.196
  218.500  230.676   92.040    0.506    0.224    9.195
  218.750  228.588   98.256    0.506    0.217    9.735
  219.000  227.537  101.983    0.510    0.313   10.706
  219.250  226.483  103.841    0.505    0.337   11.334
  219.500  225.432  103.833    0.497    0.337   10.110
  219.750  225.419  101.958    0.485    0.339    7.040
  220.000  224.368   98.839    0.475    0.344    5.496
  220.250  224.358   95.719    0.468    0.348    6.906
  220.500  224.345   94.466    0.458    0.316    9.188
  220.750  224.329  100.683    0.448    0.231    9.544
  221.000  225.353  105.655    0.492    0.209   10.496
  221.250  227.411  111.872    0.506    0.268   12.457
  221.500  229.470  118.087    0.516    0.285   15.358
  221.750  229.463  114.346    0.515    0.299   26.677
  222.000  230.487   94.416    0.512    0.303   48.137
  222.250  229.437   72.622    0.490    0.402   54.996
  222.500  228.386   52.072    0.464    0.445   82.029
  222.750  228.370   27.787    0.406    0.479  127.095
  223.000  228.353   25.910    0.225    0.501  132.016
  223.250  228.347   30.261    0.234    0.513  115.526
  223.500  227.289   32.121    0.251    0.523  111.198
  223.750  227.279   32.111    0.266    0.555  113.325
  224.000  226.225   30.236    0.260    0.573  113.314
  224.250  226.215   31.471    0.255    0.581   95.459
  224.500  225.158   34.575    0.252    0.571   57.079
  224.750  225.148   35.814    0.257    0.574   35.455
  225.000  225.135   37.051    0.261    0.575   28.751
  225.250  225.122   36.421    0.268    0.569   25.160
  225.500  225.112   35.788    0.303    0.552   24.218
  225.750  225.095   37.026    0.453    0.515   26.132
  226.000  225.082   37.018    0.471    0.504   28.198
  226.250  225.069   35.765    0.476    0.496   31.608
  226.500  225.052   37.002    0.477    0.493   34.761
  226.750  226.083   39.484    0.480    0.485   35.427
  227.000  226.067   41.966    0.482    0.482   38.225
  227.250  226.050   43.203    0.478    0.476   41.246
  227.500  226.044   41.327    0.474    0.469   42.845
  227.750  226.027   37.583    0.473    0.467   47.119
  228.000  226.017   36.954    0.474    0.462   52.817
  228.250  225.997   41.304    0.482    0.460   56.993
  228.500  225.988   44.408    0.483    0.460   62.680
  228.750  225.968   45.643    0.482    0.465   67.635
  229.000  225.958   45.015    0.479    0.461   77.271
  229.250  226.985   45.007    0.487    0.459   86.616
  229.500  226.972   49.979    0.487    0.459  104.772
  229.750  226.959   51.216    0.482    0.455  115.230
  230.000  226.946   48.095    0.477    0.452  129.165
  230.250  226.929   41.238    0.483    0.461  121.978
  230.500  226.916   37.497    0.500    0.450  110.889
  230.750  224.825   38.112    0.519    0.435  104.723
  231.000  222.743   38.104    0.522    0.445   98.896
  231.250  220.655   36.227    0.498    0.476   98.889
  231.500  218.563   42.444    0.481    0.475  104.687
  231.750  217.513   46.791    0.478    0.472  108.746
  232.000  218.537   47.407    0.481    0.471  117.339
  232.250  220.599   43.665    0.488    0.470  119.583
  232.500  223.695   41.789    0.505    0.471  119.568
  232.750  224.719   41.781    0.510    0.473  119.556
  233.000  225.746   42.396    0.502    0.477  115.080
  233.250  226.767   43.008    0.493    0.480  102.644
  233.500  227.792   43.625    0.482    0.478   93.312
  233.750  227.778   44.240    0.483    0.473   83.229
  234.000  227.765   44.852    0.486    0.471   83.219
  234.250  227.752   45.469    0.491    0.470   91.521
  234.500  227.739   49.818    0.499    0.475   96.894
  234.750  227.729   51.053    0.493    0.461  100.648
  235.000  227.712   51.668    0.484    0.455  112.820
  235.250  227.699   50.415    0.486    0.450  124.078
  235.500  227.686   42.315    0.489    0.456  139.079
  235.750  227.673   39.192    0.493    0.465  185.044
  236.000  228.694   42.299    0.497    0.474  192.213
  236.250  228.681   44.781    0.485    0.477  203.489
  236.500  228.664   41.038    0.481    0.476  203.469
  236.750  228.657   36.673    0.482    0.467  192.147
  237.000  228.638   34.795    0.482    0.469  181.459
  237.250  228.628   37.902    0.478    0.470  164.966
  237.500  228.614   44.741    0.478    0.469  141.638
  237.750  228.601   50.332    0.488    0.459  126.336
  238.000  228.588   50.328    0.494    0.454  117.058
  238.250  228.575   50.318    0.502    0.447  121.587
  238.500  228.562   50.310    0.488    0.464  104.398
  238.750  227.511   49.679    0.482    0.481   51.600
  239.000  227.494   49.049    0.485    0.487   30.854
  239.250  227.481   52.776    0.490    0.490   45.150
  239.500  227.468   66.463    0.512    0.436   49.656
  239.750  227.458   70.812    0.514    0.395   66.068
  240.000  227.445   65.824    0.521    0.399   68.624
  240.250  227.432   58.969    0.529    0.422   72.652
  240.500  227.418   57.714    0.536    0.431   76.914
  240.750  227.402   60.819    0.506    0.443   79.896
  241.000  227.392   63.303    0.482    0.455   82.987
  241.250  227.379   67.650    0.476    0.463   81.414
  241.500  227.366   70.755    0.482    0.435   75.433
  241.750  227.349   67.636    0.488    0.422   71.239
  242.000  227.333   60.159    0.496    0.436   75.418
  242.250  227.323   59.528    0.491    0.449   81.380
  242.500  227.310   59.518    0.495    0.457   76.853
  242.750  227.296   60.751    0.491    0.459   67.257
  243.000  227.283   63.860    0.486    0.469   36.563
  243.250  227.270   70.699    0.495    0.468   19.134
  243.500  228.294   80.028    0.491    0.419   16.745
  243.750  229.318   99.317    0.481    0.307   16.117
  244.000  230.339   94.330    0.475    0.292   18.413
  244.250  230.326   83.117    0.473    0.307   24.499
  244.500  228.238   75.017    0.479    0.330   25.447
  244.750  227.187   71.894    0.482    0.334   27.987
  245.000  227.177   71.887    0.471    0.340   27.984
  245.250  227.164   72.501    0.464    0.426   26.935
  245.500  227.148   72.495    0.489    0.438   29.623
  245.750  227.131   71.865    0.492    0.443   32.579
