~VERSION INFORMATION
 VERS.                 2.0:   CWLS LOG ASCII STANDARD -VERSION 2.0
 WRAP.                  NO:   ONE LINE PER DEPTH STEP
~WELL INFORMATION BLOCK
#MNEM.UNIT           DATA                    DESCRIPTION OF MNEMONIC
#---------    -------------------            -------------------------------
# Generated from Intellog Unique Number	CW_70_72/WELL/3027
NULL.         -999.25                        : NULL_VALUE
WELL.         MANNVILLE ET AL DECBENE        : Well_name    - WELL              
LOC .         11-07-070-01W5                 : Location     - LOCATION          
UWI .         00/11-07-070-01W5/0            : Uwi          - UNIQUE WELL ID    
ENTR.         JAYE                           : Entered      - ENTERED BY        
SRVC.         SCHLUMBERGER                   : Scn          - SERVICE COMPANY   
DATE.         11 JAN 85                      : Date         - LOG DATE          
STRT.M        425                            : top_depth    - START DEPTH       
STOP.M        630                            : bot_depth    - STOP DEPTH        
STEP.M        0.25                           : increment    - STEP LENGTH       
~CURVE INFORMATION BLOCK
#MNEM UNIT       ERCB CURVE CODE    CURVE DESCRIPTION
#-----------   ------------------   ----------------------------------
DEPT.M        00 001 00 00         : DEPTH        - DEPTH                       
ILD .OHMM     00 120 00 00         : RESD         - DEEP RESISTIVITY (DIL)      
CALI.MM       00 280 01 00         : CAL          - CALIPER                     
GR  .API      00 310 00 00         : GR           - GAMMA RAY                   
NPHI.V/V      00 330 00 00         : PHIN         - NEUTRON POROSITY (SANDSTONE)
DPHI.V/V      00 890 00 00         : PHID         - DENSITY POROSITY (SANDSTONE)
~PARAMETER INFORMATION       
#MNEM.UNIT           DATA             DESCRIPTION OF MNEMONIC
#---------         -----------     ------------------------------
GL  .M        583                  : gl           - GROUND LEVEL ELEVATION      
EREF.M        586                  : kb           - ELEVATION OF DEPTH REFERENCE
DATM.M        583                  : datum        - DATUM ELEVATION             
TDD .M        642                  : tdd          - TOTAL DEPTH DRILLER         
RUN .         ONE                  : Run          - RUN NUMBER                  
ENG .         HOWARD               : Engineer     - RECORDING ENGINEER          
WIT .         KRYWICKI             : Witness      - WITNESSED BY                
BASE.         EDM                  : Branch       - HOME BASE OF LOGGING UNIT   
MUD .         GEL CHEM             : Mud_type     - MUD TYPE                    
MATR.         SANDSTONE            : Logunit      - NEUTRON MATRIX              
TMAX.C        30                   : BHT          - MAXIMUM RECORDED TEMPERATURE
BHTD.M        642                  : BHTDEP       - MAXIMUM RECORDED TEMPERATURE
RMT .C        17                   : MDTP         - TEMPERATURE OF MUD          
MUDD.KG/M     1160                 : MWT          - MUD DENSITY                 
NEUT.         1                    : NEUTRON      - NEUTRON TYPE                
RESI.         0                    : RESIST       - RESISTIVITY TYPE            
RM  .OHMM     4.92                 : RM           - RESISTIVITY OF MUD          
RMC .OHMM     0.25                 : RMC          - RESISTIVITY OF MUD CAKE     
RMF .OHMM     5.72                 : RMF          - RESISTIVITY OF MUD FILTRATE 
SUFT.C        10                   : SUFT         - SURFACE TEMPERATURE         
~A  DEPTH     RESD      CAL       GR     PHIN     PHID
# ...
  498.000    1.811  154.170   55.321    0.398    0.324
  498.250    1.767  154.144   59.227    0.402    0.324
  498.500    1.744  154.446   59.096    0.399    0.318
  498.750    1.727  155.057   60.020    0.395    0.317
  499.000    1.730  157.421   66.783    0.396    0.324
  499.250    1.760  158.866   81.000    0.412    0.320
  499.500    1.857  168.788   86.956    0.416    0.295
  499.750    2.013  174.992   85.024    0.399    0.254
  500.000    2.125  182.227   86.693    0.399    0.255
  500.250    2.222  181.179   91.595    0.421    0.274
  500.500    2.289  184.172   97.674    0.482    0.281
  500.750    2.230  186.333   99.530    0.519    0.282
  501.000    2.049  186.426  101.263    0.531    0.299
  501.250    1.764  184.758  103.306    0.496    0.299
  501.500    1.598  175.950   98.456    0.458    0.283
  501.750    1.591  175.524   89.629    0.454    0.270
  502.000    1.646  174.271   82.977    0.471    0.294
  502.250    1.767  169.912   80.175    0.464    0.280
  502.500    1.943  165.139   77.745    0.427    0.271
  502.750    2.063  163.368   73.454    0.405    0.300
  503.000    2.110  162.530   68.665    0.401    0.307
  503.250    2.129  161.793   64.559    0.416    0.288
  503.500    2.189  161.679   60.266    0.359    0.219
  503.750    2.431  161.664   67.527    0.272    0.140
  504.000    2.745  161.758   73.545    0.280    0.168
  504.250    3.053  161.543   79.252    0.381    0.252
  504.500    3.253  161.630   81.791    0.422    0.273
  504.750    3.163  161.515   80.978    0.416    0.261
  505.000    3.052  161.401   79.978    0.408    0.244
  505.250    2.929  161.395   80.716    0.409    0.238
  505.500    2.847  161.379   82.697    0.418    0.246
  505.750    2.784  161.680   84.491    0.425    0.246
  506.000    2.763  162.085   86.596    0.413    0.234
  506.250    2.783  163.110   88.764    0.404    0.223
  506.500    2.841  165.063   93.602    0.403    0.216
  506.750    3.015  166.397   93.407    0.405    0.205
  507.000    3.136  167.420   88.929    0.418    0.198
  507.250    3.225  167.826   86.687    0.431    0.189
  507.500    3.316  168.433   87.115    0.411    0.191
  507.750    3.423  168.631   89.593    0.408    0.212
  508.000    3.487  169.239   93.065    0.402    0.214
  508.250    3.599  169.539   94.549    0.385    0.201
  508.500    3.680  169.539   95.474    0.364    0.180
  508.750    3.756  170.236   95.901    0.371    0.172
  509.000    3.877  170.335   96.516    0.386    0.169
  509.250    3.935  170.325   99.056    0.404    0.169
  509.500    3.957  170.325  103.335    0.419    0.166
  509.750    3.956  169.984  100.223    0.423    0.157
  510.000    3.956  169.981   98.042    0.413    0.163
  510.250    3.948  169.660   97.353    0.403    0.170
  510.500    3.925  167.780   98.526    0.396    0.174
  510.750    3.896  167.361   98.892    0.389    0.169
  511.000    3.895  166.209   97.270    0.388    0.160
  511.250    3.917  164.537  100.555    0.422    0.153
  511.500    3.880  163.807  104.648    0.452    0.158
  511.750    3.786  162.244   96.629    0.430    0.184
  512.000    3.572  160.577   86.933    0.422    0.233
  512.250    3.314  160.876   81.275    0.413    0.274
  512.500    3.007  158.276   87.914    0.394    0.263
  512.750    2.748  157.438   94.304    0.392    0.238
  513.000    2.627  156.701   93.676    0.411    0.220
  513.250    2.569  156.897   88.328    0.419    0.230
  513.500    2.607  156.678   86.086    0.404    0.238
  513.750    2.742  156.566   83.906    0.401    0.242
  514.000    2.846  157.175   81.662    0.391    0.227
  514.250    2.943  157.786   81.036    0.380    0.202
  514.500    3.009  159.120   89.475    0.393    0.186
  514.750    3.054  161.798   95.431    0.395    0.169
  515.000    3.135  163.133   97.350    0.383    0.176
  515.250    3.200  163.952   98.648    0.378    0.180
  515.500    3.340  164.249  100.256    0.392    0.173
  515.750    3.559  164.342   94.224    0.403    0.165
  516.000    3.687  164.538   89.808    0.394    0.192
  516.250    3.792  164.010   86.199    0.419    0.225
  516.500    3.707  163.690   83.273    0.451    0.253
  516.750    3.517  162.746   79.851    0.471    0.281
  517.000    3.294  161.908   76.490    0.492    0.309
  517.250    2.972  160.344   77.165    0.507    0.343
  517.500    2.752  158.467   77.781    0.440    0.330
  517.750    2.572  157.525   76.408    0.400    0.308
  518.000    2.373  157.102   75.098    0.380    0.307
  518.250    2.202  156.364   73.600    0.376    0.308
  518.500    2.020  155.939   72.039    0.391    0.306
  518.750    1.928  155.615   70.791    0.395    0.302
  519.000    1.864  155.502   69.916    0.388    0.299
  519.250    1.849  155.699   69.226    0.388    0.299
  519.500    1.853  155.582   69.406    0.393    0.304
  519.750    1.866  155.471   73.435    0.401    0.299
  520.000    1.901  155.458   77.776    0.408    0.286
  520.250    1.952  155.346   80.192    0.430    0.279
  520.500    2.003  155.438   74.845    0.439    0.282
  520.750    2.025  155.738   69.310    0.432    0.287
  521.000    2.033  156.139   63.900    0.406    0.282
  521.250    2.025  156.232   61.967    0.393    0.280
  521.500    1.976  155.285   63.451    0.386    0.286
  521.750    1.939  157.452   65.246    0.372    0.292
  522.000    1.875  157.856   66.233    0.383    0.291
  522.250    1.819  158.153   67.034    0.410    0.297
  522.500    1.765  158.351   67.587    0.399    0.309
  522.750    1.749  159.064   68.015    0.382    0.318
  523.000    1.836  160.812   67.635    0.384    0.277
  523.250    2.100  162.355   64.089    0.396    0.241
  523.500    2.693  163.895   61.038    0.393    0.193
  523.750    3.332  164.713   59.479    0.309    0.145
  524.000    4.370  165.324   58.106    0.245    0.131
  524.250    5.388  165.621   59.029    0.222    0.125
  524.500    6.187  165.405   60.514    0.226    0.132
  524.750    5.740  164.152   64.545    0.264    0.163
  525.000    4.823  161.864   69.197    0.315    0.216
  525.250    3.622  159.367   72.296    0.377    0.271
  525.500    3.015  157.803   71.979    0.423    0.310
  525.750    2.680  156.964   69.922    0.473    0.306
  526.000    2.491  156.125   68.301    0.443    0.301
  526.250    2.264  155.493   68.728    0.425    0.297
  526.500    2.093  154.756   71.704    0.420    0.295
  526.750    2.019  154.435   74.676    0.418    0.297
  527.000    1.985  154.216   75.541    0.408    0.298
  527.250    1.989  154.309   73.981    0.410    0.289
  527.500    2.011  154.403   72.112    0.412    0.278
  527.750    2.053  154.805   72.974    0.408    0.273
  528.000    2.123  155.416   74.707    0.402    0.275
  528.250    2.203  156.336   76.997    0.392    0.276
  528.500    2.330  157.360   79.103    0.400    0.257
  528.750    2.410  158.177   81.767    0.410    0.242
  529.000    2.520  158.373   77.103    0.418    0.252
  529.250    2.606  158.362   67.966    0.424    0.264
  529.500    2.766  158.558   67.090    0.383    0.253
  529.750    2.909  158.339   70.188    0.335    0.231
  530.000    3.048  157.913   70.182    0.312    0.211
  530.250    3.206  157.696   69.056    0.321    0.225
  530.500    3.309  157.272   68.615    0.365    0.249
  530.750    3.486  156.847   69.229    0.327    0.218
  531.000    3.687  156.523   70.030    0.282    0.139
  531.250    3.907  156.099   71.886    0.272    0.162
  531.500    4.093  156.089   73.682    0.308    0.209
  531.750    4.233  156.697   76.967    0.347    0.230
  532.000    4.193  157.722   81.183    0.374    0.228
  532.250    3.406  159.263   84.407    0.389    0.216
  532.500    3.202  160.080   88.747    0.388    0.206
  532.750    3.268  160.795   90.107    0.377    0.201
  533.000    3.386  161.300   83.641    0.369    0.197
  533.250    3.588  162.014   76.741    0.372    0.189
  533.500    3.873  162.625   69.654    0.369    0.179
  533.750    4.268  163.028   65.796    0.355    0.172
  534.000    5.165  162.809   60.759    0.314    0.160
  534.250    6.203  162.178   61.436    0.288    0.138
