~VERSION INFORMATION
 VERS.                 2.0:   CWLS LOG ASCII STANDARD -VERSION 2.0
 WRAP.                  NO:   ONE LINE PER DEPTH STEP
~WELL INFORMATION BLOCK
#MNEM.UNIT           DATA                    DESCRIPTION OF MNEMONIC
#---------    -------------------            -------------------------------
# Generated from Intellog Unique Number	CS_73_76/WELL/3275
WELL.         CANADIAN WORLDWIDE ENERGY      : Well_name    - WELL
LOC .         00/13-17-076-04W4/0            : Location     - LOCATION
UWI .         00/13-17-076-04W4/0            : Uwi          - UNIQUE WELL ID
ENTR.         SP                             : Entered      - ENTERED BY
SRVC.         SCHLUMBERGER                   : Scn          - SERVICE COMPANY
STRT.M        150                            : top_depth    - START DEPTH
STOP.M        450                            : bot_depth    - STOP DEPTH
STEP.M        0.25                           : increment    - STEP LENGTH
 NULL. -999.2500:NULL Value
~CURVE INFORMATION BLOCK
#MNEM UNIT       ERCB CURVE CODE    CURVE DESCRIPTION
#-----------   ------------------   ----------------------------------
DEPT.M        00 001 00 00         : DEPTH        - DEPTH
ILD .OHMM     00 120 00 00         : RESD         - DEEP RESISTIVITY (DIL)
GR  .API      00 310 00 00         : GR           - GAMMA RAY
DPHI.V/V      00 890 00 00         : PHID         - DENSITY POROSITY (LIMESTONE)
NPHI.V/V      00 330 00 00         : PHIN         - NEUTRON POROSITY (LIMESTONE)
~PARAMETER INFORMATION
#MNEM.UNIT           DATA             DESCRIPTION OF MNEMONIC
#---------         -----------     ------------------------------
GL  .M        623.19               : gl           - GROUND LEVEL ELEVATION
EREF.M        626.29               : kb           - ELEVATION OF DEPTH REFERENCE
DATM.M        623.19               : datum        - DATUM ELEVATION
TDD .M        453                  : tdd          - TOTAL DEPTH DRILLER
RUN .         ONE                  : Run          - RUN NUMBER
ENG .         BILL                 : Engineer     - RECORDING ENGINEER
WIT .         JIM                  : Witness      - WITNESSED BY
MUD .         GEL                  : Mud_type     - MUD TYPE
MATR.         LIMESTONE            : Logunit      - NEUTRON MATRIX
TMAX.C        18                   : BHT          - MAXIMUM RECORDED TEMPERATURE
BHTD.M        453                  : BHTDEP       - MAXIMUM RECORDED TEMPERATURE
MATR.         1                    : LOGUNIT      - NEUTRON MATRIX
RMT .C        25                   : MDTP         - TEMPERATURE OF MUD
NEUT.         1                    : NEUTRON      - NEUTRON TYPE
RESI.         0                    : RESIST       - RESISTIVITY TYPE
RMC .OHMM     0.25                 : RMC          - RESISTIVITY OF MUD CAKE
RMF .OHMM     0.25                 : RMF          - RESISTIVITY OF MUD FILTRATE
SUFT.C        15                   : SUFT         - SURFACE TEMPERATURE
~A  DEPTH     RESD       GR     PHID     PHIN
# ...
  237.000   24.561   64.661    0.270    0.450
  237.250   26.906   52.521    0.286    0.411
  237.500   29.475   57.386    0.287    0.350
  237.750   31.800   90.794    0.271    0.364
  238.000   32.779  101.732    0.283    0.386
  238.250   33.279   90.201    0.305    0.427
  238.500   34.303   84.134    0.322    0.449
  238.750   34.825   77.458    0.303    0.406
  239.000   36.447   70.178    0.269    0.362
  239.250   38.145   65.931    0.244    0.354
  239.500   39.320   61.079    0.270    0.348
  239.750   40.528   57.440    0.272    0.340
  240.000   41.777   59.877    0.271    0.335
  240.250   42.413   62.312    0.261    0.354
  240.500   41.767   67.178    0.247    0.376
  240.750   39.297   73.255    0.233    0.384
  241.000   36.414   81.764    0.219    0.388
  241.250   31.271   91.488    0.189    0.392
  241.500   27.684  101.209    0.117    0.398
  241.750   23.061  113.969    0.157    0.429
  242.000   21.370  110.331    0.163    0.446
  242.250   19.503  123.090    0.125    0.443
  242.500   18.349  125.530    0.134    0.457
  242.750   17.263  126.140    0.202    0.470
  243.000   16.242  127.968    0.207    0.481
  243.250   15.051  123.117    0.207    0.478
  243.500   14.378  124.943    0.220    0.487
  243.750   13.735  129.201    0.215    0.492
  244.000   12.922  131.028    0.214    0.499
  244.250   12.158  129.822    0.219    0.509
  244.500   11.614  130.434    0.226    0.520
  244.750   11.265  131.654    0.238    0.521
  245.000   11.093  132.267    0.253    0.511
  245.250   11.262  121.342    0.250    0.496
  245.500   12.718  117.097    0.237    0.478
  245.750   15.264  110.422    0.228    0.465
  246.000   19.768  101.318    0.249    0.456
  246.250   25.601   84.927    0.267    0.445
  246.500   31.197   56.997    0.315    0.402
  246.750   45.630   43.035    0.358    0.395
  247.000   52.319   46.081    0.336    0.406
  247.250   53.116   47.909    0.344    0.422
  247.500   53.925   49.128    0.349    0.428
  247.750   53.102   50.349    0.348    0.424
  248.000   52.297   49.746    0.349    0.406
  248.250   51.499   41.857    0.345    0.395
  248.500   49.949   44.293    0.339    0.391
  248.750   49.192   52.194    0.326    0.389
  249.000   48.441   58.272    0.321    0.389
  249.250   47.706   63.744    0.316    0.391
  249.500   46.978   69.218    0.310    0.398
  249.750   46.976   71.651    0.299    0.399
  250.000   46.970   73.479    0.290    0.400
  250.250   46.964   75.915    0.287    0.409
  250.500   46.959   78.958    0.304    0.413
  250.750   47.674   78.963    0.308    0.417
  251.000   47.668   81.399    0.311    0.416
  251.250   48.393   84.442    0.312    0.428
  251.500   48.385   85.662    0.306    0.450
  251.750   49.123   83.848    0.301    0.446
  252.000   49.873   82.637    0.301    0.429
  252.250   49.112   87.503    0.306    0.428
  252.500   48.364   95.404    0.296    0.423
  252.750   47.629  103.911    0.292    0.419
  253.000   46.906   97.845    0.291    0.410
  253.250   46.899   82.668    0.269    0.395
  253.500   46.187   74.171    0.259    0.389
  253.750   46.180   70.534    0.247    0.383
  254.000   45.480   72.969    0.242    0.376
  254.250   45.473   76.619    0.247    0.367
  254.500   46.165   70.553    0.251    0.355
  254.750   47.586   66.913    0.256    0.360
  255.000   49.052   66.921    0.273    0.371
  255.250   53.734   66.926    0.287    0.376
  255.500   58.863   63.288    0.304    0.379
  255.750   63.511   51.149    0.314    0.387
  256.000   71.720   43.260    0.321    0.372
  256.250   77.382   34.763    0.322    0.384
  256.500   82.230   28.696    0.319    0.367
  256.750   88.719   26.273    0.309    0.365
  257.000   88.710   25.673    0.328    0.377
  257.250   88.698   26.284    0.353    0.377
  257.500   87.344   28.116    0.342    0.350
  257.750   88.676   29.335    0.335    0.340
  258.000   88.668   31.770    0.339    0.355
  258.250   90.018   34.812    0.356    0.365
  258.500   91.384   35.425    0.345    0.388
  258.750   91.375   31.789    0.336    0.384
  259.000   91.366   30.580    0.332    0.386
  259.250   88.614   29.370    0.329    0.393
  259.500   88.606   28.162    0.332    0.399
  259.750   88.596   26.954    0.332    0.384
  260.000   89.943   26.351    0.333    0.368
  260.250   91.316   25.143    0.333    0.351
  260.500   89.923   23.935    0.334    0.350
  260.750   88.557   24.548    0.339    0.355
  261.000   87.209   28.198    0.339    0.354
  261.250   85.884   31.849    0.336    0.350
  261.500   82.040   34.892    0.331    0.347
  261.750   77.186   37.933    0.341    0.357
  262.000   71.525   39.154    0.346    0.372
  262.250   65.279   44.018    0.312    0.374
  262.500   54.377   64.066    0.282    0.355
  262.750   50.389   77.432    0.284    0.369
  263.000   46.691   77.440    0.298    0.382
  263.250   44.604   80.482    0.324    0.390
  263.500   40.708   85.952    0.302    0.399
  263.750   37.151   99.927    0.274    0.407
  264.000   33.906  109.649    0.267    0.417
  264.250   31.419  121.802    0.252    0.406
  264.500   29.114  125.452    0.216    0.408
  264.750   27.813  124.851    0.203    0.417
  265.000   26.569  123.643    0.214    0.427
  265.250   25.769  120.007    0.222    0.435
  265.500   24.616  116.368    0.229    0.439
  265.750   23.875  112.729    0.232    0.441
  266.000   23.512  112.128    0.234    0.451
  266.250   23.870  112.742    0.240    0.468
  266.500   24.234  113.963    0.261    0.483
  266.750   26.547  115.182    0.266    0.482
  267.000   27.784  109.115    0.268    0.467
  267.250   30.436   96.975    0.272    0.452
  267.500   34.371   90.300    0.273    0.431
  267.750   36.524   90.914    0.274    0.418
  268.000   38.225   96.387    0.275    0.417
  268.250   38.806  101.252    0.280    0.416
  268.500   39.396   95.184    0.285    0.411
  268.750   39.393   89.723    0.288    0.407
  269.000   38.208   94.588    0.280    0.406
  269.250   35.405  102.490    0.255    0.403
  269.500   33.312  109.784    0.242    0.431
  269.750   34.336   97.645    0.231    0.453
  270.000   37.045   89.755    0.238    0.442
  270.250   38.773   77.006    0.278    0.422
  270.500   43.124   60.008    0.316    0.433
  270.750   47.964   45.439    0.328    0.430
  271.000   52.545   46.660    0.329    0.420
  271.250   60.249   49.095    0.329    0.411
  271.500   65.005   50.922    0.324    0.391
  271.750   70.132   52.144    0.323    0.381
  272.000   72.291   50.327    0.323    0.377
  272.250   71.193   50.334    0.318    0.383
  272.500   68.010   61.271    0.303    0.377
  272.750   58.403   71.601    0.275    0.369
  273.000   47.193   93.471    0.264    0.418
  273.250   41.150   84.976    0.276    0.441
  273.500   36.987   77.088    0.292    0.429
  273.750   35.333   73.447    0.304    0.412
  274.000   35.871   72.239    0.311    0.414
  274.250   38.702   75.890    0.299    0.427
  274.500   43.047   79.539    0.311    0.416
  274.750   47.879   81.975    0.303    0.411
  275.000   48.608   82.588    0.293    0.419
  275.250   46.433   83.201    0.276    0.411
  275.500   39.875   84.421    0.267    0.398
  275.750   38.090   84.427    0.270    0.405
  276.000   37.511   86.256    0.273    0.402
  276.250   36.382   89.299    0.254    0.397
  276.500   34.756   91.126    0.249    0.407
  276.750   33.200   90.525    0.244    0.413
  277.000   33.197   85.672    0.246    0.407
  277.250   33.701   79.606    0.268    0.400
  277.500   34.216   74.146    0.270    0.396
  277.750   36.358   66.257    0.269    0.385
  278.000   37.478   60.797    0.299    0.403
  278.250   40.434   62.627    0.333    0.402
  278.500   41.681   63.846    0.340    0.403
  278.750   42.962   65.068    0.329    0.411
  279.000   42.959   66.896    0.302    0.403
  279.250   42.303   68.723    0.286    0.402
  279.500   41.661   70.553    0.277    0.408
  279.750   36.882   71.164    0.281    0.397
  280.000   34.177   75.421    0.283    0.407
  280.250   32.648   78.464    0.276    0.417
