~VERSION INFORMATION
 VERS.                 2.0:   CWLS LOG ASCII STANDARD -VERSION 2.0
 WRAP.                  NO:   ONE LINE PER DEPTH STEP
~WELL INFORMATION BLOCK
#MNEM.UNIT           DATA                    DESCRIPTION OF MNEMONIC
#---------    -------------------            -------------------------------
# Generated from Intellog Unique Number	CS_73_76/WELL/804
WELL.         PACIFIC PHILLIPS AEC WIAU      : Well_name    - WELL
LOC .         00/10-01-073-09W4/0            : Location     - LOCATION
UWI .         00/10-01-073-09W4/0            : Uwi          - UNIQUE WELL ID
ENTR.         SP                             : Entered      - ENTERED BY
SRVC.         SCHLUMBERGER                   : Scn          - SERVICE COMPANY
STRT.M        320                            : top_depth    - START DEPTH
STOP.M        530                            : bot_depth    - STOP DEPTH
STEP.M        0.25                           : increment    - STEP LENGTH
 NULL. -999.2500:NULL Value
~CURVE INFORMATION BLOCK
#MNEM UNIT       ERCB CURVE CODE    CURVE DESCRIPTION
#-----------   ------------------   ----------------------------------
DEPT.M        00 001 00 00         : DEPTH        - DEPTH
ILD .OHMM     00 120 00 00         : RESD         - DEEP RESISTIVITY (DIL)
DPHI.V/V      00 890 00 00         : PHID         - DENSITY POROSITY (LIMESTONE)
NPHI.V/V      00 330 00 00         : PHIN         - NEUTRON POROSITY (LIMESTONE)
GR  .API      00 310 00 00         : GR           - GAMMA RAY
~PARAMETER INFORMATION
#MNEM.UNIT           DATA             DESCRIPTION OF MNEMONIC
#---------         -----------     ------------------------------
GL  .M        682.9                : gl           - GROUND LEVEL ELEVATION
EREF.M        685.9                : kb           - ELEVATION OF DEPTH REFERENCE
DATM.M        682.9                : datum        - DATUM ELEVATION
TDD .M        544                  : tdd          - TOTAL DEPTH DRILLER
RUN .         ONE                  : Run          - RUN NUMBER
ENG .         BILL                 : Engineer     - RECORDING ENGINEER
WIT .         JIM                  : Witness      - WITNESSED BY
MUD .         GEL                  : Mud_type     - MUD TYPE
MATR.         LIMESTONE            : Logunit      - NEUTRON MATRIX
TMAX.C        16                   : BHT          - MAXIMUM RECORDED TEMPERATURE
BHTD.M        544                  : BHTDEP       - MAXIMUM RECORDED TEMPERATURE
MATR.         1                    : LOGUNIT      - NEUTRON MATRIX
RMT .C        25                   : MDTP         - TEMPERATURE OF MUD
NEUT.         1                    : NEUTRON      - NEUTRON TYPE
RESI.         0                    : RESIST       - RESISTIVITY TYPE
RMC .OHMM     0.25                 : RMC          - RESISTIVITY OF MUD CAKE
RMF .OHMM     0.25                 : RMF          - RESISTIVITY OF MUD FILTRATE
SUFT.C        15                   : SUFT         - SURFACE TEMPERATURE
~A  DEPTH     RESD     PHID     PHIN       GR
  320.000    2.966    0.204    0.580  101.010
  320.250    3.022    0.218    0.571   99.196
  320.500    3.080    0.210    0.579   97.988
  320.750    3.198    0.219    0.585  101.618
  321.000    3.199    0.223    0.559  101.620
  321.250    3.261    0.223    0.560  101.621
  321.500    3.323    0.233    0.570  104.647
  321.750    3.387    0.229    0.577  102.834
  322.000    3.452    0.223    0.510  102.835
  322.250    3.454    0.210    0.497  104.651
  322.500    3.456    0.227    0.492  102.838
  322.750    3.457    0.225    0.503  103.445
  323.000    3.523    0.217    0.518  105.866
  323.250    3.591    0.223    0.531  106.472
  323.500    3.593    0.205    0.542  105.868
  323.750    3.662    0.190    0.548  102.845
  324.000    3.663    0.210    0.522  101.032
  324.250    3.666    0.229    0.510  101.034
  324.500    3.667    0.221    0.522  101.035
  324.750    3.669    0.223    0.531   99.827
  325.000    3.739    0.240    0.525   97.410
  325.250    3.741    0.231    0.509   96.806
  325.500    3.676    0.208    0.497   96.807
  325.750    3.677    0.198    0.503   99.228
  326.000    3.889    0.200    0.501   92.577
  326.250    4.112    0.190    0.484   88.948
  326.500    4.511    0.170    0.467   85.321
  326.750    5.734    0.182    0.435   81.088
  327.000    7.564    0.208    0.405   84.114
  327.250   10.351    0.253    0.407   88.350
  327.500   11.783    0.244    0.411   91.980
  327.750   12.007    0.245    0.404   96.820
  328.000   10.562    0.230    0.401  101.660
  328.250    9.817    0.218    0.417  102.871
  328.500    9.124    0.234    0.437  104.083
  328.750    8.325    0.245    0.459  101.059
  329.000    7.882    0.245    0.440   81.102
  329.250    8.334    0.242    0.396   73.240
  329.500   10.595    0.274    0.325   65.378
  329.750   16.194    0.336    0.285   58.726
  330.000   29.216    0.337    0.242   53.889
  330.250   36.462    0.339    0.228   48.447
  330.500   40.002    0.347    0.222   45.424
  330.750   35.840    0.353    0.225   43.006
  331.000   32.701    0.359    0.258   45.427
  331.250   28.236    0.347    0.285   47.243
  331.500   24.380    0.316    0.310   47.849
  331.750   22.247    0.300    0.357   45.431
  332.000   20.300    0.303    0.383   43.013
  332.250   18.868    0.304    0.401   42.410
  332.500   18.196    0.321    0.411   43.016
  332.750   17.550    0.325    0.418   44.832
  333.000   17.559    0.316    0.412   44.833
  333.250   17.566    0.302    0.397   41.810
  333.500   17.262    0.308    0.397   50.280
  333.750   16.951    0.283    0.395   61.773
  334.000   15.757    0.265    0.383   76.291
  334.250   14.645    0.231    0.390   90.809
  334.500   13.364    0.231    0.411   99.278
  334.750   12.195    0.210    0.430   99.884
  335.000   11.544    0.223    0.429   98.676
  335.250   11.133    0.239    0.423   95.654
  335.500   11.556    0.248    0.443   92.631
  335.750   11.996    0.257    0.435   90.213
  336.000   12.458    0.263    0.419   89.609
  336.250   12.694    0.258    0.408   89.610
  336.500   12.939    0.248    0.402   83.564
  336.750   12.943    0.268    0.412   80.541
  337.000   13.435    0.287    0.413   76.913
  337.250   13.950    0.303    0.413   77.520
  337.500   14.214    0.310    0.418   83.570
  337.750   14.486    0.282    0.428   88.410
  338.000   14.236    0.287    0.434   89.620
  338.250   13.982    0.286    0.430   84.179
  338.500   13.732    0.280    0.429   73.898
  338.750   13.241    0.264    0.411   70.270
  339.000   12.768    0.246    0.397   71.481
  339.250   12.314    0.239    0.426   68.458
  339.500   12.323    0.271    0.441   63.016
  339.750   12.560    0.280    0.423   60.598
  340.000   12.799    0.286    0.417   59.995
  340.250   13.286    0.300    0.429   60.601
  340.500   14.050    0.308    0.445   61.812
  340.750   14.583    0.312    0.446   64.234
  341.000   15.140    0.320    0.451   64.839
  341.250   15.147    0.294    0.442   63.026
  341.500   14.607    0.271    0.420   61.818
  341.750   13.828    0.242    0.405   68.473
  342.000   12.164    0.206    0.416   76.942
  342.250   11.304    0.197    0.447   85.411
  342.500    9.761    0.202    0.454   92.671
  342.750    8.906    0.155    0.472   99.325
  343.000    7.979    0.127    0.481  105.980
  343.250    6.764    0.108    0.480  106.587
  343.500    6.059    0.111    0.477  116.871
  343.750    5.330    0.156    0.486  119.291
  344.000    4.953    0.167    0.511  121.712
  344.250    4.520    0.179    0.527  116.270
  344.500    4.124    0.197    0.517  115.666
  344.750    3.695    0.207    0.514  116.273
  345.000    3.434    0.213    0.549  112.040
  345.250    3.251    0.218    0.569  108.412
  345.500    3.567    0.223    0.585  101.761
  345.750    4.291    0.231    0.537   95.714
  346.000    5.161    0.252    0.498   89.666
  346.250    7.889    0.248    0.465   89.668
  346.500   10.405    0.260    0.457   88.460
  346.750   12.990    0.266    0.464   86.646
  347.000   14.249    0.268    0.452   90.278
  347.250   15.065    0.271    0.445   90.883
  347.500   13.252    0.270    0.441   94.514
  347.750   11.441    0.257    0.440   97.540
  348.000   10.063    0.228    0.449  100.565
  348.250    9.014    0.215    0.460  104.801
  348.500    8.076    0.198    0.474  108.431
  348.750    7.370    0.178    0.480  110.852
  349.000    6.850    0.165    0.483  113.273
  349.250    6.367    0.135    0.483  114.484
  349.500    5.918    0.134    0.478  115.091
  349.750    5.812    0.149    0.474  115.697
  350.000    5.503    0.164    0.483  118.117
  350.250    5.210    0.177    0.495  121.143
  350.500    4.843    0.186    0.500  122.354
  350.750    4.757    0.181    0.498  123.565
  351.000    4.587    0.172    0.493  122.357
  351.250    4.676    0.156    0.501  119.334
  351.500    4.853    0.157    0.516  117.521
  351.750    5.227    0.174    0.524  112.079
  352.000    6.060    0.234    0.520  103.008
  352.250    6.898    0.283    0.468   97.565
  352.500    8.298    0.320    0.451   94.542
  352.750   11.357    0.331    0.443   95.754
  353.000   13.660    0.326    0.447   94.546
  353.250   14.713    0.264    0.451   95.152
  353.500   13.933    0.249    0.443   97.573
  353.750   13.188    0.249    0.449   98.179
  354.000   12.257    0.251    0.449   95.156
  354.250   11.605    0.259    0.434   92.133
  354.500   11.613    0.270    0.437   83.667
  354.750   12.739    0.280    0.442   74.596
  355.000   14.237    0.287    0.419   63.710
  355.250   15.621    0.294    0.378   54.034
  355.500   16.212    0.298    0.364   55.245
  355.750   16.831    0.298    0.374   61.900
  356.000   16.840    0.294    0.384   66.741
  356.250   16.241    0.288    0.398   70.976
  356.500   15.660    0.284    0.403   74.606
  356.750   14.829    0.292    0.412   76.422
  357.000   14.563    0.307    0.418   78.238
  357.250   13.792    0.294    0.427   80.054
  357.500   13.544    0.277    0.444   81.265
  357.750   13.306    0.263    0.438   84.895
  358.000   13.068    0.254    0.415   88.526
  358.250   12.836    0.266    0.402   92.156
  358.500   11.717    0.267    0.397   96.392
  358.750   11.091    0.254    0.396   98.813
  359.000   10.308    0.225    0.415  101.838
  359.250    9.758    0.210    0.430  102.445
  359.500    9.071    0.204    0.442  101.236
  359.750    8.749    0.193    0.450  101.843
  360.000    8.752    0.219    0.453  101.844
  360.250    8.599    0.217    0.450  100.031
  360.500    8.445    0.198    0.449   97.613
  360.750    8.144    0.202    0.450   98.824
  361.000    7.710    0.204    0.440  104.270
  361.250    7.036    0.203    0.466  107.295
  361.500    6.661    0.203    0.475  111.531
  361.750    6.544    0.204    0.487  112.741
  362.000    6.669    0.216    0.496  106.695
  362.250    7.050    0.238    0.504  103.067
  362.500    7.736    0.250    0.467  101.253
  362.750    8.333    0.258    0.458  100.045
  363.000    8.491    0.248    0.446  103.071
  363.250    8.815    0.243    0.452  105.492
