~VERSION INFORMATION
 VERS.                 2.0:   CWLS LOG ASCII STANDARD -VERSION 2.0
 WRAP.                  NO:   ONE LINE PER DEPTH STEP
~WELL INFORMATION BLOCK
#MNEM.UNIT           DATA                    DESCRIPTION OF MNEMONIC
#---------    -------------------            -------------------------------
# Generated from Intellog Unique Number	CW_79_81/WELL/2899
WELL.         CAN DELHI WAVASCA NC. 10-18    : Well_name    - WELL
LOC .         00/10-18-080-25W4/0            : Location     - LOCATION
UWI .         00/10-18-080-25W4/0            : Uwi          - UNIQUE WELL ID
ENTR.         JJ                             : Entered      - ENTERED BY
SRVC.         WESTERN ATLAS                  : Scn          - SERVICE COMPANY
DATE.         7 FEB 69                       : Date         - LOG DATE
STRT.M        338.328                        : top_depth    - START DEPTH
STOP.M        466.328                        : bot_depth    - STOP DEPTH
STEP.M        0.25                           : increment    - STEP LENGTH
 NULL. -999.2500:NULL Value
~CURVE INFORMATION BLOCK
#MNEM UNIT       ERCB CURVE CODE    CURVE DESCRIPTION
#-----------   ------------------   ----------------------------------
DEPT.M        00 001 00 00         : DEPTH        - DEPTH
DELT.US/F     00 520 00 00         : DELT         - SONIC TRAVEL TIME
GR  .API      00 310 00 00         : GR           - GAMMA RAY
RHOB.KG/M3    00 350 00 00         : DENS         - BULK DENSITY
CALI.MM       00 280 01 00         : CAL          - CALIPER
ILD .OHMM     00 120 00 00         : RESD         - DEEP RESISTIVITY (DIL)
~PARAMETER INFORMATION
#MNEM.UNIT           DATA             DESCRIPTION OF MNEMONIC
#---------         -----------     ------------------------------
GL  .M        551.261              : gl           - GROUND LEVEL ELEVATION
EREF.M        554.157              : kb           - ELEVATION OF DEPTH REFERENCE
DATM.M        554.157              : datum        - DATUM ELEVATION
TDD .M        469.392              : tdd          - TOTAL DEPTH DRILLER
RUN .         ONE                  : Run          - RUN NUMBER
ENG .         BLAND                : Engineer     - RECORDING ENGINEER
WIT .         WOREBEC              : Witness      - WITNESSED BY
BASE.         EDM                  : Branch       - HOME BASE OF LOGGING UNIT
MUD .         MUD                  : Mud_type     - MUD TYPE
MATR.         LIMESTONE            : Logunit      - NEUTRON MATRIX
TMAX.C        29.4444              : BHT          - MAXIMUM RECORDED TEMPERATURE
BHTD.M        470.611              : BHTDEP       - MAXIMUM RECORDED TEMPERATURE
RMT .C        15.5556              : MDTP         - TEMPERATURE OF MUD
MUDD.KG/M     1176                 : MWT          - MUD DENSITY
NEUT.         1                    : NEUTRON      - NEUTRON TYPE
RESI.         0                    : RESIST       - RESISTIVITY TYPE
RM  .OHMM     7                    : RM           - RESISTIVITY OF MUD
RMC .OHMM     5.5                  : RMC          - RESISTIVITY OF MUD CAKE
RMF .OHMM     8                    : RMF          - RESISTIVITY OF MUD FILTRATE
SUFT.C        5                    : SUFT         - SURFACE TEMPERATURE
~A  DEPTH     DELT       GR     DENS      CAL     RESD
# ...
  447.828  345.187   73.054 2571.500  199.602   11.807
  448.078  392.325   73.785 2527.910  192.390   10.527
  448.328  407.179   76.853 2520.620  187.176   10.831
  448.578  308.390   87.319 2573.970  193.025   13.747
  448.828  242.274   69.680 2633.100  196.136   17.605
  449.078  229.742   61.276 2647.350  196.804   28.814
  449.328  225.184   56.301 2588.410  195.278   29.902
  449.578  218.797   55.238 2526.870  191.970   25.086
  449.828  286.908   60.794 2477.510  189.813   19.267
  450.078  348.811   66.095 2476.410  189.774   15.255
  450.328  351.699   70.946 2476.900  189.828   12.046
  450.578  356.496   77.342 2514.300  190.708   10.364
  450.828  341.938   81.700 2525.740  192.228   10.106
  451.078  330.128   77.120 2514.870  195.231    9.909
  451.328  324.004   78.895 2544.290  197.803   10.014
  451.578  322.389   86.381 2506.090  199.856    9.998
  451.828  325.543   90.401 2501.790  198.225    9.499
  452.078  326.406   88.145 2558.320  197.228    9.061
  452.328  319.891   86.545 2546.450  196.646    8.563
  452.578  345.198   91.104 2495.490  195.858    7.905
  452.828  356.521   95.564 2498.590  198.541    7.527
  453.078  389.870   97.634 2492.880  194.702    7.350
  453.328  356.623  100.259 2546.420  196.436    7.334
  453.578  338.991  105.952 2548.120  193.755    7.598
  453.828  333.135  109.820 2557.590  196.120    7.903
  454.078  335.544  110.103 2576.620  197.865    7.786
  454.328  329.445   99.019 2588.880  196.969    7.168
  454.578  308.809   99.948 2587.370  194.911    6.389
  454.828  301.572   98.100 2610.200  193.809    5.369
  455.078  314.527   88.008 2586.970  195.021    4.850
  455.328  325.461   84.667 2613.380  194.761    4.392
  455.578  325.143   92.896 2629.820  195.125    4.296
  455.828  327.312   98.596 2602.010  199.913    4.360
  456.078  331.200   99.725 2609.670  198.805    4.444
  456.328  339.317   97.781 2652.440  198.341    4.669
  456.578  345.414  102.733 2678.060  200.069    5.073
  456.828  354.127   97.658 2604.570  201.282    6.423
  457.078  355.446  100.625 2577.740  201.335    7.692
  457.328  354.286  101.853 2635.070  201.173    8.057
  457.578  361.496   97.873 2653.510  202.915    7.017
  457.828  371.840   98.661 2602.150  204.754    6.077
  458.078  394.731   98.988 2624.380  204.701    5.439
  458.328  385.857   98.730 2642.820  204.225    5.161
  458.578  378.952  101.496 2616.790  202.808    4.904
  458.828  390.464   96.568 2619.670  202.447    4.847
  459.078  388.194  102.368 2624.150  201.969    4.852
  459.328  377.946   99.079 2642.590  201.809    4.775
  459.578  366.531   98.474 2664.420  204.280    4.939
  459.828  374.590   99.551 2645.380  206.440    4.722
  460.078  385.069   95.319 2621.530  207.338    3.682
  460.328  383.380   96.844 2597.100  207.816    2.621
  460.578  387.779  101.155 2585.620  207.544    1.722
  460.828  390.541  102.084 2629.190  199.283    1.365
  461.078  369.514   99.195 2709.660  203.227    1.730
  461.328  358.820   90.247 2643.340  209.499    2.255
  461.578  379.224   84.327 2623.680  208.073    2.942
  461.828  390.478   87.691 2622.190  203.071    3.547
  462.078  391.669   95.073 2607.310  203.443    4.334
  462.328  386.007   89.906 2604.220  204.439    4.780
  462.578  359.299   78.465 2535.700  188.494    4.864
  462.828  344.608   71.797 2486.540  183.919    4.628
  463.078  374.555   61.109 2458.920  183.352    4.691
  463.328  378.563   45.105 2501.080  183.708    5.117
  463.578  369.040   36.602 2496.980  188.079    5.602
  463.828  348.212   41.259 2507.450  192.764    6.389
  464.078  333.456   48.799 2526.300  196.710    7.116
  464.328  324.197   55.197 2543.540  198.338    7.823
  464.578  314.018   59.846 2527.280  198.399    8.469
  464.828  389.777   67.731 2487.080  196.653    8.814
  465.078  351.696   56.593 2459.050  192.284    9.099
  465.328  337.862   41.934 2429.440  185.076    9.203
  465.578  346.889   40.779 2525.660  184.393    9.649
  465.828  311.692   45.088 2525.340  185.287   10.275
  466.078  303.608   44.631 2551.770  187.239   11.083
  466.328  312.317   44.324 2568.810  189.599   11.427
