~VERSION INFORMATION
 VERS.                 2.0:   CWLS LOG ASCII STANDARD -VERSION 2.0
 WRAP.                  NO:   ONE LINE PER DEPTH STEP
~WELL INFORMATION BLOCK
#MNEM.UNIT           DATA                    DESCRIPTION OF MNEMONIC
#---------    -------------------            -------------------------------
# Generated from Intellog Unique Number	CS_71_72/WELL/899
WELL.         PEX PHILLIPS AEC GRIST         : Well_name    - WELL
LOC .         00/11-17-071-07W4/0            : Location     - LOCATION
UWI .         00/11-17-071-07W4/0            : Uwi          - UNIQUE WELL ID
ENTR.         SP                             : Entered      - ENTERED BY
SRVC.         SCHLUMBERGER                   : Scn          - SERVICE COMPANY
STRT.M        300                            : top_depth    - START DEPTH
STOP.M        520                            : bot_depth    - STOP DEPTH
STEP.M        0.25                           : increment    - STEP LENGTH
 NULL. -999.2500:NULL Value
~CURVE INFORMATION BLOCK
#MNEM UNIT       ERCB CURVE CODE    CURVE DESCRIPTION
#-----------   ------------------   ----------------------------------
DEPT.M        00 001 00 00         : DEPTH        - DEPTH
ILD .OHMM     00 120 00 00         : RESD         - DEEP RESISTIVITY (DIL)
DPHI.V/V      00 890 00 00         : PHID         - DENSITY POROSITY (LIMESTONE)
NPHI.V/V      00 330 00 00         : PHIN         - NEUTRON POROSITY (LIMESTONE)
GR  .API      00 310 00 00         : GR           - GAMMA RAY
~PARAMETER INFORMATION
#MNEM.UNIT           DATA             DESCRIPTION OF MNEMONIC
#---------         -----------     ------------------------------
GL  .M        659.5                : gl           - GROUND LEVEL ELEVATION
EREF.M        663.5                : kb           - ELEVATION OF DEPTH REFERENCE
DATM.M        659.5                : datum        - DATUM ELEVATION
TDD .M        526                  : tdd          - TOTAL DEPTH DRILLER
RUN .         ONE                  : Run          - RUN NUMBER
ENG .         BILL                 : Engineer     - RECORDING ENGINEER
WIT .         JIM                  : Witness      - WITNESSED BY
MUD .         GEL                  : Mud_type     - MUD TYPE
MATR.         LIMESTONE            : Logunit      - NEUTRON MATRIX
TMAX.C        23                   : BHT          - MAXIMUM RECORDED TEMPERATURE
BHTD.M        526                  : BHTDEP       - MAXIMUM RECORDED TEMPERATURE
MATR.         1                    : LOGUNIT      - NEUTRON MATRIX
RMT .C        25                   : MDTP         - TEMPERATURE OF MUD
NEUT.         1                    : NEUTRON      - NEUTRON TYPE
RESI.         0                    : RESIST       - RESISTIVITY TYPE
RMC .OHMM     0.25                 : RMC          - RESISTIVITY OF MUD CAKE
RMF .OHMM     0.25                 : RMF          - RESISTIVITY OF MUD FILTRATE
SUFT.C        15                   : SUFT         - SURFACE TEMPERATURE
~A  DEPTH     RESD     PHID     PHIN       GR
  300.000    3.273    0.005    0.522   64.417
  300.250    3.369    0.155    0.518   78.387
  300.500    3.449    0.204    0.540   84.549
  300.750    3.243    0.264    0.543   86.686
  301.000    2.948    0.241    0.548   89.371
  301.250    2.783    0.242    0.557   89.494
  301.500    2.712    0.255    0.555   87.848
  301.750    2.679    0.266    0.546   87.422
  302.000    2.670    0.253    0.565   89.314
  302.250    2.744    0.236    0.577   92.183
  302.500    2.793    0.243    0.554   93.953
  302.750    2.897    0.245    0.516   94.320
  303.000    2.987    0.239    0.524   94.382
  303.250    3.087    0.235    0.552   94.201
  303.500    3.154    0.232    0.565   94.751
  303.750    3.198    0.225    0.566   96.155
  304.000    3.280    0.235    0.565   95.424
  304.250    3.428    0.247    0.546   93.839
  304.500    3.569    0.228    0.513   92.864
  304.750    3.729    0.212    0.512   91.767
  305.000    3.875    0.215    0.507   91.403
  305.250    3.878    0.218    0.500   91.038
  305.500    3.780    0.210    0.495   90.856
  305.750    3.615    0.207    0.535   90.857
  306.000    3.413    0.220    0.545   91.102
  306.250    3.203    0.236    0.538   91.957
  306.500    3.146    0.259    0.531   92.142
  306.750    3.118    0.290    0.539   90.496
  307.000    3.145    0.315    0.520   88.118
  307.250    3.207    0.307    0.501   87.387
  307.500    3.270    0.281    0.481   91.231
  307.750    3.379    0.251    0.472   93.246
  308.000    3.538    0.230    0.470   93.979
  308.250    3.698    0.233    0.491   92.150
  308.500    3.872    0.235    0.511   91.724
  308.750    3.888    0.243    0.507   93.006
  309.000    3.521    0.249    0.489   91.970
  309.250    3.250    0.255    0.521   90.508
  309.500    3.114    0.246    0.532   89.960
  309.750    3.081    0.381    0.533   84.532
  310.000    3.190    0.443    0.608   78.799
  310.250    3.608    0.490    0.678   71.480
  310.500    4.214    0.519    0.657   76.788
  310.750    5.308    0.342    0.631   87.160
  311.000    6.610    0.232    0.612   80.390
  311.250    8.976    0.259    0.522   70.631
  311.500   14.972    0.292    0.343   61.726
  311.750   15.914    0.327    0.226   53.858
  312.000   15.049    0.346    0.227   50.504
  312.250   13.604    0.340    0.248   58.191
  312.500   11.576    0.331    0.263   65.573
  312.750   10.765    0.269    0.296   72.285
  313.000   10.550    0.292    0.351   65.088
  313.250   10.399    0.323    0.268   49.290
  313.500   10.060    0.347    0.243   32.882
  313.750    9.425    0.344    0.283   27.576
  314.000    8.568    0.312    0.314   27.028
  314.250    7.906    0.294    0.331   27.273
  314.500    7.295    0.294    0.344   28.312
  314.750    6.873    0.301    0.351   31.241
  315.000    6.599    0.308    0.340   30.205
  315.250    6.768    0.310    0.331   28.010
  315.500    6.863    0.294    0.325   44.176
  315.750    7.025    0.227    0.342   69.493
  316.000    7.097    0.196    0.362   83.585
  316.250    7.169    0.183    0.371   91.943
  316.500    7.148    0.184    0.388   97.679
  316.750    7.153    0.198    0.416   98.168
  317.000    7.157    0.221    0.448   92.740
  317.250    7.258    0.238    0.429   89.569
  317.500    7.415    0.254    0.395   85.422
  317.750    7.591    0.264    0.379   83.410
  318.000    7.712    0.265    0.396   82.802
  318.250    7.790    0.268    0.410   83.352
  318.500    7.887    0.280    0.423   84.146
  318.750    7.890    0.288    0.432   85.977
  319.000    7.912    0.271    0.414   88.296
  319.250    7.887    0.255    0.397   89.579
  319.500    7.818    0.254    0.392   86.957
  319.750    7.765    0.268    0.399   81.102
  320.000    7.669    0.275    0.397   77.382
  320.250    7.689    0.281    0.380   76.956
  320.500    7.782    0.283    0.385   83.240
  320.750    7.951    0.263    0.390   78.606
  321.000    8.123    0.240    0.350   72.812
  321.250    8.284    0.224    0.331   70.434
  321.500    8.305    0.232    0.341   68.544
  321.750    8.187    0.211    0.352   66.959
  322.000    7.996    0.191    0.368   65.679
  322.250    7.836    0.187    0.383   63.362
  322.500    7.538    0.197    0.400   58.422
  322.750    7.170    0.217    0.416   54.764
  323.000    6.987    0.231    0.409   68.673
  323.250    6.595    0.209    0.358   95.026
  323.500    6.144    0.152    0.390   98.932
  323.750    5.648    0.141    0.415   97.469
  324.000    5.203    0.141    0.435   95.823
  324.250    4.883    0.141    0.437  103.754
  324.500    4.601    0.166    0.454  109.977
  324.750    4.335    0.190    0.477  111.565
  325.000    4.076    0.208    0.498  110.102
  325.250    3.869    0.207    0.508  110.103
  325.500    3.666    0.198    0.503  108.640
  325.750    3.435    0.194    0.515  108.641
  326.000    3.158    0.220    0.509  111.388
  326.250    2.964    0.237    0.525  112.365
  326.500    2.862    0.254    0.538  108.340
  326.750    2.930    0.270    0.534   98.825
  327.000    3.185    0.277    0.517   88.883
  327.250    3.981    0.292    0.533   80.405
  327.500    5.266    0.318    0.544   74.123
  327.750    6.093    0.335    0.496   66.011
  328.000    6.725    0.335    0.442   59.241
  328.250    7.121    0.328    0.408   56.315
  328.500    7.033    0.326    0.402   56.011
  328.750    6.894    0.331    0.415   55.341
  329.000    6.670    0.323    0.429   54.122
  329.250    6.561    0.320    0.439   54.794
  329.500    6.408    0.331    0.443   56.260
  329.750    6.293    0.340    0.435   56.749
  330.000    6.249    0.342    0.436   56.567
  330.250    6.183    0.337    0.442   60.350
  330.500    6.107    0.335    0.422   65.292
  330.750    6.078    0.336    0.407   68.710
  331.000    6.081    0.337    0.427   71.212
  331.250    6.133    0.330    0.421   77.679
  331.500    6.148    0.339    0.413   88.721
  331.750    6.212    0.342    0.407   98.055
  332.000    6.275    0.336    0.412  106.292
  332.250    6.326    0.334    0.425  111.173
  332.500    6.392    0.332    0.437  115.261
  332.750    6.432    0.330    0.428  105.014
  333.000    6.486    0.340    0.440   87.447
  333.250    6.552    0.349    0.433   67.623
  333.500    6.642    0.351    0.435   64.818
  333.750    6.838    0.342    0.434   73.299
  334.000    7.133    0.313    0.430   77.387
  334.250    7.455    0.136    0.430   80.804
  334.500    7.689    0.101    0.437   70.740
  334.750    7.781    0.091    0.448   63.055
  335.000    7.831    0.173    0.455   60.860
  335.250    7.866    0.224    0.452   64.461
  335.500    7.843    0.255    0.441   68.244
  335.750    7.761    0.240    0.434   68.123
  336.000    7.721    0.185    0.441   67.880
  336.250    7.514    0.257    0.454   72.151
  336.500    7.419    0.284    0.468   72.946
  336.750    7.355    0.289    0.437   71.544
  337.000    7.305    0.279    0.413   69.715
  337.250    7.311    0.289    0.411   69.533
  337.500    7.302    0.310    0.414   71.608
  337.750    7.307    0.324    0.427   72.951
  338.000    7.298    0.321    0.415   72.831
  338.250    7.304    0.315    0.420   74.723
  338.500    7.309    0.313    0.440   74.358
  338.750    7.329    0.320    0.450   72.224
  339.000    7.335    0.326    0.437   70.273
  339.250    7.328    0.328    0.435   69.177
  339.500    7.330    0.324    0.442   69.361
  339.750    7.268    0.319    0.447   70.521
  340.000    7.258    0.311    0.447   71.620
  340.250    7.238    0.302    0.436   73.756
  340.500    7.241    0.296    0.438   75.282
  340.750    7.260    0.304    0.450   75.101
  341.000    7.334    0.313    0.452   73.150
  341.250    7.522    0.321    0.481   67.966
  341.500    8.010    0.325    0.501   62.782
  341.750    9.077    0.158    0.244   60.526
  342.000   11.850    0.095    0.233   60.344
  342.250   16.367    0.064    0.217   63.945
  342.500   18.619    0.010    0.172   62.360
  342.750   20.054    0.003    0.155   52.906
  343.000   20.147    0.053    0.187   56.201
  343.250   19.414    0.147    0.307   68.646
