~VERSION INFORMATION
 VERS.                 2.0:   CWLS LOG ASCII STANDARD -VERSION 2.0
 WRAP.                  NO:   ONE LINE PER DEPTH STEP
~WELL INFORMATION BLOCK
#MNEM.UNIT           DATA                    DESCRIPTION OF MNEMONIC
#---------    -------------------            -------------------------------
# Generated from Intellog Unique Number	CW_73_75/WELL/3527
WELL.         pan american                   : Well_name    - WELL
LOC .         00/11-24-075-26W4/0            : Location     - LOCATION
UWI .         00/11-24-075-26W4/0            : Uwi          - UNIQUE WELL ID
ENTR.         TIM                            : Entered      - ENTERED BY
SRVC.         SCHLUMBERGER                   : Scn          - SERVICE COMPANY
STRT.M        502.92                         : top_depth    - START DEPTH
STOP.M        771.17                         : bot_depth    - STOP DEPTH
STEP.M        0.25                           : increment    - STEP LENGTH
 NULL. -999.2500:NULL Value
~CURVE INFORMATION BLOCK
#MNEM UNIT       ERCB CURVE CODE    CURVE DESCRIPTION
#-----------   ------------------   ----------------------------------
DEPT.M        00 001 00 00         : DEPTH        - DEPTH
ILD .OHMM     00 120 00 00         : RESD         - DEEP RESISTIVITY (DIL)
GR  .API      00 310 00 00         : GR           - GAMMA RAY
DELT.US/F     00 520 00 00         : DELT         - SONIC TRAVEL TIME
~PARAMETER INFORMATION
#MNEM.UNIT           DATA             DESCRIPTION OF MNEMONIC
#---------         -----------     ------------------------------
GL  .M        810.768              : gl           - GROUND LEVEL ELEVATION
EREF.M        814.426              : kb           - ELEVATION OF DEPTH REFERENCE
DATM.M        814.426              : datum        - DATUM ELEVATION
TDD .M        773.582              : tdd          - TOTAL DEPTH DRILLER
RUN .         ONE                  : Run          - RUN NUMBER
ENG .         BILL                 : Engineer     - RECORDING ENGINEER
WIT .         JIM                  : Witness      - WITNESSED BY
MUD .         GEL                  : Mud_type     - MUD TYPE
MATR.         SANDSTONE            : Logunit      - NEUTRON MATRIX
TMAX.C        30.5556              : BHT          - MAXIMUM RECORDED TEMPERATURE
BHTD.M        773.582              : BHTDEP       - MAXIMUM RECORDED TEMPERATURE
MATR.         1                    : LOGUNIT      - NEUTRON MATRIX
RMT .C        21.1111              : MDTP         - TEMPERATURE OF MUD
NEUT.         1                    : NEUTRON      - NEUTRON TYPE
RESI.         0                    : RESIST       - RESISTIVITY TYPE
RMC .OHMM     4.6                  : RMC          - RESISTIVITY OF MUD CAKE
RMF .OHMM     2.8                  : RMF          - RESISTIVITY OF MUD FILTRATE
SUFT.C        5                    : SUFT         - SURFACE TEMPERATURE
~A  DEPTH     RESD       GR     DELT
# ...
  665.670    3.885   72.330  320.014
  665.920    4.299   71.847  335.302
  666.170    4.507   77.727  347.265
  666.420    4.715   87.525  349.920
  666.670    4.716   87.040  347.257
  666.920    4.923   82.638  335.948
  667.170    4.924   79.705  328.630
  667.420    4.926   82.158  326.629
  667.670    4.927   85.102  325.296
  667.920    4.928   86.085  324.626
  668.170    4.929   87.070  323.291
  668.420    4.724   86.096  326.612
  668.670    4.725   85.610  341.901
  668.920    4.520   85.616  346.550
  669.170    4.315   86.109  348.540
  669.420    4.316   88.564  349.201
  669.670    4.317   90.527  349.861
  669.920    4.319   95.429  351.185
  670.170    4.320   93.474  351.844
  670.420    4.322   91.521  351.841
  670.670    4.529   91.527  351.834
  670.920    4.736   90.552  351.832
  671.170    4.737   87.619  349.168
  671.420    4.945   86.646  347.169
  671.670    4.946   87.141  343.840
  671.920    4.947   87.635  338.516
  672.170    4.948   87.151  355.134
  672.420    4.950   86.175  363.772
  672.670    4.951   89.119  361.773
  672.920    4.952   92.551  359.110
  673.170    4.953   97.452  354.451
  673.420    4.955  100.396  347.798
  673.670    4.956   97.462  344.466
  673.920    5.163   94.531  342.467
  674.170    5.164   92.087  341.798
  674.420    5.166   88.176  343.124
  674.670    5.167   88.671  348.438
  674.920    5.168   89.656  351.758
  675.170    4.963   89.659  352.419
  675.420    4.964   88.686  352.413
  675.670    4.965   88.200  347.755
  675.920    4.967   87.715  342.432
  676.170    4.968   88.701  339.768
  676.420    4.969   90.174  345.083
  676.670    4.970   93.606  358.375
  676.920    4.972   92.144  359.700
  677.170    4.973   89.210  351.052
  677.420    4.974   85.298  350.383
  677.670    5.182   83.346  335.085
  677.920    5.183   85.798  328.432
  678.170    5.390   87.272  331.752
  678.420    5.392   90.704  345.044
  678.670    5.393   92.667  349.695
  678.920    5.188   96.588  353.680
  679.170    4.983   98.553  353.675
  679.420    4.777   96.111  353.671
  679.670    4.572   94.646  353.001
  679.920    4.574   90.735  351.667
  680.170    4.575   85.356  343.018
  680.420    4.576   83.892  338.359
  680.670    4.784   81.448  353.647
  680.920    5.197   78.025  356.967
  681.170    6.024   75.094  362.281
  681.420    7.882   74.610  364.936
  681.670    9.534   72.656  352.299
  681.920    9.948   70.702  325.034
  682.170    9.536   68.259  289.125
  682.420    8.300   64.838  291.780
  682.670    7.682   60.437  307.068
  682.920    7.271   59.464  324.351
  683.170    7.272   60.936  331.660
  683.420    7.686   61.432  351.603
  683.670    8.512   61.437  379.524
  683.920    8.926   60.952  396.806
  684.170    9.753   60.468  392.813
  684.420    9.960   59.494  386.158
  684.670    9.961   58.519  380.170
  684.920   10.169   57.544  374.181
  685.170    9.964   55.101  368.192
  685.420    9.965   53.149  364.863
  685.670    9.760   52.663  367.517
  685.920    9.762   54.138  368.844
  686.170    9.763   55.121  370.167
  686.420    9.764   56.596  370.164
  686.670    9.765   56.113  370.160
  686.920    9.767   54.650  369.491
  687.170    9.768   54.164  369.486
  687.420    9.768   54.169  369.481
  687.670    9.976   54.173  370.141
  687.920   10.184   54.178  370.136
  688.170   10.598   54.674  364.812
  688.420   11.424   54.679  350.845
  688.670   12.044   54.684  331.558
  688.920   12.458   54.687  321.580
  689.170   12.047   54.692  281.682
  689.420   11.017   54.209  247.767
  689.670   10.605   51.278  240.449
  689.920    9.987   50.791  243.103
  690.170    9.163   50.306  257.061
  690.420    8.751   52.761  282.323
  690.670    8.134   55.213  305.590
  690.920    7.928   61.094  356.118
  691.170    7.311   63.547  368.082
  691.420    7.312   65.021  378.715
  691.670    6.900   63.068  375.386
  691.920    6.901   61.602  368.068
  692.170    6.696   63.076  364.073
  692.420    6.698   65.529  369.388
  692.670    6.493   67.004  374.702
  692.920    6.494   66.518  378.023
  693.170    6.495   66.034  382.007
  693.420    6.496   65.059  382.669
  693.670    6.497   65.066  378.675
  693.920    6.499   65.072  376.011
  694.170    6.500   64.587  374.675
  694.420    6.707   64.592  374.672
  694.670    6.708   64.106  374.665
  694.920    6.710   64.111  374.660
  695.170    6.711   64.119  371.997
  695.420    6.712   64.612  366.009
  695.670    6.713   64.617  346.722
  695.920    6.715   63.642  325.441
  696.170    6.716   62.178  327.430
  696.420    6.717   63.163  329.421
  696.670    6.718   65.616  356.678
  696.920    6.720   64.642  361.327
  697.170    6.721   60.732  359.327
  697.420    6.722   59.757  354.004
  697.670    6.724   58.783  348.015
  697.920    6.724   58.788  344.686
  698.170    6.725   58.792  337.367
  698.420    6.727   59.777  316.751
  698.670    6.728   61.741  327.384
  698.920    6.729   63.214  336.024
  699.170    6.731   61.752  334.025
  699.420    6.732   61.754  325.376
  699.670    6.733   60.781  322.045
  699.920    6.528   60.786  322.708
  700.170    6.529   61.281  324.698
  700.420    6.530   62.264  327.352
  700.670    6.531   64.720  332.002
  700.920    6.533   65.704  336.651
  701.170    6.534   65.707  342.631
  701.420    6.741   66.202  344.620
  701.670    7.155   66.697  339.962
  701.920    7.569   66.701  325.330
  702.170    8.808   68.175  318.012
  702.420   10.254   67.690  320.001
  702.670   11.287   64.269  321.327
  702.920   11.907   64.273  321.323
  703.170   12.734   64.279  317.329
  703.420   13.148   63.305  306.021
  703.670   13.562   61.350  269.446
  703.920   13.563   56.949  266.782
  704.170   13.358   54.997  245.500
  704.420   13.152   54.514  213.581
  704.670   12.535   55.497  240.171
  704.920   12.329   56.971  252.801
  705.170   11.712   59.426  272.742
  705.420   10.888   60.897  276.062
  705.670   10.064   62.371  288.690
  705.920    9.652   63.846  292.012
  706.170    8.828   64.339  296.661
  706.420    8.416   65.814  299.981
  706.670    7.799   66.798  295.986
  706.920    7.387   68.271  293.322
  707.170    6.976   70.236  295.977
  707.420    6.564   71.219  298.632
  707.670    6.359   73.672  302.617
  707.920    5.947   76.616  317.905
  708.170    5.330   78.088  331.864
  708.420    5.124   79.562  335.184
  708.670    4.919   79.567  330.525
  708.920    4.714   81.530  325.201
  709.170    4.509   84.473  327.856
  709.420    4.304   87.906  332.505
  709.670    4.305   89.868  335.161
  709.920    4.100   91.831  337.816
  710.170    4.102   94.776  335.817
  710.420    4.102   94.293  335.811
  710.670    4.104   93.806  337.801
  710.920    4.311   92.342  340.458
  711.170    4.932   90.878  344.441
  711.420    5.345   90.885  344.437
  711.670    6.585   89.910  341.107
  711.920    6.998   90.895  337.779
  712.170    7.825   92.368  333.120
  712.420    9.271   92.863  321.812
  712.670    9.478   91.889  301.196
  712.920   10.305   89.934  271.936
  713.170   10.306   86.512  236.691
  713.420   10.101   81.621  254.638
  713.670    9.689   75.751  264.608
  713.920    9.072   75.268  271.918
  714.170    8.866   78.700  275.902
  714.420    8.249   78.705  301.828
  714.670    7.837   80.178  321.770
  714.920    7.426   82.142  322.430
  715.170    7.014   82.147  318.436
  715.420    6.603   83.132  318.432
  715.670    6.192   84.116  321.752
  715.920    6.193   85.591  327.066
  716.170    5.988   87.552  330.386
  716.420    5.782   87.558  329.051
  716.670    5.577   89.522  321.069
  716.920    5.578   90.994  314.415
  717.170    5.373   97.854  327.708
  717.420    5.581  102.756  330.363
  717.670    6.202  103.739  334.348
  717.920    6.821  104.234  338.999
  718.170    7.648  103.261  327.025
  718.420    8.474  102.775  315.052
  718.670    9.301  100.332  291.111
  718.920    8.477   89.077  283.128
  719.170    7.447   82.228  304.400
  719.420    6.829   74.399  319.024
  719.670    6.005   68.040  237.236
