~VERSION INFORMATION
 VERS.                 2.0:   CWLS LOG ASCII STANDARD -VERSION 2.0
 WRAP.                  NO:   ONE LINE PER DEPTH STEP
~WELL INFORMATION BLOCK
#MNEM.UNIT           DATA                    DESCRIPTION OF MNEMONIC
#---------    -------------------            -------------------------------
# Generated from Intellog Unique Number	CW_70_72/WELL/1037
NULL.         -999.25                        : NULL_VALUE
WELL.         SULPETRO SMITH 10-15           : Well_name    - WELL              
LOC .         10-15-071-26W4                 : Location     - LOCATION          
UWI .         00/10-15-071-26W4/0            : Uwi          - UNIQUE WELL ID    
ENTR.         JAYE                           : Entered      - ENTERED BY        
SRVC.         SCHLUMBERGER                   : Scn          - SERVICE COMPANY   
DATE.         24 FEB 72                      : Date         - LOG DATE          
STRT.M        426.11                         : top_depth    - START DEPTH       
STOP.M        685.86                         : bot_depth    - STOP DEPTH        
STEP.M        0.25                           : increment    - STEP LENGTH       
~CURVE INFORMATION BLOCK
#MNEM UNIT       ERCB CURVE CODE    CURVE DESCRIPTION
#-----------   ------------------   ----------------------------------
DEPT.M        00 001 00 00         : DEPTH        - DEPTH                       
DPHI.V/V      00 890 00 00         : PHID         - DENSITY POROSITY (SANDSTONE)
NPHI.V/V      00 330 00 00         : PHIN         - NEUTRON POROSITY (SANDSTONE)
GR  .API      00 310 00 00         : GR           - GAMMA RAY                   
CALI.MM       00 280 01 00         : CAL          - CALIPER                     
ILD .OHMM     00 120 00 00         : RESD         - DEEP RESISTIVITY (DIL)      
~PARAMETER INFORMATION       
#MNEM.UNIT           DATA             DESCRIPTION OF MNEMONIC
#---------         -----------     ------------------------------
GL  .M        617.22               : gl           - GROUND LEVEL ELEVATION      
EREF.M        620.573              : kb           - ELEVATION OF DEPTH REFERENCE
DATM.M        617.22               : datum        - DATUM ELEVATION             
TDD .M        701.04               : tdd          - TOTAL DEPTH DRILLER         
RUN .         ONE                  : Run          - RUN NUMBER                  
ENG .         ASHTON               : Engineer     - RECORDING ENGINEER          
WIT .         DRUMMOND             : Witness      - WITNESSED BY                
BASE.         LLOYD                : Branch       - HOME BASE OF LOGGING UNIT   
MUD .         CHEM GEL             : Mud_type     - MUD TYPE                    
MATR.         SANDSTONE            : Logunit      - NEUTRON MATRIX              
TMAX.C        26.6667              : BHT          - MAXIMUM RECORDED TEMPERATURE
BHTD.M        701.04               : BHTDEP       - MAXIMUM RECORDED TEMPERATURE
RMT .C        15.5556              : MDTP         - TEMPERATURE OF MUD          
MUDD.KG/M     1224                 : MWT          - MUD DENSITY                 
NEUT.         1                    : NEUTRON      - NEUTRON TYPE                
RESI.         0                    : RESIST       - RESISTIVITY TYPE            
RM  .OHMM     3.04                 : RM           - RESISTIVITY OF MUD          
RMC .OHMM     2.3                  : RMC          - RESISTIVITY OF MUD CAKE     
RMF .OHMM     2.66                 : RMF          - RESISTIVITY OF MUD FILTRATE 
SUFT.C        0                    : SUFT         - SURFACE TEMPERATURE         
~A  DEPTH     PHID     PHIN       GR      CAL     RESD
# ...
  499.110    0.113    0.274   70.600  178.579    4.106
  499.360    0.145    0.309   72.150  178.930    3.382
  499.610    0.182    0.336   73.696  178.961    3.047
  499.860    0.218    0.364   72.075  179.204    2.921
  500.110    0.241    0.395   68.925  179.456    2.866
  500.360    0.254    0.386   68.400  179.399    2.851
  500.610    0.246    0.371   68.608  179.435    2.819
  500.860    0.245    0.363   70.157  179.783    2.789
  501.110    0.258    0.360   70.605  179.819    2.821
  501.360    0.257    0.387   68.312  179.860    2.823
  501.610    0.256    0.400   67.844  179.481    2.863
  501.860    0.251    0.399   69.519  179.521    2.872
  502.110    0.252    0.385   69.600  179.665    2.888
  502.360    0.262    0.374   70.297  180.016    2.929
  502.610    0.256    0.357   71.419  180.168    2.954
  502.860    0.266    0.355   71.074  180.099    3.003
  503.110    0.243    0.377   71.401  179.940    3.171
  503.360    0.225    0.400   71.488  179.652    3.411
  503.610    0.218    0.371   71.267  179.396    3.747
  503.860    0.226    0.357   69.215  180.046    4.235
  504.110    0.222    0.341   70.523  180.201    4.706
  504.360    0.207    0.327   73.899  180.545    5.265
  504.610    0.194    0.316   74.593  180.680    5.114
  504.860    0.181    0.307   72.239  180.935    4.557
  505.110    0.186    0.367   75.069  181.077    4.150
  505.360    0.193    0.413   73.325  181.216    4.327
  505.610    0.164    0.377   63.527  181.368    4.934
  505.860    0.148    0.319   54.093  181.404    5.996
  506.110    0.109    0.312   58.020  181.028    5.877
  506.360    0.106    0.329   71.223  180.862    4.833
  506.610    0.160    0.343   81.373  181.221    3.948
  506.860    0.213    0.371   79.322  181.451    3.423
  507.110    0.242    0.392   75.928  182.116    3.120
  507.360    0.252    0.435   72.657  182.573    2.946
  507.610    0.269    0.427   69.692  182.826    2.955
  507.860    0.279    0.424   67.946  183.061    3.027
  508.110    0.293    0.410   68.275  182.695    3.100
  508.360    0.303    0.386   71.471  182.939    3.236
  508.610    0.247    0.363   75.888  183.088    3.445
  508.860    0.211    0.327   82.195  183.129    3.717
  509.110    0.196    0.371   88.320  183.065    3.805
  509.360    0.212    0.398   89.254  182.992    3.687
  509.610    0.226    0.404   90.379  183.036    3.655
  509.860    0.226    0.392   93.025  183.390    3.681
  510.110    0.201    0.416   97.745  183.947    3.705
  510.360    0.173    0.436   99.904  185.739    3.858
  510.610    0.163    0.443   97.550  188.260    4.050
  510.860    0.156    0.421   96.537  190.576    4.226
  511.110    0.172    0.394   91.375  186.273    4.402
  511.360    0.180    0.365   89.445  181.046    4.443
  511.610    0.171    0.379   98.070  180.670    4.500
  511.860    0.126    0.389  102.670  183.813    4.516
  512.110    0.120    0.390  106.779  189.016    4.629
  512.360    0.150    0.388  106.557  189.678    4.670
  512.610    0.181    0.382  106.276  188.270    4.695
  512.860    0.202    0.392  105.443  187.691    4.767
  513.110    0.172    0.410  104.065  187.110    4.824
  513.360    0.163    0.422  102.506  187.146    4.929
  513.610    0.163    0.405  103.259  187.914    5.009
  513.860    0.158    0.382  105.297  190.221    5.066
  514.110    0.145    0.399  108.127  191.196    5.098
  514.360    0.139    0.407  108.884  191.433    5.123
  514.610    0.148    0.390  110.491  191.582    5.100
  514.860    0.135    0.380  111.675  191.102    5.022
  515.110    0.136    0.387  105.903  190.730    4.878
  515.360    0.148    0.400  107.819  190.877    4.544
  515.610    0.136    0.397  105.219  190.915    4.234
  515.860    0.139    0.388  100.789  191.057    3.828
  516.110    0.131    0.395   99.836  190.998    3.350
  516.360    0.159    0.421   93.576  190.107    3.001
  516.610    0.221    0.453   87.743  186.946    2.890
  516.860    0.245    0.429   80.813  182.028    3.002
  517.110    0.276    0.408   85.717  178.867    3.449
  517.360    0.243    0.394   94.522  178.494    3.873
  517.610    0.210    0.409   98.692  180.598    4.225
  517.860    0.190    0.422   99.819  183.530    4.401
  518.110    0.179    0.415   98.256  185.635    4.450
  518.360    0.177    0.405   95.347  187.638    4.490
  518.610    0.167    0.384   93.362  187.885    4.404
  518.860    0.169    0.414   91.189  188.440    4.157
  519.110    0.223    0.430   87.856  187.449    3.751
  519.360    0.229    0.443   84.645  184.494    3.353
  519.610    0.224    0.454   82.653  180.092    3.059
  519.860    0.261    0.452   87.316  177.748    2.973
  520.110    0.269    0.416   84.657  177.373    3.108
  520.360    0.283    0.436   84.193  177.210    3.396
  520.610    0.312    0.455   84.826  176.834    3.852
  520.860    0.357    0.457   89.547  176.566    4.228
  521.110    0.403    0.456  104.700  176.607    4.348
  521.360    0.309    0.456  105.577  177.161    4.246
  521.610    0.267    0.459   91.261  177.415    3.999
  521.860    0.275    0.460   82.441  177.647    3.920
  522.110    0.290    0.456   76.975  177.904    3.921
  522.360    0.259    0.437   75.167  178.458    3.961
  522.610    0.260    0.402   73.666  179.017    4.002
  522.860    0.263    0.376   70.394  179.157    4.020
  523.110    0.250    0.382   70.053  179.295    4.076
  523.360    0.250    0.398   72.884  179.345    4.101
  523.610    0.257    0.417   78.886  179.696    4.045
  523.860    0.232    0.399   76.467  180.352    3.991
  524.110    0.237    0.396   73.683  180.180    3.879
  524.360    0.256    0.374   73.035  179.600    3.666
  524.610    0.278    0.391   73.793  179.337    3.499
  524.860    0.263    0.411   75.527  179.476    3.444
  525.110    0.252    0.427   73.293  179.932    3.333
  525.360    0.235    0.403   74.229  179.142    3.214
  525.610    0.259    0.394   75.959  178.867    3.152
  525.860    0.272    0.407   78.364  178.919    3.160
  526.110    0.250    0.415   78.022  179.062    3.272
  526.360    0.244    0.396   77.312  179.608    3.481
  526.610    0.242    0.377   81.365  180.060    3.657
  526.860    0.233    0.388   85.412  180.831    3.682
  527.110    0.224    0.410   84.523  181.388    3.555
  527.360    0.207    0.446   80.398  181.430    3.428
  527.610    0.228    0.445   76.516  180.944    3.293
  527.860    0.255    0.395   73.429  180.362    3.094
  528.110    0.264    0.380   73.634  179.794    2.896
  528.360    0.249    0.379   76.953  179.108    2.961
  528.610    0.258    0.415   82.345  180.072    3.440
  528.860    0.237    0.370   86.944  181.246    4.047
  529.110    0.211    0.300   88.494  182.115    4.335
  529.360    0.186    0.271   81.075  182.985    3.826
  529.610    0.136    0.249   76.273  183.433    3.268
  529.860    0.154    0.374   75.021  181.621    2.838
  530.110    0.228    0.406   73.579  180.003    2.640
  530.360    0.247    0.393   71.768  179.418    2.656
  530.610    0.242    0.414   72.832  180.082    2.642
  530.860    0.240    0.433   76.090  180.228    2.714
  531.110    0.257    0.396   80.994  179.749    2.803
  531.360    0.248    0.390   81.013  179.690    3.258
  531.610    0.246    0.410   77.928  180.036    4.503
  531.860    0.230    0.396   73.561  180.493    6.426
  532.110    0.201    0.329   72.671  181.257   11.955
  532.360    0.164    0.242   69.460  182.944   16.733
  532.610    0.088    0.152   65.153  185.156   17.803
  532.860    0.015    0.125   61.393  186.746   17.700
  533.110    0.005    0.124   61.175  187.807   17.334
  533.360    0.016    0.133   66.131  188.477   16.346
  533.610    0.034    0.163   70.065  189.134   14.918
  533.860    0.057    0.208   68.138  189.588    9.735
  534.110    0.135    0.280   63.158  188.290    8.053
  534.360    0.193    0.348   64.035  182.644    8.892
  534.610    0.237    0.409   66.867  177.830   10.647
  534.860    0.165    0.298   63.473  178.287   14.181
  535.110    0.090    0.183   61.484  180.597   19.175
  535.360    0.057    0.177   65.290  184.251   17.756
