~VERSION INFORMATION
 VERS.                 2.0:   CWLS LOG ASCII STANDARD -VERSION 2.0
 WRAP.                  NO:   ONE LINE PER DEPTH STEP
~WELL INFORMATION BLOCK
#MNEM.UNIT           DATA                    DESCRIPTION OF MNEMONIC
#---------    -------------------            -------------------------------
# Generated from Intellog Unique Number	CX_WELLS/WELL/3688
WELL.         HANGINGSTONE 11A-1             : Well_name    - WELL
LOC .         00/11-01-085-11W4/0            : Location     - LOCATION
UWI .         00/11-01-085-11W400            : Uwi          - UNIQUE WELL ID
ENTR.         T                              : Entered      - ENTERED BY
SRVC.         SCHLUMBERGER                   : Scn          - SERVICE COMPANY
STRT.M        100                            : top_depth    - START DEPTH
STOP.M        310                            : bot_depth    - STOP DEPTH
STEP.M        0.25                           : increment    - STEP LENGTH
 NULL. -999.2500:NULL Value
~CURVE INFORMATION BLOCK
#MNEM UNIT       ERCB CURVE CODE    CURVE DESCRIPTION
#-----------   ------------------   ----------------------------------
DEPT.M        00 001 00 00         : DEPTH        - DEPTH
GR  .API      00 310 00 00         : GR           - GAMMA RAY
NPHI.V/V      00 330 00 00         : PHIN         - NEUTRON POROSITY (SANDSTONE)
DPHI.V/V      00 890 00 00         : PHID         - DENSITY POROSITY (SANDSTONE)
ILD .OHMM     00 120 00 00         : RESD         - DEEP RESISTIVITY (OTHER)
~PARAMETER INFORMATION
#MNEM.UNIT           DATA             DESCRIPTION OF MNEMONIC
#---------         -----------     ------------------------------
GL  .M        554                  : gl           - GROUND LEVEL ELEVATION
EREF.M        556.6                : kb           - ELEVATION OF DEPTH REFERENCE
DATM.M        556.6                : datum        - DATUM ELEVATION
TDD .M        320                  : tdd          - TOTAL DEPTH DRILLER
RUN .         ONE                  : Run          - RUN NUMBER
ENG .         BILL                 : Engineer     - RECORDING ENGINEER
WIT .         JIM                  : Witness      - WITNESSED BY
MUD .         GEL                  : Mud_type     - MUD TYPE
MATR.         SANDSTONE            : Logunit      - NEUTRON MATRIX
TMAX.C        27                   : BHT          - MAXIMUM RECORDED TEMPERATURE
BHTD.M        320                  : BHTDEP       - MAXIMUM RECORDED TEMPERATURE
MATR.         1                    : LOGUNIT      - NEUTRON MATRIX
RMT .C        25                   : MDTP         - TEMPERATURE OF MUD
NEUT.         1                    : NEUTRON      - NEUTRON TYPE
RESI.         4.24                 : RESIST       - RESISTIVITY TYPE
RMC .OHMM     3.22                 : RMC          - RESISTIVITY OF MUD CAKE
RMF .OHMM     4.54                 : RMF          - RESISTIVITY OF MUD FILTRATE
SUFT.C        4                    : SUFT         - SURFACE TEMPERATURE
~A  DEPTH       GR     PHIN     PHID     RESD
# ...
  230.500   98.111    0.408    0.241   10.498
  230.750   92.476    0.416    0.244   10.714
  231.000   90.631    0.418    0.252   10.728
  231.250  100.166    0.419    0.258   10.745
  231.500   98.965    0.422    0.259   10.756
  231.750   97.107    0.425    0.259   10.767
  232.000   95.250    0.429    0.260   10.581
  232.250   92.141    0.431    0.265   10.591
  232.500   92.216    0.436    0.267   10.406
  232.750   94.779    0.435    0.237   10.412
  233.000   97.355    0.420    0.211   10.230
  233.250  101.825    0.402    0.184   10.243
  233.500  105.664    0.407    0.172   10.260
  233.750  112.661    0.416    0.203   10.267
  234.000  117.131    0.416    0.218   10.283
  234.250  112.760    0.412    0.223   10.297
  234.500  107.769    0.412    0.224   10.113
  234.750  105.280    0.416    0.226   10.126
  235.000  100.909    0.424    0.228    9.945
  235.250   99.051    0.437    0.231    9.961
  235.500   97.838    0.446    0.238    9.780
  235.750   96.636    0.449    0.238    9.424
  236.000   96.054    0.451    0.233    8.567
  236.250   96.116    0.447    0.226    8.090
  236.500   98.680    0.442    0.234    7.354
  236.750  106.939    0.437    0.248    6.431
  237.000  108.884    0.430    0.253    5.626
  237.250  111.459    0.429    0.254    4.921
  237.500  114.035    0.428    0.261    4.833
  237.750  117.242    0.434    0.266    5.330
  238.000  118.555    0.439    0.260    6.111
  238.250  116.091    0.438    0.255    7.144
  238.500  114.233    0.433    0.251    7.877
  238.750  111.756    0.430    0.239    8.688
  239.000  109.304    0.426    0.226    9.399
  239.250  105.540    0.416    0.214   10.370
  239.500   98.642    0.407    0.192   10.793
  239.750   94.271    0.397    0.183   11.018
  240.000   99.373    0.392    0.214   10.614
  240.250  102.580    0.380    0.228   10.421
  240.500  102.629    0.362    0.195   10.235
  240.750  103.942    0.364    0.173   10.248
  241.000  102.741    0.375    0.153   10.265
  241.250  101.515    0.377    0.190   10.475
  241.500   99.063    0.381    0.210   10.489
  241.750   99.744    0.387    0.207   10.111
  242.000  106.097    0.402    0.202    9.734
  242.250  111.199    0.411    0.198    8.682
  242.500  114.406    0.410    0.188    8.046
  242.750  110.034    0.404    0.186    7.749
  243.000  108.821    0.394    0.195    7.469
  243.250  109.502    0.398    0.218    7.193
  243.500  109.551    0.403    0.225    6.669
  243.750  108.338    0.414    0.235    6.297
  244.000  102.716    0.423    0.251    5.507
  244.250   97.713    0.431    0.276    4.635
  244.500   95.224    0.431    0.288    4.052
  244.750   92.747    0.428    0.288    3.980
  245.000   90.914    0.422    0.260    4.652
  245.250   89.056    0.420    0.250    5.543
  245.500   87.224    0.417    0.246    6.237
  245.750   86.022    0.411    0.246    6.243
  246.000   86.047    0.409    0.246    6.134
  246.250   86.109    0.404    0.245    5.907
  246.500   88.066    0.401    0.241    5.270
  246.750   89.985    0.407    0.242    5.073
  247.000   95.719    0.413    0.244    4.887
  247.250  108.412    0.416    0.247    5.289
  247.500  104.659    0.417    0.249    5.720
  247.750  100.288    0.423    0.244    6.434
  248.000  104.127    0.412    0.212    6.440
  248.250  105.452    0.391    0.166    6.087
  248.500   99.805    0.385    0.120    5.752
  248.750   96.065    0.419    0.165    5.332
  249.000  110.021    0.451    0.211    4.940
  249.250  117.650    0.456    0.230    4.758
  249.500  122.132    0.451    0.248    4.495
  249.750  117.749    0.452    0.264    4.332
  250.000  112.114    0.461    0.273    4.173
  250.250  107.111    0.468    0.278    4.098
  250.500  111.606    0.470    0.284    4.183
  250.750  114.170    0.470    0.278    4.271
  251.000  115.470    0.464    0.248    4.359
  251.250  116.782    0.456    0.238    4.628
  251.500  114.330    0.446    0.237    4.815
  251.750  111.841    0.435    0.234    4.914
  252.000  108.733    0.430    0.231    4.921
  252.250  106.888    0.428    0.221    4.927
  252.500  106.925    0.426    0.213    4.933
  252.750  110.145    0.428    0.223    4.942
  253.000  113.984    0.433    0.237    4.852
  253.250  119.086    0.444    0.248    4.765
  253.500  123.556    0.445    0.245    4.681
  253.750  129.302    0.448    0.212    4.779
  254.000  128.076    0.445    0.200    5.170
  254.250  115.494    0.437    0.189    5.929
  254.500  101.005    0.421    0.158    6.412
  254.750   99.160    0.414    0.120    6.546
  255.000   97.327    0.414    0.100    6.306
  255.250   94.219    0.411    0.171    6.437
  255.500   90.479    0.410    0.249    7.526
  255.750   86.727    0.400    0.267    8.968
  256.000   81.092    0.391    0.281   10.081
  256.250   77.984    0.381    0.291   11.783
  256.500   74.900    0.374    0.294   13.000
  256.750   77.451    0.369    0.290   13.017
  257.000   83.185    0.365    0.274   13.043
  257.250   89.550    0.362    0.254   12.801
  257.500   92.126    0.358    0.250   12.577
  257.750   93.439    0.358    0.247   12.356
  258.000   95.395    0.369    0.238   12.127
  258.250   96.076    0.387    0.234   11.686
  258.500   95.519    0.400    0.237   11.474
  258.750   97.438    0.406    0.234   11.057
  259.000  100.646    0.399    0.232   11.071
  259.250  105.748    0.392    0.233   11.082
  259.500  112.113    0.393    0.233   11.100
  259.750  121.648    0.395    0.229   11.332
  260.000  124.855    0.426    0.229   11.350
  260.250  123.654    0.436    0.230   11.361
  260.500  124.967    0.428    0.228   11.372
  260.750  126.911    0.415    0.230   11.387
  261.000  123.159    0.402    0.234   11.632
  261.250  111.196    0.398    0.248   12.099
  261.500   96.720    0.396    0.258   14.417
  261.750   87.927    0.387    0.260   17.196
  262.000   79.766    0.389    0.256   17.219
  262.250   79.184    0.394    0.252   17.230
  262.500   81.129    0.392    0.250   16.922
  262.750   85.599    0.390    0.247   16.944
  263.000   90.713    0.393    0.247   16.647
  263.250   91.394    0.394    0.243   16.674
  263.500   92.707    0.395    0.239   16.685
  263.750   94.020    0.392    0.237   16.707
  264.000   95.332    0.385    0.236   16.734
  264.250   96.013    0.376    0.234   16.750
  264.500   94.168    0.377    0.235   16.778
  264.750   92.311    0.378    0.235   16.800
  265.000   91.097    0.378    0.236   16.822
  265.250   92.422    0.378    0.239   16.849
  265.500   94.366    0.377    0.231   16.866
  265.750   96.942    0.373    0.221   16.888
  266.000   97.623    0.376    0.215   16.904
  266.250   97.053    0.380    0.216   17.257
  266.500   96.471    0.391    0.220   17.279
  266.750   95.877    0.402    0.213   16.971
  267.000   95.307    0.408    0.209   16.993
  267.250   94.737    0.408    0.217   16.689
  267.500   93.511    0.408    0.224   16.077
  267.750   92.285    0.408    0.229   15.790
  268.000   91.072    0.406    0.239   16.119
  268.250   89.239    0.405    0.245   16.455
  268.500   88.657    0.404    0.256   17.472
  268.750   87.431    0.404    0.261   18.179
  269.000   88.124    0.401    0.258   19.290
  269.250   88.805    0.397    0.249   20.868
  269.500   90.118    0.393    0.241   22.143
  269.750   88.261    0.396    0.238   23.496
  270.000   81.375    0.403    0.266   25.426
  270.250   76.360    0.407    0.276   28.044
  270.500   68.199    0.412    0.282   32.778
  270.750   61.920    0.424    0.288   37.565
  271.000   56.286    0.432    0.298   47.467
  271.250   56.360    0.426    0.306   50.367
  271.500   55.766    0.419    0.314   50.450
  271.750   55.815    0.413    0.310   50.499
  272.000   58.379    0.415    0.303   50.565
  272.250   65.388    0.407    0.290   51.636
  272.500   70.490    0.403    0.290   52.696
  272.750   64.855    0.404    0.299   58.139
  273.000   58.577    0.403    0.304   59.313
  273.250   53.574    0.397    0.301   66.739
  273.500   54.267    0.384    0.296   69.439
  273.750   58.118    0.370    0.290   73.681
