~VERSION INFORMATION
 VERS.                 2.0:   CWLS LOG ASCII STANDARD -VERSION 2.0
 WRAP.                  NO:   ONE LINE PER DEPTH STEP
~WELL INFORMATION BLOCK
#MNEM.UNIT           DATA                    DESCRIPTION OF MNEMONIC
#---------    -------------------            -------------------------------
# Generated from Intellog Unique Number	CW_73_75/WELL/3528
WELL.         GULF ET AL MITSUE              : Well_name    - WELL
LOC .         00/12-04-074-04W5/0            : Location     - LOCATION
UWI .         00/12-04-074-04W5/0            : Uwi          - UNIQUE WELL ID
ENTR.         T                              : Entered      - ENTERED BY
SRVC.         SCHLUMBERGER                   : Scn          - SERVICE COMPANY
STRT.M        345                            : top_depth    - START DEPTH
STOP.M        580                            : bot_depth    - STOP DEPTH
STEP.M        0.25                           : increment    - STEP LENGTH
 NULL. -999.2500:NULL Value
~CURVE INFORMATION BLOCK
#MNEM UNIT       ERCB CURVE CODE    CURVE DESCRIPTION
#-----------   ------------------   ----------------------------------
DEPT.M        00 001 00 00         : DEPTH        - DEPTH
ILD .OHMM     00 120 00 00         : RESD         - DEEP RESISTIVITY (DIL)
DPHI.V/V      00 890 00 00         : PHID         - DENSITY POROSITY (SANDSTONE)
NPHI.V/V      00 330 00 00         : PHIN         - NEUTRON POROSITY (SANDSTONE)
GR  .API      00 310 00 00         : GR           - GAMMA RAY
~PARAMETER INFORMATION
#MNEM.UNIT           DATA             DESCRIPTION OF MNEMONIC
#---------         -----------     ------------------------------
GL  .M        600                  : gl           - GROUND LEVEL ELEVATION
EREF.M        606                  : kb           - ELEVATION OF DEPTH REFERENCE
DATM.M        606                  : datum        - DATUM ELEVATION
TDD .M        1836                 : tdd          - TOTAL DEPTH DRILLER
RUN .         ONE                  : Run          - RUN NUMBER
ENG .         BILL                 : Engineer     - RECORDING ENGINEER
WIT .         JIM                  : Witness      - WITNESSED BY
MUD .         GEL                  : Mud_type     - MUD TYPE
MATR.         SANDSTONE            : Logunit      - NEUTRON MATRIX
TMAX.C        36                   : BHT          - MAXIMUM RECORDED TEMPERATURE
BHTD.M        1836                 : BHTDEP       - MAXIMUM RECORDED TEMPERATURE
MATR.         1                    : LOGUNIT      - NEUTRON MATRIX
RMT .C        17                   : MDTP         - TEMPERATURE OF MUD
NEUT.         1                    : NEUTRON      - NEUTRON TYPE
RESI.         0                    : RESIST       - RESISTIVITY TYPE
RMC .OHMM     1.3                  : RMC          - RESISTIVITY OF MUD CAKE
RMF .OHMM     0.89                 : RMF          - RESISTIVITY OF MUD FILTRATE
SUFT.C        15                   : SUFT         - SURFACE TEMPERATURE
~A  DEPTH     RESD     PHID     PHIN       GR
# ...
  475.500    5.394    0.335    0.422   70.614
  475.750    5.293    0.350    0.428   71.791
  476.000    5.098    0.350    0.439   73.564
  476.250    5.097    0.348    0.439   70.568
  476.500    4.909    0.342    0.442   66.969
  476.750    4.817    0.331    0.441   68.146
  477.000    4.725    0.315    0.432   69.927
  477.250    4.724    0.309    0.423   73.489
  477.500    4.722    0.310    0.418   75.255
  477.750    4.719    0.307    0.427   74.647
  478.000    4.718    0.302    0.437   74.036
  478.250    4.629    0.293    0.447   74.621
  478.500    4.377    0.277    0.447   75.794
  478.750    4.374    0.258    0.446   77.567
  479.000    4.454    0.266    0.444   78.148
  479.250    4.536    0.297    0.444   79.922
  479.500    4.704    0.305    0.446   80.499
  479.750    4.790    0.306    0.448   80.480
  480.000    4.877    0.310    0.448   79.876
  480.250    4.875    0.313    0.445   79.861
  480.500    4.964    0.321    0.441   81.039
  480.750    4.962    0.324    0.438   82.216
  481.000    4.960    0.313    0.441   79.816
  481.250    4.957    0.286    0.429   70.855
  481.500    5.335    0.277    0.412   69.047
  481.750    5.433    0.280    0.417   70.820
  482.000    5.532    0.290    0.431   72.594
  482.250    5.633    0.314    0.437   69.598
  482.500    5.325    0.331    0.434   67.198
  482.750    5.130    0.341    0.424   70.764
  483.000    5.034    0.346    0.432   86.245
  483.250    4.849    0.351    0.443   83.249
  483.500    4.670    0.352    0.441   79.061
  483.750    4.756    0.325    0.434   74.276
  484.000    5.213    0.300    0.434   70.681
  484.250    5.407    0.278    0.436   70.662
  484.500    5.609    0.275    0.423   70.654
  484.750    5.606    0.281    0.401   70.039
  485.000    5.708    0.283    0.424   69.424
  485.250    5.706    0.286    0.441   68.820
  485.500    5.497    0.291    0.446   70.586
  485.750    5.008    0.294    0.447   72.363
  486.000    4.648    0.301    0.444   74.137
  486.250    4.562    0.306    0.443   74.722
  486.500    4.559    0.320    0.443   73.510
  486.750    4.642    0.454    0.443   72.303
  487.000    4.904    0.492    0.444   72.284
  487.250    5.183    0.469    0.444   71.076
  487.500    5.683    0.426    0.442   66.296
  487.750    6.117    0.419    0.437   61.511
  488.000    6.462    0.431    0.429   57.919
  488.250    6.702    0.442    0.418   53.727
  488.500    6.699    0.442    0.428   53.120
  488.750    6.697    0.436    0.444   53.101
  489.000    6.572    0.434    0.437   52.489
  489.250    6.330    0.437    0.408   51.874
  489.500    5.985    0.444    0.406   52.452
  489.750    5.764    0.444    0.430   53.036
  490.000    5.552    0.439    0.438   53.617
  490.250    5.549    0.431    0.411   54.795
  490.500    5.651    0.428    0.398   54.776
  490.750    5.648    0.425    0.403   54.172
  491.000    5.646    0.424    0.430   51.772
  491.250    5.540    0.422    0.434   48.769
  491.500    5.436    0.426    0.426   47.565
  491.750    5.140    0.427    0.419   45.165
  492.000    5.044    0.429    0.410   45.150
  492.250    4.857    0.427    0.409   47.516
  492.500    4.767    0.426    0.410   49.885
  492.750    4.677    0.424    0.410   51.066
  493.000    4.674    0.426    0.410   53.436
  493.250    4.673    0.431    0.415   55.798
  493.500    4.758    0.433    0.415   56.386
  493.750    5.121    0.436    0.412   53.391
  494.000    5.411    0.439    0.411   48.602
  494.250    5.824    0.423    0.417   46.202
  494.500    6.153    0.329    0.424   45.587
  494.750    6.266    0.224    0.397   46.765
  495.000    6.380    0.184    0.368   49.734
  495.250    6.260    0.175    0.241   53.296
  495.500    5.919    0.250    0.281   54.469
  495.750    5.394    0.293    0.345   53.854
  496.000    5.006    0.336    0.373   53.847
  496.250    4.733    0.392    0.438   53.232
  496.500    4.559    0.413    0.425   53.816
  496.750    4.474    0.416    0.414   52.605
  497.000    4.310    0.416    0.418   50.198
  497.250    4.229    0.413    0.422   48.394
  497.500    4.227    0.405    0.431   47.191
  497.750    4.147    0.399    0.430   47.179
  498.000    4.145    0.398    0.427   47.157
  498.250    4.067    0.398    0.426   47.745
  498.500    3.990    0.403    0.425   49.519
  498.750    3.916    0.411    0.424   51.288
  499.000    3.843    0.422    0.422   52.465
  499.250    3.840    0.428    0.422   53.046
  499.500    3.839    0.430    0.423   54.224
  499.750    3.837    0.432    0.428   55.997
  500.000    3.765    0.435    0.442   55.982
  500.250    3.694    0.438    0.438   55.371
  500.500    3.558    0.438    0.435   57.740
  500.750    3.492    0.439    0.431   58.917
  501.000    3.555    0.439    0.432   56.517
  501.250    3.619    0.439    0.432   54.714
  501.500    3.686    0.440    0.431   58.868
  501.750    3.823    0.440    0.427   61.834
  502.000    4.040    0.441    0.426   64.203
  502.250    4.348    0.444    0.425   66.573
  502.500    4.947    0.444    0.430   68.350
  502.750    5.424    0.442    0.436   68.328
  503.000    6.404    0.430    0.434   64.735
  503.250    7.286    0.399    0.431   61.743
  503.500    7.990    0.355    0.431   59.940
  503.750    9.091    0.210    0.425   62.905
  504.000    9.255    0.124    0.378   70.640
  504.250    9.425    0.074    0.299   74.795
  504.500    9.245    0.124    0.286   75.972
  504.750    8.907    0.140    0.284   73.572
  505.000    7.968    0.135    0.282   68.791
  505.250    7.260    0.135    0.283   65.192
  505.500    6.258    0.145    0.292   65.177
  505.750    5.495    0.182    0.307   66.354
  506.000    4.650    0.254    0.335   67.531
  506.250    4.083    0.337    0.361   67.519
  506.500    4.006    0.388    0.415   65.116
  506.750    4.004    0.420    0.415   63.312
  507.000    4.002    0.422    0.413   62.109
  507.250    4.075    0.414    0.408   61.497
  507.500    4.149    0.374    0.403   62.075
  507.750    4.225    0.355    0.397   65.633
  508.000    4.223    0.301    0.437   68.006
  508.250    4.381    0.306    0.446   72.164
  508.500    4.461    0.333    0.436   73.341
  508.750    4.541    0.328    0.428   73.322
  509.000    4.625    0.319    0.421   72.715
  509.250    4.709    0.311    0.425   72.096
  509.500    4.794    0.314    0.428   71.492
  509.750    4.881    0.330    0.433   71.477
  510.000    4.970    0.332    0.436   72.055
  510.250    5.061    0.325    0.442   72.039
  510.500    5.153    0.316    0.445   71.432
  510.750    5.246    0.308    0.445   69.025
  511.000    5.342    0.308    0.439   69.009
  511.250    5.342    0.307    0.433   73.167
  511.500    5.048    0.307    0.423   76.137
  511.750    4.955    0.318    0.412   79.103
  512.000    5.045    0.323    0.413   78.491
  512.250    5.042    0.325    0.421   74.899
  512.500    5.039    0.325    0.434   71.307
  512.750    5.037    0.323    0.443   70.100
  513.000    5.035    0.322    0.442   73.662
  513.250    5.033    0.319    0.442   74.243
  513.500    4.939    0.317    0.441   70.050
  513.750    4.936    0.322    0.441   65.858
  514.000    4.844    0.319    0.441   63.462
  514.250    4.752    0.316    0.441   67.620
  514.500    4.750    0.316    0.434   77.740
  514.750    4.748    0.318    0.425   78.917
  515.000    4.745    0.319    0.418   77.110
  515.250    4.742    0.315    0.425   74.710
  515.500    4.740    0.313    0.438   72.310
  515.750    4.739    0.312    0.443   72.295
  516.000    4.736    0.312    0.446   72.276
  516.250    4.735    0.315    0.444   72.265
  516.500    4.732    0.317    0.442   73.438
  516.750    4.730    0.314    0.441   75.212
  517.000    4.729    0.310    0.446   75.797
  517.250    4.727    0.309    0.448   76.378
  517.500    4.724    0.311    0.448   74.574
  517.750    4.722    0.314    0.442   73.363
  518.000    4.720    0.312    0.442   72.748
  518.250    4.630    0.311    0.447   72.740
  518.500    4.544    0.305    0.443   71.529
  518.750    4.459    0.298    0.442   69.725
