~VERSION INFORMATION
 VERS.                 2.0:   CWLS LOG ASCII STANDARD -VERSION 2.0
 WRAP.                  NO:   ONE LINE PER DEPTH STEP
~WELL INFORMATION BLOCK
#MNEM.UNIT           DATA                    DESCRIPTION OF MNEMONIC
#---------    -------------------            -------------------------------
# Generated from Intellog Unique Number	CS_69_70/WELL/898
WELL.         PROVIDENT RESOURCES LTD.       : Well_name    - WELL
LOC .         00/11-31-070-17W4/0            : Location     - LOCATION
UWI .         00/11-31-070-17W4/0            : Uwi          - UNIQUE WELL ID
ENTR.         SP                             : Entered      - ENTERED BY
SRVC.         SCHLUMBERGER                   : Scn          - SERVICE COMPANY
STRT.M        283.464                        : top_depth    - START DEPTH
STOP.M        475.214                        : bot_depth    - STOP DEPTH
STEP.M        0.25                           : increment    - STEP LENGTH
 NULL. -999.2500:NULL Value
~CURVE INFORMATION BLOCK
#MNEM UNIT       ERCB CURVE CODE    CURVE DESCRIPTION
#-----------   ------------------   ----------------------------------
DEPT.M        00 001 00 00         : DEPTH        - DEPTH
GR  .API      00 310 00 00         : GR           - GAMMA RAY
DPHI.V/V      00 890 00 00         : PHID         - DENSITY POROSITY (SANDSTONE)
NPHI.V/V      00 330 00 00         : PHIN         - NEUTRON POROSITY (SANDSTONE)
ILD .OHMM     00 120 00 00         : RESD         - DEEP RESISTIVITY (DIL)
~PARAMETER INFORMATION
#MNEM.UNIT           DATA             DESCRIPTION OF MNEMONIC
#---------         -----------     ------------------------------
GL  .M        566.318              : gl           - GROUND LEVEL ELEVATION
EREF.M        569.062              : kb           - ELEVATION OF DEPTH REFERENCE
DATM.M        566.318              : datum        - DATUM ELEVATION
TDD .M        502.92               : tdd          - TOTAL DEPTH DRILLER
RUN .         ONE                  : Run          - RUN NUMBER
ENG .         BILL                 : Engineer     - RECORDING ENGINEER
WIT .         JIM                  : Witness      - WITNESSED BY
MUD .         GEL                  : Mud_type     - MUD TYPE
MATR.         SANDSTONE            : Logunit      - NEUTRON MATRIX
TMAX.C        22.2222              : BHT          - MAXIMUM RECORDED TEMPERATURE
BHTD.M        502.92               : BHTDEP       - MAXIMUM RECORDED TEMPERATURE
MATR.         1                    : LOGUNIT      - NEUTRON MATRIX
RMT .C        25                   : MDTP         - TEMPERATURE OF MUD
NEUT.         1                    : NEUTRON      - NEUTRON TYPE
RESI.         0                    : RESIST       - RESISTIVITY TYPE
RMC .OHMM     0.25                 : RMC          - RESISTIVITY OF MUD CAKE
RMF .OHMM     0.25                 : RMF          - RESISTIVITY OF MUD FILTRATE
SUFT.C        15                   : SUFT         - SURFACE TEMPERATURE
~A  DEPTH       GR     PHID     PHIN     RESD
# ...
  413.964   74.470    0.204    0.402    5.013
  414.214   74.707    0.195    0.405    5.185
  414.464   75.961    0.207    0.409    5.305
  414.714   77.763    0.207    0.412    5.414
  414.964   80.400    0.199    0.411    5.468
  415.214   83.023    0.194    0.415    5.357
  415.464   84.871    0.201    0.420    5.130
  415.714   84.320    0.200    0.414    4.880
  415.964   81.698    0.194    0.412    4.884
  416.214   80.817    0.190    0.423    5.003
  416.464   80.538    0.190    0.430    5.178
  416.714   80.326    0.190    0.430    5.285
  416.964   79.386    0.190    0.429    5.379
  417.214   79.753    0.183    0.426    5.393
  417.464   81.383    0.188    0.414    5.313
  417.714   82.650    0.196    0.400    4.914
  417.964   83.256    0.210    0.397    4.393
  418.214   85.442    0.224    0.406    3.880
  418.464   89.705    0.236    0.424    3.549
  418.714   94.441    0.243    0.437    3.315
  418.964   97.583    0.249    0.452    3.157
  419.214  100.561    0.235    0.475    3.172
  419.464  101.603    0.245    0.510    3.240
  419.714  100.771    0.235    0.531    3.308
  419.964  100.439    0.217    0.542    3.331
  420.214   99.955    0.211    0.523    3.340
  420.464   99.394    0.217    0.502    3.324
  420.714   99.224    0.225    0.497    3.285
  420.964  100.663    0.231    0.490    3.180
  421.214  101.908    0.227    0.497    3.085
  421.464  101.786    0.244    0.515    3.003
  421.714  103.270    0.253    0.537    2.996
  421.964  106.075    0.264    0.549    3.053
  422.214  108.157    0.248    0.548    3.241
  422.464  109.915    0.223    0.538    3.445
  422.714  110.634    0.209    0.514    3.590
  422.964  109.189    0.200    0.494    3.737
  423.214  103.326    0.196    0.462    3.869
  423.464  106.084    0.192    0.435    3.970
  423.714  109.673    0.184    0.421    4.042
  423.964  113.142    0.176    0.427    4.086
  424.214  114.686    0.197    0.434    4.125
  424.464  112.893    0.190    0.445    4.195
  424.714  110.789    0.179    0.446    4.342
  424.964  107.401    0.183    0.443    4.484
  425.214  101.223    0.195    0.447    4.726
  425.464   95.614    0.182    0.433    4.907
  425.714   91.056    0.163    0.416    5.121
  425.964   87.416    0.142    0.417    5.236
  426.214   86.132    0.116    0.398    5.342
  426.464   90.884    0.141    0.364    5.386
  426.714   96.390    0.184    0.372    5.424
  426.964  101.860    0.187    0.392    5.480
  427.214  106.521    0.168    0.404    5.500
  427.464  106.657    0.157    0.406    5.491
  427.714  106.160    0.162    0.407    5.453
  427.964  106.897    0.168    0.414    5.376
  428.214  108.703    0.161    0.423    5.290
  428.464  110.501    0.143    0.431    5.175
  428.714  111.773    0.135    0.441    5.110
  428.964  111.917    0.158    0.434    5.176
  429.214  108.493    0.177    0.429    5.329
  429.464  102.324    0.184    0.435    5.680
  429.714   98.434    0.173    0.437    5.999
  429.964   95.615    0.160    0.434    6.189
  430.214   93.026    0.141    0.416    6.246
  430.464   90.885    0.122    0.345    6.181
  430.714   93.424    0.113    0.336    6.059
  430.964   98.586    0.149    0.358    5.931
  431.214  102.666    0.170    0.384    5.813
  431.464  104.790    0.159    0.402    5.792
  431.714  106.355    0.137    0.415    5.847
  431.964  107.447    0.151    0.428    5.889
  432.214  105.116    0.155    0.440    5.868
  432.464  101.630    0.141    0.429    5.795
  432.714  100.173    0.134    0.410    5.727
  432.964  103.696    0.160    0.409    5.598
  433.214  106.659    0.165    0.406    5.498
  433.464  107.816    0.163    0.393    5.487
  433.714  107.634    0.161    0.403    5.534
  433.964  108.651    0.165    0.416    5.759
  434.214  109.482    0.172    0.427    6.329
  434.464  107.157    0.158    0.418    7.022
  434.714  104.162    0.137    0.407    7.836
  434.964   99.418    0.116    0.396    8.448
  435.214   96.102    0.099    0.377    8.760
  435.464   90.475    0.083    0.363    7.597
  435.714   87.332    0.050    0.350    6.310
  435.964   88.786    0.097    0.336    5.509
  436.214   93.684    0.145    0.365    5.011
  436.464   98.823    0.149    0.391    4.382
  436.714  100.623    0.145    0.399    4.051
  436.964  101.739    0.158    0.407    3.578
  437.214  101.106    0.167    0.421    3.092
  437.464  101.404    0.167    0.416    2.731
  437.714  103.266    0.174    0.411    2.474
  437.964  105.438    0.178    0.406    2.418
  438.214  107.226    0.178    0.444    2.852
  438.464  108.863    0.175    0.495    3.340
  438.714  109.864    0.161    0.523    3.816
  438.964  102.702    0.144    0.513    4.109
  439.214   96.241    0.133    0.490    4.331
  439.464   92.641    0.126    0.460    4.597
  439.714   96.696    0.134    0.432    4.911
  439.964   98.336    0.154    0.420    5.191
  440.214   97.413    0.168    0.439    5.424
  440.464   94.532    0.179    0.453    5.520
  440.714   92.198    0.151    0.452    5.460
  440.964   92.443    0.128    0.439    5.390
  441.214   96.439    0.107    0.427    5.395
  441.464  100.296    0.153    0.425    5.640
  441.714  101.751    0.159    0.434    6.096
  441.964   97.799    0.155    0.424    6.401
  442.214   93.792    0.147    0.425    6.761
  442.464   89.417    0.101    0.407    6.957
  442.714   85.555    0.082    0.372    6.851
  442.964   84.884    0.096    0.353    6.338
  443.214   87.856    0.122    0.337    5.622
  443.464   92.968    0.143    0.366    5.161
  443.714   98.587    0.145    0.372    4.676
  443.964  103.225    0.139    0.368    4.447
  444.214  107.175    0.135    0.380    4.346
  444.464  110.778    0.133    0.401    4.315
  444.714  111.978    0.141    0.421    4.332
  444.964  110.753    0.150    0.437    4.141
  445.214  108.328    0.156    0.445    4.048
  445.464  107.309    0.163    0.444    3.963
  445.714  108.100    0.147    0.436    3.867
  445.964  109.600    0.134    0.429    3.843
  446.214  111.359    0.141    0.426    4.017
  446.464  112.561    0.127    0.433    4.155
  446.714  111.868    0.136    0.437    4.209
  446.964  111.708    0.134    0.443    4.251
  447.214  112.925    0.121    0.459    4.300
  447.464  114.555    0.115    0.454    4.339
  447.714  116.108    0.116    0.448    4.392
  447.964  116.413    0.117    0.438    4.432
  448.214  113.873    0.123    0.454    4.454
  448.464  112.381    0.133    0.478    4.403
  448.714  111.318    0.131    0.482    4.335
  448.964  113.220    0.143    0.465    4.088
  449.214  115.410    0.161    0.458    3.813
  449.464  117.119    0.161    0.455    3.654
  449.714  118.506    0.151    0.457    3.548
  449.964  117.832    0.160    0.464    3.570
  450.214  115.651    0.162    0.466    3.690
  450.464  113.030    0.157    0.450    3.775
  450.714  112.748    0.141    0.438    3.919
  450.964  113.310    0.122    0.435    3.993
  451.214  111.903    0.095    0.444    4.048
  451.464  109.987    0.074    0.444    4.151
  451.714  109.512    0.109    0.430    4.177
  451.964  112.857    0.133    0.419    3.971
  452.214  116.971    0.135    0.414    3.728
  452.464  118.913    0.137    0.417    3.860
  452.714  117.152    0.125    0.435    4.170
  452.964  107.706    0.108    0.453    4.406
  453.214   98.543    0.084    0.434    4.456
  453.464   99.662    0.062    0.385    4.161
  453.714  109.133    0.097    0.381    3.810
  453.964  117.117    0.126    0.402    3.521
  454.214  121.895    0.139    0.419    3.264
  454.464  124.223    0.153    0.442    3.110
  454.714  125.024    0.144    0.462    3.084
  454.964  124.462    0.142    0.474    3.454
  455.214  122.390    0.143    0.475    3.814
  455.464  117.949    0.126    0.477    4.259
  455.714  114.156    0.106    0.454    4.868
  455.964  113.420    0.109    0.437    5.414
  456.214  111.683    0.105    0.428    5.861
  456.464  108.856    0.095    0.419    6.099
  456.714  107.662    0.082    0.394    5.704
  456.964  112.562    0.099    0.381    5.460
  457.214  117.202    0.121    0.393    5.289
