~VERSION INFORMATION
 VERS.                 2.0:   CWLS LOG ASCII STANDARD -VERSION 2.0
 WRAP.                  NO:   ONE LINE PER DEPTH STEP
~WELL INFORMATION BLOCK
#MNEM.UNIT           DATA                    DESCRIPTION OF MNEMONIC
#---------    -------------------            -------------------------------
# Generated from Intellog Unique Number	CS_77_79/WELL/997
WELL.         HOME OIL COMPANY LIMITED       : Well_name    - WELL
LOC .         00/11-21-077-07W4/0            : Location     - LOCATION
UWI .         00/11-21-077-07W4/0            : Uwi          - UNIQUE WELL ID
ENTR.         SP                             : Entered      - ENTERED BY
SRVC.         SCHLUMBERGER                   : Scn          - SERVICE COMPANY
STRT.M        124.968                        : top_depth    - START DEPTH
STOP.M        354.218                        : bot_depth    - STOP DEPTH
STEP.M        0.25                           : increment    - STEP LENGTH
 NULL. -999.2500:NULL Value
~CURVE INFORMATION BLOCK
#MNEM UNIT       ERCB CURVE CODE    CURVE DESCRIPTION
#-----------   ------------------   ----------------------------------
DEPT.M        00 001 00 00         : DEPTH        - DEPTH
RHOB.KG/M3    00 350 00 00         : DENS         - BULK DENSITY
GR  .API      00 310 00 00         : GR           - GAMMA RAY
DPHI.V/V      00 890 00 00         : PHID         - DENSITY POROSITY (SANDSTONE)
NPHI.V/V      00 330 00 00         : PHIN         - NEUTRON POROSITY (SANDSTONE)
ILD .OHMM     00 120 00 00         : RESD         - DEEP RESISTIVITY (DIL)
~PARAMETER INFORMATION
#MNEM.UNIT           DATA             DESCRIPTION OF MNEMONIC
#---------         -----------     ------------------------------
GL  .M        556.4                : gl           - GROUND LEVEL ELEVATION
EREF.M        560.4                : kb           - ELEVATION OF DEPTH REFERENCE
DATM.M        571.652              : datum        - DATUM ELEVATION
TDD .M        389.534              : tdd          - TOTAL DEPTH DRILLER
RUN .         ONE                  : Run          - RUN NUMBER
ENG .         BILL                 : Engineer     - RECORDING ENGINEER
WIT .         JIM                  : Witness      - WITNESSED BY
MUD .         GEL                  : Mud_type     - MUD TYPE
MATR.         SANDSTONE            : Logunit      - NEUTRON MATRIX
TMAX.C        23.3333              : BHT          - MAXIMUM RECORDED TEMPERATURE
BHTD.M        389.534              : BHTDEP       - MAXIMUM RECORDED TEMPERATURE
MATR.         1                    : LOGUNIT      - NEUTRON MATRIX
RMT .C        25                   : MDTP         - TEMPERATURE OF MUD
NEUT.         1                    : NEUTRON      - NEUTRON TYPE
RESI.         0                    : RESIST       - RESISTIVITY TYPE
RMC .OHMM     0.25                 : RMC          - RESISTIVITY OF MUD CAKE
RMF .OHMM     0.25                 : RMF          - RESISTIVITY OF MUD FILTRATE
SUFT.C        15                   : SUFT         - SURFACE TEMPERATURE
~A  DEPTH     DENS       GR     PHID     PHIN     RESD
# ...
  234.468   -0.000   68.221    0.279    0.472    9.871
  234.718   -0.000   68.409    0.286    0.457    9.868
  234.968    0.000   67.441    0.277    0.449    9.863
  235.218    0.000   65.773    0.282    0.435    9.855
  235.468    0.000   67.915    0.296    0.426    9.849
  235.718   -0.000   69.455    0.286    0.436    9.656
  235.968   -0.000   70.265    0.280    0.438    9.664
  236.218    0.000   70.817    0.291    0.447    9.661
  236.468    0.000   71.462    0.294    0.434    9.652
  236.718    0.000   71.316    0.280    0.429    9.616
  236.968   -0.000   70.351    0.264    0.448    9.467
  237.218   -0.000   68.163    0.276    0.474    9.467
  237.468   -0.000   69.065    0.276    0.470    9.468
  237.718    0.000   70.527    0.279    0.457    9.325
  237.968    0.000   72.252    0.280    0.455    9.050
  238.218    0.000   73.871    0.278    0.469    8.590
  238.468   -0.000   75.752    0.275    0.488    8.225
  238.718   -0.000   78.278    0.280    0.493    7.672
  238.968   -0.000   84.737    0.240    0.498    7.269
  239.218    0.000   88.317    0.223    0.504    6.832
  239.468    0.000   91.189    0.216    0.511    6.456
  239.718   -0.000   92.575    0.182    0.512    6.153
  239.968   -0.000   93.143    0.194    0.505    6.017
  240.218   -0.000   95.040    0.207    0.496    6.019
  240.468    0.000   95.549    0.224    0.490    6.017
  240.718    0.000   94.613    0.224    0.494    6.023
  240.968    0.000   94.418    0.190    0.491    5.885
  241.218   -0.000   95.433    0.198    0.492    5.715
  241.468   -0.000   96.468    0.201    0.496    5.380
  241.718   -0.000  100.547    0.188    0.500    5.167
  241.968    0.000  103.171    0.199    0.492    5.022
  242.218    0.000  103.362    0.176    0.474    4.786
  242.468   -0.000  100.448    0.184    0.465    4.626
  242.718   -0.000   97.746    0.209    0.510    4.090
  242.968   -0.000   96.677    0.230    0.547    3.617
  243.218    0.000   97.179    0.248    0.567    3.208
  243.468    0.000  101.317    0.254    0.604    2.744
  243.718    0.000  101.334    0.232    0.614    2.459
  243.968   -0.000   98.964    0.200    0.576    2.280
  244.218   -0.000   94.490    0.208    0.548    2.223
  244.468   -0.000   92.384    0.219    0.550    2.228
  244.718    0.000   91.913    0.222    0.553    2.372
  244.968    0.000   92.708    0.197    0.571    2.529
  245.218    0.000   93.001    0.196    0.565    2.833
  245.468   -0.000   92.569    0.223    0.549    3.073
  245.718   -0.000   92.291    0.232    0.536    3.450
  245.968    0.000   90.621    0.217    0.519    3.792
  246.218    0.000   88.669    0.218    0.471    4.456
  246.468    0.000   85.837    0.218    0.450    5.355
  246.718   -0.000   83.398    0.257    0.406    6.555
  246.968   -0.000   81.665    0.281    0.362    7.630
  247.218   -0.000   80.735    0.285    0.322    9.319
  247.468    0.000   81.241    0.272    0.304   10.816
  247.718    0.000   82.291    0.264    0.288   12.829
  247.968    0.000   82.599    0.284    0.277   14.902
  248.218   -0.000   83.610    0.253    0.262   16.547
  248.468   -0.000   84.450    0.321    0.246   18.252
  248.718    0.000   80.782    0.320    0.251   19.247
  248.968    0.000   78.805    0.322    0.260   19.831
  249.218    0.000   76.862    0.332    0.266   20.354
  249.468   -0.000   75.938    0.328    0.271   20.678
  249.718   -0.000   73.947    0.312    0.263   21.495
  249.968   -0.000   71.939    0.288    0.249   22.829
  250.218    0.000   67.802    0.024    0.218   23.497
  250.468    0.000   64.456    0.140    0.179   25.397
  250.718    0.000   61.244    0.145    0.195   26.906
  250.968   -0.000   68.310    0.178    0.199   29.143
  251.218   -0.000   73.950    0.226    0.189   30.413
  251.468   -0.000   77.006    0.302    0.180   31.737
  251.718    0.000   76.697    0.324    0.165   31.296
  251.968    0.000   73.841    0.385    0.159   31.040
  252.218   -0.000   69.780    0.399    0.170   29.459
  252.468   -0.000   67.758    0.403    0.179   28.550
  252.718   -0.000   65.683    0.400    0.187   27.648
  252.968    0.000   64.853    0.394    0.188   27.259
  253.218    0.000   63.412    0.395    0.185   27.459
  253.468    0.000   64.322    0.399    0.183   28.310
  253.718   -0.000   66.393    0.394    0.185   28.219
  253.968   -0.000   67.499    0.391    0.195   27.474
  254.218   -0.000   67.816    0.383    0.204   25.200
  254.468    0.000   68.479    0.378    0.214   23.602
  254.718    0.000   67.532    0.382    0.212   23.435
  254.968   -0.000   67.155    0.376    0.197   23.405
  255.218   -0.000   69.283    0.372    0.190   23.144
  255.468   -0.000   68.588    0.373    0.195   22.390
  255.718    0.000   67.704    0.371    0.219   22.112
  255.968    0.000   68.744    0.370    0.225   21.449
  256.218    0.000   67.981    0.369    0.228   20.772
  256.468   -0.000   66.393    0.369    0.229   19.187
  256.718   -0.000   66.975    0.368    0.231   17.233
  256.968   -0.000   65.187    0.350    0.254   15.059
  257.218    0.000   66.103    0.335    0.289   12.321
  257.468    0.000   67.494    0.312    0.354   10.811
  257.718    0.000   63.945    0.289    0.440    8.782
  257.968   -0.000   63.140    0.287    0.440    8.081
  258.218   -0.000   64.221    0.291    0.445    7.911
  258.468    0.000   64.620    0.285    0.446    8.171
  258.718    0.000   63.242    0.278    0.438    8.950
  258.968    0.000   61.999    0.269    0.428    9.796
  259.218   -0.000   61.579    0.261    0.410   10.765
  259.468   -0.000   61.137    0.250    0.413   11.212
  259.718   -0.000   62.226    0.243    0.421   11.621
  259.968    0.000   63.229    0.247    0.416   11.446
  260.218    0.000   64.269    0.249    0.424   10.901
  260.468    0.000   64.575    0.242    0.414   10.376
  260.718   -0.000   64.805    0.241    0.416    9.162
  260.968   -0.000   62.775    0.252    0.418    9.001
  261.218   -0.000   62.085    0.262    0.426    8.457
  261.468    0.000   61.432    0.275    0.440    8.032
  261.718    0.000   61.594    0.286    0.449    7.802
  261.968   -0.000   62.581    0.266    0.459    7.555
  262.218   -0.000   63.607    0.253    0.463    7.472
  262.468   -0.000   63.168    0.257    0.446    7.415
  262.718    0.000   62.663    0.267    0.442    7.283
  262.968    0.000   61.972    0.277    0.430    7.268
  263.218    0.000   62.063    0.281    0.431    7.265
  263.468   -0.000   63.016    0.282    0.430    7.138
  263.718   -0.000   64.541    0.276    0.428    7.276
  263.968   -0.000   64.417    0.269    0.445    7.256
  264.218    0.000   62.456    0.264    0.436    7.394
  264.468    0.000   62.032    0.252    0.413    7.384
  264.718   -0.000   61.951    0.255    0.414    7.380
  264.968   -0.000   62.609    0.267    0.433    7.376
  265.218   -0.000   62.515    0.262    0.443    7.375
  265.468    0.000   60.298    0.254    0.453    7.365
  265.718    0.000   59.803    0.237    0.456    7.599
  265.968    0.000   60.058    0.235    0.446    7.662
  266.218   -0.000   60.644    0.255    0.440    7.867
  266.468   -0.000   59.758    0.234    0.443    8.654
  266.718   -0.000   58.751    0.052    0.478    9.071
  266.968    0.000   54.943    0.137    0.344    9.490
  267.218    0.000   49.569    0.181    0.215    9.999
  267.468    0.000   49.738    0.220    0.255   10.284
  267.718   -0.000   53.471    0.266    0.331   10.383
  267.968   -0.000   57.332    0.279    0.413    9.788
  268.218    0.000   60.519    0.283    0.496    9.205
  268.468    0.000   60.276    0.271    0.480    8.752
  268.718    0.000   59.354    0.253    0.452    8.308
  268.968   -0.000   59.391    0.250    0.426    8.070
  269.218   -0.000   59.351    0.264    0.435    7.825
  269.468   -0.000   60.141    0.266    0.442    7.593
  269.718    0.000   61.218    0.264    0.442    7.610
  269.968    0.000   60.948    0.264    0.443    7.383
  270.218    0.000   60.575    0.264    0.441    7.311
  270.468   -0.000   62.026    0.264    0.444    7.181
  270.718   -0.000   63.144    0.264    0.451    7.024
