~VERSION INFORMATION
 VERS.                 2.0:   CWLS LOG ASCII STANDARD -VERSION 2.0
 WRAP.                  NO:   ONE LINE PER DEPTH STEP
~WELL INFORMATION BLOCK
#MNEM.UNIT           DATA                    DESCRIPTION OF MNEMONIC
#---------    -------------------            -------------------------------
# Generated from Intellog Unique Number	CC_80_83/WELL/2420
NULL.         -999.25                        : NULL_VALUE
WELL.         AMOCO SURMONT E5               : Well_name    - WELL
LOC .         11-31-083-09W4                 : Location     - LOCATION          
UWI .         00/11-31-083-09W400            : Uwi          - UNIQUE WELL ID    
ENTR.         DW                             : Entered      - ENTERED BY        
SRVC.         SCHLUMBERGER                   : Scn          - SERVICE COMPANY   
DATE.         07 MAR 77                      : Date         - LOG DATE
STRT.M        240.792                        : top_depth    - START DEPTH       
STOP.M        484.639                        : bot_depth    - STOP DEPTH        
STEP.M        0.305                          : increment    - STEP LENGTH       
~CURVE INFORMATION BLOCK
#MNEM UNIT       ERCB CURVE CODE    CURVE DESCRIPTION
#-----------   ------------------   ----------------------------------
DEPT.M        00 001 00 00         : DEPTH        - DEPTH                       
DPHI.V/V      00 890 00 00         : PHID         - DENSITY POROSITY (LIMESTONE)
NPHI.V/V      00 330 00 00         : PHIN         - NEUTRON POROSITY (LIMESTONE)
GR  .API      00 310 00 00         : GR           - GAMMA RAY                   
ILD .OHMM     00 120 00 00         : RESD         - DEEP RESISTIVITY (DIL)      
~PARAMETER INFORMATION       
#MNEM.UNIT           DATA             DESCRIPTION OF MNEMONIC
#---------         -----------     ------------------------------
GL  .M        712.318              : gl           - GROUND LEVEL ELEVATION      
EREF.M        716.28               : kb           - ELEVATION OF DEPTH REFERENCE
DATM.M        716.28               : datum        - DATUM ELEVATION             
TDD .M        486.461              : tdd          - TOTAL DEPTH DRILLER         
RUN .         ONE                  : Run          - RUN NUMBER                  
ENG .         BILL                 : Engineer     - RECORDING ENGINEER          
WIT .         JIM                  : Witness      - WITNESSED BY                
MUD .         GEL                  : Mud_type     - MUD TYPE                    
MATR.         LIMESTONE            : Logunit      - NEUTRON MATRIX              
TMAX.C        21.6667              : BHT          - MAXIMUM RECORDED TEMPERATURE
BHTD.M        486.461              : BHTDEP       - MAXIMUM RECORDED TEMPERATURE
MATR.         1                    : LOGUNIT      - NEUTRON MATRIX              
RMT .C        25                   : MDTP         - TEMPERATURE OF MUD          
NEUT.         1                    : NEUTRON      - NEUTRON TYPE                
RESI.         0                    : RESIST       - RESISTIVITY TYPE            
RMC .OHMM     0.25                 : RMC          - RESISTIVITY OF MUD CAKE     
RMF .OHMM     0.25                 : RMF          - RESISTIVITY OF MUD FILTRATE 
SUFT.C        15                   : SUFT         - SURFACE TEMPERATURE         
~A  DEPTH     PHID     PHIN       GR     RESD
# ...
  399.902    0.252    0.569  107.045    4.714
  400.207    0.245    0.555  102.786    4.137
  400.511    0.243    0.507  105.206    4.061
  400.816    0.254    0.486  102.764    4.805
  401.121    0.249    0.469   99.115    5.581
  401.426    0.248    0.461   90.603    6.728
  401.731    0.247    0.445   87.558    8.264
  402.035    0.222    0.438   87.548    9.597
  402.340    0.224    0.429   87.540    9.964
  402.645    0.253    0.415   85.101    9.966
  402.950    0.218    0.389   80.234   10.347
  403.255    0.059    0.323   79.615   11.794
  403.560    0.060    0.238   80.216   12.952
  403.864    0.175    0.297   73.527   13.446
  404.169    0.215    0.399   78.984   12.716
  404.474    0.218    0.434  102.048   10.954
  404.779    0.196    0.446  106.289    9.613
  405.084    0.197    0.451  106.280    8.280
  405.388    0.212    0.456  102.627    7.404
  405.693    0.195    0.444   98.975    7.134
  405.998    0.190    0.438  101.395    7.003
  406.303    0.208    0.439  108.673    7.136
  406.608    0.212    0.426  107.447    7.272
  406.912    0.196    0.449  101.973    6.502
  407.217    0.183    0.463   98.926    5.497
  407.522    0.197    0.483   94.669    4.477
  407.827    0.251    0.524   89.195    3.321
  408.132    0.234    0.566   83.114    3.083
  408.436    0.222    0.524   77.638    3.201
  408.741    0.222    0.483   77.629    3.648
  409.046    0.226    0.431   80.048    4.317
  409.351    0.208    0.428   86.111    5.714
  409.656    0.201    0.444   88.532    6.635
  409.961    0.211    0.461   89.737    6.637
  410.265    0.222    0.445   87.299    6.160
  410.570    0.210    0.458   97.612    4.924
  410.875    0.219    0.488  101.853    3.792
  411.180    0.234    0.498  101.845    3.586
  411.485    0.239    0.488   97.585    3.723
  411.789    0.212    0.430   91.504    4.324
  412.094    0.213    0.417   89.064    5.831
  412.399    0.228    0.415   90.877    6.899
  412.704    0.240    0.431   96.334    5.833
  413.009    0.228    0.463  107.861    4.840
  413.313    0.245    0.503  113.316    4.248
  413.618    0.252    0.518  107.843    3.728
  413.923    0.244    0.503  105.404    3.396
  414.228    0.235    0.517  101.145    3.152
  414.533    0.211    0.523  109.635    3.273
  414.837    0.211    0.518  110.233    3.462
  415.142    0.217    0.483  110.225    3.873
  415.447    0.223    0.460  113.250    4.333
  415.752    0.195    0.457  111.421    4.499
  416.057    0.174    0.458  105.339    4.759
  416.362    0.154    0.471   97.435    4.850
  416.666    0.155    0.458   92.570    4.942
  416.971    0.203    0.482  101.667    4.943
  417.276    0.203    0.494  110.158    4.420
  417.581    0.204    0.442  115.615    4.258
  417.886    0.215    0.453  117.428    4.180
  418.190    0.221    0.435  112.558    4.590
  418.495    0.220    0.423  108.300    5.232
  418.800    0.229    0.406   97.362    6.427
  419.105    0.240    0.394   88.852    6.926
  419.410    0.246    0.412   92.484    8.045
  419.714    0.248    0.438   93.690    8.670
  420.019    0.254    0.406   90.646    9.171
  420.324    0.255    0.403   81.527    9.701
  420.629    0.255    0.399   86.982   10.456
  420.934    0.251    0.395   93.047   11.269
  421.238    0.237    0.381   83.322   11.920
  421.543    0.250    0.374   83.920   12.376
  421.848    0.238    0.382   88.768   12.149
  422.153    0.224    0.401   96.652   11.277
  422.458    0.212    0.410  103.929   11.070
  422.763    0.202    0.397  106.955   10.666
  423.067    0.184    0.377  105.126   10.870
  423.372    0.155    0.386   98.437   11.076
  423.677    0.126    0.406   90.533   11.937
  423.982    0.220    0.409   85.668   13.108
  424.287    0.254    0.398   80.193   14.941
  424.591    0.244    0.379   75.326   18.013
  424.896    0.238    0.370   69.243   19.779
  425.201    0.233    0.365   67.414   20.535
  425.506    0.236    0.364   72.260   20.927
  425.811    0.248    0.363   71.643   20.542
  426.115    0.235    0.370   68.601   20.547
  426.420    0.224    0.361   72.234   20.939
  426.725    0.213    0.356   75.869   21.239
  427.030    0.203    0.367   70.394   23.324
  427.335    0.247    0.368   63.098   25.619
  427.639    0.272    0.361   58.230   26.112
  427.944    0.271    0.349   58.222   23.808
  428.249    0.249    0.341   74.608   22.522
  428.554    0.236    0.344   70.955   20.918
  428.859    0.242    0.379   69.125   20.541
  429.164    0.241    0.402   70.329   20.942
  429.468    0.229    0.408   67.889   21.748
  429.773    0.222    0.418   66.667   23.015
  430.078    0.241    0.416   70.299   23.898
  430.383    0.253    0.390   71.505   24.365
  430.688    0.252    0.386   70.891   24.374
  430.992    0.254    0.398   67.238   23.942
  431.297    0.258    0.412   66.012   22.654
  431.602    0.236    0.400   67.823   21.433
  431.907    0.248    0.398   69.032   19.176
  432.212    0.244    0.385   71.448   17.811
  432.516    0.223    0.382   74.476   17.816
  432.821    0.223    0.391   78.111   20.313
  433.126    0.209    0.402   78.103   23.158
  433.431    0.187    0.399   70.200   24.961
  433.736    0.257    0.408   60.473   26.907
  434.040    0.259    0.415   58.644   27.427
  434.345    0.256    0.391   65.311   25.951
  434.650    0.244    0.389   68.945   24.099
  434.955    0.226    0.389   69.545   22.803
  435.260    0.240    0.401   67.107   24.126
  435.565    0.256    0.393   65.884   26.994
  435.869    0.220    0.358   66.481   30.771
  436.174    0.232    0.354   64.650   35.742
  436.479    0.246    0.366   57.355   35.763
  436.784    0.275    0.379   53.096   30.254
  437.089    0.263    0.385   56.729   18.306
  437.393    0.241    0.381   65.829   16.075
  437.698    0.203    0.390   79.784   15.210
  438.003    0.203    0.411   84.633   17.021
  438.308    0.223    0.407   82.193   18.009
  438.613    0.243    0.388   75.504   18.016
  438.917    0.223    0.371   75.497   14.964
  439.222    0.220    0.372   80.954   13.392
  439.527    0.199    0.377   89.445   13.149
  439.832    0.194    0.381   93.686   14.439
  440.137    0.196    0.394   88.211   18.071
  440.441    0.208    0.413   75.451   20.217
  440.746    0.245    0.423   64.512   23.046
  441.051    0.262    0.386   56.001   23.490
  441.356    0.242    0.372   62.672   22.228
  441.661    0.221    0.370   68.733   21.428
  441.966    0.234    0.372   71.153   22.672
  442.270    0.260    0.404   74.789   25.369
  442.575    0.274    0.447   71.135   27.348
  442.880    0.281    0.441   60.803   27.879
  443.185    0.259    0.422   67.472   24.943
  443.490    0.237    0.395   76.571   21.902
  443.794    0.214    0.381   85.669   18.880
  444.099    0.239    0.388   88.092   15.976
  444.404    0.227    0.389   88.081   15.398
  444.709    0.229    0.377   83.823   15.700
  445.014    0.223    0.375   77.740   16.301
  445.318    0.208    0.387   75.910   18.933
  445.623    0.223    0.407   76.506   21.992
  445.928    0.227    0.417   74.068   22.835
  446.233    0.231    0.411   70.416   21.212
  446.538    0.243    0.414   69.192   20.066
  446.842    0.254    0.421   69.184   18.988
  447.147    0.229    0.398   74.033   19.000
  447.452    0.214    0.382   77.667   20.482
  447.757    0.213    0.386   76.441   21.266
  448.062    0.248    0.396   71.576   25.640
  448.367    0.274    0.412   63.672   29.775
  448.671    0.282    0.414   66.696   35.894
  448.976    0.274    0.436   67.297   41.687
  449.281    0.293    0.432   53.927   46.644
  449.586    0.300    0.421   50.275   54.173
  449.891    0.299    0.433   49.054   64.099
  450.195    0.304    0.435   47.827   69.104
  450.500    0.311    0.413   45.995   69.138
  450.805    0.302    0.410   45.989   55.316
  451.110    0.299    0.417   51.445   46.801
  451.415    0.285    0.424   56.293   40.339
  451.719    0.290    0.385   55.064   33.501
  452.024    0.270    0.380   55.059   29.427
  452.329    0.252    0.385   56.262   29.994
  452.634    0.297    0.394   56.864   32.336
