~VERSION INFORMATION
 VERS.                 2.0:   CWLS LOG ASCII STANDARD -VERSION 2.0
 WRAP.                  NO:   ONE LINE PER DEPTH STEP
~WELL INFORMATION BLOCK
#MNEM.UNIT           DATA                    DESCRIPTION OF MNEMONIC
#---------    -------------------            -------------------------------
# Generated from Intellog Unique Number	CS_69_70/WELL/892
NULL.         -999.25                        : NULL_VALUE
WELL.         HB PITLOCHRIE                  : Well_name    - WELL              
LOC .         00/11-21-070-12W4/0            : Location     - LOCATION          
UWI .         00/11-21-070-12W4/0            : Uwi          - UNIQUE WELL ID    
ENTR.         SP                             : Entered      - ENTERED BY        
SRVC.         SCHLUMBERGER                   : Scn          - SERVICE COMPANY   
STRT.M        259.080                        : top_depth    - START DEPTH       
STOP.M        456.830                        : bot_depth    - STOP DEPTH        
STEP.M        0.25                           : increment    - STEP LENGTH       
~CURVE INFORMATION BLOCK
#MNEM UNIT       ERCB CURVE CODE    CURVE DESCRIPTION
#-----------   ------------------   ----------------------------------
DEPT.M        00 001 00 00         : DEPTH        - DEPTH                       
GR  .API      00 310 00 00         : GR           - GAMMA RAY                   
DPHI.V/V      00 890 00 00         : PHID         - DENSITY POROSITY (SANDSTONE)
NPHI.V/V      00 330 00 00         : PHIN         - NEUTRON POROSITY (SANDSTONE)
ILD .OHMM     00 120 00 00         : RESD         - DEEP RESISTIVITY (DIL)      
~PARAMETER INFORMATION       
#MNEM.UNIT           DATA             DESCRIPTION OF MNEMONIC
#---------         -----------     ------------------------------
GL  .M        576.682              : gl           - GROUND LEVEL ELEVATION      
EREF.M        580.339              : kb           - ELEVATION OF DEPTH REFERENCE
DATM.M        576.682              : datum        - DATUM ELEVATION             
TDD .M        460.248              : tdd          - TOTAL DEPTH DRILLER         
RUN .         ONE                  : Run          - RUN NUMBER                  
ENG .         BILL                 : Engineer     - RECORDING ENGINEER          
WIT .         JIM                  : Witness      - WITNESSED BY                
MUD .         GEL                  : Mud_type     - MUD TYPE                    
MATR.         SANDSTONE            : Logunit      - NEUTRON MATRIX              
TMAX.C        12.2222              : BHT          - MAXIMUM RECORDED TEMPERATURE
BHTD.M        460.248              : BHTDEP       - MAXIMUM RECORDED TEMPERATURE
MATR.         1                    : LOGUNIT      - NEUTRON MATRIX              
RMT .C        25                   : MDTP         - TEMPERATURE OF MUD          
NEUT.         1                    : NEUTRON      - NEUTRON TYPE                
RESI.         0                    : RESIST       - RESISTIVITY TYPE            
RMC .OHMM     0.25                 : RMC          - RESISTIVITY OF MUD CAKE     
RMF .OHMM     0.25                 : RMF          - RESISTIVITY OF MUD FILTRATE 
SUFT.C        15                   : SUFT         - SURFACE TEMPERATURE         
~A  DEPTH       GR     PHID     PHIN     RESD
# ...
  389.580   88.812    0.384    0.542    3.519
  389.830   88.406    0.405    0.562    3.493
  390.080   90.146    0.316    0.566    3.429
  390.330   91.441    0.308    0.554    3.179
  390.580   89.219    0.351    0.566    2.879
  390.830   87.180    0.384    0.567    2.579
  391.080   85.137    0.390    0.563    2.278
  391.330   83.756    0.443    0.583    2.093
  391.580   82.238    0.469    0.598    1.966
  391.830   81.991    0.502    0.611    1.930
  392.080   82.380    0.441    0.600    1.988
  392.330   83.381    0.397    0.585    2.126
  392.580   85.182    0.379    0.589    2.263
  392.830   87.899    0.394    0.602    2.421
  393.080   91.194    0.453    0.570    2.583
  393.330   94.380    0.324    0.524    2.842
  393.580   93.186    0.232    0.490    3.089
  393.830   91.256    0.229    0.487    3.216
  394.080   88.556    0.240    0.489    3.309
  394.330   84.999    0.218    0.492    3.319
  394.580   81.500    0.195    0.505    3.281
  394.830   78.158    0.177    0.512    3.234
  395.080   76.404    0.205    0.481    3.194
  395.330   79.019    0.218    0.456    3.167
  395.580   81.127    0.231    0.486    3.155
  395.830   83.268    0.245    0.478    3.264
  396.080   83.451    0.253    0.473    3.446
  396.330   83.247    0.238    0.491    3.698
  396.580   79.776    0.217    0.442    4.109
  396.830   75.932    0.142    0.404    4.450
  397.080   72.135    0.114    0.400    4.895
  397.330   71.532    0.111    0.386    5.138
  397.580   75.674    0.080    0.347    5.263
  397.830   83.245    0.070    0.345    4.775
  398.080   90.545    0.143    0.420    4.352
  398.330   92.973    0.177    0.465    4.071
  398.580   93.253    0.193    0.474    3.876
  398.830   92.400    0.204    0.484    3.831
  399.080   91.510    0.198    0.487    3.824
  399.330   90.749    0.188    0.478    3.835
  399.580   91.295    0.191    0.473    3.857
  399.830   91.486    0.180    0.461    3.879
  400.080   89.990    0.173    0.459    3.938
  400.330   90.561    0.181    0.471    3.979
  400.580   91.654    0.174    0.484    4.048
  400.830   92.125    0.170    0.481    4.120
  401.080   93.385    0.175    0.475    4.175
  401.330   94.803    0.185    0.468    4.184
  401.580   96.881    0.195    0.471    4.177
  401.830   96.897    0.199    0.465    4.174
  402.080   96.434    0.194    0.453    4.146
  402.330   97.710    0.185    0.446    4.133
  402.580   99.752    0.194    0.462    4.124
  402.830  101.345    0.206    0.458    4.115
  403.080  102.074    0.192    0.454    4.126
  403.330  102.482    0.199    0.464    4.150
  403.580   98.603    0.203    0.462    4.194
  403.830   95.427    0.195    0.459    4.220
  404.080   94.619    0.180    0.457    4.271
  404.330   92.368    0.163    0.451    4.316
  404.580   91.356    0.142    0.447    4.339
  404.830   92.242    0.158    0.466    4.323
  405.080   93.287    0.189    0.495    4.255
  405.330   95.398    0.182    0.503    4.205
  405.580   97.168    0.192    0.483    4.237
  405.830   99.161    0.198    0.451    4.298
  406.080   99.981    0.183    0.432    4.343
  406.330   99.808    0.171    0.420    4.388
  406.580   98.766    0.188    0.453    4.398
  406.830   98.552    0.193    0.458    4.451
  407.080  100.143    0.205    0.445    4.512
  407.330  100.025    0.184    0.444    4.524
  407.580   99.347    0.196    0.443    4.427
  407.830   96.350    0.170    0.467    3.915
  408.080   93.647    0.216    0.488    3.288
  408.330   92.584    0.277    0.529    2.791
  408.580   89.083    0.282    0.567    2.378
  408.830   86.568    0.331    0.620    2.217
  409.080   86.297    0.315    0.600    2.146
  409.330   86.473    0.295    0.562    2.176
  409.580   86.477    0.313    0.539    2.332
  409.830   85.078    0.331    0.535    2.618
  410.080   83.137    0.322    0.566    3.000
  410.330   78.787    0.357    0.587    3.438
  410.580   73.924    0.335    0.564    3.770
  410.830   66.001    0.249    0.481    3.882
  411.080   67.748    0.191    0.422    3.861
  411.330   74.388    0.267    0.496    3.750
  411.580   78.516    0.305    0.509    3.648
  411.830   80.512    0.337    0.517    3.504
  412.080   81.159    0.324    0.525    3.416
  412.330   81.095    0.319    0.547    3.381
  412.580   80.992    0.362    0.559    3.464
  412.830   82.018    0.362    0.565    3.628
  413.080   84.107    0.301    0.442    3.931
  413.330   82.053    0.169    0.343    4.191
  413.580   78.521    0.087    0.327    4.324
  413.830   80.036    0.050    0.328    4.529
  414.080   83.363    0.062    0.395    4.537
  414.330   85.641    0.173    0.440    4.176
  414.580   86.456    0.221    0.475    3.900
  414.830   86.380    0.271    0.502    3.715
  415.080   86.969    0.294    0.525    3.608
  415.330   88.100    0.280    0.508    3.580
  415.580   91.103    0.235    0.493    3.587
  415.830   93.094    0.230    0.482    3.573
  416.080   93.813    0.249    0.477    3.518
  416.330   88.653    0.252    0.489    3.337
  416.580   87.976    0.285    0.529    3.223
  416.830   88.436    0.323    0.563    3.038
  417.080   86.272    0.360    0.586    2.897
  417.330   84.915    0.304    0.545    2.810
  417.580   86.070    0.274    0.528    2.714
  417.830   91.151    0.305    0.536    2.672
  418.080   94.451    0.272    0.526    2.630
  418.330   96.285    0.223    0.522    2.591
  418.580   96.130    0.221    0.521    2.573
  418.830   96.074    0.215    0.533    2.552
  419.080   98.036    0.226    0.569    2.521
  419.330   99.896    0.258    0.581    2.507
  419.580  100.294    0.251    0.565    2.531
  419.830   99.504    0.266    0.549    2.557
  420.080   98.931    0.240    0.517    2.556
  420.330  100.933    0.210    0.498    2.509
  420.580  103.764    0.241    0.512    2.401
  420.830  106.187    0.254    0.522    2.252
  421.080  108.754    0.229    0.529    2.177
  421.330  109.425    0.201    0.534    2.158
  421.580  107.184    0.197    0.537    2.379
  421.830   95.828    0.206    0.495    2.870
  422.080   82.975    0.209    0.455    3.465
  422.330   77.439    0.216    0.415    4.215
  422.580   75.138    0.209    0.396    5.495
  422.830   74.435    0.180    0.386    6.732
  423.080   76.985    0.150    0.394    7.547
  423.330   82.532    0.190    0.417    7.634
  423.580   86.103    0.206    0.411    7.426
  423.830   87.263    0.196    0.404    6.761
  424.080   87.478    0.164    0.413    6.072
  424.330   78.885    0.171    0.402    5.485
  424.580   73.342    0.209    0.381    5.325
  424.830   70.129    0.222    0.367    5.779
  425.080   67.326    0.230    0.358    6.212
  425.330   66.938    0.230    0.349    6.667
  425.580   68.872    0.216    0.373    6.950
  425.830   69.569    0.209    0.397    7.201
  426.080   69.728    0.211    0.409    7.363
  426.330   68.960    0.225    0.395    7.456
  426.580   69.468    0.203    0.390    7.317
  426.830   69.245    0.185    0.389    7.095
  427.080   68.109    0.201    0.385    7.014
  427.330   65.436    0.203    0.384    7.045
  427.580   62.487    0.184    0.392    7.518
  427.830   60.323    0.167    0.380    8.326
  428.080   57.742    0.034    0.352    9.442
  428.330   60.370    0.002    0.288   10.491
  428.580   72.373   -0.005    0.261   10.655
  428.830   79.441    0.033    0.332    9.196
  429.080   82.929    0.120    0.387    6.430
  429.330   83.701    0.197    0.412    4.205
  429.580   84.248    0.240    0.422    3.368
  429.830   89.306    0.232    0.430    3.039
  430.080   96.227    0.220    0.434    2.886
  430.330   99.814    0.216    0.428    2.872
  430.580  104.366    0.221    0.434    3.023
  430.830  109.462    0.206    0.428    3.221
  431.080  113.415    0.183    0.420    3.429
  431.330  115.575    0.170    0.415    3.567
  431.580  114.866    0.178    0.418    3.643
  431.830  110.497    0.210    0.416    3.644
  432.080  105.244    0.198    0.410    3.652
  432.330  107.192    0.187    0.418    3.752
  432.580  112.137    0.175    0.446    3.892
  432.830  116.663    0.158    0.463    4.094
