~VERSION INFORMATION
 VERS.                 2.0:   CWLS LOG ASCII STANDARD -VERSION 2.0
 WRAP.                  NO:   ONE LINE PER DEPTH STEP
~WELL INFORMATION BLOCK
#MNEM.UNIT           DATA                    DESCRIPTION OF MNEMONIC
#---------    -------------------            -------------------------------
# Generated from Intellog Unique Number	CW_79_81/WELL/2488
WELL.         13-10-081-21W4                 : Well_name    - WELL
LOC .         00/13-10-081-21W4/0            : Location     - LOCATION
UWI .         00/13-10-081-21W4/0            : Uwi          - UNIQUE WELL ID
ENTR.         MAX                            : Entered      - ENTERED BY
SRVC.         SCHLUMBERGER                   : Scn          - SERVICE COMPANY
STRT.M        215                            : top_depth    - START DEPTH
STOP.M        440                            : bot_depth    - STOP DEPTH
STEP.M        0.25                           : increment    - STEP LENGTH
 NULL. -999.2500:NULL Value
~CURVE INFORMATION BLOCK
#MNEM UNIT       ERCB CURVE CODE    CURVE DESCRIPTION
#-----------   ------------------   ----------------------------------
DEPT.M        00 001 00 00         : DEPTH        - DEPTH
ILD .OHMM     00 120 00 00         : RESD         - DEEP RESISTIVITY (DIL)
NPHI.V/V      00 330 00 00         : PHIN         - NEUTRON POROSITY (SANDSTONE)
DPHI.V/V      00 890 00 00         : PHID         - DENSITY POROSITY (SANDSTONE)
GR  .API      00 310 00 00         : GR           - GAMMA RAY
CALI.MM       00 280 01 00         : CAL          - CALIPER
~PARAMETER INFORMATION
#MNEM.UNIT           DATA             DESCRIPTION OF MNEMONIC
#---------         -----------     ------------------------------
GL  .M        599.6                : gl           - GROUND LEVEL ELEVATION
EREF.M        603.9                : kb           - ELEVATION OF DEPTH REFERENCE
DATM.M        599.6                : datum        - DATUM ELEVATION
TDD .M        448.25               : tdd          - TOTAL DEPTH DRILLER
RUN .         ONE                  : Run          - RUN NUMBER
ENG .         BILL                 : Engineer     - RECORDING ENGINEER
WIT .         JIM                  : Witness      - WITNESSED BY
MUD .         GEL                  : Mud_type     - MUD TYPE
MATR.         SANDSTONE            : Logunit      - NEUTRON MATRIX
TMAX.C        28.6                 : BHT          - MAXIMUM RECORDED TEMPERATURE
BHTD.M        448.25               : BHTDEP       - MAXIMUM RECORDED TEMPERATURE
MATR.         1                    : LOGUNIT      - NEUTRON MATRIX
RMT .C        15                   : MDTP         - TEMPERATURE OF MUD
NEUT.         1                    : NEUTRON      - NEUTRON TYPE
RESI.         0                    : RESIST       - RESISTIVITY TYPE
RMC .OHMM     9.82                 : RMC          - RESISTIVITY OF MUD CAKE
RMF .OHMM     4.93                 : RMF          - RESISTIVITY OF MUD FILTRATE
SUFT.C        -15                  : SUFT         - SURFACE TEMPERATURE
~A  DEPTH     RESD     PHIN     PHID       GR      CAL
# ...
  397.500   53.628    0.349    0.231   68.437  220.711
  397.750   49.417    0.332    0.193   71.707  220.210
  398.000   44.402    0.310    0.162   71.448  219.781
  398.250   38.182    0.291    0.140   67.869  219.762
  398.500   30.564    0.259    0.100   64.644  220.040
  398.750   23.469    0.219    0.074   68.799  220.222
  399.000   18.336    0.194    0.079   79.619  220.207
  399.250   14.854    0.243    0.132   89.051  219.941
  399.500   12.952    0.344    0.165   91.024  218.682
  399.750   10.553    0.383    0.163   84.111  218.268
  400.000    8.253    0.377    0.149   80.766  218.450
  400.250    7.169    0.344    0.130   80.994  219.622
  400.500    7.092    0.305    0.110   84.913  221.190
  400.750    8.312    0.288    0.091   95.187  221.319
  401.000   10.358    0.325    0.094  107.327  220.062
  401.250   13.026    0.377    0.118  109.934  219.253
  401.500   14.230    0.392    0.129  112.542  219.038
  401.750   13.684    0.385    0.134  114.675  219.019
  402.000   11.584    0.382    0.132  114.903  219.101
  402.250    8.489    0.417    0.122  108.960  219.808
  402.500    7.982    0.413    0.141   99.526  221.442
  402.750    7.862    0.387    0.155   85.472  221.030
  403.000    7.658    0.354    0.156   78.735  220.617
  403.250    7.877    0.331    0.150   77.058  220.599
  403.500    8.924    0.324    0.150   78.536  220.976
  403.750   12.111    0.328    0.170   82.312  221.434
  404.000   15.092    0.319    0.158   85.774  221.832
  404.250   17.571    0.314    0.141   88.619  222.609
  404.500   19.243    0.315    0.131   89.324  222.791
  404.750   19.685    0.322    0.131   88.718  222.377
  405.000   18.989    0.332    0.138   87.695  221.665
  405.250   17.331    0.336    0.149   87.208  221.001
  405.500   15.931    0.338    0.154   87.195  219.743
  405.750   14.017    0.350    0.138   87.187  219.328
  406.000   12.127    0.372    0.128   87.176  218.914
  406.250    9.978    0.391    0.133   87.284  218.699
  406.500    8.339    0.394    0.149   87.215  218.682
  406.750    7.791    0.379    0.160   85.608  218.662
  407.000    7.730    0.373    0.165   82.372  218.643
  407.250    8.136    0.380    0.171   77.126  219.023
  407.500    8.891    0.383    0.179   67.593  218.212
  407.750    9.415    0.376    0.191   62.940  217.202
  408.000    9.395    0.361    0.206   63.881  216.591
  408.250    9.420    0.349    0.219   61.539  216.570
  408.500   11.279    0.340    0.223   55.825  216.551
  408.750   15.500    0.332    0.226   43.199  216.535
  409.000   20.895    0.310    0.237   47.354  216.520
  409.250   27.154    0.291    0.235   55.081  216.701
  409.500   33.328    0.286    0.214   59.712  216.981
  409.750   37.681    0.301    0.183   60.483  216.959
  410.000   36.814    0.318    0.176   57.248  216.942
  410.250   33.391    0.337    0.198   52.478  216.925
  410.500   28.906    0.345    0.219   47.527  217.206
  410.750   25.754    0.342    0.241   45.849  217.388
  411.000   24.343    0.334    0.259   48.756  217.272
  411.250   25.245    0.332    0.255   54.865  216.772
  411.500   28.370    0.343    0.234   52.126  216.340
  411.750   32.796    0.343    0.213   40.691  216.322
  412.000   34.501    0.330    0.216   32.287  216.306
  412.250   35.264    0.319    0.239   28.111  215.893
  412.500   36.317    0.323    0.267   27.744  215.180
  412.750   37.740    0.345    0.277   29.457  214.596
  413.000   39.527    0.343    0.280   30.934  213.753
  413.250   44.088    0.339    0.286   31.876  213.738
  413.500   49.734    0.334    0.287   32.104  214.017
  413.750   56.961    0.328    0.289   31.975  214.593
  414.000   65.152    0.324    0.291   31.667  215.469
  414.250   71.774    0.326    0.283   31.228  216.720
  414.500   77.552    0.337    0.272   31.465  217.112
  414.750   85.882    0.339    0.274   31.930  217.101
  415.000   95.676    0.336    0.273   32.932  217.084
  415.250  104.697    0.335    0.277   32.804  217.067
  415.500  110.331    0.337    0.283   32.020  217.049
  415.750  110.776    0.338    0.278   34.389  217.027
  416.000  109.055    0.345    0.280   40.330  217.013
  416.250  107.426    0.341    0.282   46.507  216.993
  416.500  105.229    0.335    0.288   49.830  217.272
  416.750  100.166    0.334    0.296   52.915  217.453
  417.000   92.843    0.338    0.301   56.832  217.536
  417.250   83.124    0.345    0.295   62.891  218.081
  417.500   72.480    0.338    0.269   71.808  218.889
  417.750   58.144    0.326    0.242   77.985  217.680
  418.000   49.962    0.323    0.227   80.772  217.366
  418.250   44.605    0.331    0.226   82.786  217.943
  418.500   40.361    0.340    0.229   86.644  218.917
  418.750   35.472    0.324    0.212   97.294  219.293
  419.000   32.357    0.308    0.191  108.939  219.279
  419.250   29.797    0.348    0.178  116.546  220.054
  419.500   27.132    0.375    0.184  117.726  220.236
  419.750   24.440    0.398    0.192  116.407  219.227
  420.000   22.018    0.413    0.197  115.564  217.821
  420.250   19.774    0.400    0.208  117.813  218.527
  420.500   18.038    0.380    0.232  120.776  220.165
  420.750   16.610    0.406    0.246  120.527  224.509
  421.000   15.389    0.405    0.215  120.993  224.692
  421.250   14.566    0.402    0.196  122.770  223.684
  421.500   14.008    0.405    0.207  126.450  223.270
  421.750   13.316    0.400    0.223  133.767  224.040
  422.000   12.909    0.394    0.222  139.460  224.025
  422.250   12.528    0.392    0.220  137.546  224.005
  422.500   12.228    0.393    0.226  128.132  223.987
  422.750   12.046    0.398    0.230  117.171  223.972
  423.000   11.977    0.405    0.229  107.342  223.856
  423.250   12.082    0.398    0.225   97.152  222.693
  423.500   12.654    0.360    0.241   92.678  218.958
  423.750   13.812    0.384    0.265   94.573  217.351
  424.000   15.406    0.377    0.273   95.574  216.937
  424.250   17.222    0.361    0.269   96.635  216.921
  424.500   19.047    0.356    0.259   97.696  216.905
  424.750   21.232    0.380    0.245   95.155  216.882
  425.000   23.488    0.390    0.247   82.496  216.866
  425.250   26.009    0.405    0.248   75.822  217.246
  425.500   27.617    0.403    0.252   71.467  217.328
  425.750   29.379    0.386    0.261   70.623  217.311
  426.000   31.985    0.368    0.266   71.921  217.395
  426.250   36.025    0.373    0.249   71.977  217.771
  426.500   40.484    0.380    0.241   74.697  217.752
  426.750   42.613    0.390    0.222   75.639  217.339
  427.000   40.331    0.400    0.200   72.474  216.926
  427.250   35.868    0.394    0.181   66.988  216.711
  427.500   31.193    0.372    0.165   61.800  216.693
  427.750   26.818    0.348    0.149   60.358  216.670
  428.000   25.218    0.338    0.153   60.349  216.651
  428.250   26.351    0.342    0.147   60.101  216.636
  428.500   27.837    0.345    0.145   58.423  216.321
  428.750   29.945    0.344    0.140   52.461  216.105
  429.000   33.008    0.339    0.126   42.812  216.286
  429.250   38.581    0.331    0.093   33.812  217.141
  429.500   45.107    0.338    0.089   35.289  217.541
  429.750   52.142    0.346    0.113   35.992  217.919
  430.000   57.901    0.337    0.110   35.090  217.999
  430.250   62.388    0.325    0.099   33.532  217.982
  430.500   66.761    0.316    0.092   31.974  217.866
  430.750   75.190    0.310    0.105   30.523  217.364
  431.000   84.501    0.310    0.107   29.273  216.937
  431.250  101.914    0.328    0.095   30.691  216.124
  431.500  125.098    0.338    0.092   36.035  215.909
  431.750  149.649    0.339    0.097   42.930  215.893
  432.000  167.692    0.333    0.106   50.895  215.875
  432.250  155.253    0.331    0.121   62.350  215.772
  432.500   98.750    0.358    0.149   67.299  215.339
  432.750   73.840    0.340    0.155   70.145  215.325
  433.000   59.702    0.335    0.175   69.956  215.308
  433.250   54.178    0.345    0.198   68.874  215.093
  433.500   54.154    0.355    0.204   68.208  214.778
  433.750   57.621    0.328    0.163   68.634  214.838
