~VERSION INFORMATION
 VERS.                 2.0:   CWLS LOG ASCII STANDARD -VERSION 2.0
 WRAP.                  NO:   ONE LINE PER DEPTH STEP
~WELL INFORMATION BLOCK
#MNEM.UNIT           DATA                    DESCRIPTION OF MNEMONIC
#---------    -------------------            -------------------------------
# Generated from Intellog Unique Number	CS_73_76/WELL/843
WELL.         MAYNARD ENERGY INC             : Well_name    - WELL
LOC .         00/11-04-073-13W4/0            : Location     - LOCATION
UWI .         00/11-04-073-13W4/0            : Uwi          - UNIQUE WELL ID
ENTR.         SP                             : Entered      - ENTERED BY
SRVC.         SCHLUMBERGER                   : Scn          - SERVICE COMPANY
STRT.M        320                            : top_depth    - START DEPTH
STOP.M        540                            : bot_depth    - STOP DEPTH
STEP.M        0.25                           : increment    - STEP LENGTH
 NULL. -999.2500:NULL Value
~CURVE INFORMATION BLOCK
#MNEM UNIT       ERCB CURVE CODE    CURVE DESCRIPTION
#-----------   ------------------   ----------------------------------
DEPT.M        00 001 00 00         : DEPTH        - DEPTH
ILD .OHMM     00 120 00 00         : RESD         - DEEP RESISTIVITY (DIL)
DPHI.V/V      00 890 00 00         : PHID         - DENSITY POROSITY (LIMESTONE)
NPHI.V/V      00 330 00 00         : PHIN         - NEUTRON POROSITY (LIMESTONE)
GR  .API      00 310 00 00         : GR           - GAMMA RAY
~PARAMETER INFORMATION
#MNEM.UNIT           DATA             DESCRIPTION OF MNEMONIC
#---------         -----------     ------------------------------
GL  .M        667.89               : gl           - GROUND LEVEL ELEVATION
EREF.M        664.44               : kb           - ELEVATION OF DEPTH REFERENCE
DATM.M        667.89               : datum        - DATUM ELEVATION
TDD .M        551                  : tdd          - TOTAL DEPTH DRILLER
RUN .         ONE                  : Run          - RUN NUMBER
ENG .         BILL                 : Engineer     - RECORDING ENGINEER
WIT .         JIM                  : Witness      - WITNESSED BY
MUD .         GEL                  : Mud_type     - MUD TYPE
MATR.         LIMESTONE            : Logunit      - NEUTRON MATRIX
TMAX.C        20                   : BHT          - MAXIMUM RECORDED TEMPERATURE
BHTD.M        551                  : BHTDEP       - MAXIMUM RECORDED TEMPERATURE
MATR.         1                    : LOGUNIT      - NEUTRON MATRIX
RMT .C        25                   : MDTP         - TEMPERATURE OF MUD
NEUT.         1                    : NEUTRON      - NEUTRON TYPE
RESI.         0                    : RESIST       - RESISTIVITY TYPE
RMC .OHMM     0.25                 : RMC          - RESISTIVITY OF MUD CAKE
RMF .OHMM     0.25                 : RMF          - RESISTIVITY OF MUD FILTRATE
SUFT.C        15                   : SUFT         - SURFACE TEMPERATURE
~A  DEPTH     RESD     PHID     PHIN       GR
# ...
  407.000    8.890    0.299    0.410   69.278
  407.250    8.566    0.293    0.413   71.139
  407.500    8.323    0.290    0.424   74.845
  407.750    7.755    0.282    0.442   80.390
  408.000    6.618    0.269    0.460   90.249
  408.250    5.724    0.264    0.471   93.330
  408.500    4.831    0.269    0.471  100.727
  408.750    4.507    0.288    0.460   98.898
  409.000    4.752    0.320    0.453   94.610
  409.250    5.241    0.350    0.444   86.017
  409.500    5.648    0.353    0.439   79.885
  409.750    6.137    0.349    0.442   78.055
  410.000    6.544    0.343    0.443   76.841
  410.250    7.033    0.337    0.444   75.629
  410.500    7.278    0.347    0.444   73.795
  410.750    7.280    0.354    0.444   73.198
  411.000    7.280    0.360    0.449   75.678
  411.250    7.282    0.346    0.454   77.534
  411.500    7.445    0.318    0.431   81.239
  411.750    7.690    0.285    0.400   81.254
  412.000    8.422    0.248    0.390   80.650
  412.250    9.236    0.223    0.385   84.972
  412.500   10.213    0.201    0.389   96.669
  412.750   10.946    0.235    0.404  108.977
  413.000   10.703    0.271    0.414  110.223
  413.250   10.216    0.302    0.416  105.933
  413.500    9.567    0.325    0.413   84.431
  413.750    9.080    0.338    0.409   73.382
  414.000    8.431    0.325    0.412   75.856
  414.250    7.944    0.296    0.418   80.180
  414.500    7.782    0.290    0.423   85.117
  414.750    7.946    0.300    0.434   87.589
  415.000    8.028    0.337    0.442   88.827
  415.250    7.948    0.347    0.441   91.300
  415.500    7.868    0.330    0.431   91.931
  415.750    7.950    0.325    0.429   90.106
  416.000    8.195    0.321    0.425   87.049
  416.250    8.359    0.312    0.424   84.601
  416.500    8.441    0.303    0.430   82.158
  416.750    8.523    0.296    0.436   82.789
  417.000    8.524    0.288    0.437   86.491
  417.250    8.200    0.304    0.440   82.822
  417.500    7.876    0.308    0.438   80.989
  417.750    7.714    0.299    0.438   81.620
  418.000    7.471    0.288    0.437   87.172
  418.250    7.310    0.266    0.438   88.411
  418.500    7.311    0.263    0.436   89.047
  418.750    7.393    0.264    0.431   88.443
  419.000    7.476    0.261    0.427   89.079
  419.250    7.721    0.256    0.410   91.551
  419.500    8.860    0.251    0.375   92.791
  419.750   10.080    0.227    0.333   89.737
  420.000   12.032    0.144    0.304   82.990
  420.250   13.496    0.127    0.285   76.856
  420.500   13.579    0.137    0.295   73.186
  420.750   13.743    0.184    0.360   77.505
  421.000   12.605    0.255    0.390   83.054
  421.250   11.224    0.268    0.423   84.909
  421.500   10.493    0.262    0.435   87.996
  421.750    9.600    0.275    0.429   90.471
  422.000    8.138    0.283    0.422   91.100
  422.250    8.383    0.278    0.418   91.117
  422.500    8.709    0.264    0.417   92.362
  422.750    8.954    0.249    0.416   94.222
  423.000    8.793    0.236    0.418   94.236
  423.250    8.549    0.244    0.414   90.564
  423.500    7.982    0.261    0.411   85.666
  423.750    7.820    0.281    0.413   83.830
  424.000    7.658    0.292    0.414   83.234
  424.250    7.659    0.300    0.411   87.561
  424.500    8.229    0.268    0.402   89.415
  424.750    9.531    0.239    0.381   90.656
  425.000   10.589    0.213    0.307   91.900
  425.250   14.005    0.182    0.243   87.611
  425.500   17.583    0.153    0.202   77.180
  425.750   18.072    0.101    0.185   71.045
  426.000   17.585    0.043    0.180   63.684
  426.250   15.797    0.118    0.246   71.691
  426.500   13.522    0.211    0.290   79.084
  426.750   11.816    0.241    0.319   84.630
  427.000   10.353    0.265    0.363   90.794
  427.250    9.623    0.248    0.402   94.501
  427.500    9.217    0.243    0.411   96.356
  427.750    9.056    0.252    0.408   94.534
  428.000    8.975    0.284    0.408   92.087
  428.250    8.651    0.293    0.409   90.255
  428.500    8.083    0.286    0.417   91.505
  428.750    7.596    0.287    0.428   92.746
  429.000    7.435    0.282    0.439   95.841
  429.250    7.193    0.270    0.450   97.081
  429.500    7.112    0.254    0.459   98.325
  429.750    7.113    0.242    0.461   97.734
  430.000    7.032    0.232    0.461   97.743
  430.250    7.034    0.228    0.457   97.754
  430.500    7.116    0.227    0.449   96.541
  430.750    7.117    0.243    0.445   94.099
  431.000    7.199    0.250    0.441   92.269
  431.250    7.281    0.260    0.440   92.286
  431.500    7.363    0.269    0.441   92.914
  431.750    7.527    0.283    0.450   94.159
  432.000    7.528    0.278    0.458   94.178
  432.250    7.529    0.284    0.468   94.192
  432.500    7.530    0.273    0.477   96.668
  432.750    7.532    0.279    0.476   97.910
  433.000    7.614    0.283    0.469   96.079
  433.250    7.696    0.285    0.464   92.408
  433.500    7.697    0.286    0.462   93.044
  433.750    7.616    0.281    0.469   93.672
  434.000    7.455    0.278    0.473   94.912
  434.250    7.456    0.269    0.475   97.386
  434.500    7.458    0.262    0.474   98.630
  434.750    7.377    0.258    0.465   93.121
  435.000    7.459    0.260    0.449   91.899
  435.250    7.623    0.268    0.441   87.001
  435.500    7.787    0.270    0.431   86.397
  435.750    7.787    0.281    0.425   88.261
  436.000    7.788    0.289    0.419   87.663
  436.250    7.708    0.297    0.417   87.059
  436.500    7.628    0.305    0.417   86.460
  436.750    7.547    0.299    0.422   90.170
  437.000    7.467    0.286    0.425   92.641
  437.250    7.306    0.276    0.426   94.498
  437.500    6.575    0.275    0.431   95.745
  437.750    5.763    0.279    0.438   95.761
  438.000    4.626    0.271    0.462   95.772
  438.250    3.976    0.264    0.485   96.403
  438.500    3.408    0.265    0.522   98.879
  438.750    2.840    0.274    0.539  101.355
  439.000    2.353    0.293    0.540  103.211
  439.250    2.029    0.294    0.540  104.461
  439.500    1.868    0.287    0.539  104.473
  439.750    2.031    0.283    0.538  104.488
  440.000    2.764    0.280    0.517  103.891
  440.250    3.659    0.262    0.501  103.905
  440.500    4.148    0.239    0.473  102.072
  440.750    4.881    0.246    0.455  101.475
  441.000    5.370    0.256    0.450  101.500
  441.250    5.777    0.259    0.453  102.127
  441.500    6.103    0.264    0.458  101.523
  441.750    6.267    0.261    0.464  101.535
  442.000    6.431    0.256    0.474   99.711
  442.250    6.432    0.267    0.483   98.494
  442.500    6.433    0.268    0.484   97.278
  442.750    6.434    0.265    0.476   96.688
  443.000    6.435    0.264    0.467   96.698
  443.250    6.517    0.262    0.459   97.323
  443.500    6.274    0.258    0.456   96.726
  443.750    6.113    0.259    0.454   96.124
  444.000    5.951    0.263    0.452   94.914
  444.250    5.871    0.268    0.448   94.312
  444.500    6.034    0.298    0.440   93.714
  444.750    6.198    0.299    0.432   91.269
  445.000    6.606    0.311    0.430   83.908
  445.250    6.850    0.298    0.426   79.003
  445.500    7.014    0.275    0.417   73.488
  445.750    7.177    0.238    0.413   71.041
  446.000    7.260    0.226    0.408   74.746
  446.250    7.179    0.250    0.408   77.839
  446.500    6.937    0.315    0.415   78.473
  446.750    6.857    0.320    0.423   77.872
  447.000    6.777    0.305    0.432   77.267
  447.250    6.777    0.286    0.438   77.900
  447.500    6.778    0.273    0.440   80.991
  447.750    6.860    0.268    0.435   82.847
  448.000    7.024    0.282    0.427   84.710
  448.250    7.107    0.283    0.422   85.952
  448.500    7.270    0.277    0.418   86.583
  448.750    7.352    0.256    0.416   85.371
  449.000    7.516    0.243    0.421   84.768
  449.250    7.680    0.234    0.426   87.243
  449.500    7.681    0.229    0.424   90.946
  449.750    7.681    0.244    0.419   94.652
  450.000    7.601    0.256    0.412   97.124
  450.250    7.440    0.269    0.407   98.370
