~VERSION INFORMATION
 VERS.                 2.0:   CWLS LOG ASCII STANDARD -VERSION 2.0
 WRAP.                  NO:   ONE LINE PER DEPTH STEP
~WELL INFORMATION BLOCK
#MNEM.UNIT           DATA                    DESCRIPTION OF MNEMONIC
#---------    -------------------            -------------------------------
# Generated from Intellog Unique Number	CW_70_72/WELL/1039
NULL.         -999.25                        : NULL_VALUE
WELL.         MCMORGAN DOME SMITH 10-18      : Well_name    - WELL              
LOC .         10-18-071-24W4                 : Location     - LOCATION          
UWI .         00/10-18-071-24W4/0            : Uwi          - UNIQUE WELL ID    
ENTR.         JAYE                           : Entered      - ENTERED BY        
SRVC.         SCHLUMBERGER                   : Scn          - SERVICE COMPANY   
DATE.         16 MAR 72                      : Date         - LOG DATE          
STRT.M        434.645                        : top_depth    - START DEPTH       
STOP.M        646.145                        : bot_depth    - STOP DEPTH        
STEP.M        0.25                           : increment    - STEP LENGTH       
~CURVE INFORMATION BLOCK
#MNEM UNIT       ERCB CURVE CODE    CURVE DESCRIPTION
#-----------   ------------------   ----------------------------------
DEPT.M        00 001 00 00         : DEPTH        - DEPTH                       
DPHI.V/V      00 890 00 00         : PHID         - DENSITY POROSITY (SANDSTONE)
NPHI.V/V      00 330 00 00         : PHIN         - NEUTRON POROSITY (SANDSTONE)
GR  .API      00 310 00 00         : GR           - GAMMA RAY                   
CALI.MM       00 280 01 00         : CAL          - CALIPER                     
ILD .OHMM     00 120 00 00         : RESD         - DEEP RESISTIVITY (DIL)      
~PARAMETER INFORMATION       
#MNEM.UNIT           DATA             DESCRIPTION OF MNEMONIC
#---------         -----------     ------------------------------
GL  .M        638.861              : gl           - GROUND LEVEL ELEVATION      
EREF.M        642.518              : kb           - ELEVATION OF DEPTH REFERENCE
DATM.M        638.861              : datum        - DATUM ELEVATION             
TDD .M        612.648              : tdd          - TOTAL DEPTH DRILLER         
RUN .         ONE                  : Run          - RUN NUMBER                  
ENG .         HAYWOOD              : Engineer     - RECORDING ENGINEER          
WIT .         GRAD                 : Witness      - WITNESSED BY                
BASE.         EDM                  : Branch       - HOME BASE OF LOGGING UNIT   
MUD .         FGM                  : Mud_type     - MUD TYPE                    
MATR.         SANDSTONE            : Logunit      - NEUTRON MATRIX              
TMAX.C        28.3333              : BHT          - MAXIMUM RECORDED TEMPERATURE
BHTD.M        612.648              : BHTDEP       - MAXIMUM RECORDED TEMPERATURE
RMT .C        20                   : MDTP         - TEMPERATURE OF MUD          
MUDD.KG/M     1104                 : MWT          - MUD DENSITY                 
NEUT.         1                    : NEUTRON      - NEUTRON TYPE                
RESI.         0                    : RESIST       - RESISTIVITY TYPE            
RM  .OHMM     2.62                 : RM           - RESISTIVITY OF MUD          
RMC .OHMM     0                    : RMC          - RESISTIVITY OF MUD CAKE     
RMF .OHMM     2.67                 : RMF          - RESISTIVITY OF MUD FILTRATE 
SUFT.C        0                    : SUFT         - SURFACE TEMPERATURE         
~A  DEPTH     PHID     PHIN       GR      CAL     RESD
# ...
  544.145    0.244    0.389   63.143  209.947    3.125
  544.395    0.262    0.422   64.900  209.927    3.159
  544.645    0.237    0.436   65.318  209.805    3.401
  544.895    0.220    0.384   62.072  209.475    4.243
  545.145    0.194    0.364   61.753  209.458    5.881
  545.395    0.168    0.321   62.110  209.439    7.461
  545.645    0.113    0.249   60.817  209.417    9.207
  545.895    0.063    0.227   57.694  209.400   12.164
  546.145    0.036    0.201   53.654  209.381   13.167
  546.395    0.057    0.215   49.493  209.153   12.664
  546.645    0.088    0.250   49.664  209.031   11.525
  546.895    0.115    0.287   51.911  209.219   10.015
  547.145    0.143    0.301   54.281  209.303    8.560
  547.395    0.149    0.304   57.197  209.284    7.169
  547.645    0.170    0.318   59.201  209.470    6.071
  547.895    0.197    0.337   62.058  209.658    5.364
  548.145    0.219    0.366   66.440  209.741    4.722
  548.395    0.226    0.357   69.175  209.932    4.173
  548.645    0.227    0.365   65.746  209.912    3.839
  548.895    0.243    0.378   66.222  209.891    3.707
  549.145    0.257    0.388   67.493  209.771    3.539
  549.395    0.253    0.422   69.680  209.440    3.360
  549.645    0.214    0.423   68.752  209.216    3.268
  549.895    0.203    0.419   68.008  209.094    3.214
  550.145    0.244    0.437   67.264  209.383    3.051
  550.395    0.269    0.448   66.338  209.361    2.824
  550.645    0.278    0.439   64.923  209.346    2.617
  550.895    0.291    0.445   63.508  209.217    2.449
  551.145    0.305    0.444   61.545  209.100    2.317
  551.395    0.302    0.432   58.664  209.389    2.253
  551.645    0.311    0.418   58.105  209.578    2.171
  551.895    0.290    0.424   59.129  209.763    2.088
  552.145    0.284    0.443   60.340  209.846    2.050
  552.395    0.301    0.432   62.526  209.832    2.038
  552.645    0.299    0.422   63.794  209.811    2.030
  552.895    0.290    0.415   62.869  209.791    2.056
  553.145    0.297    0.422   60.660  209.773    2.083
  553.395    0.295    0.421   58.879  209.752    2.177
  553.645    0.280    0.415   58.866  209.630    2.348
  553.895    0.253    0.398   59.406  209.508    2.518
  554.145    0.205    0.379   60.736  209.491    2.881
  554.395    0.173    0.293   61.824  209.470    3.388
  554.645    0.139    0.278   63.338  209.452    4.802
  554.895    0.128    0.273   65.097  209.533    6.880
  555.145    0.112    0.264   67.099  209.614    7.871
  555.395    0.118    0.269   70.200  209.600    7.627
  555.645    0.157    0.307   74.033  209.891    6.341
  555.895    0.190    0.418   78.782  209.975    5.490
  556.145    0.201    0.432   84.630  210.164    4.727
  556.395    0.214    0.442   90.111  210.246    4.063
  556.645    0.229    0.438   86.133  210.331    3.390
  556.895    0.245    0.434   84.717  210.000    3.114
  557.145    0.235    0.436   84.584  209.465    2.978
  557.395    0.237    0.430   85.061  209.342    3.028
  557.645    0.219    0.410   86.269  209.426    3.153
  557.895    0.202    0.417   87.479  209.616    3.338
  558.145    0.184    0.424   88.871  209.597    3.502
  558.395    0.177    0.413   89.409  209.472    3.653
  558.645    0.196    0.418   89.397  209.249    3.790
  558.895    0.201    0.430   88.472  209.229    3.817
  559.145    0.192    0.440   87.300  209.004    3.895
  559.395    0.205    0.433   87.228  208.775    4.048
  559.645    0.197    0.419   87.279  209.067    4.239
  559.895    0.185    0.406   87.511  209.354    4.238
  560.145    0.170    0.412   88.537  209.443    4.206
  560.395    0.171    0.416   91.334  209.425    4.152
  560.645    0.180    0.410   93.824  209.715    4.098
  560.895    0.199    0.433   95.520  209.696    4.113
  561.145    0.213    0.445   96.729  209.779    4.127
  561.395    0.200    0.444   97.574  209.761    4.081
  561.645    0.192    0.441   96.280  209.844    4.051
  561.895    0.192    0.441   93.827  209.409    4.042
  562.145    0.186    0.439   92.597  209.393    4.020
  562.395    0.178    0.443   91.975  209.580    4.041
  562.645    0.183    0.439   92.757  209.556    4.056
  562.895    0.175    0.418   93.905  209.539    4.040
  563.145    0.180    0.411   95.908  209.418    4.017
  563.395    0.190    0.418   98.153  209.088    3.936
  563.645    0.186    0.418   99.241  208.967    3.849
  563.895    0.180    0.405   95.203  208.947    3.799
  564.145    0.185    0.390   93.665  209.033    3.792
  564.395    0.194    0.391   91.396  208.806    3.770
  564.645    0.188    0.396   87.662  208.579    3.763
  564.895    0.190    0.418   88.626  208.046    3.762
  565.145    0.192    0.428   90.690  207.199    3.797
  565.395    0.199    0.416   92.448  206.767    3.853
  565.645    0.201    0.403   94.634  207.263    3.881
  565.895    0.198    0.405   96.454  208.173    3.909
  566.145    0.194    0.418   97.114  208.776    3.901
  566.395    0.185    0.429   93.930  209.688    3.879
  566.645    0.173    0.421   90.866  209.875    3.878
  566.895    0.165    0.416   87.499  209.753    3.914
  567.145    0.170    0.435   83.216  209.526    3.957
  567.395    0.171    0.425   79.971  209.092    4.090
  567.645    0.156    0.391   79.714  208.662    4.314
  567.895    0.154    0.412   80.374  208.436    4.627
  568.145    0.139    0.409   79.936  208.209    5.158
  568.395    0.111    0.366   78.460  209.638    5.646
  568.645    0.093    0.345   74.055  209.928    6.022
  568.895    0.085    0.357   76.423  209.494    6.259
  569.145    0.122    0.367   80.806  208.338    6.339
  569.395    0.175    0.361   85.127  207.699    5.975
  569.645    0.173    0.400   90.060  207.371    5.368
  569.895    0.169    0.432   95.235  207.248    4.613
  570.145    0.180    0.444   96.627  207.334    4.261
  570.395    0.193    0.439   95.213  207.520    4.121
  570.645    0.189    0.422   96.544  207.914    4.067
  570.895    0.194    0.408   93.116  208.514    4.052
  571.145    0.185    0.403   91.883  209.014    4.051
  571.395    0.171    0.405   92.665  209.097    4.058
  571.645    0.168    0.422   94.241  209.285    4.050
  571.895    0.171    0.410   96.671  209.368    4.072
  572.145    0.161    0.425   98.673  209.865    4.117
  572.395    0.172    0.429  100.554  210.363    4.208
  572.645    0.176    0.411   97.551  210.654    4.334
  572.895    0.154    0.393   93.208  210.426    4.504
  573.145    0.137    0.378   89.047  210.200    4.699
  573.395    0.135    0.370   90.987  210.079    4.830
  573.645    0.145    0.395   91.037  209.751    4.919
  573.895    0.157    0.388   90.111  209.317    4.964
  574.145    0.169    0.371   88.697  209.092    4.964
  574.395    0.154    0.364   87.037  209.280    5.009
  574.645    0.126    0.354   87.758  209.363    5.092
  574.895    0.130    0.361   89.883  209.240    5.091
  575.145    0.145    0.393   92.374  209.325    5.007
  575.395    0.168    0.420   95.962  209.203    4.906
  575.645    0.168    0.417   99.491  209.185    4.869
  575.895    0.163    0.410   97.344  209.163    4.788
  576.145    0.180    0.425   98.064  209.146    4.691
  576.395    0.189    0.439   98.907  209.437    4.579
  576.645    0.175    0.437   97.859  209.414    4.570
  576.895    0.173    0.420   96.078  209.295    4.586
  577.145    0.165    0.412   93.443  209.173    4.663
  577.395    0.140    0.407   90.624  209.360    4.766
  577.645    0.122    0.409   89.941  209.237    4.863
  577.895    0.129    0.416   91.638  209.012    4.944
  578.145    0.150    0.426   94.313  208.267    4.916
  578.395    0.172    0.435   96.925  208.767    4.720
  578.645    0.183    0.446   98.256  209.781    4.667
  578.895    0.189    0.453   97.207  210.690    4.658
  579.145    0.179    0.456   97.746  211.086    4.614
  579.395    0.170    0.458  100.358  211.273    4.563
  579.645    0.182    0.459  100.285  211.047    4.446
  579.895    0.171    0.457   98.565  210.511    4.308
  580.145    0.158    0.454   97.457  210.078    4.268
  580.395    0.153    0.446   96.712  210.058    4.267
