~VERSION INFORMATION
 VERS.                 2.0:   CWLS LOG ASCII STANDARD -VERSION 2.0
 WRAP.                  NO:   ONE LINE PER DEPTH STEP
~WELL INFORMATION BLOCK
#MNEM.UNIT           DATA                    DESCRIPTION OF MNEMONIC
#---------    -------------------            -------------------------------
# Generated from Intellog Unique Number	CW_79_81/WELL/2492
WELL.         HB GODIN                       : Well_name    - WELL
LOC .         00/15-19-081-01W5/0            : Location     - LOCATION
UWI .         00/15-19-081-01W5/0            : Uwi          - UNIQUE WELL ID
ENTR.         MAX                            : Entered      - ENTERED BY
SRVC.         SCHLUMBERGER                   : Scn          - SERVICE COMPANY
STRT.M        243.84                         : top_depth    - START DEPTH
STOP.M        450.84                         : bot_depth    - STOP DEPTH
STEP.M        0.25                           : increment    - STEP LENGTH
 NULL. -999.2500:NULL Value
~CURVE INFORMATION BLOCK
#MNEM UNIT       ERCB CURVE CODE    CURVE DESCRIPTION
#-----------   ------------------   ----------------------------------
DEPT.M        00 001 00 00         : DEPTH        - DEPTH
ILD .OHMM     00 120 00 00         : RESD         - DEEP RESISTIVITY (DIL)
NPHI.V/V      00 330 00 00         : PHIN         - NEUTRON POROSITY (SANDSTONE)
DPHI.V/V      00 890 00 00         : PHID         - DENSITY POROSITY (SANDSTONE)
GR  .API      00 310 00 00         : GR           - GAMMA RAY
CALI.MM       00 280 01 00         : CAL          - CALIPER
~PARAMETER INFORMATION
#MNEM.UNIT           DATA             DESCRIPTION OF MNEMONIC
#---------         -----------     ------------------------------
GL  .M        586.13               : gl           - GROUND LEVEL ELEVATION
EREF.M        590.093              : kb           - ELEVATION OF DEPTH REFERENCE
DATM.M        586.13               : datum        - DATUM ELEVATION
TDD .M        501.091              : tdd          - TOTAL DEPTH DRILLER
RUN .         ONE                  : Run          - RUN NUMBER
ENG .         BILL                 : Engineer     - RECORDING ENGINEER
WIT .         JIM                  : Witness      - WITNESSED BY
MUD .         GEL                  : Mud_type     - MUD TYPE
MATR.         SANDSTONE            : Logunit      - NEUTRON MATRIX
TMAX.C        23.3333              : BHT          - MAXIMUM RECORDED TEMPERATURE
BHTD.M        501.091              : BHTDEP       - MAXIMUM RECORDED TEMPERATURE
MATR.         1                    : LOGUNIT      - NEUTRON MATRIX
RMT .C        11.1111              : MDTP         - TEMPERATURE OF MUD
NEUT.         1                    : NEUTRON      - NEUTRON TYPE
RESI.         0                    : RESIST       - RESISTIVITY TYPE
RMC .OHMM     7.55                 : RMC          - RESISTIVITY OF MUD CAKE
RMF .OHMM     3.88                 : RMF          - RESISTIVITY OF MUD FILTRATE
SUFT.C        -12.2222             : SUFT         - SURFACE TEMPERATURE
~A  DEPTH     RESD     PHIN     PHID       GR      CAL
# ...
  426.340   12.715    0.436    0.147  104.218  220.487
  426.590   11.905    0.442    0.130  104.380  220.068
  426.840   11.390    0.435    0.105  102.697  219.703
  427.090   10.832    0.423    0.137  107.433  218.959
  427.340   10.305    0.429    0.155  108.291  218.219
  427.590    9.805    0.442    0.161  108.205  217.674
  427.840    9.365    0.450    0.156  108.823  217.424
  428.090    9.016    0.440    0.132  111.049  217.737
  428.340    8.893    0.435    0.108  113.775  219.038
  428.590    9.232    0.442    0.127  115.934  222.284
  428.840    9.379    0.429    0.137  115.962  223.438
  429.090    9.217    0.403    0.153  115.051  225.281
  429.340    8.817    0.394    0.162  114.319  240.865
  429.590    8.315    0.462    0.126  115.167  290.300
  429.840    7.957    0.516    0.122  116.916  274.162
  430.090    8.142    0.515    0.102  118.830  265.847
  430.340    8.512    0.466    0.109  119.863  245.577
  430.590    9.061    0.430    0.140  119.071  227.297
  430.840    9.744    0.425    0.172  115.806  217.788
  431.090   10.562    0.421    0.160  109.039  216.824
  431.340   11.327    0.420    0.154  105.636  217.714
  431.590   11.596    0.416    0.191  105.909  217.364
  431.840   12.248    0.413    0.187  107.234  217.021
  432.090   12.400    0.412    0.169  109.264  216.875
  432.340   11.931    0.411    0.156  110.531  216.924
  432.590   11.743    0.416    0.160  107.375  217.570
  432.840   12.494    0.435    0.179  102.008  220.536
  433.090   14.734    0.436    0.195   92.862  225.365
  433.340   17.670    0.346    0.224   84.953  223.624
  433.590   21.110    0.275    0.256   74.981  215.710
  433.840   24.244    0.260    0.282   65.069  206.404
  434.090   26.249    0.265    0.292   63.000  205.122
  434.340   30.417    0.272    0.305   64.261  206.417
  434.590   32.966    0.277    0.326   66.642  206.475
  434.840   33.337    0.281    0.329   69.379  206.227
  435.090   30.933    0.285    0.331   71.413  206.675
  435.340   27.413    0.290    0.336   72.154  208.322
  435.590   24.111    0.297    0.334   71.336  210.348
  435.840   21.099    0.303    0.317   70.633  206.263
  436.090   18.217    0.306    0.311   69.491  204.717
  436.340   15.380    0.311    0.309   69.050  204.071
  436.590   13.088    0.317    0.314   68.727  203.527
  436.840   11.424    0.325    0.322   68.346  203.180
  437.090   10.201    0.343    0.319   68.441  204.120
  437.340    9.547    0.364    0.304   69.951  204.595
  437.590    9.350    0.385    0.282   72.802  206.242
  437.840    9.259    0.384    0.228   80.600  207.287
  438.090    9.437    0.384    0.176   88.516  207.539
  438.340    9.923    0.392    0.155   94.665  206.999
  438.590   10.783    0.389    0.200  101.487  206.033
  438.840   11.745    0.378    0.243  108.383  206.919
  439.090   12.017    0.392    0.249  117.829  210.164
  439.340   11.704    0.413    0.247  122.158  214.008
  439.590   10.921    0.434    0.248  112.894  216.051
  439.840    9.790    0.454    0.263   95.511  216.594
  440.090    8.281    0.481    0.328   88.692  221.638
  440.340    7.576    0.535    0.414   85.048  236.635
  440.590    6.442    0.561    0.487   83.429  277.735
  440.840    5.714    0.576    0.516   83.403  334.381
  441.090    5.389    0.574    0.516   85.320  357.154
  441.340    5.347    0.542    0.499   88.942  341.665
  441.590    5.425    0.455    0.478   93.255  321.021
  441.840    5.600    0.464    0.520   92.307  283.299
  442.090    5.814    0.520    0.476   94.217  240.717
  442.340    5.941    0.492    0.278   97.718  227.417
  442.590    6.186    0.459    0.153  103.047  226.673
  442.840    6.590    0.452    0.157  106.201  230.013
  443.090    7.037    0.455    0.183   97.715  237.498
  443.340    7.547    0.450    0.191   91.620  238.799
  443.590    8.063    0.441    0.221   87.413  229.693
  443.840    8.211    0.436    0.227   84.796  228.348
  444.090    7.949    0.449    0.245   83.770  230.988
  444.340    7.398    0.485    0.287   83.568  238.412
  444.590    6.685    0.543    0.354   82.224  252.690
  444.840    6.396    0.582    0.440   80.050  236.148
  445.090    6.264    0.508    0.522   81.961  262.098
  445.340    6.306    0.470    0.513   84.229  283.278
  445.590    6.452    0.459    0.476   85.555  282.936
  445.840    6.591    0.478    0.455   86.055  264.450
  446.090    6.533    0.547    0.465   87.223  249.948
  446.340    6.441    0.550    0.461   87.011  242.948
  446.590    6.402    0.504    0.413   86.098  233.837
  446.840    6.538    0.457    0.331   85.542  224.426
  447.090    6.859    0.427    0.265   86.046  213.919
  447.340    7.383    0.418    0.237   87.665  204.304
  447.590    8.256    0.432    0.240   90.455  200.715
  447.840    8.921    0.431    0.204   93.677  202.431
  448.090    9.329    0.436    0.180   96.061  208.067
  448.340    9.189    0.460    0.192   98.095  209.516
  448.590    8.805    0.490    0.219   98.952  208.178
  448.840    8.409    0.520    0.246   97.747  206.939
  449.090    8.058    0.542    0.259   88.448  209.609
  449.340    7.770    0.503    0.239   62.984  206.754
  449.590    8.007    0.363    0.219   35.246  202.424
  449.840    8.744    0.312    0.162   23.396  201.384
  450.090   11.602    0.298    0.098   20.368  202.635
  450.340   19.986    0.293    0.056   21.102  204.581
  450.590   29.707    0.291    0.065   22.999  204.795
  450.840   46.970    0.291    0.075   25.238  203.605
