~VERSION INFORMATION
 VERS.                 2.0:   CWLS LOG ASCII STANDARD -VERSION 2.0
 WRAP.                  NO:   ONE LINE PER DEPTH STEP
~WELL INFORMATION BLOCK
#MNEM.UNIT           DATA                    DESCRIPTION OF MNEMONIC
#---------    -------------------            -------------------------------
# Generated from Intellog Unique Number	CC_80_83/WELL/2346
NULL.         -999.25                        : NULL_VALUE
WELL.         PEX PCEJ ALGAR                 : Well_name    - WELL              
LOC .         10-11-080-09W4                 : Location     - LOCATION          
UWI .         00/10-11-080-09W400            : Uwi          - UNIQUE WELL ID    
ENTR.         DW                             : Entered      - ENTERED BY        
SRVC.         SCHLUMBERGER                   : Scn          - SERVICE COMPANY   
DATE.         15 JAN 81                      : Date         - LOG DATE
STRT.M        265                            : top_depth    - START DEPTH       
STOP.M        480.091                        : bot_depth    - STOP DEPTH        
STEP.M        0.3                            : increment    - STEP LENGTH       
~CURVE INFORMATION BLOCK
#MNEM UNIT       ERCB CURVE CODE    CURVE DESCRIPTION
#-----------   ------------------   ----------------------------------
DEPT.M        00 001 00 00         : DEPTH        - DEPTH                       
DPHI.V/V      00 890 00 00         : PHID         - DENSITY POROSITY (LIMESTONE)
NPHI.V/V      00 330 00 00         : PHIN         - NEUTRON POROSITY (LIMESTONE)
GR  .API      00 310 00 00         : GR           - GAMMA RAY                   
ILD .OHMM     00 120 00 00         : RESD         - DEEP RESISTIVITY (DIL)      
~PARAMETER INFORMATION       
#MNEM.UNIT           DATA             DESCRIPTION OF MNEMONIC
#---------         -----------     ------------------------------
GL  .M        712                  : gl           - GROUND LEVEL ELEVATION      
EREF.M        715.4                : kb           - ELEVATION OF DEPTH REFERENCE
DATM.M        715.4                : datum        - DATUM ELEVATION             
TDD .M        489                  : tdd          - TOTAL DEPTH DRILLER         
RUN .         ONE                  : Run          - RUN NUMBER                  
ENG .         BILL                 : Engineer     - RECORDING ENGINEER          
WIT .         JIM                  : Witness      - WITNESSED BY                
MUD .         GEL                  : Mud_type     - MUD TYPE                    
MATR.         LIMESTONE            : Logunit      - NEUTRON MATRIX              
TMAX.C        27                   : BHT          - MAXIMUM RECORDED TEMPERATURE
BHTD.M        490                  : BHTDEP       - MAXIMUM RECORDED TEMPERATURE
MATR.         1                    : LOGUNIT      - NEUTRON MATRIX              
RMT .C        25                   : MDTP         - TEMPERATURE OF MUD          
NEUT.         1                    : NEUTRON      - NEUTRON TYPE                
RESI.         0                    : RESIST       - RESISTIVITY TYPE            
RMC .OHMM     0.25                 : RMC          - RESISTIVITY OF MUD CAKE     
RMF .OHMM     0.25                 : RMF          - RESISTIVITY OF MUD FILTRATE 
SUFT.C        15                   : SUFT         - SURFACE TEMPERATURE         
~A  DEPTH     PHID     PHIN       GR     RESD
  265.000    0.326    0.508   96.259    4.087
  265.300    0.321    0.468   98.729    3.891
  265.600    0.313    0.473   97.464    3.861
  265.900    0.293    0.500   94.391    3.941
  266.200    0.289    0.518   91.203    4.007
  266.500    0.301    0.507   99.389    4.175
  266.800    0.304    0.520   93.582    4.190
  267.100    0.273    0.506   96.487    4.228
  267.400    0.293    0.498   90.309    4.188
  267.700    0.303    0.506   91.594    4.148
  268.000    0.289    0.505   86.349    4.100
  268.300    0.284    0.475  100.131    4.061
  268.600    0.295    0.497  104.278    4.160
  268.900    0.281    0.497   86.845    4.383
  269.200    0.285    0.497   89.185    4.449
  269.500    0.304    0.500   91.218    4.550
  269.800    0.312    0.510   85.912    4.644
  270.100    0.314    0.485   87.133    4.884
  270.400    0.311    0.474   88.669    5.060
  270.700    0.298    0.469   91.882    5.302
  271.000    0.250    0.468   94.470    5.361
  271.300    0.245    0.464  100.662    5.712
  271.600    0.250    0.484  106.926    5.974
  271.900    0.265    0.468  106.285    6.120
  272.200    0.271    0.461  105.016    6.177
  272.500    0.282    0.493   97.103    6.095
  272.800    0.293    0.495  100.936    6.036
  273.100    0.288    0.472  101.475    5.946
  273.400    0.283    0.496  100.584    5.747
  273.700    0.280    0.475   91.111    5.410
  274.000    0.276    0.499   96.747    5.209
  274.300    0.271    0.506   89.451    5.179
  274.600    0.258    0.480   94.590    5.276
  274.900    0.250    0.474   93.388    5.507
  275.200    0.258    0.472   90.757    5.869
  275.500    0.254    0.498   97.262    5.912
  275.800    0.251    0.491  100.975    5.867
  276.100    0.261    0.444   95.790    5.843
  276.400    0.265    0.447   84.826    6.203
  276.700    0.254    0.389   74.047    6.685
  277.000    0.258    0.440   85.655    6.760
  277.299    0.271    0.463   98.818    6.645
  277.599    0.269    0.471   97.611    6.435
  277.899    0.277    0.433   90.192    6.337
  278.199    0.255    0.429   90.235    6.183
  278.499    0.101    0.460   93.445    6.159
  278.799    0.000    0.471   91.247    6.009
  279.099    0.037    0.467   82.958    5.657
  279.399    0.174    0.455   97.922    5.227
  279.699    0.263    0.456  105.924    5.110
  279.999    0.292    0.440   78.976    5.215
  280.299    0.294    0.435   67.575    5.880
  280.599    0.293    0.411   73.709    6.703
  280.899    0.285    0.427   83.577    7.064
  281.199    0.283    0.441   89.463    7.627
  281.499    0.277    0.440   85.087    8.235
  281.799    0.270    0.427   78.911    8.992
  282.099    0.270    0.429   85.297    9.248
  282.399    0.260    0.422   96.653    9.708
  282.699    0.204    0.423  109.816    9.383
  282.999    0.220    0.444  119.248    8.460
  283.299    0.246    0.417  108.280    8.286
  283.599    0.251    0.404  100.240    9.134
  283.899    0.254    0.395   97.296   11.163
  284.199    0.259    0.421   96.341   12.847
  284.499    0.271    0.402  106.022   13.461
  284.799    0.286    0.424  109.172   13.157
  285.099    0.293    0.409  113.189   12.911
  285.399    0.291    0.396  120.386   11.862
  285.699    0.291    0.401  117.688   10.655
  285.999    0.316    0.406  108.589   10.357
  286.299    0.351    0.407   86.743   11.766
  286.599    0.353    0.383   52.768   16.616
  286.899    0.342    0.391   54.422   25.677
  287.199    0.333    0.372   59.937   30.338
  287.499    0.329    0.388   62.649   27.509
  287.799    0.330    0.372   65.616   25.324
  288.099    0.331    0.395   61.989   23.887
  288.399    0.332    0.395   69.118   23.703
  288.699    0.318    0.373   75.380   24.011
  288.999    0.302    0.372   74.609   23.691
  289.299    0.307    0.382   75.959   23.374
  289.599    0.323    0.399   70.653   23.460
  289.899    0.317    0.393   71.685   25.000
  290.199    0.322    0.401   72.471   27.658
  290.499    0.333    0.393   69.657   27.758
  290.799    0.333    0.419   63.231   24.703
  291.099    0.334    0.415   67.312   22.485
  291.399    0.343    0.414   67.105   21.610
  291.699    0.340    0.427   68.764   22.097
  291.999    0.341    0.419   70.546   23.459
  292.299    0.337    0.412   71.082   25.617
  292.599    0.328    0.424   62.731   28.077
  292.899    0.332    0.395   62.398   28.714
  293.199    0.327    0.411   69.403   30.598
  293.499    0.324    0.435   74.482   30.939
  293.799    0.323    0.420   74.089   30.357
  294.099    0.323    0.410   72.140   29.067
  294.399    0.318    0.393   77.897   28.095
  294.699    0.291    0.409   79.125   27.258
  294.999    0.315    0.428   79.720   26.795
  295.299    0.324    0.416   85.113   26.140
  295.599    0.324    0.402   83.163   25.893
  295.899    0.322    0.413   95.768   24.560
  296.199    0.313    0.421  100.034   23.035
  296.499    0.302    0.421  102.938   22.732
  296.799    0.291    0.411  103.600   21.399
  297.099    0.278    0.403  102.274   20.337
  297.399    0.274    0.397   98.213   19.881
  297.699    0.266    0.382   94.396   19.037
  297.999    0.258    0.394  111.475   17.822
  298.299    0.267    0.380  105.111   16.842
  298.599    0.291    0.365   93.833   16.155
  298.899    0.285    0.359   83.866   16.062
  299.199    0.280    0.367   88.447   15.998
  299.499    0.296    0.382   89.669   16.026
  299.799    0.318    0.387   83.864   16.204
  300.099    0.326    0.424   91.301   17.040
  300.399    0.328    0.402   92.032   17.459
  300.699    0.332    0.398   68.878   18.501
  300.999    0.332    0.425   65.621   21.574
  301.299    0.306    0.420   66.099   25.538
  301.599    0.299    0.425   58.986   28.899
  301.898    0.315    0.397   51.376   32.461
  302.198    0.338    0.398   48.809   33.631
  302.498    0.343    0.392   56.624   33.434
  302.798    0.343    0.391   68.792   32.438
  303.098    0.335    0.391   54.900   31.002
  303.398    0.331    0.386   49.780   29.463
  303.698    0.328    0.376   60.458   29.567
  303.998    0.331    0.398   66.468   30.462
  304.298    0.338    0.392   72.728   31.738
  304.598    0.349    0.395   70.529   32.513
  304.898    0.343    0.406   69.576   32.084
  305.198    0.343    0.401   75.400   30.321
  305.498    0.346    0.402   83.464   28.760
  305.798    0.340    0.395   90.592   28.753
  306.098    0.341    0.412   93.433   27.892
  306.398    0.343    0.423   90.985   27.218
  306.698    0.320    0.391   81.887   24.176
  306.998    0.294    0.386   75.522   21.316
  307.298    0.276    0.393   77.181   15.960
  307.598    0.265    0.402   89.907   13.809
  307.898    0.254    0.378   95.481   13.323
  308.198    0.240    0.387   89.552   13.804
  308.498    0.243    0.412   80.703   14.328
  308.798    0.275    0.406   81.676   13.617
  309.098    0.289    0.398  100.124    9.530
  309.398    0.292    0.431  111.360    6.796
  309.698    0.289    0.447  126.450    5.495
  309.998    0.259    0.446  119.215    5.392
  310.298    0.249    0.436  120.124    5.714
  310.598    0.277    0.424  117.059    6.997
  310.898    0.285    0.405  109.389    9.428
  311.198    0.296    0.383  112.849   12.704
  311.498    0.312    0.391  103.374   16.768
  311.798    0.318    0.397  107.024   21.039
  312.098    0.312    0.385  120.496   21.312
  312.398    0.297    0.396  116.559   16.725
  312.698    0.281    0.419  102.481   12.337
  312.998    0.275    0.432   96.803   10.856
  313.298    0.283    0.416   98.894    9.771
  313.598    0.303    0.412  102.981   10.257
  313.898    0.298    0.381   94.499   12.372
  314.198    0.309    0.375   93.611   15.406
  314.498    0.315    0.401   82.704   18.340
  314.798    0.299    0.406   69.813   19.074
  315.098    0.290    0.412   65.626   18.195
  315.398    0.277    0.404   71.883   16.101
  315.698    0.227    0.383   71.046   15.389
  315.998    0.204    0.373   74.145   14.626
  316.298    0.232    0.352   75.178   16.303
  316.598    0.313    0.372   77.208   18.834
  316.898    0.324    0.399   68.733   20.957
