~VERSION INFORMATION
 VERS.                 2.0:   CWLS LOG ASCII STANDARD -VERSION 2.0
 WRAP.                  NO:   ONE LINE PER DEPTH STEP
~WELL INFORMATION BLOCK
#MNEM.UNIT           DATA                    DESCRIPTION OF MNEMONIC
#---------    -------------------            -------------------------------
# Generated from Intellog Unique Number	CS_77_79/WELL/1015
WELL.         H. B. LEISMER                  : Well_name    - WELL
LOC .         00/12-30-078-11W4/0            : Location     - LOCATION
UWI .         00/12-30-078-11W4/0            : Uwi          - UNIQUE WELL ID
ENTR.         JHS                            : Entered      - ENTERED BY
SRVC.         SCHLUMBERGER                   : Scn          - SERVICE COMPANY
STRT.M        245                            : top_depth    - START DEPTH
STOP.M        485                            : bot_depth    - STOP DEPTH
STEP.M        0.25                           : increment    - STEP LENGTH
 NULL. -999.2500:NULL Value
~CURVE INFORMATION BLOCK
#MNEM UNIT       ERCB CURVE CODE    CURVE DESCRIPTION
#-----------   ------------------   ----------------------------------
DEPT.M        00 001 00 00         : DEPTH        - DEPTH
DPHI.V/V      00 890 00 00         : PHID         - DENSITY POROSITY (LIMESTONE)
NPHI.V/V      00 330 00 00         : PHIN         - NEUTRON POROSITY (LIMESTONE)
GR  .API      00 310 00 00         : GR           - GAMMA RAY
ILD .OHMM     00 120 00 00         : RESD         - DEEP RESISTIVITY (DIL)
RHOB.KG/M3    00 350 00 00         : DENS         - BULK DENSITY
~PARAMETER INFORMATION
#MNEM.UNIT           DATA             DESCRIPTION OF MNEMONIC
#---------         -----------     ------------------------------
GL  .M        683                  : gl           - GROUND LEVEL ELEVATION
EREF.M        687.9                : kb           - ELEVATION OF DEPTH REFERENCE
DATM.M        687.9                : datum        - DATUM ELEVATION
TDD .M        488                  : tdd          - TOTAL DEPTH DRILLER
RUN .         ONE                  : Run          - RUN NUMBER
ENG .         BILL                 : Engineer     - RECORDING ENGINEER
WIT .         JIM                  : Witness      - WITNESSED BY
MUD .         GEL                  : Mud_type     - MUD TYPE
MATR.         LIMESTONE            : Logunit      - NEUTRON MATRIX
TMAX.C        27.8                 : BHT          - MAXIMUM RECORDED TEMPERATURE
BHTD.M        488                  : BHTDEP       - MAXIMUM RECORDED TEMPERATURE
MATR.         1                    : LOGUNIT      - NEUTRON MATRIX
RMT .C        25                   : MDTP         - TEMPERATURE OF MUD
NEUT.         1                    : NEUTRON      - NEUTRON TYPE
RESI.         0                    : RESIST       - RESISTIVITY TYPE
RMC .OHMM     0.25                 : RMC          - RESISTIVITY OF MUD CAKE
RMF .OHMM     0.25                 : RMF          - RESISTIVITY OF MUD FILTRATE
SUFT.C        15                   : SUFT         - SURFACE TEMPERATURE
~A  DEPTH     PHID     PHIN       GR     RESD     DENS
  245.000    0.274    0.482   88.894    3.996    0.000
  245.250    0.271    0.485   93.846    3.996    0.000
  245.500    0.273    0.457   92.011    3.920    0.000
  245.750    0.280    0.410   91.407    3.920    0.000
  246.000    0.272    0.393   92.042    3.920    0.000
  246.250    0.265    0.415   91.438    3.920    0.000
  246.500    0.273    0.435   92.688    3.920    0.000
  246.750    0.277    0.442   90.850    3.919    0.000
  247.000    0.266    0.420   90.248    3.919    0.000
  247.250    0.274    0.420   95.205    3.919    0.000
  247.500    0.270    0.387   95.832    3.919    0.000
  247.750    0.256    0.361   91.526    3.845    0.000
  248.000    0.258    0.385   89.072    3.844    0.000
  248.250    0.265    0.404   85.385    3.844    0.000
  248.500    0.272    0.356   88.484    3.844    0.000
  248.750    0.274    0.317   89.734    3.771    0.000
  249.000    0.273    0.272   84.193    3.771    0.000
  249.250    0.271    0.251   84.829    3.700    0.000
  249.500    0.282    0.263   87.310    3.630    0.000
  249.750    0.293    0.278   89.794    3.630    0.000
  250.000    0.288    0.268   86.106    3.630    0.000
  250.250    0.282    0.262   84.269    3.561    0.000
  250.500    0.283    0.289   87.371    3.561    0.000
  250.750    0.289    0.322   88.620    3.561    0.000
  251.000    0.291    0.337   89.868    3.561    0.000
  251.250    0.286    0.355   91.120    3.561    0.000
  251.500    0.289    0.375   88.048    3.493    0.000
  251.750    0.279    0.405   86.209    3.493    0.000
  252.000    0.289    0.449   90.549    3.427    0.000
  252.250    0.299    0.504   89.944    3.363    0.000
  252.500    0.300    0.598   88.109    3.299    0.000
  252.750    0.295    0.598   90.593    3.176    0.000
  253.000    0.289    0.572   91.224    3.116    0.000
  253.250    0.285    0.574   90.621    3.058    0.000
  253.500    0.295    0.555   91.254    3.057    0.000
  253.750    0.297    0.573   91.270    3.000    0.000
  254.000    0.305    0.595   90.052    3.000    0.000
  254.250    0.296    0.590   88.828    3.057    0.000
  254.500    0.302    0.596   86.377    3.115    0.000
  254.750    0.290    0.572   84.535    3.175    0.000
  255.000    0.274    0.558   82.084    3.235    0.000
  255.250    0.254    0.578   79.628    3.235    0.000
  255.500    0.244    0.564   82.112    3.174    0.000
  255.750    0.290    0.578   84.596    3.174    0.000
  256.000    0.287    0.589   84.613    3.114    0.000
  256.250    0.278    0.575   85.860    3.114    0.000
  256.500    0.266    0.568   87.110    3.114    0.000
  256.750    0.256    0.554   87.125    3.296    0.000
  257.000    0.266    0.560   85.291    3.423    0.000
  257.250    0.260    0.547   84.686    3.555    0.000
  257.500    0.252    0.542   87.788    3.623    0.000
  257.750    0.254    0.530   88.420    3.693    0.000
  258.000    0.257    0.541   87.199    3.692    0.000
  258.250    0.256    0.530   85.980    3.763    0.000
  258.500    0.272    0.525   84.145    3.835    0.000
  258.750    0.262    0.495   84.158    3.983    0.000
  259.000    0.255    0.463   87.258    4.137    0.000
  259.250    0.267    0.432   91.597    4.296    0.000
  259.500    0.251    0.414   90.374    4.378    0.000
  259.750    0.251    0.394   87.925    4.462    0.000
  260.000    0.239    0.402   89.172    4.462    0.000
  260.250    0.230    0.433   87.953    4.461    0.000
  260.500    0.234    0.447   86.734    4.377    0.000
  260.750    0.247    0.482   89.216    4.295    0.000
  261.000    0.252    0.508   91.083    4.135    0.000
  261.250    0.248    0.539   90.479    3.905    0.000
  261.500    0.256    0.559   88.646    3.760    0.000
  261.750    0.243    0.576   86.807    3.832    0.000
  262.000    0.257    0.573   84.352    3.905    0.000
  262.250    0.259    0.543   83.131    4.133    0.000
  262.500    0.252    0.520   85.618    4.459    0.000
  262.750    0.260    0.520   85.014    4.810    0.000
  263.000    0.248    0.512   83.177    4.902    0.000
  263.250    0.253    0.523   80.107    5.092    0.000
  263.500    0.232    0.538   78.887    5.091    0.000
  263.750    0.205    0.531   73.964    5.288    0.000
  264.000    0.184    0.512   69.037    5.492    0.000
  264.250    0.213    0.492   61.028    5.925    0.000
  264.500    0.258    0.457   55.488    7.162    0.000
  264.750    0.287    0.497   48.711   10.078    0.000
  265.000    0.327    0.429   40.701   15.300    0.000
  265.250    0.340    0.404   33.925   21.528    0.000
  265.500    0.337    0.417   36.410   26.524    0.000
  265.750    0.333    0.407   38.897   30.870    0.000
  266.000    0.325    0.393   38.908   32.677    0.000
  266.250    0.328    0.383   38.925   32.675    0.000
  266.500    0.340    0.391   40.790   33.299    0.000
  266.750    0.331    0.396   43.276   33.297    0.000
  267.000    0.341    0.409   43.908   32.669    0.000
  267.250    0.330    0.419   42.686   32.667    0.000
  267.500    0.319    0.421   41.467   32.051    0.000
  267.750    0.320    0.425   43.953   32.049    0.000
  268.000    0.341    0.426   46.436   32.047    0.000
  268.250    0.352    0.419   48.302   31.443    0.000
  268.500    0.345    0.425   50.787   30.850    0.000
  268.750    0.335    0.435   48.950   29.699    0.000
  269.000    0.329    0.426   44.027   26.501    0.000
  269.250    0.341    0.424   43.428   24.562    0.000
  269.500    0.363    0.433   44.057   21.918    0.000
  269.750    0.356    0.447   44.071   20.703    0.000
  270.000    0.355    0.454   42.233   21.099    0.000
  270.250    0.346    0.505   39.163   22.761    0.000
  270.500    0.352    0.463   35.473   23.196    0.000
  270.750    0.319    0.407   31.166   25.503    0.000
  271.000    0.330    0.393   35.507   30.251    0.000
  271.250    0.328    0.405   34.904   37.271    0.000
  271.500    0.328    0.409   36.767   38.711    0.000
  271.750    0.324    0.400   36.165   33.893    0.000
  272.000    0.338    0.390   40.502   29.676    0.000
  272.250    0.335    0.380   47.307   25.015    0.000
  272.500    0.320    0.386   51.028   21.902    0.000
  272.750    0.311    0.412   51.041   20.299    0.000
  273.000    0.318    0.419   52.290   19.175    0.000
  273.250    0.280    0.432   55.393   16.163    0.000
  273.500    0.322    0.416   54.172   14.152    0.000
  273.750    0.306    0.401   59.125   12.870    0.000
  274.000    0.275    0.433   69.635   11.928    0.000
  274.250    0.251    0.475   72.118   11.704    0.000
  274.500    0.273    0.490   71.517   11.927    0.000
  274.750    0.323    0.470   68.446   12.625    0.000
  275.000    0.311    0.440   68.459   13.620    0.000
  275.250    0.292    0.428   71.563   13.880    0.000
  275.500    0.301    0.434   72.811   13.111    0.000
  275.750    0.264    0.414   78.997   11.923    0.000
  276.000    0.232    0.427   83.951   11.051    0.000
  276.250    0.228    0.446   86.434   11.050    0.000
  276.500    0.250    0.434   87.069   11.697    0.000
  276.750    0.268    0.449   82.761   13.614    0.000
  277.000    0.304    0.442   75.985   17.422    0.000
  277.250    0.317    0.425   72.913   19.896    0.000
  277.500    0.322    0.457   80.954   23.600    0.000
  277.750    0.349    0.441   83.439   27.468    0.000
  278.000    0.355    0.436   84.688   27.992    0.000
  278.250    0.356    0.466   83.468   27.990    0.000
  278.500    0.355    0.460   77.926   26.946    0.000
  278.750    0.349    0.453   79.180   25.453    0.000
  279.000    0.340    0.463   79.191   24.044    0.000
  279.250    0.342    0.453   77.972   22.711    0.000
  279.500    0.341    0.446   77.987   21.864    0.000
  279.750    0.331    0.451   77.383   21.452    0.000
  280.000    0.330    0.443   81.104   21.047    0.000
  280.250    0.321    0.432   77.416   19.508    0.000
  280.500    0.321    0.430   74.959   19.140    0.000
  280.750    0.305    0.438   79.914   19.505    0.000
  281.000    0.286    0.426   82.400   19.878    0.000
  281.250    0.273    0.412   82.412   20.645    0.000
