~VERSION INFORMATION
 VERS.                 2.0:   CWLS LOG ASCII STANDARD -VERSION 2.0
 WRAP.                  NO:   ONE LINE PER DEPTH STEP
~WELL INFORMATION BLOCK
#MNEM.UNIT           DATA                    DESCRIPTION OF MNEMONIC
#---------    -------------------            -------------------------------
# Generated from Intellog Unique Number	CC_80_83/WELL/2397
NULL.         -999.25                        : NULL_VALUE
WELL.         PCI PCEJ HANGINGSTONE          : Well_name    - WELL
LOC .         11-11-083-08W4                 : Location     - LOCATION          
UWI .         00/11-11-083-08W4/0            : Uwi          - UNIQUE WELL ID    
ENTR.         DW                             : Entered      - ENTERED BY        
SRVC.         SCHLUMBERGER                   : Scn          - SERVICE COMPANY   
DATE.         17 FEB 86                      : Date         - LOG DATE
STRT.M        260                            : top_depth    - START DEPTH       
STOP.M        514.99                         : bot_depth    - STOP DEPTH        
STEP.M        0.3                            : increment    - STEP LENGTH       
~CURVE INFORMATION BLOCK
#MNEM UNIT       ERCB CURVE CODE    CURVE DESCRIPTION
#-----------   ------------------   ----------------------------------
DEPT.M        00 001 00 00         : DEPTH        - DEPTH                       
ILD .OHMM     00 120 00 00         : RESD         - DEEP RESISTIVITY (DIL)      
GR  .API      00 310 00 00         : GR           - GAMMA RAY                   
NPHI.V/V      00 330 00 00         : PHIN         - NEUTRON POROSITY (LIMESTONE)
DPHI.V/V      00 890 00 00         : PHID         - DENSITY POROSITY (LIMESTONE)
~PARAMETER INFORMATION       
#MNEM.UNIT           DATA             DESCRIPTION OF MNEMONIC
#---------         -----------     ------------------------------
GL  .M        731.6                : gl           - GROUND LEVEL ELEVATION      
EREF.M        734.7                : kb           - ELEVATION OF DEPTH REFERENCE
DATM.M        734.7                : datum        - DATUM ELEVATION             
TDD .M        516                  : tdd          - TOTAL DEPTH DRILLER         
RUN .         ONE                  : Run          - RUN NUMBER                  
ENG .         BILL                 : Engineer     - RECORDING ENGINEER          
WIT .         JIM                  : Witness      - WITNESSED BY                
MUD .         GEL                  : Mud_type     - MUD TYPE                    
MATR.         LIMESTONE            : Logunit      - NEUTRON MATRIX              
TMAX.C        18                   : BHT          - MAXIMUM RECORDED TEMPERATURE
BHTD.M        516                  : BHTDEP       - MAXIMUM RECORDED TEMPERATURE
MATR.         1                    : LOGUNIT      - NEUTRON MATRIX              
RMT .C        25                   : MDTP         - TEMPERATURE OF MUD          
NEUT.         1                    : NEUTRON      - NEUTRON TYPE                
RESI.         0                    : RESIST       - RESISTIVITY TYPE            
RMC .OHMM     0.25                 : RMC          - RESISTIVITY OF MUD CAKE     
RMF .OHMM     0.25                 : RMF          - RESISTIVITY OF MUD FILTRATE 
SUFT.C        15                   : SUFT         - SURFACE TEMPERATURE         
~A  DEPTH     RESD       GR     PHIN     PHID
# ...
  416.594    9.068  117.118    0.431    0.239
  416.894    7.652  118.346    0.477    0.244
  417.194    6.336  115.901    0.430    0.249
  417.494    6.101  117.129    0.433    0.235
  417.794    5.987  118.358    0.449    0.230
  418.094    6.336  116.524    0.462    0.240
  418.394    7.369   92.645    0.442    0.259
  418.694   10.954   90.200    0.374    0.274
  418.994   13.230   96.939    0.389    0.284
  419.294   13.482  109.192    0.447    0.289
  419.594   11.593  106.746    0.451    0.270
  419.893    9.782  108.587    0.444    0.268
  420.193    8.902  113.489    0.444    0.274
  420.493    9.072  120.229    0.447    0.264
  420.793    9.245  122.682    0.447    0.254
  421.093    8.412  107.378    0.451    0.251
  421.393    7.098  106.156    0.522    0.260
  421.693    5.878  111.059    0.480    0.259
  421.993    5.660  111.676    0.453    0.240
  422.293    5.660  110.454    0.484    0.234
  422.593    6.221  106.171    0.481    0.243
  422.893    6.836  111.074    0.476    0.246
  423.193    7.373  116.589    0.473    0.251
  423.493    7.656   95.773    0.487    0.275
  423.793    8.905   96.389    0.482    0.281
  424.093    9.973   97.617    0.457    0.292
  424.393   10.163   93.335    0.439    0.301
  424.693   10.163   92.727    0.437    0.295
  424.993    9.974   95.179    0.437    0.288
  425.293    9.076  104.981    0.410    0.287
  425.593    6.710  113.557    0.437    0.298
  425.893    5.056  119.072    0.561    0.300
  426.193    3.882  116.627    0.571    0.285
  426.493    3.466  112.957    0.525    0.283
  426.793    3.810  109.287    0.482    0.287
  427.093    5.153  105.616    0.433    0.287
  427.393    6.711  101.946    0.450    0.276
  427.693    7.806   93.376    0.446    0.210
  427.993    8.578   86.645    0.376    0.112
  428.293    9.790   86.035    0.290    0.189
  428.593   10.361   89.714    0.392    0.282
  428.893   10.559   89.717    0.442    0.308
  429.193   10.168   87.273    0.445    0.312
  429.493    9.978   86.664    0.451    0.311
  429.793    9.609   89.117    0.438    0.311
  430.093   10.363   75.035    0.449    0.303
  430.393   11.605   70.140    0.446    0.091
  430.693   12.052   76.268    0.257    0.115
  430.993   12.516   93.418    0.406    0.250
  431.293   12.283  101.383    0.430    0.261
  431.593   11.177  107.510    0.440    0.255
  431.893    9.611  111.189    0.451    0.247
  432.193    8.745  106.293    0.458    0.241
  432.493    7.809  109.359    0.449    0.237
  432.793    6.843  113.037    0.459    0.240
  433.093    6.227  114.265    0.468    0.235
  433.393    6.227  113.044    0.452    0.234
  433.693    6.716  113.661    0.428    0.240
  433.993    7.664  114.889    0.408    0.246
  434.293    8.266  116.117    0.415    0.247
  434.593    8.111  112.447    0.418    0.240
  434.893    7.665  111.839    0.420    0.225
  435.193    6.845  112.456    0.423    0.229
  435.493    4.605  110.622    0.447    0.294
  435.793    2.715  106.951    0.495    0.309
  436.093    2.291  100.219    0.551    0.307
  436.393    2.334   94.712    0.572    0.297
  436.693    2.664   95.328    0.578    0.279
  436.993    3.470  102.067    0.511    0.253
  437.293    4.783   99.009    0.473    0.246
  437.593    5.357   92.890    0.453    0.231
  437.893    5.563   98.405    0.434    0.221
  438.193    5.999  103.309    0.417    0.235
  438.493    6.719  105.148    0.408    0.252
  438.793    7.246   95.966    0.424    0.232
  439.093    7.384   87.397    0.408    0.081
  439.393    6.978   93.525    0.355    0.216
  439.693    5.460  103.939    0.406    0.242
  439.993    3.406  116.191    0.475    0.253
  440.293    3.042  113.745    0.485    0.258
  440.593    2.985  107.013    0.485    0.245
  440.893    3.100  106.404    0.480    0.237
  441.193    3.219  111.306    0.475    0.240
  441.493    3.280  118.047    0.488    0.259
  441.793    3.343  121.725    0.504    0.264
  442.093    3.472  122.953    0.510    0.261
  442.393    3.674  111.322    0.483    0.251
  442.693    3.605  112.551    0.490    0.246
  442.993    3.472  116.842    0.507    0.258
  443.293    3.472  119.295    0.521    0.282
  443.593    3.745  119.910    0.491    0.269
  443.893    3.963  111.341    0.466    0.259
  444.193    4.194  107.059    0.456    0.261
  444.492    4.438  110.736    0.474    0.259
  444.792    4.786  110.740    0.484    0.249
  445.092    5.065  110.744    0.470    0.236
  445.392    4.878  110.135    0.440    0.226
  445.692    4.609  111.977    0.434    0.243
  445.992    4.971  111.980    0.476    0.241
  446.292    5.673   96.062    0.475    0.180
  446.592    6.235   96.678    0.448    0.128
  446.892    6.598  110.154    0.422    0.153
  447.192    6.599  113.832    0.434    0.231
  447.492    6.476   84.442    0.444    0.263
  447.792    5.568   80.159    0.344    0.295
  448.092    4.524   80.163    0.377    0.305
  448.392    3.746   85.066    0.417    0.303
  448.692    3.409   95.480    0.443    0.295
  448.992    3.676  102.832    0.494    0.289
  449.292    4.117   97.325    0.557    0.301
  449.592    5.068  103.452    0.470    0.303
  449.892    8.021  127.133    0.474    0.242
  450.192    9.161  115.401    0.411    0.268
  450.492   10.663  105.521    0.395    0.279
  450.792   11.289  107.983    0.401    0.258
  451.092   11.081  115.999    0.415    0.237
  451.392    9.002  119.699    0.407    0.222
  451.692    7.887  125.248    0.426    0.217
  451.992    7.043  131.413    0.432    0.218
  452.292    6.783  133.877    0.432    0.224
  452.592    6.658  133.870    0.407    0.229
  452.892    7.462  134.482    0.392    0.222
  453.192    8.362  136.945    0.389    0.219
  453.492   10.700  128.918    0.383    0.244
  453.792   11.765  101.758    0.364    0.279
  454.092   12.694   93.728    0.365    0.279
  454.392   13.189   90.020    0.371    0.280
  454.692   13.194   87.547    0.376    0.284
  454.992   13.200   96.180    0.376    0.274
  455.292   13.203  101.113    0.373    0.279
  455.592   13.208   93.701    0.357    0.285
  455.892   13.211   90.609    0.341    0.271
  456.192   13.468   91.221    0.339    0.248
  456.492   15.381   90.599    0.354    0.265
  456.792   16.914   87.507    0.389    0.289
  457.092   16.919   88.737    0.375    0.234
  457.392   16.609  104.777    0.367    0.217
  457.692   16.617   95.514    0.365    0.258
  457.992   16.621   90.572    0.367    0.267
  458.292   16.009  104.760    0.369    0.253
  458.592   14.845  116.481    0.409    0.220
  458.892   12.525  125.116    0.400    0.207
  459.192   10.975  119.555    0.389    0.220
  459.492    9.987  105.355    0.384    0.241
  459.792    9.440   98.561    0.384    0.253
  460.092    9.442  107.196    0.378    0.258
  460.392   10.188  115.213    0.401    0.238
  460.692   12.790  114.591    0.456    0.293
  460.992   25.290   80.025    0.409    0.332
  461.292   70.304   67.677    0.382    0.352
  461.592  174.464   56.561    0.406    0.357
  461.892  188.252   64.580    0.419    0.353
  462.192  168.102   75.065    0.390    0.348
  462.492  147.298   74.443    0.375    0.343
  462.792  131.532   69.500    0.408    0.337
  463.092  129.109   65.792    0.429    0.342
  463.392  115.296   66.403    0.401    0.357
  463.692  102.946   71.952    0.385    0.361
  463.992   88.508   78.119    0.410    0.364
  464.292   74.669   83.049    0.415    0.346
  464.592   58.406   86.130    0.411    0.327
  464.892   51.173   86.124    0.411    0.320
  465.192   51.192   83.650    0.418    0.311
  465.492   59.580   80.559    0.436    0.313
  465.792  117.808   75.616    0.445    0.326
  466.092  162.580   66.971    0.410    0.343
  466.392  178.787   55.240    0.395    0.361
  466.692  162.689   52.766    0.394    0.363
  466.992  113.589   57.698    0.393    0.341
  467.292   40.887   72.504    0.373    0.313
  467.592   22.320   93.481    0.360    0.278
  467.892   13.911  116.928    0.387    0.234
  468.192   10.280  116.304    0.433    0.231
  468.492    9.902  115.063    0.425    0.252
