~VERSION INFORMATION
 VERS.                 2.0:   CWLS LOG ASCII STANDARD -VERSION 2.0
 WRAP.                  NO:   ONE LINE PER DEPTH STEP
~WELL INFORMATION BLOCK
#MNEM.UNIT           DATA                    DESCRIPTION OF MNEMONIC
#---------    -------------------            -------------------------------
# Generated from Intellog Unique Number	CS_71_72/WELL/3248
WELL.         AEC KIRBY                      : Well_name    - WELL
LOC .         00/15-32-071-04W4/0            : Location     - LOCATION
UWI .         00/15-32-071-04W4/0            : Uwi          - UNIQUE WELL ID
ENTR.         T                              : Entered      - ENTERED BY
SRVC.         COMPUTALOG                     : Scn          - SERVICE COMPANY
DATE.         03/24/92                       : Date         - LOG DATE
STRT.M        300                            : top_depth    - START DEPTH
STOP.M        500                            : bot_depth    - STOP DEPTH
STEP.M        0.25                           : increment    - STEP LENGTH
 NULL. -999.2500:NULL Value
~CURVE INFORMATION BLOCK
#MNEM UNIT       ERCB CURVE CODE    CURVE DESCRIPTION
#-----------   ------------------   ----------------------------------
DEPT.M        00 001 00 00         : DEPTH        - DEPTH
NPHI.V/V      00 330 00 00         : PHIN         - NEUTRON POROSITY (SANDSTONE)
GR  .API      00 310 00 00         : GR           - GAMMA RAY
DPHI.V/V      00 890 00 00         : PHID         - DENSITY POROSITY (SANDSTONE)
ILD .OHMM     00 120 00 00         : RESD         - DEEP RESISTIVITY (DIL)
~PARAMETER INFORMATION
#MNEM.UNIT           DATA             DESCRIPTION OF MNEMONIC
#---------         -----------     ------------------------------
GL  .M        679                  : gl           - GROUND LEVEL ELEVATION
EREF.M        682.5                : kb           - ELEVATION OF DEPTH REFERENCE
DATM.M        682.5                : datum        - DATUM ELEVATION
TDD .M        503                  : tdd          - TOTAL DEPTH DRILLER
RUN .         ONE                  : Run          - RUN NUMBER
ENG .         BILL                 : Engineer     - RECORDING ENGINEER
WIT .         JIM                  : Witness      - WITNESSED BY
MUD .         GEL                  : Mud_type     - MUD TYPE
MATR.         SANDSTONE            : Logunit      - NEUTRON MATRIX
TMAX.C        18                   : BHT          - MAXIMUM RECORDED TEMPERATURE
BHTD.M        503                  : BHTDEP       - MAXIMUM RECORDED TEMPERATURE
RMT .C        17                   : MDTP         - TEMPERATURE OF MUD
MUDD.KG/M     1100                 : MWT          - MUD DENSITY
NEUT.         1                    : NEUTRON      - NEUTRON TYPE
RESI.         0                    : RESIST       - RESISTIVITY TYPE
RM  .OHMM     4.4                  : RM           - RESISTIVITY OF MUD
RMC .OHMM     5.2                  : RMC          - RESISTIVITY OF MUD CAKE
RMF .OHMM     4.2                  : RMF          - RESISTIVITY OF MUD FILTRATE
SUFT.C        4                    : SUFT         - SURFACE TEMPERATURE
~A  DEPTH     PHIN       GR     PHID     RESD
# ...
  343.500    0.393   96.476    0.256    4.533
  343.750    0.414   94.013    0.256    4.540
  344.000    0.422   91.554    0.254    4.544
  344.250    0.433   87.864    0.254    4.548
  344.500    0.433   87.873    0.254    4.553
  344.750    0.430   96.528    0.255    4.557
  345.000    0.431  102.716    0.261    4.564
  345.250    0.424  107.669    0.275    4.567
  345.500    0.417  110.150    0.285    4.403
  345.750    0.412  108.924    0.293    4.325
  346.000    0.409  105.848    0.298    4.017
  346.250    0.405  102.155    0.301    3.873
  346.500    0.405  100.315    0.301    3.877
  346.750    0.405  108.352    0.300    3.953
  347.000    0.405  108.984    0.293    4.033
  347.250    0.405  108.375    0.289    4.113
  347.500    0.403  105.920    0.282    4.117
  347.750    0.402  104.079    0.274    4.122
  348.000    0.400  101.003    0.271    4.050
  348.250    0.403   98.545    0.266    3.978
  348.500    0.405  101.641    0.274    3.909
  348.750    0.411  105.356    0.292    3.839
  349.000    0.422  101.046    0.304    3.843
  349.250    0.441   90.562    0.315    3.776
  349.500    0.438   81.930    0.321    3.710
  349.750    0.453   80.707    0.324    3.644
  350.000    0.460   81.953    0.324    3.385
  350.250    0.442   80.730    0.321    3.262
  350.500    0.435   76.419    0.316    3.029
  350.750    0.425   71.495    0.307    3.033
  351.000    0.416   70.886    0.300    3.036
  351.250    0.408   73.990    0.290    3.038
  351.500    0.416   75.853    0.285    2.986
  351.750    0.427   74.630    0.283    2.988
  352.000    0.427   70.934    0.292    2.776
  352.250    0.421   67.241    0.266    2.626
  352.500    0.410   66.635    0.241    2.485
  352.750    0.382   68.502    0.200    2.308
  353.000    0.371   69.751    0.240    2.143
  353.250    0.385   70.374    0.286    1.953
  353.500    0.400   70.388    0.342    1.780
  353.750    0.412   67.927    0.360    1.782
  354.000    0.425   64.237    0.361    1.783
  354.250    0.428   61.162    0.361    1.819
  354.500    0.423   59.321    0.359    1.890
  354.750    0.419   59.330    0.357    1.928
  355.000    0.413   59.958    0.354    1.967
  355.250    0.410   59.970    0.350    2.005
  355.500    0.420   61.833    0.350    2.046
  355.750    0.425   61.845    0.351    2.086
  356.000    0.420   58.769    0.349    2.128
  356.250    0.417   57.546    0.345    2.212
  356.500    0.412   60.027    0.334    2.256
  356.750    0.407   62.508    0.326    2.302
  357.000    0.397   64.992    0.328    2.303
  357.250    0.394   67.472    0.332    2.306
  357.500    0.402   69.956    0.342    2.265
  357.750    0.413   73.055    0.348    2.185
  358.000    0.414   76.150    0.348    2.146
  358.250    0.405   77.399    0.340    2.107
  358.500    0.398   73.706    0.327    2.033
  358.750    0.385   72.486    0.322    2.034
  359.000    0.414   72.491    0.329    1.999
  359.250    0.424   70.656    0.335    1.963
  359.500    0.417   69.430    0.341    1.965
  359.750    0.406   68.824    0.343    2.005
  360.000    0.401   70.688    0.342    2.204
  360.250    0.407   73.786    0.335    2.378
  360.500    0.411   76.270    0.332    2.426
  360.750    0.421   78.130    0.338    2.339
  361.000    0.428   81.226    0.348    2.254
  361.250    0.438   79.385    0.352    2.095
  361.500    0.454   70.136    0.337    2.057
  361.750    0.448   65.829    0.320    1.983
  362.000    0.422   65.225    0.331    1.985
  362.250    0.416   65.849    0.338    1.987
  362.500    0.417   68.335    0.332    2.066
  362.750    0.411   69.578    0.326    2.107
  363.000    0.413   72.677    0.322    2.149
  363.250    0.433   77.010    0.317    2.233
  363.500    0.449   80.108    0.309    2.277
  363.750    0.455   83.827    0.303    2.323
  364.000    0.446   86.925    0.296    2.370
  364.250    0.441   88.789    0.297    2.285
  364.500    0.435   90.655    0.298    2.162
  364.750    0.429   90.046    0.298    2.008
  365.000    0.429   80.794    0.303    1.830
  365.250    0.446   72.162    0.320    1.764
  365.500    0.455   66.620    0.331    1.766
  365.750    0.444   64.159    0.344    1.942
  366.000    0.429   61.701    0.349    2.135
  366.250    0.424   61.095    0.352    2.219
  366.500    0.421   61.724    0.355    2.350
  366.750    0.421   63.587    0.355    2.442
  367.000    0.421   66.688    0.349    2.444
  367.250    0.418   71.019    0.346    2.492
  367.500    0.416   73.502    0.346    2.542
  367.750    0.418   75.989    0.340    2.545
  368.000    0.418   77.232    0.332    2.547
  368.250    0.417   79.713    0.315    2.366
  368.500    0.421   84.046    0.303    2.281
  368.750    0.422   88.994    0.290    2.158
  369.000    0.425   95.797    0.296    2.004
  369.250    0.425   96.425    0.326    1.861
  369.500    0.422   73.594    0.341    1.729
  369.750    0.423   64.962    0.356    1.605
  370.000    0.431   56.947    0.368    1.491
  370.250    0.435   56.964    0.375    1.437
  370.500    0.431   58.205    0.380    1.335
  370.750    0.430   59.451    0.381    1.311
  371.000    0.432   57.610    0.388    1.362
  371.250    0.433   55.155    0.395    1.585
  371.500    0.437   53.929    0.397    2.101
  371.750    0.434   52.091    0.392    2.184
  372.000    0.431   50.253    0.385    2.357
  372.250    0.431   49.024    0.379    2.847
  372.500    0.431   49.653    0.375    2.797
  372.750    0.430   53.986    0.366    2.597
  373.000    0.423   57.084    0.351    2.411
  373.250    0.417   61.420    0.313    2.197
  373.500    0.369   59.576    0.176    2.003
  373.750    0.353   53.414    0.156    1.825
  374.000    0.391   55.280    0.201    1.663
  374.250    0.424   58.379    0.275    1.545
  374.500    0.429   55.923    0.335    1.462
  374.750    0.413   53.465    0.362    1.436
  375.000    0.402   55.329    0.369    1.384
  375.250    0.414   57.190    0.366    1.360
  375.500    0.449   61.523    0.370    1.337
  375.750    0.455   61.534    0.367    1.337
  376.000    0.442   59.696    0.365    1.391
  376.250    0.421   61.560    0.362    1.446
  376.500    0.432   64.041    0.367    1.502
  376.750    0.456   66.519    0.371    1.621
  377.000    0.461   70.234    0.371    1.782
  377.250    0.447   73.950    0.363    1.922
  377.500    0.437   78.901    0.353    1.924
  377.750    0.434   85.703    0.342    1.927
  378.000    0.436   91.891    0.326    1.928
  378.250    0.462   91.906    0.306    1.930
  378.500    0.469   90.062    0.301    1.931
  378.750    0.478   85.752    0.304    2.046
  379.000    0.461   82.059    0.309    2.166
  379.250    0.430   81.456    0.319    2.294
  379.500    0.421   82.702    0.324    2.429
  379.750    0.428   84.563    0.331    2.525
  380.000    0.431   88.896    0.328    2.576
  380.250    0.432   93.229    0.317    2.627
  380.500    0.432   96.945    0.304    2.629
  380.750    0.446  101.278    0.296    2.631
  381.000    0.453  103.144    0.290    2.635
  381.250    0.429  101.303    0.285    2.638
  381.500    0.399   98.845    0.284    2.641
  381.750    0.392   95.150    0.284    2.643
  382.000    0.419   91.457    0.283    2.596
  382.250    0.445   92.085    0.282    2.599
  382.500    0.468   93.949    0.286    2.601
  382.750    0.439   90.259    0.296    2.654
  383.000    0.430   87.181    0.305    2.707
  383.250    0.421   91.516    0.297    2.709
  383.500    0.409   89.061    0.287    2.713
  383.750    0.411   86.600    0.296    2.714
  384.000    0.412   82.293    0.306    2.717
  384.250    0.414   79.832    0.307    2.720
  384.500    0.423   76.756    0.303    2.673
  384.750    0.443   78.623    0.297    2.626
  385.000    0.449   78.017    0.304    2.579
  385.250    0.449   73.707    0.323    2.440
  385.500    0.442   70.628    0.336    2.309
  385.750    0.435   66.938    0.350    2.144
  386.000    0.431   65.712    0.344    1.955
  386.250    0.433   68.810    0.336    1.849
  386.500    0.435   69.439    0.342    1.750
  386.750    0.436   68.219    0.345    1.719
