~VERSION INFORMATION
 VERS.                 2.0:   CWLS LOG ASCII STANDARD -VERSION 2.0
 WRAP.                  NO:   ONE LINE PER DEPTH STEP
~WELL INFORMATION BLOCK
#MNEM.UNIT           DATA                    DESCRIPTION OF MNEMONIC
#---------    -------------------            -------------------------------
# Generated from Intellog Unique Number	CS_71_72/WELL/880
WELL.         AMOCO AEC IPIATIK              : Well_name    - WELL
LOC .         00/10-34-072-06W4/0            : Location     - LOCATION
UWI .         00/10-34-072-06W4/0            : Uwi          - UNIQUE WELL ID
ENTR.         SP                             : Entered      - ENTERED BY
SRVC.         SCHLUMBERGER                   : Scn          - SERVICE COMPANY
STRT.M        325                            : top_depth    - START DEPTH
STOP.M        575                            : bot_depth    - STOP DEPTH
STEP.M        0.25                           : increment    - STEP LENGTH
 NULL. -999.2500:NULL Value
~CURVE INFORMATION BLOCK
#MNEM UNIT       ERCB CURVE CODE    CURVE DESCRIPTION
#-----------   ------------------   ----------------------------------
DEPT.M        00 001 00 00         : DEPTH        - DEPTH
ILD .OHMM     00 120 00 00         : RESD         - DEEP RESISTIVITY (DIL)
DPHI.V/V      00 890 00 00         : PHID         - DENSITY POROSITY (LIMESTONE)
NPHI.V/V      00 330 00 00         : PHIN         - NEUTRON POROSITY (LIMESTONE)
GR  .API      00 310 00 00         : GR           - GAMMA RAY
~PARAMETER INFORMATION
#MNEM.UNIT           DATA             DESCRIPTION OF MNEMONIC
#---------         -----------     ------------------------------
GL  .M        709.8                : gl           - GROUND LEVEL ELEVATION
EREF.M        714                  : kb           - ELEVATION OF DEPTH REFERENCE
DATM.M        709.8                : datum        - DATUM ELEVATION
TDD .M        588.2                : tdd          - TOTAL DEPTH DRILLER
RUN .         ONE                  : Run          - RUN NUMBER
ENG .         BILL                 : Engineer     - RECORDING ENGINEER
WIT .         JIM                  : Witness      - WITNESSED BY
MUD .         GEL                  : Mud_type     - MUD TYPE
MATR.         LIMESTONE            : Logunit      - NEUTRON MATRIX
TMAX.C        11                   : BHT          - MAXIMUM RECORDED TEMPERATURE
BHTD.M        588.2                : BHTDEP       - MAXIMUM RECORDED TEMPERATURE
MATR.         1                    : LOGUNIT      - NEUTRON MATRIX
RMT .C        25                   : MDTP         - TEMPERATURE OF MUD
NEUT.         1                    : NEUTRON      - NEUTRON TYPE
RESI.         0                    : RESIST       - RESISTIVITY TYPE
RMC .OHMM     0.25                 : RMC          - RESISTIVITY OF MUD CAKE
RMF .OHMM     0.25                 : RMF          - RESISTIVITY OF MUD FILTRATE
SUFT.C        15                   : SUFT         - SURFACE TEMPERATURE
~A  DEPTH     RESD     PHID     PHIN       GR
# ...
  542.500    1.558    0.225    0.391   83.562
  542.750    1.559    0.218    0.386   83.557
  543.000    1.559    0.223    0.373   79.899
  543.250    1.649    0.240    0.367   80.495
  543.500    1.681    0.241    0.375   84.730
  543.750    1.778    0.229    0.378   85.936
  544.000    1.779    0.232    0.364   88.354
  544.250    1.779    0.218    0.365   84.696
  544.500    1.779    0.213    0.374   81.041
  544.750    1.746    0.221    0.385   78.603
  545.000    1.918    0.229    0.374   90.126
  545.250    1.883    0.226    0.369   94.362
  545.500    1.848    0.212    0.396   89.496
  545.750    1.715    0.206    0.406   76.122
  546.000    1.653    0.224    0.391   67.002
  546.250    1.534    0.245    0.376   62.135
  546.500    1.478    0.267    0.368   54.226
  546.750    1.450    0.264    0.371   49.962
  547.000    1.424    0.250    0.375   48.738
  547.250    1.398    0.247    0.378   52.972
  547.500    1.424    0.291    0.379   54.785
  547.750    1.425    0.276    0.378   56.596
  548.000    1.399    0.270    0.373   52.328
  548.250    1.373    0.260    0.368   50.495
  548.500    1.373    0.254    0.369   49.880
  548.750    1.323    0.263    0.377   48.649
  549.000    1.299    0.268    0.391   48.034
  549.250    1.275    0.263    0.400   46.803
  549.500    1.251    0.280    0.386   45.580
  549.750    1.206    0.289    0.380   43.742
  550.000    1.183    0.296    0.378   43.129
  550.250    1.140    0.300    0.374   41.291
  550.500    1.140    0.294    0.373   39.455
  550.750    1.099    0.289    0.371   38.842
  551.000    1.099    0.301    0.371   37.007
  551.250    1.099    0.305    0.374   36.386
  551.500    1.099    0.300    0.376   37.586
  551.750    1.120    0.289    0.377   39.400
  552.000    1.142    0.284    0.377   43.026
  552.250    1.142    0.285    0.373   43.016
  552.500    1.142    0.277    0.373   42.399
  552.750    1.164    0.266    0.383   41.777
  553.000    1.164    0.261    0.386   43.584
  553.250    1.186    0.253    0.376   44.181
  553.500    1.187    0.258    0.370   44.776
  553.750    1.187    0.278    0.366   44.766
  554.000    1.187    0.288    0.396   44.149
  554.250    1.187    0.293    0.407   42.920
  554.500    1.210    0.283    0.398   41.085
  554.750    1.210    0.276    0.392   39.858
  555.000    1.210    0.271    0.386   39.851
  555.250    1.210    0.267    0.381   40.446
  555.500    1.211    0.270    0.376   39.218
  555.750    1.211    0.271    0.382   37.382
  556.000    1.211    0.271    0.381   36.157
  556.250    1.211    0.273    0.373   33.713
  556.500    1.212    0.282    0.369   31.880
  556.750    1.212    0.292    0.368   31.264
  557.000    1.190    0.289    0.366   30.645
  557.250    1.190    0.283    0.369   33.058
  557.500    1.190    0.285    0.359   35.472
  557.750    1.168    0.278    0.357   36.071
  558.000    1.147    0.275    0.364   36.060
  558.250    1.126    0.292    0.369   34.836
  558.500    1.126    0.296    0.372   31.785
  558.750    1.147    0.296    0.372   31.775
  559.000    1.214    0.291    0.358   46.336
  559.250    1.410    0.272    0.350   57.862
  559.500    1.638    0.254    0.336   72.422
  559.750    1.976    0.198    0.329   78.486
  560.000    2.211    0.149    0.344   86.367
  560.250    2.384    0.159    0.379   87.570
  560.500    2.429    0.180    0.379   84.521
  560.750    2.476    0.202    0.368   82.683
  561.000    2.523    0.203    0.353   82.675
  561.250    2.523    0.181    0.347   82.658
  561.500    2.477    0.164    0.360   82.648
  561.750    2.431    0.152    0.366   80.208
  562.000    2.299    0.158    0.366   78.981
  562.250    2.174    0.163    0.366   79.573
  562.500    2.134    0.187    0.366   80.173
  562.750    2.135    0.202    0.370   81.372
  563.000    2.135    0.202    0.370   80.755
  563.250    2.135    0.174    0.361   78.924
  563.500    2.136    0.181    0.350   76.480
  563.750    2.096    0.193    0.345   72.826
  564.000    2.097    0.192    0.339   65.524
  564.250    2.020    0.187    0.348   62.479
  564.500    1.983    0.189    0.339   62.464
  564.750    1.911    0.181    0.339   63.062
  565.000    1.807    0.170    0.362   62.440
  565.250    1.708    0.187    0.376   59.393
  565.500    1.499    0.207    0.370   49.058
  565.750    1.340    0.211    0.367   36.901
  566.000    1.220    0.221    0.365   25.958
  566.250    1.154    0.245    0.366   19.268
  566.500    1.091    0.267    0.379   13.183
  566.750    1.012    0.293    0.377   12.559
  567.000    0.976    0.304    0.370   13.158
  567.250    0.976    0.295    0.365   14.959
  567.500    0.905    0.308    0.359   15.553
  567.750    0.906    0.298    0.359   15.541
  568.000    0.906    0.310    0.358   16.136
  568.250    0.923    0.303    0.357   16.127
  568.500    0.941    0.296    0.370   16.725
  568.750    0.959    0.294    0.381   16.718
  569.000    0.977    0.312    0.381   17.313
  569.250    0.996    0.290    0.383   17.905
  569.500    1.053    0.271    0.373   19.108
  569.750    1.135    0.307    0.367   20.920
  570.000    1.247    0.290    0.358   27.585
  570.250    1.591    0.276    0.347   34.255
  570.500    1.992    0.263    0.321   40.316
  570.750    2.494    0.244    0.279   45.769
  571.000    3.560    0.033    0.255   48.184
  571.250    4.805    0.017    0.248   48.777
  571.500    5.687    0.008    0.238   48.767
  571.750    6.484    0.003    0.232   48.757
  572.000    7.122    0.001    0.229   48.743
  572.250    6.862   -0.000    0.226   48.730
  572.500    7.536    0.003    0.221   46.900
  572.750    8.922    0.001    0.219   43.847
  573.000    9.799   -0.001    0.207   40.190
  573.250   11.599    0.002    0.188   37.147
  573.500   12.271   -0.008    0.168   29.241
  573.750   13.732    0.010    0.150   18.903
  574.000   14.803    0.026    0.146   13.426
  574.250   15.957    0.019    0.146   11.595
  574.500   16.262    0.010    0.146   12.792
  574.750   16.264    0.040    0.147   13.392
  575.000   15.966    0.054    0.149   13.984
