~VERSION INFORMATION
 VERS.                 2.0:   CWLS LOG ASCII STANDARD -VERSION 2.0
 WRAP.                  NO:   ONE LINE PER DEPTH STEP
~WELL INFORMATION BLOCK
#MNEM.UNIT           DATA                    DESCRIPTION OF MNEMONIC
#---------    -------------------            -------------------------------
# Generated from Intellog Unique Number	CW_73_75/WELL/2747
WELL.         GAO ET AL AMADO4 11-31         : Well_name    - WELL
LOC .         00/11-31-073-19W4/0            : Location     - LOCATION
UWI .         00/11-31-073-19W4/0            : Uwi          - UNIQUE WELL ID
ENTR.         JAYE                           : Entered      - ENTERED BY
SRVC.         SCHLUMBERGER                   : Scn          - SERVICE COMPANY
DATE.         10 JAN 74                      : Date         - LOG DATE
STRT.M        353.568                        : top_depth    - START DEPTH
STOP.M        594.318                        : bot_depth    - STOP DEPTH
STEP.M        0.25                           : increment    - STEP LENGTH
 NULL. -999.2500:NULL Value
~CURVE INFORMATION BLOCK
#MNEM UNIT       ERCB CURVE CODE    CURVE DESCRIPTION
#-----------   ------------------   ----------------------------------
DEPT.M        00 001 00 00         : DEPTH        - DEPTH
ILD .OHMM     00 120 00 00         : RESD         - DEEP RESISTIVITY (DIL)
NPHI.V/V      00 330 00 00         : PHIN         - NEUTRON POROSITY (SANDSTONE)
DPHI.V/V      00 890 00 00         : PHID         - DENSITY POROSITY (SANDSTONE)
GR  .API      00 310 00 00         : GR           - GAMMA RAY
CALI.MM       00 280 01 00         : CAL          - CALIPER
~PARAMETER INFORMATION
#MNEM.UNIT           DATA             DESCRIPTION OF MNEMONIC
#---------         -----------     ------------------------------
GL  .M        671.779              : gl           - GROUND LEVEL ELEVATION
EREF.M        674.827              : kb           - ELEVATION OF DEPTH REFERENCE
DATM.M        671.779              : datum        - DATUM ELEVATION
TDD .M        600.456              : tdd          - TOTAL DEPTH DRILLER
RUN .         ONE                  : Run          - RUN NUMBER
BASE.         EDM                  : Branch       - HOME BASE OF LOGGING UNIT
MATR.         SANDSTONE            : Logunit      - NEUTRON MATRIX
TMAX.C        29.4444              : BHT          - MAXIMUM RECORDED TEMPERATURE
BHTD.M        603.504              : BHTDEP       - MAXIMUM RECORDED TEMPERATURE
RMT .C        13.3333              : MDTP         - TEMPERATURE OF MUD
MUDD.KG/M     0                    : MWT          - MUD DENSITY
NEUT.         1                    : NEUTRON      - NEUTRON TYPE
RESI.         0                    : RESIST       - RESISTIVITY TYPE
RM  .OHMM     0.843                : RM           - RESISTIVITY OF MUD
RMC .OHMM     0                    : RMC          - RESISTIVITY OF MUD CAKE
RMF .OHMM     1.17                 : RMF          - RESISTIVITY OF MUD FILTRATE
SUFT.C        -17.7778             : SUFT         - SURFACE TEMPERATURE
~A  DEPTH     RESD     PHIN     PHID       GR      CAL
# ...
  463.068    8.032    0.372    0.215   59.833  138.942
  463.318    7.392    0.410    0.279   62.220  140.766
  463.568    6.752    0.375    0.297   62.712  143.259
  463.818    6.363    0.348    0.249   63.596  144.537
  464.068    5.866    0.374    0.283   65.534  141.509
  464.318    5.388    0.456    0.313   67.197  139.245
  464.568    4.976    0.449    0.342   69.061  138.085
  464.818    4.767    0.444    0.334   70.011  137.265
  465.068    4.659    0.437    0.331   70.763  136.988
  465.318    4.656    0.460    0.327   71.712  137.265
  465.568    4.704    0.475    0.307   69.786  137.882
  465.818    4.858    0.481    0.290   66.424  139.045
  466.068    5.128    0.476    0.276   68.093  141.643
  466.318    5.181    0.470    0.266   70.088  144.800
  466.568    5.009    0.464    0.259   72.736  145.195
  466.818    4.843    0.460    0.262   75.258  144.812
  467.068    4.769    0.462    0.282   77.120  144.882
  467.318    4.670    0.474    0.272   79.177  145.043
  467.568    4.564    0.479    0.280   82.415  145.322
  467.818    4.503    0.469    0.281   82.582  145.822
  468.068    4.467    0.469    0.280   81.245  146.449
  468.318    4.471    0.483    0.276   82.653  146.947
  468.568    4.452    0.494    0.271   84.122  147.439
  468.818    4.441    0.487    0.263   85.530  147.726
  469.068    4.470    0.466    0.270   86.875  147.891
  469.318    4.590    0.467    0.273   87.698  148.283
  469.568    4.587    0.468    0.264   88.448  148.674
  469.818    4.467    0.451    0.259   89.067  149.068
  470.068    4.343    0.443    0.251   89.172  149.785
  470.318    4.207    0.435    0.238   91.951  151.625
  470.568    3.986    0.448    0.244   94.857  153.002
  470.818    3.648    0.461    0.233   97.833  154.954
  471.068    3.444    0.478    0.214  100.480  156.223
  471.318    3.404    0.532    0.194  102.215  158.055
  471.568    3.495    0.540    0.201  100.875  159.659
  471.818    3.710    0.518    0.214   94.575  158.942
  472.068    4.034    0.498    0.237   90.886  155.131
  472.318    4.361    0.487    0.258   90.141  150.769
  472.568    4.723    0.479    0.279   92.329  146.291
  472.818    4.949    0.472    0.278   92.105  145.027
  473.068    5.019    0.475    0.266   89.657  144.535
  473.318    5.098    0.476    0.265   88.581  145.141
  473.568    4.929    0.463    0.260   92.475  146.201
  473.818    4.389    0.460    0.253   96.817  147.586
  474.068    3.632    0.473    0.231  105.345  148.867
  474.318    3.263    0.474    0.238  109.689  149.471
  474.568    3.213    0.454    0.232  103.130  149.981
  474.818    3.373    0.454    0.220  102.250  150.383
  475.068    3.660    0.474    0.211  104.375  150.877
  475.318    4.150    0.491    0.201  104.477  151.258
  475.568    4.553    0.489    0.205  104.903  151.765
  475.818    4.710    0.475    0.208  107.487  151.822
  476.068    4.767    0.462    0.213  107.780  152.336
  476.318    4.825    0.458    0.212  106.249  152.610
  476.568    4.875    0.461    0.205  109.614  152.779
  476.818    4.943    0.467    0.198  110.434  152.833
  477.068    5.012    0.491    0.213  106.419  152.341
  477.318    5.045    0.494    0.232  101.425  149.415
  477.568    5.050    0.470    0.250   97.474  146.710
  477.818    5.065    0.460    0.248   97.643  146.323
  478.068    5.108    0.454    0.243  100.354  146.277
  478.318    5.160    0.449    0.235  103.525  146.450
  478.568    5.290    0.460    0.234  104.670  146.512
  478.818    5.404    0.466    0.223  104.642  146.461
  479.068    5.549    0.445    0.215  103.956  146.621
  479.318    5.710    0.436    0.224  103.078  147.128
  479.568    5.832    0.441    0.223  102.395  147.300
  479.818    5.935    0.448    0.216  102.102  147.353
  480.068    5.996    0.464    0.205  101.550  147.311
  480.318    6.058    0.470    0.215  100.411  146.918
  480.568    6.076    0.467    0.222   99.660  146.335
  480.818    6.082    0.468    0.217   97.740  146.171
  481.068    6.099    0.475    0.207   91.762  146.001
  481.318    6.084    0.469    0.217   93.300  145.728
  481.568    6.057    0.462    0.214   97.645  145.342
  481.818    5.965    0.469    0.221   99.248  144.954
  482.068    5.808    0.461    0.216  100.197  145.899
  482.318    5.658    0.458    0.230  104.088  148.178
  482.568    5.480    0.457    0.228  106.017  149.117
  482.818    5.357    0.460    0.226  105.730  149.954
  483.068    5.275    0.470    0.223  102.039  151.232
  483.318    5.147    0.475    0.217  101.292  152.392
  483.568    5.031    0.466    0.208   99.367  149.355
  483.818    4.945    0.434    0.220   96.462  146.427
  484.068    4.914    0.444    0.242   93.099  142.726
  484.318    4.928    0.461    0.245   87.843  141.576
  484.568    4.997    0.453    0.247   81.475  140.964
  484.818    5.021    0.449    0.253   77.852  140.143
  485.068    5.043    0.451    0.274   67.893  139.757
  485.318    5.059    0.464    0.283   62.766  139.482
  485.568    5.111    0.468    0.290   58.099  139.220
  485.818    5.173    0.451    0.301   56.109  139.279
  486.068    5.303    0.438    0.315   57.517  139.330
  486.318    5.407    0.427    0.322   55.723  139.500
  486.568    5.584    0.418    0.317   54.193  140.014
  486.818    5.746    0.425    0.312   54.356  140.285
  487.068    5.977    0.418    0.281   54.718  140.574
  487.318    6.218    0.392    0.246   56.255  140.628
  487.568    6.421    0.376    0.222   57.862  140.350
  487.818    7.584    0.403    0.248   58.219  140.078
  488.068    7.988    0.374    0.244   53.880  141.811
  488.318    8.397    0.320    0.188   54.948  142.851
  488.568    9.190    0.304    0.142   54.921  143.789
  488.818   11.600    0.265    0.113   53.664  144.827
  489.068   12.444    0.204    0.091   52.146  145.542
  489.318   12.845    0.190    0.052   49.469  145.596
  489.568   12.145    0.175    0.040   47.180  144.562
  489.818   10.970    0.262    0.120   48.372  143.531
  490.068    9.927    0.326    0.151   51.247  141.616
  490.318    8.583    0.425    0.211   54.255  139.927
  490.568    7.910    0.424    0.270   57.711  138.019
  490.818    7.251    0.369    0.287   58.972  138.180
  491.068    6.549    0.351    0.237   56.359  138.786
  491.318    5.808    0.401    0.238   55.941  138.953
  491.568    5.305    0.437    0.264   60.557  138.347
  491.818    5.108    0.445    0.308   60.915  137.750
  492.068    5.037    0.441    0.305   60.687  137.269
  492.318    5.050    0.436    0.296   61.757  137.436
  492.568    5.528    0.393    0.276   61.984  138.138
  492.818    6.050    0.329    0.248   58.468  140.065
  493.068    6.549    0.308    0.181   55.920  143.622
  493.318    6.423    0.359    0.194   57.951  141.713
  493.568    6.141    0.407    0.285   58.504  139.910
  493.818    5.859    0.438    0.311   58.411  138.869
  494.068    5.410    0.447    0.316   58.121  138.493
  494.318    5.023    0.436    0.304   54.926  138.314
  494.568    4.723    0.420    0.306   51.471  138.385
  494.818    4.531    0.420    0.316   53.833  138.551
  495.068    4.437    0.426    0.319   54.577  138.611
  495.318    4.423    0.425    0.316   51.834  138.554
  495.568    4.386    0.426    0.321   53.740  138.728
  495.818    4.404    0.428    0.314   52.225  138.785
  496.068    4.457    0.429    0.297   51.096  138.837
  496.318    4.509    0.424    0.288   52.552  138.793
  496.568    4.578    0.427    0.312   53.681  138.724
  496.818    4.640    0.421    0.326   54.880  138.560
  497.068    4.703    0.432    0.319   57.561  138.411
  497.318    4.732    0.421    0.312   59.983  138.259
  497.568    4.744    0.424    0.318   55.950  138.087
  497.818    4.748    0.432    0.317   54.818  138.044
  498.068    4.777    0.434    0.317   56.727  137.989
  498.318    4.798    0.426    0.317   59.668  138.263
  498.568    4.775    0.436    0.312   59.247  138.317
  498.818    4.734    0.427    0.326   58.960  138.494
  499.068    4.703    0.423    0.316   60.802  138.546
  499.318    4.749    0.428    0.298   61.417  138.707
