~VERSION INFORMATION
 VERS.                 2.0:   CWLS LOG ASCII STANDARD -VERSION 2.0
 WRAP.                  NO:   ONE LINE PER DEPTH STEP
~WELL INFORMATION BLOCK
#MNEM.UNIT           DATA                    DESCRIPTION OF MNEMONIC
#---------    -------------------            -------------------------------
# Generated from Intellog Unique Number	CS_69_70/WELL/858
NULL.         -999.25                        : NULL_VALUE
WELL.         HB CS PITLOCHRIE               : Well_name    - WELL              
LOC .         00/10-04-070-12W4/0            : Location     - LOCATION          
UWI .         00/10-04-070-12W4/0            : Uwi          - UNIQUE WELL ID    
ENTR.         SP                             : Entered      - ENTERED BY        
SRVC.         SCHLUMBERGER                   : Scn          - SERVICE COMPANY   
STRT.M        286.512                        : top_depth    - START DEPTH       
STOP.M        493.512                        : bot_depth    - STOP DEPTH        
STEP.M        0.25                           : increment    - STEP LENGTH       
~CURVE INFORMATION BLOCK
#MNEM UNIT       ERCB CURVE CODE    CURVE DESCRIPTION
#-----------   ------------------   ----------------------------------
DEPT.M        00 001 00 00         : DEPTH        - DEPTH                       
GR  .API      00 310 00 00         : GR           - GAMMA RAY                   
DPHI.V/V      00 890 00 00         : PHID         - DENSITY POROSITY (SANDSTONE)
NPHI.V/V      00 330 00 00         : PHIN         - NEUTRON POROSITY (SANDSTONE)
ILD .OHMM     00 120 00 00         : RESD         - DEEP RESISTIVITY (DIL)      
~PARAMETER INFORMATION       
#MNEM.UNIT           DATA             DESCRIPTION OF MNEMONIC
#---------         -----------     ------------------------------
GL  .M        601.98               : gl           - GROUND LEVEL ELEVATION      
EREF.M        604.418              : kb           - ELEVATION OF DEPTH REFERENCE
DATM.M        601.98               : datum        - DATUM ELEVATION             
TDD .M        496.824              : tdd          - TOTAL DEPTH DRILLER         
RUN .         ONE                  : Run          - RUN NUMBER                  
ENG .         BILL                 : Engineer     - RECORDING ENGINEER          
WIT .         JIM                  : Witness      - WITNESSED BY                
MUD .         GEL                  : Mud_type     - MUD TYPE                    
MATR.         SANDSTONE            : Logunit      - NEUTRON MATRIX              
TMAX.C        21                   : BHT          - MAXIMUM RECORDED TEMPERATURE
BHTD.M        481.2                : BHTDEP       - MAXIMUM RECORDED TEMPERATURE
MATR.         1                    : LOGUNIT      - NEUTRON MATRIX              
RMT .C        25                   : MDTP         - TEMPERATURE OF MUD          
NEUT.         1                    : NEUTRON      - NEUTRON TYPE                
RESI.         0                    : RESIST       - RESISTIVITY TYPE            
RMC .OHMM     0.25                 : RMC          - RESISTIVITY OF MUD CAKE     
RMF .OHMM     0.25                 : RMF          - RESISTIVITY OF MUD FILTRATE 
SUFT.C        15                   : SUFT         - SURFACE TEMPERATURE         
~A  DEPTH       GR     PHID     PHIN     RESD
# ...
  417.012  100.444    0.281    0.610    2.538
  417.262   99.197    0.279    0.590    2.798
  417.512   99.513    0.258    0.568    2.980
  417.762  100.516    0.241    0.560    3.203
  418.012  101.417    0.245    0.565    3.355
  418.262  100.760    0.241    0.536    3.585
  418.512   95.691    0.233    0.523    3.835
  418.762   89.559    0.229    0.510    4.324
  419.012   83.667    0.246    0.492    4.838
  419.262   78.527    0.257    0.480    5.223
  419.512   77.912    0.234    0.473    5.525
  419.762   79.369    0.205    0.442    5.611
  420.012   79.449    0.140    0.371    5.195
  420.262   80.707    0.079    0.334    4.581
  420.512   85.837    0.069    0.306    4.191
  420.762   89.875    0.155    0.374    3.851
  421.012   93.431    0.201    0.451    3.965
  421.262   94.668    0.231    0.456    4.216
  421.512   95.025    0.208    0.458    4.424
  421.762   93.435    0.172    0.469    4.581
  422.012   90.649    0.180    0.492    5.852
  422.262   89.254    0.201    0.479    7.317
  422.512   85.329    0.213    0.482    8.317
  422.762   75.259    0.175    0.487    9.101
  423.012   66.151    0.140    0.456    9.675
  423.262   61.401    0.097    0.320    9.401
  423.512   65.189    0.030    0.266    6.990
  423.762   76.836    0.013    0.236    5.798
  424.012   88.781    0.028    0.287    5.126
  424.262   95.869    0.103    0.349    4.727
  424.512   99.356    0.152    0.435    4.553
  424.762  100.745    0.183    0.451    4.457
  425.012  100.115    0.174    0.450    4.443
  425.262  100.430    0.171    0.459    4.436
  425.512  100.958    0.180    0.460    4.387
  425.762  101.419    0.200    0.472    4.322
  426.012  100.860    0.220    0.468    4.217
  426.262   98.996    0.215    0.471    4.133
  426.512   96.669    0.213    0.481    4.114
  426.762   96.955    0.216    0.481    4.133
  427.012   97.960    0.216    0.480    4.190
  427.262   98.800    0.213    0.480    4.336
  427.512   98.954    0.211    0.476    4.552
  427.762   97.258    0.216    0.469    4.734
  428.012   92.931    0.209    0.463    4.851
  428.262   89.842    0.190    0.465    4.907
  428.512   91.875    0.169    0.465    4.910
  428.762   94.113    0.143    0.458    4.871
  429.012   95.652    0.151    0.471    4.781
  429.262   96.133    0.185    0.477    4.658
  429.512   97.492    0.190    0.471    4.576
  429.762   99.327    0.181    0.485    4.609
  430.012  100.921    0.224    0.481    4.674
  430.262  102.346    0.246    0.476    4.788
  430.512  103.220    0.213    0.466    4.967
  430.762  103.782    0.184    0.457    5.046
  431.012  101.165    0.190    0.449    5.110
  431.262   98.753    0.170    0.443    5.168
  431.512  100.290    0.185    0.436    4.988
  431.762   96.979    0.174    0.428    4.130
  432.012   94.545    0.144    0.421    3.425
  432.262   95.188    0.149    0.416    2.820
  432.512   95.027    0.153    0.415    2.275
  432.762   92.598    0.191    0.457    1.999
  433.012   91.441    0.250    0.541    1.972
  433.262   91.177    0.257    0.586    2.104
  433.512   93.558    0.253    0.587    2.355
  433.762   96.135    0.265    0.566    2.693
  434.012   96.388    0.256    0.549    3.111
  434.262   93.840    0.244    0.573    3.634
  434.512   90.598    0.241    0.584    4.074
  434.762   88.858    0.237    0.551    4.320
  435.012   88.291    0.230    0.513    4.282
  435.262   89.480    0.218    0.503    3.940
  435.512   91.817    0.210    0.484    3.780
  435.762   90.342    0.186    0.461    3.685
  436.012   86.128    0.192    0.458    3.755
  436.262   81.486    0.223    0.469    4.845
  436.512   77.639    0.206    0.476    5.955
  436.762   74.337    0.195    0.462    7.472
  437.012   70.653    0.148    0.457    8.841
  437.262   65.291    0.107    0.452    9.266
  437.512   58.431    0.098    0.428    8.312
  437.762   54.193    0.088    0.395    6.811
  438.012   58.187    0.064    0.297    5.235
  438.262   68.330    0.027    0.288    4.677
  438.512   81.300    0.046    0.290    4.194
  438.762   88.410    0.103    0.345    4.007
  439.012   89.023    0.142    0.432    4.044
  439.262   89.962    0.184    0.464    4.244
  439.512   92.299    0.215    0.462    4.384
  439.762   91.694    0.188    0.483    4.463
  440.012   87.777    0.186    0.501    4.428
  440.262   89.541    0.189    0.492    4.322
  440.512   92.760    0.184    0.472    4.045
  440.762   94.177    0.170    0.456    3.652
  441.012   94.658    0.172    0.450    3.318
  441.262   96.039    0.192    0.443    3.037
  441.512   95.892    0.204    0.436    2.834
  441.762   96.424    0.196    0.468    2.827
  442.012   98.192    0.147    0.503    2.601
  442.262  100.023    0.132    0.512    2.489
  442.512  103.034    0.151    0.539    2.520
  442.762  104.273    0.178    0.544    2.610
  443.012  105.291    0.166    0.534    2.763
  443.262  105.984    0.188    0.523    2.952
  443.512  105.693    0.205    0.522    3.069
  443.762  104.326    0.199    0.528    3.029
  444.012  103.707    0.194    0.531    2.864
  444.262  105.683    0.174    0.502    2.742
  444.512  108.798    0.155    0.483    2.732
  444.762  110.970    0.163    0.512    2.854
  445.012  102.511    0.192    0.531    3.230
  445.262   90.917    0.215    0.535    3.649
  445.512   78.601    0.199    0.543    4.230
  445.762   78.731    0.210    0.546    5.032
  446.012   79.483    0.214    0.453    5.651
  446.262   76.721    0.217    0.436    6.078
  446.512   72.266    0.221    0.453    6.379
  446.762   69.585    0.226    0.457    6.543
  447.012   70.292    0.218    0.435    6.579
  447.262   71.264    0.173    0.396    6.454
  447.512   73.325    0.183    0.378    5.895
  447.762   75.897    0.233    0.371    5.332
  448.012   78.844    0.268    0.377    4.752
  448.262   81.436    0.245    0.395    4.733
  448.512   82.992    0.225    0.410    6.292
  448.762   66.726    0.205    0.427    9.110
  449.012   56.053    0.224    0.458   12.138
  449.262   51.589    0.244    0.425   14.761
  449.512   50.037    0.272    0.401   16.600
  449.762   50.054    0.288    0.394   17.305
  450.012   48.493    0.293    0.409   16.424
  450.262   47.670    0.266    0.422   14.882
  450.512   48.536    0.260    0.426   13.519
  450.762   52.266    0.234    0.375   12.302
  451.012   55.812    0.162    0.361   10.740
  451.262   57.455    0.129    0.379    9.469
  451.512   59.787    0.086    0.378    7.918
  451.762   62.999    0.010    0.353    6.413
  452.012   66.510    0.019    0.344    4.995
  452.262   69.198    0.077    0.339    3.962
  452.512   72.071    0.113    0.349    3.362
  452.762   70.243    0.130    0.372    2.980
  453.012   66.844    0.189    0.394    2.773
  453.262   69.846    0.246    0.414    2.680
  453.512   72.161    0.283    0.426    2.703
  453.762   74.731    0.290    0.424    2.797
  454.012   77.040    0.291    0.422    2.997
  454.262   82.578    0.286    0.421    3.337
  454.512   89.134    0.284    0.418    3.556
  454.762   93.860    0.289    0.415    3.708
  455.012   96.632    0.276    0.416    3.853
  455.262   97.947    0.250    0.415    3.873
  455.512   94.708    0.242    0.406    3.814
  455.762   98.343    0.248    0.401    3.736
  456.012  102.634    0.244    0.419    3.731
  456.262  107.777    0.221    0.429    4.012
  456.512  106.804    0.206    0.433    4.087
  456.762  101.244    0.209    0.453    4.073
  457.012  103.544    0.223    0.461    4.150
  457.262  108.377    0.195    0.452    4.316
  457.512  107.759    0.159    0.443    4.625
  457.762  101.812    0.127    0.452    4.890
  458.012   98.355    0.067    0.449    4.840
  458.262  103.403    0.020    0.428    4.610
  458.512   97.354    0.053    0.426    4.192
  458.762   93.019    0.201    0.436    3.987
  459.012   89.092    0.216    0.421    3.957
  459.262   85.997    0.203    0.400    3.988
  459.512   88.030    0.207    0.387    4.072
  459.762   90.280    0.216    0.389    4.390
  460.012   90.047    0.220    0.395    4.636
  460.262   86.158    0.186    0.397    4.714
