~VERSION INFORMATION
 VERS.                 2.0:   CWLS LOG ASCII STANDARD -VERSION 2.0
 WRAP.                  NO:   ONE LINE PER DEPTH STEP
~WELL INFORMATION BLOCK
#MNEM.UNIT           DATA                    DESCRIPTION OF MNEMONIC
#---------    -------------------            -------------------------------
# Generated from Intellog Unique Number	CS_69_70/WELL/866
WELL.         BRALORNE RESOURCES LIMITED     : Well_name    - WELL
LOC .         00/10-12-069-10W4/0            : Location     - LOCATION
UWI .         00/10-12-069-10W4/0            : Uwi          - UNIQUE WELL ID
ENTR.         SP                             : Entered      - ENTERED BY
SRVC.         SCHLUMBERGER                   : Scn          - SERVICE COMPANY
STRT.M        478.536                        : top_depth    - START DEPTH
STOP.M        685.536                        : bot_depth    - STOP DEPTH
STEP.M        0.25                           : increment    - STEP LENGTH
 NULL. -999.2500:NULL Value
~CURVE INFORMATION BLOCK
#MNEM UNIT       ERCB CURVE CODE    CURVE DESCRIPTION
#-----------   ------------------   ----------------------------------
DEPT.M        00 001 00 00         : DEPTH        - DEPTH
GR  .API      00 310 00 00         : GR           - GAMMA RAY
DPHI.V/V      00 890 00 00         : PHID         - DENSITY POROSITY (SANDSTONE)
NPHI.V/V      00 330 00 00         : PHIN         - NEUTRON POROSITY (SANDSTONE)
ILD .OHMM     00 120 00 00         : RESD         - DEEP RESISTIVITY (DIL)
~PARAMETER INFORMATION
#MNEM.UNIT           DATA             DESCRIPTION OF MNEMONIC
#---------         -----------     ------------------------------
GL  .M        798.119              : gl           - GROUND LEVEL ELEVATION
EREF.M        801.624              : kb           - ELEVATION OF DEPTH REFERENCE
DATM.M        798.119              : datum        - DATUM ELEVATION
TDD .M        687.019              : tdd          - TOTAL DEPTH DRILLER
RUN .         ONE                  : Run          - RUN NUMBER
ENG .         BILL                 : Engineer     - RECORDING ENGINEER
WIT .         JIM                  : Witness      - WITNESSED BY
MUD .         GEL                  : Mud_type     - MUD TYPE
MATR.         SANDSTONE            : Logunit      - NEUTRON MATRIX
TMAX.C        20                   : BHT          - MAXIMUM RECORDED TEMPERATURE
BHTD.M        687.019              : BHTDEP       - MAXIMUM RECORDED TEMPERATURE
MATR.         1                    : LOGUNIT      - NEUTRON MATRIX
RMT .C        25                   : MDTP         - TEMPERATURE OF MUD
NEUT.         1                    : NEUTRON      - NEUTRON TYPE
RESI.         0                    : RESIST       - RESISTIVITY TYPE
RMC .OHMM     0.25                 : RMC          - RESISTIVITY OF MUD CAKE
RMF .OHMM     0.25                 : RMF          - RESISTIVITY OF MUD FILTRATE
SUFT.C        15                   : SUFT         - SURFACE TEMPERATURE
~A  DEPTH       GR     PHID     PHIN     RESD
# ...
  609.036   82.855    0.223    0.453    3.204
  609.286   84.080    0.197    0.444    3.704
  609.536   85.877    0.158    0.432    4.069
  609.786   87.456    0.110    0.413    4.314
  610.036   89.605    0.137    0.378    4.370
  610.286   92.866    0.162    0.405    4.263
  610.536   94.736    0.186    0.433    4.054
  610.786   95.857    0.187    0.457    3.829
  611.036   97.230    0.181    0.444    3.702
  611.286   97.700    0.184    0.432    3.590
  611.536   98.171    0.187    0.430    3.518
  611.786   97.295    0.180    0.439    3.524
  612.036   95.011    0.186    0.449    3.603
  612.286   91.672    0.190    0.458    3.745
  612.536   88.837    0.175    0.450    3.937
  612.786   85.091    0.156    0.405    4.413
  613.036   78.671    0.102    0.366    5.228
  613.286   71.458    0.027    0.331    7.685
  613.536   65.268    0.034    0.291    9.337
  613.786   77.008    0.084    0.264    8.489
  614.036   83.338    0.156    0.302    6.797
  614.286   90.770    0.178    0.355    5.713
  614.536   95.280    0.186    0.408    4.775
  614.786   98.589    0.189    0.436    4.300
  615.036  101.124    0.196    0.449    3.888
  615.286  103.577    0.207    0.451    3.733
  615.536  102.917    0.215    0.451    3.673
  615.786  101.159    0.208    0.450    3.641
  616.036   99.102    0.193    0.450    3.736
  616.286   96.837    0.182    0.452    3.889
  616.536   98.784    0.163    0.451    4.053
  616.786   98.784    0.148    0.437    4.144
  617.036  100.416    0.160    0.425    4.098
  617.286  102.071    0.191    0.426    3.990
  617.536  104.355    0.205    0.421    3.887
  617.786  105.760    0.210    0.419    3.781
  618.036  105.249    0.211    0.429    3.678
  618.286  104.132    0.206    0.446    3.568
  618.536  103.615    0.199    0.460    3.502
  618.786  105.929    0.199    0.458    3.452
  619.036  108.689    0.214    0.441    3.436
  619.286  110.788    0.204    0.431    3.445
  619.536  110.979    0.190    0.429    3.507
  619.786  106.883    0.183    0.440    3.524
  620.036  101.240    0.187    0.452    3.483
  620.286   98.423    0.194    0.449    3.374
  620.536   98.140    0.198    0.445    3.251
  620.786  100.569    0.214    0.441    3.179
  621.036  102.233    0.231    0.439    3.114
  621.286  102.453    0.203    0.449    3.050
  621.536  100.706    0.190    0.439    3.006
  621.786   98.697    0.180    0.427    3.026
  622.036   96.927    0.181    0.435    3.146
  622.286   91.261    0.184    0.421    3.365
  622.536   83.647    0.169    0.383    3.747
  622.786   77.707    0.132    0.345    4.112
  623.036   73.129    0.100    0.295    4.646
  623.286   73.317    0.016    0.266    5.284
  623.536   80.234    0.064    0.253    4.829
  623.786   86.777    0.136    0.318    4.192
  624.036   93.066    0.175    0.433    3.538
  624.286   98.449    0.201    0.479    2.924
  624.536  101.354    0.218    0.498    2.330
  624.786  101.007    0.224    0.502    1.924
  625.036  102.154    0.219    0.504    1.747
  625.286  104.164    0.220    0.524    1.764
  625.536  105.176    0.229    0.521    2.030
  625.786  104.580    0.218    0.510    2.283
  626.036   96.316    0.209    0.499    2.587
  626.286   90.392    0.205    0.458    2.887
  626.536   89.781    0.160    0.429    3.175
  626.786   93.445    0.154    0.434    3.351
  627.036   98.474    0.186    0.446    3.243
  627.286  101.006    0.208    0.444    3.136
  627.536  100.429    0.216    0.437    3.099
  627.786   99.802    0.208    0.433    3.130
  628.036  100.505    0.198    0.437    3.210
  628.286  101.731    0.181    0.442    3.391
  628.536   98.676    0.190    0.448    3.688
  628.786   94.991    0.183    0.446    3.934
  629.036   93.556    0.156    0.435    4.243
  629.286   92.366    0.124    0.429    4.424
  629.536   91.306    0.094    0.421    4.522
  629.786   92.333    0.093    0.400    4.176
  630.036   97.987    0.130    0.393    3.730
  630.286  102.241    0.152    0.416    3.241
  630.536  106.356    0.165    0.429    2.936
  630.786  108.086    0.160    0.440    2.584
  631.036  109.383    0.156    0.453    2.436
  631.286  111.943    0.164    0.468    2.301
  631.536  114.067    0.177    0.478    2.249
  631.786  115.867    0.167    0.487    2.230
  632.036  117.810    0.156    0.495    2.230
  632.286  119.203    0.158    0.504    2.248
  632.536  120.681    0.170    0.513    2.281
  632.786  121.791    0.178    0.523    2.316
  633.036  120.719    0.179    0.507    2.333
  633.286  118.861    0.179    0.494    2.338
  633.536  119.011    0.179    0.484    2.293
  633.786  120.940    0.183    0.478    2.248
  634.036  122.131    0.201    0.487    2.185
  634.286  121.632    0.213    0.507    2.123
  634.536  120.783    0.214    0.535    2.084
  634.786  119.921    0.201    0.517    2.067
  635.036  118.709    0.194    0.495    2.148
  635.286  116.734    0.194    0.498    2.246
  635.536  110.955    0.196    0.506    2.603
  635.786  102.523    0.170    0.501    3.081
  636.036   92.331    0.131    0.476    3.829
  636.286   80.823    0.112    0.446    4.434
  636.536   81.041    0.087    0.422    5.125
  636.786   85.826    0.092    0.391    5.558
  637.036   88.118    0.165    0.373    6.028
  637.286   84.996    0.187    0.392    6.535
  637.536   75.853    0.201    0.410    6.879
  637.786   71.819    0.206    0.411    7.210
  638.036   70.385    0.206    0.403    7.489
  638.286   70.027    0.205    0.398    7.657
  638.536   70.473    0.205    0.392    7.684
  638.786   69.607    0.195    0.398    7.749
  639.036   69.249    0.189    0.403    7.791
  639.286   69.939    0.183    0.394    7.817
  639.536   72.057    0.170    0.382    7.915
  639.786   74.119    0.157    0.370    7.669
  640.036   79.029    0.150    0.361    6.748
  640.286   83.574    0.176    0.350    5.837
  640.536   87.351    0.209    0.370    5.214
  640.786   91.117    0.187    0.401    4.662
  641.036   94.167    0.171    0.418    4.611
  641.286   96.677    0.162    0.429    4.963
  641.536   97.965    0.192    0.431    5.296
  641.786   96.954    0.209    0.416    6.307
  642.036   96.274    0.230    0.404    6.880
  642.286   96.201    0.251    0.394    7.535
  642.536   96.364    0.250    0.388    7.699
  642.786   97.571    0.238    0.382    7.014
  643.036   98.659    0.230    0.378    6.602
  643.286   99.426    0.224    0.375    5.744
  643.536   99.207    0.216    0.372    4.918
  643.786   82.381    0.210    0.384    4.081
  644.036   55.053    0.220    0.404    3.468
  644.286   41.180    0.248    0.389    2.983
  644.536   32.713    0.260    0.369    2.733
  644.786   30.949    0.267    0.355    2.506
  645.036   32.106    0.268    0.350    2.371
  645.286   34.328    0.263    0.351    2.299
  645.536   38.565    0.271    0.354    2.261
  645.786   40.411    0.277    0.355    2.253
  646.036   42.584    0.271    0.355    2.271
  646.286   44.361    0.266    0.355    2.244
  646.536   45.830    0.271    0.355    2.229
  646.786   47.295    0.277    0.357    2.222
  647.036   48.309    0.276    0.366    2.219
  647.286   49.419    0.282    0.373    2.221
  647.536   50.744    0.278    0.383    2.219
  647.786   52.267    0.273    0.388    2.214
  648.036   54.111    0.286    0.385    2.214
  648.286   55.421    0.275    0.382    2.216
  648.536   57.117    0.282    0.390    2.233
  648.786   59.140    0.284    0.395    2.259
  649.036   61.894    0.280    0.399    2.398
  649.286   66.276    0.271    0.398    2.637
  649.536   71.645    0.264    0.398    2.874
  649.786   77.678    0.235    0.397    3.286
  650.036   85.475    0.197    0.395    3.798
  650.286   92.714    0.178    0.388    4.033
  650.536   96.835    0.147    0.381    4.290
  650.786   93.118    0.201    0.377    4.419
  651.036   88.412    0.225    0.381    4.316
  651.286   87.454    0.252    0.404    4.177
  651.536   86.119    0.264    0.402    3.979
  651.786   83.448    0.244    0.394    3.840
  652.036   74.644    0.234    0.386    3.679
  652.286   65.707    0.236    0.372    3.611
