~VERSION INFORMATION
 VERS.                 2.0:   CWLS LOG ASCII STANDARD -VERSION 2.0
 WRAP.                  NO:   ONE LINE PER DEPTH STEP
~WELL INFORMATION BLOCK
#MNEM.UNIT           DATA                    DESCRIPTION OF MNEMONIC
#---------    -------------------            -------------------------------
# Generated from Intellog Unique Number	CS_71_72/WELL/900
WELL.         SULPETRO ET AL IPIATIK         : Well_name    - WELL
LOC .         00/11-17-072-10W4/0            : Location     - LOCATION
UWI .         00/11-17-072-10W4/0            : Uwi          - UNIQUE WELL ID
ENTR.         SP                             : Entered      - ENTERED BY
SRVC.         SCHLUMBERGER                   : Scn          - SERVICE COMPANY
STRT.M        300                            : top_depth    - START DEPTH
STOP.M        520                            : bot_depth    - STOP DEPTH
STEP.M        0.25                           : increment    - STEP LENGTH
 NULL. -999.2500:NULL Value
~CURVE INFORMATION BLOCK
#MNEM UNIT       ERCB CURVE CODE    CURVE DESCRIPTION
#-----------   ------------------   ----------------------------------
DEPT.M        00 001 00 00         : DEPTH        - DEPTH
ILD .OHMM     00 120 00 00         : RESD         - DEEP RESISTIVITY (DIL)
DPHI.V/V      00 890 00 00         : PHID         - DENSITY POROSITY (LIMESTONE)
NPHI.V/V      00 330 00 00         : PHIN         - NEUTRON POROSITY (LIMESTONE)
GR  .API      00 310 00 00         : GR           - GAMMA RAY
~PARAMETER INFORMATION
#MNEM.UNIT           DATA             DESCRIPTION OF MNEMONIC
#---------         -----------     ------------------------------
GL  .M        651.83               : gl           - GROUND LEVEL ELEVATION
EREF.M        655.44               : kb           - ELEVATION OF DEPTH REFERENCE
DATM.M        651.83               : datum        - DATUM ELEVATION
TDD .M        524                  : tdd          - TOTAL DEPTH DRILLER
RUN .         ONE                  : Run          - RUN NUMBER
ENG .         BILL                 : Engineer     - RECORDING ENGINEER
WIT .         JIM                  : Witness      - WITNESSED BY
MUD .         GEL                  : Mud_type     - MUD TYPE
MATR.         LIMESTONE            : Logunit      - NEUTRON MATRIX
TMAX.C        30                   : BHT          - MAXIMUM RECORDED TEMPERATURE
BHTD.M        524                  : BHTDEP       - MAXIMUM RECORDED TEMPERATURE
MATR.         1                    : LOGUNIT      - NEUTRON MATRIX
RMT .C        25                   : MDTP         - TEMPERATURE OF MUD
NEUT.         1                    : NEUTRON      - NEUTRON TYPE
RESI.         0                    : RESIST       - RESISTIVITY TYPE
RMC .OHMM     0.25                 : RMC          - RESISTIVITY OF MUD CAKE
RMF .OHMM     0.25                 : RMF          - RESISTIVITY OF MUD FILTRATE
SUFT.C        15                   : SUFT         - SURFACE TEMPERATURE
~A  DEPTH     RESD     PHID     PHIN       GR
# ...
  343.500   21.265    0.299    0.429   76.726
  343.750   22.923    0.275    0.403   77.327
  344.000   24.251    0.136    0.350   70.606
  344.250   23.794    0.059    0.340   65.719
  344.500   22.066    0.030    0.293   73.634
  344.750   18.624    0.185    0.269   85.209
  345.000   13.270    0.230    0.313   94.954
  345.250    9.817    0.250    0.453   93.114
  345.500   10.002    0.269    0.445   85.784
  345.750   11.409    0.288    0.408   82.116
  346.000   12.533    0.294    0.423   82.713
  346.250   13.510    0.296    0.457   84.531
  346.500   14.293    0.280    0.423   85.131
  346.750   14.838    0.280    0.405   85.728
  347.000   15.995    0.286    0.400   87.548
  347.250   16.607    0.293    0.397   88.144
  347.500   18.241    0.279    0.394   90.575
  347.750   18.939    0.247    0.397   96.047
  348.000   20.034    0.143    0.347   96.650
  348.250   20.799    0.061    0.321   77.737
  348.500   20.797    0.155    0.235   67.360
  348.750   20.792    0.245    0.262   67.350
  349.000   20.790    0.283    0.402   76.484
  349.250   19.645    0.296    0.420   83.785
  349.500   17.544    0.303    0.434   84.386
  349.750   15.088    0.296    0.442   86.203
  350.000   13.993    0.288    0.455   90.457
  350.250   11.810    0.250    0.421   94.716
  350.500    9.968    0.236    0.394   98.366
  350.750    8.902    0.238    0.387  104.451
  351.000    8.101    0.247    0.392  107.490
  351.250    7.801    0.261    0.415  103.211
  351.500    9.414    0.277    0.426   91.614
  351.750   11.150    0.291    0.421   83.069
  352.000   13.712    0.302    0.431   75.132
  352.250   14.783    0.304    0.439   75.732
  352.500   16.547    0.322    0.437   79.378
  352.750   17.505    0.336    0.431   79.364
  353.000   18.519    0.324    0.438   78.132
  353.250   18.171    0.319    0.430   79.345
  353.500   14.224    0.309    0.410   81.772
  353.750   13.191    0.288    0.414   87.855
  354.000   11.344    0.271    0.418   90.287
  354.250   10.131    0.259    0.444   93.935
  354.500    9.220    0.251    0.465   96.362
  354.750    7.930    0.244    0.436   96.957
  355.000    6.820    0.234    0.412  103.042
  355.250    5.543    0.230    0.396  106.694
  355.500    5.239    0.217    0.386  110.950
  355.750    4.950    0.223    0.397  108.498
  356.000    5.437    0.247    0.436  102.387
  356.250    6.687    0.253    0.482   99.333
  356.500    7.628    0.253    0.484   93.830
  356.750    9.740    0.261    0.462   91.994
  357.000   10.903    0.280    0.428   88.322
  357.250   12.913    0.303    0.417   84.040
  357.500   14.729    0.313    0.428   82.815
  357.750   15.582    0.289    0.434   80.365
  358.000   15.876    0.274    0.433   83.400
  358.250   15.002    0.257    0.422   87.046
  358.500   12.902    0.242    0.433   88.865
  358.750   12.659    0.218    0.451   88.858
  359.000   12.897    0.218    0.447   88.231
  359.250   12.895    0.247    0.435   87.614
  359.500   13.138    0.254    0.436   84.548
  359.750   13.386    0.258    0.424   83.320
  360.000   13.896    0.274    0.396   82.091
  360.250   13.894    0.279    0.384   80.861
  360.500   14.156    0.284    0.399   79.634
  360.750   14.154    0.290    0.427   79.011
  361.000   14.150    0.293    0.437   80.832
  361.250   14.149    0.285    0.420   83.865
  361.500   14.147    0.272    0.395   85.077
  361.750   13.622    0.265    0.383   88.108
  362.000   13.116    0.254    0.389   88.102
  362.250   12.870    0.245    0.398   88.088
  362.500   12.626    0.245    0.377   88.686
  362.750   12.625    0.251    0.366   88.678
  363.000   12.388    0.234    0.353   89.273
  363.250   11.706    0.225    0.369   89.877
  363.500   10.652    0.219    0.400   91.695
  363.750   10.452    0.222    0.416   94.729
  364.000    9.876    0.227    0.408   96.549
  364.250    9.691    0.236    0.403   97.149
  364.500    9.157    0.243    0.398   95.308
  364.750    8.652    0.237    0.399  102.000
  365.000    8.332    0.232    0.415  105.042
  365.250    7.582    0.227    0.394  109.299
  365.500    7.165    0.225    0.393  110.507
  365.750    6.520    0.232    0.408  109.888
  366.000    5.933    0.243    0.420  104.386
  366.250    5.607    0.266    0.447  100.110
  366.500    5.199    0.286    0.458   93.999
  366.750    5.198    0.301    0.468   89.113
  367.000    7.293    0.294    0.476   75.688
  367.250    8.477    0.307    0.455   68.360
  367.500   11.031    0.312    0.410   65.301
  367.750   13.566    0.320    0.430   68.337
  368.000   14.625    0.330    0.436   70.155
  368.250   14.082    0.336    0.442   70.144
  368.500   13.816    0.346    0.448   69.524
  368.750   13.304    0.328    0.451   71.343
  369.000   13.054    0.301    0.437   81.088
  369.250   12.569    0.279    0.409   89.612
  369.500   11.877    0.261    0.380   93.868
  369.750   11.653    0.251    0.378   96.297
  370.000   11.434    0.251    0.409   96.890
  370.250   11.220    0.262    0.418   96.272
  370.500   11.008    0.257    0.433   95.043
  370.750   10.801    0.253    0.423   90.764
  371.000   10.800    0.251    0.423   82.219
  371.250   10.798    0.278    0.430   70.011
  371.500   10.795    0.256    0.417   68.169
  371.750   10.794    0.246    0.410   71.820
  372.000   11.206    0.262    0.401   76.687
  372.250   13.024    0.280    0.406   65.697
  372.500   14.855    0.305    0.433   60.199
  372.750   16.319    0.319    0.439   54.094
  373.000   17.927    0.323    0.438   49.204
  373.250   18.966    0.323    0.421   47.363
  373.500   20.064    0.318    0.406   51.619
  373.750   20.440    0.320    0.395   52.219
  374.000   20.827    0.327    0.390   50.376
  374.250   21.217    0.329    0.392   49.760
  374.500   21.214    0.326    0.394   49.745
  374.750   21.211    0.329    0.401   50.951
  375.000   21.208    0.331    0.411   51.551
  375.250   21.203    0.323    0.403   51.543
  375.500   21.200    0.322    0.387   50.922
  375.750   21.597    0.326    0.381   50.303
  376.000   21.595    0.332    0.380   53.339
  376.250   22.000    0.337    0.383   54.548
  376.500   21.997    0.344    0.406   52.703
  376.750   21.995    0.347    0.404   51.473
  377.000   21.991    0.341    0.405   50.242
  377.250   21.986    0.333    0.409   50.235
  377.500   21.983    0.330    0.387   50.223
  377.750   21.978    0.330    0.376   50.824
  378.000   21.975    0.330    0.368   52.031
  378.250   21.971    0.329    0.358   50.798
  378.500   21.968    0.332    0.359   50.177
  378.750   21.965    0.344    0.371   50.166
  379.000   21.961    0.343    0.371   48.938
  379.250   21.548    0.336    0.381   48.319
  379.500   21.544    0.345    0.396   48.917
  379.750   21.541    0.351    0.414   51.342
  380.000   21.135    0.354    0.424   53.159
  380.250   20.349    0.358    0.408   54.976
  380.500   19.967    0.352    0.409   56.190
  380.750   19.965    0.345    0.432   57.397
  381.000   19.589    0.345    0.431   57.997
  381.250   19.586    0.342    0.422   58.596
  381.500   19.218    0.339    0.445   57.362
  381.750   19.214    0.340    0.436   57.354
  382.000   18.851    0.340    0.429   59.171
  382.250   18.848    0.334    0.425   60.379
  382.500   18.845    0.330    0.423   59.150
  382.750   18.843    0.334    0.419   59.139
  383.000   18.839    0.340    0.418   59.738
  383.250   18.837    0.342    0.397   57.894
  383.500   18.832    0.345    0.406   55.443
  383.750   18.830    0.339    0.421   54.827
  384.000   18.826    0.339    0.429   51.764
  384.250   18.824    0.341    0.427   51.144
  384.500   18.469    0.341    0.421   52.962
  384.750   18.465    0.339    0.428   51.734
  385.000   18.463    0.335    0.441   53.551
  385.250   18.459    0.333    0.463   54.757
  385.500   18.113    0.333    0.477   54.746
  385.750   18.109    0.332    0.430   54.737
  386.000   18.105    0.328    0.410   53.505
  386.250   18.103    0.327    0.411   53.496
  386.500   18.099    0.331    0.413   53.481
  386.750   18.097    0.333    0.405   52.860
