~VERSION INFORMATION
 VERS.                 2.0:   CWLS LOG ASCII STANDARD -VERSION 2.0
 WRAP.                  NO:   ONE LINE PER DEPTH STEP
~WELL INFORMATION BLOCK
#MNEM.UNIT           DATA                    DESCRIPTION OF MNEMONIC
#---------    -------------------            -------------------------------
# Generated from Intellog Unique Number	CS_73_76/WELL/2195
WELL.         BOW VALLEY INDUSTRIES LTD      : Well_name    - WELL
LOC .         00/11-04-074-15W4/0            : Location     - LOCATION
UWI .         00/11-04-074-15W4/0            : Uwi          - UNIQUE WELL ID
ENTR.         SP                             : Entered      - ENTERED BY
SRVC.         SCHLUMBERGER                   : Scn          - SERVICE COMPANY
STRT.M        285                            : top_depth    - START DEPTH
STOP.M        500                            : bot_depth    - STOP DEPTH
STEP.M        0.25                           : increment    - STEP LENGTH
 NULL. -999.2500:NULL Value
~CURVE INFORMATION BLOCK
#MNEM UNIT       ERCB CURVE CODE    CURVE DESCRIPTION
#-----------   ------------------   ----------------------------------
DEPT.M        00 001 00 00         : DEPTH        - DEPTH
ILD .OHMM     00 120 00 00         : RESD         - DEEP RESISTIVITY (DIL)
DPHI.V/V      00 890 00 00         : PHID         - DENSITY POROSITY (LIMESTONE)
NPHI.V/V      00 330 00 00         : PHIN         - NEUTRON POROSITY (LIMESTONE)
GR  .API      00 310 00 00         : GR           - GAMMA RAY
~PARAMETER INFORMATION
#MNEM.UNIT           DATA             DESCRIPTION OF MNEMONIC
#---------         -----------     ------------------------------
GL  .M        638.2                : gl           - GROUND LEVEL ELEVATION
EREF.M        641.71               : kb           - ELEVATION OF DEPTH REFERENCE
DATM.M        638.2                : datum        - DATUM ELEVATION
TDD .M        504.25               : tdd          - TOTAL DEPTH DRILLER
RUN .         ONE                  : Run          - RUN NUMBER
ENG .         BILL                 : Engineer     - RECORDING ENGINEER
WIT .         JIM                  : Witness      - WITNESSED BY
MUD .         GEL                  : Mud_type     - MUD TYPE
MATR.         LIMESTONE            : Logunit      - NEUTRON MATRIX
TMAX.C        20                   : BHT          - MAXIMUM RECORDED TEMPERATURE
BHTD.M        504.25               : BHTDEP       - MAXIMUM RECORDED TEMPERATURE
MATR.         1                    : LOGUNIT      - NEUTRON MATRIX
RMT .C        25                   : MDTP         - TEMPERATURE OF MUD
NEUT.         1                    : NEUTRON      - NEUTRON TYPE
RESI.         0                    : RESIST       - RESISTIVITY TYPE
RMC .OHMM     0.25                 : RMC          - RESISTIVITY OF MUD CAKE
RMF .OHMM     0.25                 : RMF          - RESISTIVITY OF MUD FILTRATE
SUFT.C        15                   : SUFT         - SURFACE TEMPERATURE
~A  DEPTH     RESD     PHID     PHIN       GR
# ...
  372.000   10.027    0.274    0.387   71.778
  372.250    9.841    0.253    0.403   74.232
  372.500    9.302    0.234    0.420   80.361
  372.750    7.711    0.225    0.439   85.264
  373.000    6.761    0.229    0.451   87.718
  373.250    5.604    0.242    0.452   89.562
  373.500    4.915    0.251    0.449   90.178
  373.750    4.475    0.245    0.424   92.020
  374.000    4.475    0.236    0.397   93.250
  374.250    4.824    0.226    0.388   95.095
  374.500    5.103    0.220    0.398   95.098
  374.750    5.712    0.216    0.403   95.717
  375.000    6.158    0.214    0.409   95.722
  375.250    6.394    0.212    0.428   96.340
  375.500    6.515    0.210    0.457   96.348
  375.750    6.639    0.206    0.482   95.739
  376.000    6.516    0.205    0.490   94.520
  376.250    6.516    0.209    0.478   94.528
  376.500    6.395    0.214    0.464   95.145
  376.750    6.276    0.219    0.464   95.151
  377.000    6.045    0.222    0.479   96.381
  377.250    5.608    0.225    0.469   97.611
  377.500    5.011    0.231    0.447   98.229
  377.750    4.649    0.242    0.440   98.234
  378.000    4.077    0.249    0.439   95.790
  378.250    3.782    0.258    0.420   92.736
  378.500    3.509    0.261    0.414   90.292
  378.750    3.443    0.266    0.408   86.626
  379.000    3.444    0.275    0.398   85.405
  379.250    3.643    0.285    0.404   86.635
  379.500    3.712    0.297    0.426   93.376
  379.750    3.713    0.312    0.450   96.442
  380.000    3.576    0.330    0.488   91.550
  380.250    3.444    0.341    0.468   79.312
  380.500    3.644    0.341    0.456   71.358
  380.750    4.315    0.341    0.446   67.691
  381.000    4.565    0.341    0.445   67.084
  381.250    5.305    0.345    0.443   66.476
  381.500    6.050    0.351    0.431   65.261
  381.750    6.772    0.350    0.416   64.654
  382.000    7.031    0.347    0.420   64.046
  382.250    7.031    0.346    0.446   62.216
  382.500    6.901    0.355    0.431   64.056
  382.750    6.901    0.358    0.414   68.349
  383.000    6.773    0.363    0.412   69.577
  383.250    6.774    0.367    0.419   72.036
  383.500    6.648    0.371    0.405   72.651
  383.750    6.525    0.372    0.394   73.881
  384.000    6.525    0.363    0.390   71.438
  384.250    6.404    0.282    0.352   67.157
  384.500    6.525    0.130    0.260   62.266
  384.750    7.034    0.075    0.190   59.822
  385.000    8.023    0.048    0.161   56.767
  385.250    9.500    0.039    0.155   53.713
  385.500   11.679    0.034    0.150   53.103
  385.750   14.091    0.034    0.149   53.723
  386.000   17.651    0.046    0.175   54.342
  386.250   22.958    0.074    0.241   55.570
  386.500   25.218    0.172    0.289   59.249
  386.750   20.133    0.265    0.345   68.441
  387.000   17.655    0.277    0.399   72.730
  387.250   13.323    0.273    0.427   77.633
  387.500    9.503    0.267    0.426   84.376
  387.750    8.026    0.272    0.422   86.829
  388.000    7.308    0.273    0.420   86.222
  388.250    6.779    0.287    0.423   85.616
  388.500    6.408    0.299    0.434   85.622
  388.750    6.173    0.295    0.439   84.402
  389.000    6.173    0.288    0.438   81.961
  389.250    6.290    0.287    0.422   81.352
  389.500    6.410    0.298    0.413   79.521
  389.750    6.531    0.301    0.407   77.080
  390.000    6.910    0.310    0.410   76.472
  390.250    7.041    0.315    0.407   76.478
  390.500    7.311    0.320    0.403   78.320
  390.750    7.450    0.314    0.407   80.776
  391.000    7.591    0.299    0.427   82.618
  391.250    7.592    0.287    0.449   82.623
  391.500    7.592    0.280    0.421   82.016
  391.750    7.592    0.275    0.390   79.573
  392.000    7.593    0.275    0.373   74.067
  392.250    7.452    0.275    0.384   77.135
  392.500    7.452    0.269    0.400   80.814
  392.750    7.452    0.258    0.400   83.269
  393.000    7.453    0.241    0.392   82.050
  393.250    7.314    0.213    0.354   75.934
  393.500    7.315    0.130    0.257   67.369
  393.750    7.739    0.023    0.183   61.251
  394.000    8.826    0.000    0.167   56.358
  394.250   11.479    0.000    0.162   53.303
  394.500   15.795    0.000    0.161   51.473
  394.750   20.932    0.031    0.183   53.926
  395.000   22.565    0.097    0.220   64.341
  395.250   18.705    0.160    0.294   74.142
  395.500   16.713    0.235    0.348   83.944
  395.750   12.612    0.248    0.379   87.623
  396.000    9.517    0.257    0.413   89.466
  396.250    7.598    0.254    0.417   89.471
  396.500    6.663    0.254    0.417   84.579
  396.750    6.298    0.256    0.418   80.910
  397.000    6.182    0.259    0.390   81.529
  397.250    6.182    0.260    0.397   85.822
  397.500    6.182    0.254    0.410   86.438
  397.750    6.182    0.252    0.419   87.669
  398.000    6.183    0.258    0.437   89.512
  398.250    6.183    0.262    0.448   89.517
  398.500    6.068    0.255    0.435   87.685
  398.750    6.068    0.241    0.391   84.019
  399.000    5.956    0.228    0.367   79.738
  399.250    6.069    0.209    0.341   73.010
  399.500    6.301    0.216    0.316   67.504
  399.750    6.421    0.289    0.311   61.388
  400.000    6.793    0.309    0.332   61.393
  400.250    7.054    0.314    0.356   65.072
  400.500    7.188    0.319    0.368   66.914
  400.750    7.188    0.320    0.367   64.473
  401.000    7.324    0.318    0.368   62.029
  401.250    7.463    0.314    0.366   60.809
  401.500    7.325    0.313    0.366   58.369
  401.750    7.325    0.315    0.367   58.371
  402.000    7.326    0.315    0.368   60.214
  402.250    7.326    0.314    0.371   63.895
  402.500    7.326    0.315    0.376   65.125
  402.750    7.190    0.319    0.372   66.355
  403.000    7.191    0.325    0.361   66.971
  403.250    7.191    0.328    0.371   68.202
  403.500    7.191    0.329    0.390   68.207
  403.750    7.058    0.328    0.395   71.274
  404.000    7.058    0.328    0.387   73.730
  404.250    7.059    0.328    0.389   73.735
  404.500    7.059    0.331    0.378   72.518
  404.750    7.059    0.329    0.372   73.133
  405.000    6.928    0.326    0.382   74.367
  405.250    6.929    0.326    0.406   75.595
  405.500    6.929    0.330    0.426   77.437
  405.750    6.929    0.331    0.410   78.666
  406.000    6.800    0.331    0.401   81.124
  406.250    6.801    0.329    0.396   81.739
  406.500    6.801    0.324    0.400   82.356
  406.750    6.801    0.321    0.421   80.528
  407.000    6.802    0.321    0.432   79.919
  407.250    6.802    0.319    0.407   79.925
  407.500    6.802    0.309    0.399   79.319
  407.750    6.676    0.304    0.388   78.713
  408.000    6.676    0.297    0.389   77.495
  408.250    6.677    0.286    0.405   76.887
  408.500    6.677    0.274    0.424   75.055
  408.750    6.677    0.263    0.436   78.737
  409.000    6.678    0.263    0.420   81.192
  409.250    6.554    0.271    0.404   85.485
  409.500    6.432    0.276    0.400   89.165
  409.750    6.195    0.265    0.405   91.618
  410.000    5.967    0.256    0.418   93.459
  410.250    5.536    0.242    0.431   95.913
  410.500    4.946    0.237    0.431   98.981
  410.750    4.503    0.230    0.423   99.597
  411.000    3.876    0.226    0.424  100.827
  411.250    3.529    0.230    0.430  100.221
  411.500    3.336    0.228    0.408   98.391
  411.750    3.094    0.223    0.389   97.173
  412.000    3.095    0.220    0.381   95.952
  412.250    3.336    0.221    0.375   95.345
  412.500    3.734    0.225    0.373   95.350
  412.750    4.101    0.215    0.384   94.746
  413.000    4.857    0.207    0.394   93.525
  413.250    5.138    0.212    0.381   92.306
  413.500    5.539    0.226    0.377   94.763
  413.750    5.971    0.241    0.393   95.993
  414.000    6.200    0.247    0.419   94.774
  414.250    6.318    0.247    0.448   92.942
  414.500    6.200    0.246    0.428   92.948
  414.750    5.972    0.243    0.408   94.790
  415.000    5.861    0.240    0.395   96.632
  415.250    5.646    0.232    0.403   95.413
