~VERSION INFORMATION
 VERS.                 2.0:   CWLS LOG ASCII STANDARD -VERSION 2.0
 WRAP.                  NO:   ONE LINE PER DEPTH STEP
~WELL INFORMATION BLOCK
#MNEM.UNIT           DATA                    DESCRIPTION OF MNEMONIC
#---------    -------------------            -------------------------------
# Generated from Intellog Unique Number	CW_70_72/WELL/1074
NULL.         -999.25                        : NULL_VALUE
WELL.         NORTHSTAR ET AL TOMATO 16-20   : Well_name    - WELL              
LOC .         16-20-072-23W4                 : Location     - LOCATION          
UWI .         00/16-20-072-23W4/0            : Uwi          - UNIQUE WELL ID    
ENTR.         JAYE                           : Entered      - ENTERED BY        
SRVC.         COMPUTALOG                     : Scn          - SERVICE COMPANY   
DATE.         18 FEB 81                      : Date         - LOG DATE          
STRT.M        430                            : top_depth    - START DEPTH       
STOP.M        639.75                         : bot_depth    - STOP DEPTH        
STEP.M        0.25                           : increment    - STEP LENGTH       
~CURVE INFORMATION BLOCK
#MNEM UNIT       ERCB CURVE CODE    CURVE DESCRIPTION
#-----------   ------------------   ----------------------------------
DEPT.M        00 001 00 00         : DEPTH        - DEPTH                       
DPHI.V/V      00 890 00 00         : PHID         - DENSITY POROSITY (SANDSTONE)
NPHI.V/V      00 330 00 00         : PHIN         - NEUTRON POROSITY (SANDSTONE)
GR  .API      00 310 00 00         : GR           - GAMMA RAY                   
CALI.MM       00 280 01 00         : CAL          - CALIPER                     
ILD .OHMM     00 120 00 00         : RESD         - DEEP RESISTIVITY (DLL)      
~PARAMETER INFORMATION       
#MNEM.UNIT           DATA             DESCRIPTION OF MNEMONIC
#---------         -----------     ------------------------------
GL  .M        674.7                : gl           - GROUND LEVEL ELEVATION      
EREF.M        678.7                : kb           - ELEVATION OF DEPTH REFERENCE
DATM.M        674.7                : datum        - DATUM ELEVATION             
TDD .M        644                  : tdd          - TOTAL DEPTH DRILLER         
RUN .         ONE                  : Run          - RUN NUMBER                  
ENG .         ABHNDROTH            : Engineer     - RECORDING ENGINEER          
WIT .         SNELLING/FERRIS      : Witness      - WITNESSED BY                
BASE.         MEDICINE HAT         : Branch       - HOME BASE OF LOGGING UNIT   
MUD .         GEL CHEN             : Mud_type     - MUD TYPE                    
MATR.         SANDSTONE            : Logunit      - NEUTRON MATRIX              
TMAX.C        32                   : BHT          - MAXIMUM RECORDED TEMPERATURE
BHTD.M        642                  : BHTDEP       - MAXIMUM RECORDED TEMPERATURE
RMT .C        16                   : MDTP         - TEMPERATURE OF MUD          
MUDD.KG/M     1080                 : MWT          - MUD DENSITY                 
NEUT.         1                    : NEUTRON      - NEUTRON TYPE                
RESI.         1                    : RESIST       - RESISTIVITY TYPE            
RM  .OHMM     3.5                  : RM           - RESISTIVITY OF MUD          
RMC .OHMM     2.75                 : RMC          - RESISTIVITY OF MUD CAKE     
RMF .OHMM     4.5                  : RMF          - RESISTIVITY OF MUD FILTRATE 
SUFT.C        0                    : SUFT         - SURFACE TEMPERATURE         
~A  DEPTH     PHID     PHIN       GR      CAL     RESD
  430.000    0.199    0.485  108.597  202.520    2.858
  430.250    0.195    0.455  102.245  176.452    2.687
  430.500    0.192    0.421   95.888  174.934    2.593
  430.750    0.184    0.475   92.540  174.238    2.555
  431.000    0.203    0.525   94.424  174.274    2.556
  431.250    0.217    0.509   93.943  174.205    2.641
  431.500    0.227    0.496   91.457  173.930    2.817
  431.750    0.244    0.521   88.324  174.696    3.011
  432.000    0.254    0.454   79.751  174.214    3.212
  432.250    0.248    0.416   73.894  172.687    3.552
  432.500    0.233    0.344   66.895  167.844    3.927
  432.750    0.213    0.410   71.715  158.636    4.142
  433.000    0.204    0.501   78.970  160.021    4.239
  433.250    0.217    0.491   71.110  163.172    4.233
  433.500    0.231    0.386   58.523  163.728    4.163
  433.750    0.236    0.340   49.375  158.986    4.041
  434.000    0.258    0.353   45.527  156.634    3.945
  434.250    0.275    0.367   41.320  155.113    3.880
  434.500    0.294    0.378   36.541  154.425    3.867
  434.750    0.299    0.375   35.916  154.462    3.950
  435.000    0.296    0.372   39.232  154.804    4.111
  435.250    0.298    0.391   43.049  154.536    4.369
  435.500    0.296    0.407   47.726  154.151    4.608
  435.750    0.272    0.375   38.148  154.287    4.707
  436.000    0.242    0.336   31.936  155.362    4.665
  436.250    0.219    0.329   36.898  156.233    4.553
  436.500    0.255    0.336   43.938  156.891    4.428
  436.750    0.283    0.353   43.029  157.860    4.331
  437.000    0.282    0.371   44.623  159.146    4.172
  437.250    0.262    0.372   53.098  160.320    4.034
  437.500    0.250    0.329   60.710  161.917    3.923
  437.750    0.245    0.314   71.548  162.990    3.851
  438.000    0.239    0.376   83.245  164.688    3.867
  438.250    0.223    0.419   92.003  164.099    3.973
  438.500    0.219    0.456  101.553  161.540    4.174
  438.750    0.227    0.453  108.878  160.017    4.445
  439.000    0.240    0.442   94.357  159.641    4.777
  439.250    0.241    0.415   84.421  159.367    5.145
  439.500    0.249    0.378   74.483  159.085    5.295
  439.750    0.252    0.349   68.344  158.922    5.327
  440.000    0.248    0.365   66.500  159.055    5.339
  440.250    0.236    0.354   71.607  159.197    5.382
  440.500    0.222    0.359   78.647  159.024    5.374
  440.750    0.203    0.347   81.461  159.062    5.377
  441.000    0.185    0.335   77.327  159.406    5.410
  441.250    0.167    0.309   71.474  159.753    5.453
  441.500    0.134    0.329   69.130  160.208    5.486
  441.750    0.120    0.375   78.463  160.967    5.489
  442.000    0.146    0.435   92.881  163.394    5.470
  442.250    0.198    0.438  100.207  166.336    5.482
  442.500    0.206    0.420   96.145  170.215    5.495
  442.750    0.212    0.371   82.269  167.450    5.487
  443.000    0.218    0.379   74.122  165.000    5.407
  443.250    0.230    0.367   68.271  163.472    5.278
  443.500    0.235    0.388   61.197  161.535    5.008
  443.750    0.217    0.342   52.693  159.908    4.797
  444.000    0.192    0.309   53.501  159.321    4.674
  444.250    0.169    0.295   67.132  159.670    4.649
  444.500    0.174    0.317   81.049  160.638    4.740
  444.750    0.202    0.378   95.398  162.334    4.888
  445.000    0.216    0.390   89.901  164.034    5.030
  445.250    0.210    0.432   86.627  166.665    5.206
  445.500    0.209    0.438   80.486  171.582    5.450
  445.750    0.209    0.409   70.480  168.816    5.609
  446.000    0.209    0.361   67.203  164.591    5.707
  446.250    0.212    0.345   75.317  159.538    5.797
  446.500    0.208    0.364   79.062  160.201    5.921
  446.750    0.205    0.368   79.155  162.415    6.059
  447.000    0.211    0.352   79.893  163.073    6.260
  447.250    0.215    0.343   84.997  163.838    6.394
  447.500    0.221    0.323   86.522  164.391    6.518
  447.750    0.208    0.312   77.588  162.251    6.658
  448.000    0.204    0.317   69.800  161.140    6.801
  448.250    0.199    0.323   62.157  160.661    6.842
  448.500    0.197    0.350   68.910  160.593    6.884
  448.750    0.197    0.335   68.502  160.525    6.939
  449.000    0.198    0.352   67.016  160.665    7.061
  449.250    0.200    0.336   72.337  160.597    7.335
  449.500    0.206    0.316   76.943  160.007    7.693
  449.750    0.204    0.310   72.952  160.044    8.459
  450.000    0.202    0.393   77.986  160.285    9.714
  450.250    0.213    0.444   65.900  160.530   11.540
  450.500    0.234    0.384   43.140  160.461   13.815
  450.750    0.256    0.351   16.443  158.419   15.075
  451.000    0.272    0.315    1.490  156.066   14.277
  451.250    0.260    0.295   13.259  156.834   12.490
  451.500    0.247    0.280   27.679  157.906   10.703
  451.750    0.222    0.296   42.024  159.083    9.542
  452.000    0.198    0.324   51.859  159.955    8.784
  452.250    0.210    0.355   61.406  160.506    8.042
  452.500    0.240    0.407   57.844  160.750    7.776
  452.750    0.260    0.442   58.581  160.686    7.720
  453.000    0.263    0.419   56.595  160.820    7.637
  453.250    0.266    0.412   53.464  160.758    7.399
  453.500    0.271    0.418   49.617  160.479    6.735
  453.750    0.282    0.414   42.402  160.306    6.073
  454.000    0.286    0.387   38.983  159.822    5.292
  454.250    0.283    0.359   45.379  159.759    4.450
  454.500    0.268    0.383   65.743  159.479    3.886
  454.750    0.245    0.416   86.323  159.202    3.419
  455.000    0.209    0.490  103.965  158.929    3.141
  455.250    0.181    0.517  107.782  158.656    2.925
  455.500    0.163    0.457   98.991  158.795    2.755
  455.750    0.170    0.460   99.227  158.619    2.694
  456.000    0.200    0.420  113.072  158.241    2.675
  456.250    0.212    0.422  110.227  158.691    2.707
  456.500    0.215    0.450  106.737  160.182    2.791
  456.750    0.217    0.499  108.764  162.401    2.960
  457.000    0.224    0.532  106.421  164.304    3.218
  457.250    0.224    0.475  117.042  165.798    3.613
  457.500    0.214    0.434  124.227  167.493    3.995
  457.750    0.205    0.366  118.948  168.882    4.426
  458.000    0.202    0.343  111.229  168.397    4.894
  458.250    0.211    0.368  106.379  166.043    5.211
  458.500    0.233    0.356  101.742  164.522    5.106
  458.750    0.261    0.377   99.111  168.610    5.003
  459.000    0.286    0.337  101.282  171.346    4.893
  459.250    0.261    0.376  102.232  168.680    4.812
  459.500    0.264    0.413   85.849  168.924    4.778
  459.750    0.219    0.433   74.479  174.360    4.762
  460.000    0.236    0.486   67.622  163.490    4.800
  460.250    0.270    0.454   61.411  156.152    4.857
  460.500    0.293    0.401   54.913  155.150    4.942
  460.750    0.289    0.354   63.672  155.394    5.077
  461.000    0.278    0.385   84.968  156.367    5.185
  461.250    0.262    0.445   89.931  157.126    5.337
  461.500    0.267    0.487   73.833  157.788    5.451
  461.750    0.270    0.484   67.694  158.244    5.578
  462.000    0.275    0.446   73.874  158.276    5.719
  462.250    0.260    0.418   76.688  156.962    5.842
  462.500    0.223    0.371   68.613  156.267    5.888
  462.750    0.213    0.375   66.486  156.824    5.902
  463.000    0.204    0.378   73.956  157.689    5.772
  463.250    0.202    0.389   81.712  158.660    5.540
  463.500    0.207    0.420   82.448  159.320    5.306
  463.750    0.210    0.502   80.892  158.941    5.083
  464.000    0.238    0.504   67.948  159.290    4.896
  464.250    0.257    0.419   60.303  159.011    4.690
  464.500    0.273    0.396   54.521  157.699    4.535
  464.750    0.276    0.373   50.888  156.904    4.328
  465.000    0.274    0.386   47.829  156.525    4.161
  465.250    0.269    0.419   49.424  156.042    4.016
  465.500    0.252    0.428   69.359  155.871    3.995
  465.750    0.231    0.440   79.837  156.320    4.050
  466.000    0.212    0.413   80.860  156.878    4.160
  466.250    0.194    0.438   93.918  157.430    4.314
