~VERSION INFORMATION
 VERS.                 2.0:   CWLS LOG ASCII STANDARD -VERSION 2.0
 WRAP.                  NO:   ONE LINE PER DEPTH STEP
~WELL INFORMATION BLOCK
#MNEM.UNIT           DATA                    DESCRIPTION OF MNEMONIC
#---------    -------------------            -------------------------------
# Generated from Intellog Unique Number	CW_70_72/WELL/1051
NULL.         -999.25                        : NULL_VALUE
WELL.         DECALTA ET AL SMITH 11-03      : Well_name    - WELL              
LOC .         11-03-071-01W5                 : Location     - LOCATION          
UWI .         00/11-03-071-01W5/0            : Uwi          - UNIQUE WELL ID    
ENTR.         JAYE                           : Entered      - ENTERED BY        
SRVC.         SCHLUMBERGER                   : Scn          - SERVICE COMPANY   
DATE.         1 NOV 77                       : Date         - LOG DATE          
STRT.M        384.048                        : top_depth    - START DEPTH       
STOP.M        644.298                        : bot_depth    - STOP DEPTH        
STEP.M        0.25                           : increment    - STEP LENGTH       
~CURVE INFORMATION BLOCK
#MNEM UNIT       ERCB CURVE CODE    CURVE DESCRIPTION
#-----------   ------------------   ----------------------------------
DEPT.M        00 001 00 00         : DEPTH        - DEPTH                       
DPHI.V/V      00 890 00 00         : PHID         - DENSITY POROSITY (SANDSTONE)
NPHI.V/V      00 330 00 00         : PHIN         - NEUTRON POROSITY (SANDSTONE)
GR  .API      00 310 00 00         : GR           - GAMMA RAY                   
CALI.MM       00 280 01 00         : CAL          - CALIPER                     
ILD .OHMM     00 120 00 00         : RESD         - DEEP RESISTIVITY (DIL)      
~PARAMETER INFORMATION       
#MNEM.UNIT           DATA             DESCRIPTION OF MNEMONIC
#---------         -----------     ------------------------------
GL  .M        572.11               : gl           - GROUND LEVEL ELEVATION      
EREF.M        575.158              : kb           - ELEVATION OF DEPTH REFERENCE
DATM.M        572.11               : datum        - DATUM ELEVATION             
TDD .M        649.224              : tdd          - TOTAL DEPTH DRILLER         
RUN .         ONE                  : Run          - RUN NUMBER                  
ENG .         KUBICA               : Engineer     - RECORDING ENGINEER          
WIT .         RIES                 : Witness      - WITNESSED BY                
BASE.         EDM                  : Branch       - HOME BASE OF LOGGING UNIT   
MUD .         GEL                  : Mud_type     - MUD TYPE                    
MATR.         SANDSTONE            : Logunit      - NEUTRON MATRIX              
TMAX.C        26.6667              : BHT          - MAXIMUM RECORDED TEMPERATURE
BHTD.M        651.358              : BHTDEP       - MAXIMUM RECORDED TEMPERATURE
RMT .C        8.88889              : MDTP         - TEMPERATURE OF MUD          
MUDD.KG/M     1116                 : MWT          - MUD DENSITY                 
NEUT.         1                    : NEUTRON      - NEUTRON TYPE                
RESI.         0                    : RESIST       - RESISTIVITY TYPE            
RM  .OHMM     4.03                 : RM           - RESISTIVITY OF MUD          
RMC .OHMM     0                    : RMC          - RESISTIVITY OF MUD CAKE     
RMF .OHMM     4.38                 : RMF          - RESISTIVITY OF MUD FILTRATE 
SUFT.C        0                    : SUFT         - SURFACE TEMPERATURE         
~A  DEPTH     PHID     PHIN       GR      CAL     RESD
# ...
  457.048    0.317    0.412   76.451  163.347    1.916
  457.298    0.327    0.399   78.714  163.526    1.745
  457.548    0.339    0.401   84.265  163.598    1.610
  457.798    0.336    0.414   85.838  163.666    1.577
  458.048    0.327    0.428   86.484  163.534    1.688
  458.298    0.323    0.442   87.755  163.290    1.814
  458.548    0.312    0.449   86.532  163.047    1.948
  458.798    0.323    0.425   83.824  163.123    2.153
  459.048    0.312    0.406   79.809  163.406    2.330
  459.298    0.299    0.401   75.978  163.585    2.614
  459.548    0.234    0.364   73.145  163.551    2.894
  459.798    0.181    0.345   76.336  163.524    3.210
  460.048    0.204    0.349   81.767  163.284    3.514
  460.298    0.224    0.381   86.755  162.830    3.898
  460.548    0.244    0.412   88.896  162.167    4.331
  460.798    0.297    0.427   86.866  162.023    3.707
  461.048    0.291    0.404   85.774  162.105    3.028
  461.298    0.310    0.389   84.801  162.699    2.562
  461.548    0.325    0.394   83.273  163.095    2.226
  461.798    0.320    0.404   82.487  163.587    2.028
  462.048    0.315    0.401   81.580  163.974    1.885
  462.298    0.321    0.403   84.400  163.735    1.759
  462.548    0.312    0.407   84.730  161.807    1.688
  462.798    0.320    0.411   84.319  160.831    1.627
  463.048    0.320    0.418   84.657  160.691    1.588
  463.298    0.308    0.422   84.366  161.180    1.556
  463.548    0.320    0.418   83.457  161.681    1.550
  463.798    0.330    0.410   82.427  162.385    1.548
  464.048    0.328    0.403   80.339  163.190    1.557
  464.298    0.321    0.406   80.672  163.897    1.573
  464.548    0.320    0.416   82.560  164.505    1.576
  464.798    0.325    0.415   81.340  165.310    1.579
  465.048    0.330    0.406   80.427  166.012    1.595
  465.298    0.318    0.397   81.013  166.093    1.604
  465.548    0.304    0.394   82.713  166.062    1.605
  465.798    0.311    0.408   86.342  166.129    1.608
  466.048    0.312    0.421   85.489  166.311    1.612
  466.298    0.315    0.420   83.220  166.384    1.615
  466.548    0.312    0.418   81.938  166.460    1.628
  466.798    0.320    0.414   86.559  166.218    1.635
  467.048    0.313    0.412   87.701  165.764    1.645
  467.298    0.309    0.414   90.148  165.734    1.654
  467.548    0.315    0.420   91.600  165.492    1.670
  467.798    0.315    0.424   92.178  165.357    1.684
  468.048    0.308    0.431   94.131  165.105    1.690
  468.298    0.295    0.436   94.588  164.978    1.704
  468.548    0.278    0.440   95.421  164.943    1.756
  468.798    0.210    0.360   97.183  165.122    1.944
  469.048    0.162    0.322   98.757  165.303    2.661
  469.298    0.177    0.346  103.940  165.369    3.616
  469.548    0.223    0.385  107.629  165.136    4.026
  469.798    0.246    0.449  104.170  164.997    3.967
  470.048    0.231    0.441   99.534  164.652    3.486
  470.298    0.250    0.405   95.274  164.614    2.852
  470.548    0.288    0.412   93.743  164.265    2.597
  470.798    0.297    0.421   98.176  164.133    2.498
  471.048    0.286    0.437  104.972  164.103    2.434
  471.298    0.273    0.446  108.973  163.856    2.434
  471.548    0.262    0.438  111.665  163.722    2.467
  471.798    0.254    0.419  115.851  163.579    2.501
  472.048    0.246    0.425  119.666  163.553    2.573
  472.298    0.238    0.443  125.531  163.624    2.643
  472.548    0.224    0.454  128.721  163.914    2.719
  472.798    0.214    0.448  124.273  164.295    2.782
  473.048    0.202    0.451  122.679  164.580    2.851
  473.298    0.225    0.445  124.132  165.077    2.901
  473.548    0.242    0.436  122.786  165.364    2.990
  473.798    0.225    0.431  122.750  165.649    3.060
  474.048    0.207    0.427  125.628  165.827    3.107
  474.298    0.206    0.432  127.331  166.007    3.161
  474.548    0.196    0.441  125.305  166.082    3.234
  474.798    0.178    0.446  126.198  166.261    3.327
  475.048    0.180    0.443  128.454  166.228    3.436
  475.298    0.183    0.438  130.967  166.406    3.542
  475.548    0.191    0.428  132.667  166.579    3.658
  475.798    0.200    0.416  130.575  166.976    3.757
  476.048    0.194    0.398  129.297  167.365    3.837
  476.298    0.165    0.400  129.942  167.961    3.926
  476.548    0.142    0.408  131.457  167.510    3.994
  476.798    0.155    0.410  133.093  166.215    4.055
  477.048    0.168    0.416  134.235  165.238    4.103
  477.298    0.176    0.424  135.870  164.360    4.096
  477.548    0.170    0.434  139.439  164.017    4.029
  477.798    0.177    0.445  141.014  164.409    3.940
  478.048    0.188    0.449  135.759  165.112    3.810
  478.298    0.199    0.434  129.692  165.601    3.692
  478.548    0.212    0.415  122.570  166.097    3.564
  478.798    0.226    0.416  118.184  166.594    3.363
  479.048    0.258    0.422  112.181  166.881    3.127
  479.298    0.284    0.433  109.468  166.955    2.907
  479.548    0.280    0.443  114.340  166.607    2.687
  479.798    0.262    0.434  117.655  162.258    2.598
  480.048    0.246    0.418  117.741  160.121    2.575
  480.298    0.229    0.428  120.001  159.562    2.679
  480.548    0.218    0.432  122.945  159.951    2.814
  480.798    0.208    0.418  126.320  160.659    2.990
  481.048    0.191    0.411  132.993  162.518    3.170
  481.298    0.192    0.425  135.563  164.489    3.298
  481.548    0.204    0.429  132.292  166.562    3.400
  481.798    0.208    0.417  127.100  167.479    3.466
  482.048    0.210    0.412  120.598  168.080    3.519
  482.298    0.221    0.426  115.714  168.783    3.594
  482.548    0.252    0.447  112.071  168.964    3.588
  482.798    0.260    0.469  109.858  168.195    3.477
  483.048    0.267    0.457  111.553  165.955    3.381
  483.298    0.278    0.437  120.654  162.555    3.173
  483.548    0.279    0.428  132.109  160.735    3.023
  483.798    0.249    0.437  143.625  159.854    2.990
  484.048    0.245    0.443  161.107  159.296    3.025
  484.298    0.261    0.448  164.052  159.060    3.014
  484.548    0.275    0.449  142.639  159.131    2.915
  484.798    0.283    0.429  103.770  159.625    2.808
  485.048    0.292    0.412   94.412  160.123    2.690
  485.298    0.295    0.403   92.510  160.616    2.511
  485.548    0.288    0.411   95.884  160.897    2.317
  485.798    0.282    0.411   97.397  161.289    2.245
  486.048    0.276    0.406   94.441  161.890    2.344
  486.298    0.267    0.400   91.981  162.176    2.495
  486.548    0.260    0.394   91.632  162.249    2.621
  486.798    0.253    0.392   87.925  161.900    2.707
  487.048    0.261    0.385   84.157  161.446    2.728
  487.298    0.274    0.390   81.947  161.522    2.698
  487.548    0.277    0.400   83.832  161.492    2.639
  487.798    0.269    0.389   84.418  160.719    2.547
  488.048    0.258    0.373   80.775  160.059    2.454
  488.298    0.240    0.374   80.425  158.339    2.338
  488.548    0.250    0.422   84.548  157.470    2.202
  488.798    0.243    0.442   89.474  156.596    2.090
  489.048    0.238    0.453   93.978  156.671    2.014
  489.298    0.287    0.397   99.282  156.948    1.925
  489.548    0.308    0.405   97.130  157.764    1.901
  489.798    0.305    0.407   94.109  159.307    2.008
  490.048    0.286    0.404   94.128  160.435    2.157
  490.298    0.267    0.397   93.782  161.137    2.357
  490.548    0.243    0.388   92.249  161.319    2.580
  490.798    0.258    0.398   90.597  161.496    2.777
  491.048    0.261    0.398   89.940  161.784    3.012
  491.298    0.245    0.396   93.814  161.544    3.291
  491.548    0.251    0.404   96.448  160.776    3.042
  491.798    0.276    0.413   97.712  160.006    2.739
  492.048    0.296    0.412   98.667  161.445    2.480
  492.298    0.309    0.399   99.811  162.680    2.319
  492.548    0.297    0.402  101.198  163.697    2.234
  492.798    0.280    0.403  102.529  164.406    2.201
  493.048    0.275    0.403  106.153  164.787    2.186
  493.298    0.267    0.405  106.241  164.659    2.170
