~VERSION INFORMATION
 VERS.                 2.0:   CWLS LOG ASCII STANDARD -VERSION 2.0
 WRAP.                  NO:   ONE LINE PER DEPTH STEP
~WELL INFORMATION BLOCK
#MNEM.UNIT           DATA                    DESCRIPTION OF MNEMONIC
#---------    -------------------            -------------------------------
# Generated from Intellog Unique Number	CW_76_78/WELL/927
WELL.         10-31-077-03W5                 : Well_name    - WELL
LOC .         00/10-31-077-03W5/0            : Location     - LOCATION
UWI .         00/10-31-077-03W5/0            : Uwi          - UNIQUE WELL ID
ENTR.         JAYE                           : Entered      - ENTERED BY
SRVC.         SCHLUMBERGER                   : Scn          - SERVICE COMPANY
DATE.         7 DEC 73                       : Date         - LOG DATE
STRT.M        362.712                        : top_depth    - START DEPTH
STOP.M        641.962                        : bot_depth    - STOP DEPTH
STEP.M        0.25                           : increment    - STEP LENGTH
 NULL. -999.2500:NULL Value
~CURVE INFORMATION BLOCK
#MNEM UNIT       ERCB CURVE CODE    CURVE DESCRIPTION
#-----------   ------------------   ----------------------------------
DEPT.M        00 001 00 00         : DEPTH        - DEPTH
GR  .API      00 310 00 00         : GR           - GAMMA RAY
CALI.MM       00 280 01 00         : CAL          - CALIPER
DPHI.V/V      00 890 00 00         : PHID         - DENSITY POROSITY (SANDSTONE)
NPHI.V/V      00 330 00 00         : PHIN         - NEUTRON POROSITY (SANDSTONE)
ILD .OHMM     00 120 00 00         : RESD         - DEEP RESISTIVITY (DLL)
~PARAMETER INFORMATION
#MNEM.UNIT           DATA             DESCRIPTION OF MNEMONIC
#---------         -----------     ------------------------------
GL  .M        680.923              : gl           - GROUND LEVEL ELEVATION
EREF.M        683.971              : kb           - ELEVATION OF DEPTH REFERENCE
DATM.M        680.923              : datum        - DATUM ELEVATION
TDD .M        649.529              : tdd          - TOTAL DEPTH DRILLER
RUN .         ONE                  : Run          - RUN NUMBER
MATR.         SANDSTONE            : Logunit      - NEUTRON MATRIX
TMAX.C        35                   : BHT          - MAXIMUM RECORDED TEMPERATURE
BHTD.M        649.529              : BHTDEP       - MAXIMUM RECORDED TEMPERATURE
RMT .C        -3.88889             : MDTP         - TEMPERATURE OF MUD
MUDD.KG/M     0                    : MWT          - MUD DENSITY
NEUT.         0                    : NEUTRON      - NEUTRON TYPE
RESI.         1                    : RESIST       - RESISTIVITY TYPE
RM  .OHMM     1.65                 : RM           - RESISTIVITY OF MUD
RMC .OHMM     0.25                 : RMC          - RESISTIVITY OF MUD CAKE
RMF .OHMM     7.25                 : RMF          - RESISTIVITY OF MUD FILTRATE
SUFT.C        4.5                  : SUFT         - SURFACE TEMPERATURE
~A  DEPTH       GR      CAL     PHID     PHIN     RESD
# ...
  545.212   90.988  162.533    0.206    0.458    6.515
  545.462   91.006  162.037    0.195    0.472    6.484
  545.712   92.690  161.963    0.195    0.481    6.465
  545.962   93.077  161.996    0.187    0.467    6.468
  546.212   91.739  162.023    0.200    0.450    6.615
  546.462   88.797  161.535    0.222    0.440    6.891
  546.712   87.400  161.253    0.223    0.433    7.229
  546.962   88.156  161.070    0.192    0.441    7.555
  547.212   86.201  160.999    0.206    0.456    7.769
  547.462   80.303  160.821    0.216    0.463    7.717
  547.712   78.534  160.848    0.225    0.472    7.472
  547.962   81.140  161.089    0.239    0.475    7.172
  548.212   87.753  161.221    0.231    0.462    6.782
  548.462   90.361  161.568    0.207    0.448    6.533
  548.712   92.472  161.703    0.201    0.461    6.338
  548.962   94.834  161.523    0.188    0.467    6.216
  549.212   91.953  161.135    0.194    0.476    6.197
  549.462   90.433  160.544    0.205    0.469    6.314
  549.712   86.751  160.782    0.204    0.459    6.660
  549.962   83.691  161.332    0.192    0.462    7.027
  550.212   82.721  162.719    0.153    0.424    7.521
  550.462   81.998  163.900    0.106    0.375    7.976
  550.712   82.200  164.135    0.091    0.329    8.246
  550.962   83.574  164.164    0.124    0.336    8.117
  551.212   86.365  163.783    0.169    0.356    7.789
  551.462   89.527  163.494    0.181    0.404    7.408
  551.712   93.674  163.005    0.193    0.457    7.057
  551.962   96.279  162.723    0.194    0.419    6.934
  552.212   99.010  162.439    0.188    0.445    7.014
  552.462   98.411  161.950    0.180    0.456    7.213
  552.712   95.594  161.876    0.181    0.436    7.513
  552.962   92.408  162.007    0.176    0.415    7.767
  553.212   91.686  162.666    0.186    0.404    7.855
  553.462   93.120  163.529    0.196    0.393    7.735
  553.712   96.898  165.544    0.190    0.403    7.027
  553.962  100.183  168.182    0.180    0.419    6.611
  554.212  101.371  170.820    0.187    0.434    6.196
  554.462  102.067  173.463    0.186    0.452    5.827
  554.712  103.380  174.849    0.181    0.484    5.602
  554.962  104.877  175.195    0.195    0.504    5.504
  555.212  106.065  175.119    0.205    0.499    5.429
  555.462  105.528  175.147    0.212    0.495    5.422
  555.712  104.314  174.968    0.199    0.487    5.606
  555.962   95.336  173.645    0.189    0.483    5.946
  556.212   92.457  171.065    0.182    0.441    6.351
  556.462   90.255  167.442    0.171    0.426    6.811
  556.712   86.945  165.492    0.150    0.413    7.423
  556.962   85.853  164.792    0.176    0.517    8.483
  557.212   85.564  164.612    0.202    0.500    9.763
  557.462   84.102  164.227    0.221    0.473   10.936
  557.712   84.551  163.839    0.257    0.456   12.724
  557.962   78.962  163.553    0.221    0.425   14.385
  558.212   72.693  163.170    0.202    0.408   16.348
  558.462   70.185  162.784    0.169    0.393   17.657
  558.712   70.450  162.601    0.219    0.396   18.828
  558.962   77.124  162.321    0.238    0.417   20.298
  559.212   80.160  162.037    0.240    0.433   21.725
  559.462   82.027  161.757    0.211    0.412   23.164
  559.712   84.141  161.685    0.179    0.395   22.804
  559.962   83.605  161.712    0.144    0.381   20.163
  560.212   80.479  161.952    0.105    0.354   18.321
  560.462   76.183  162.292    0.097    0.323   17.048
  560.712   81.316  162.952    0.163    0.428   15.747
  560.962   84.970  163.401    0.216    0.450   14.651
  561.212   89.547  163.846    0.234    0.460   13.704
  561.462   87.532  164.503    0.227    0.447   12.915
  561.712   85.393  164.742    0.215    0.431   12.124
  561.962   86.212  164.877    0.197    0.438   11.362
  562.212   87.217  165.011    0.185    0.498   10.748
  562.462   89.391  164.937    0.177    0.477    9.873
  562.712   91.936  164.863    0.186    0.470    9.219
  562.962   92.755  164.790    0.190    0.479    8.752
  563.212   91.788  164.820    0.178    0.472    8.276
  563.462   92.113  164.536    0.165    0.478    7.956
  563.712   93.118  163.940    0.175    0.488    7.705
  563.962   92.642  162.934    0.180    0.478    7.502
  564.212   93.029  162.538    0.182    0.470    7.386
  564.462   94.406  161.948    0.183    0.462    7.256
  564.712   95.409  161.557    0.184    0.454    7.196
  564.962   95.487  160.962    0.177    0.445    7.200
  565.212   94.210  161.202    0.163    0.433    7.270
  565.462   95.832  162.171    0.155    0.412    7.326
  565.712   97.083  162.930    0.171    0.423    7.386
  565.962   95.435  163.697    0.166    0.424    7.458
  566.212   93.543  164.036    0.160    0.417    7.504
  566.462   92.638  164.590    0.170    0.418    7.453
  566.712   91.791  165.034    0.185    0.427    7.390
  566.962   91.624  165.378    0.177    0.438    7.315
  567.212   91.951  165.620    0.177    0.453    7.278
  567.462   92.091  165.334    0.189    0.468    7.244
  567.712   92.602  164.428    0.196    0.475    7.262
  567.962   94.963  163.205    0.194    0.462    7.241
  568.212   96.583  162.402    0.188    0.444    7.285
  568.462   99.497  162.220    0.173    0.430    7.329
  568.712   96.803  162.148    0.162    0.437    7.414
  568.962   94.419  162.492    0.183    0.442    8.051
  569.212   92.526  162.732    0.191    0.436    8.920
  569.462   90.324  162.553    0.197    0.439   10.118
  569.712   79.189  162.581    0.194    0.441   11.252
  569.962   77.606  162.403    0.210    0.430   12.604
  570.212   84.092  162.329    0.213    0.454   14.246
  570.462   84.481  162.358    0.203    0.458   15.110
  570.712   81.170  162.392    0.160    0.381   15.145
  570.962   78.847  162.422    0.148    0.356   14.142
  571.212   79.788  162.243    0.180    0.356   12.993
  571.462   80.115  162.377    0.193    0.384   12.742
  571.712   79.393  162.616    0.174    0.429   13.270
  571.962   75.899  163.376    0.121    0.341   14.176
  572.212   73.513  164.137    0.061    0.257   15.091
  572.462   61.884  164.587    0.041    0.222   16.389
  572.712   62.641  164.825    0.096    0.236   16.488
  572.962   73.445  164.645    0.169    0.299   15.229
  573.212   79.192  164.680    0.195    0.443   13.790
  573.462   82.109  164.706    0.195    0.431   12.237
  573.712   85.700  164.216    0.183    0.444   11.764
  573.962   85.409  163.206    0.184    0.433   11.750
  574.212   79.203  162.607    0.138    0.408   12.257
  574.462   75.402  162.220    0.129    0.369   12.607
  574.712   75.480  162.353    0.177    0.364   12.433
  574.962   78.209  162.385    0.183    0.400   11.609
  575.212   85.685  162.101    0.183    0.420   10.723
  575.462   89.214  161.925    0.181    0.418    9.620
  575.712   92.190  161.957    0.168    0.414    8.773
  575.962   92.948  162.404    0.166    0.414    8.207
  576.212   94.137  162.849    0.174    0.428    7.875
  576.462   95.941  163.302    0.173    0.446    7.725
  576.712   97.377  163.536    0.171    0.458    7.577
  576.962   99.244  163.776    0.167    0.443    7.567
  577.212  101.234  163.912    0.170    0.441    7.627
  577.462  104.580  163.734    0.176    0.450    7.730
  577.712   98.496  163.240    0.166    0.430    7.692
  577.962   96.665  163.063    0.160    0.400    7.740
  578.212   98.533  162.884    0.151    0.390    7.814
  578.462  101.324  162.706    0.160    0.402    7.906
  578.712  103.129  162.527    0.159    0.415    7.910
  578.962  104.810  162.245    0.151    0.421    7.873
  579.212  105.999  161.966    0.145    0.426    7.844
  579.462  108.060  158.372    0.156    0.438    7.651
  579.712  107.637  159.838    0.143    0.445    7.740
  579.962  105.620  161.302    0.142    0.440    7.929
  580.212  100.353  161.106    0.136    0.419    8.246
  580.462   98.274  160.702    0.142    0.424    8.637
  580.712  103.738  160.922    0.151    0.406    9.014
  580.962  107.669  161.137    0.161    0.360    9.687
  581.212  105.775  161.670    0.148    0.356   10.642
  581.462  102.224  161.472    0.148    0.355   11.563
