~VERSION INFORMATION
 VERS.                 2.0:   CWLS LOG ASCII STANDARD -VERSION 2.0
 WRAP.                  NO:   ONE LINE PER DEPTH STEP
~WELL INFORMATION BLOCK
#MNEM.UNIT           DATA                    DESCRIPTION OF MNEMONIC
#---------    -------------------            -------------------------------
# Generated from Intellog Unique Number	CW_79_81/WELL/2489
WELL.         13-26-080-22W4                 : Well_name    - WELL
LOC .         00/13-26-080-22W4/0            : Location     - LOCATION
UWI .         00/13-26-080-22W4/0            : Uwi          - UNIQUE WELL ID
ENTR.         MAX                            : Entered      - ENTERED BY
SRVC.         SCHLUMBERGER                   : Scn          - SERVICE COMPANY
STRT.M        185                            : top_depth    - START DEPTH
STOP.M        440                            : bot_depth    - STOP DEPTH
STEP.M        0.25                           : increment    - STEP LENGTH
 NULL. -999.2500:NULL Value
~CURVE INFORMATION BLOCK
#MNEM UNIT       ERCB CURVE CODE    CURVE DESCRIPTION
#-----------   ------------------   ----------------------------------
DEPT.M        00 001 00 00         : DEPTH        - DEPTH
ILD .OHMM     00 120 00 00         : RESD         - DEEP RESISTIVITY (DIL)
NPHI.V/V      00 330 00 00         : PHIN         - NEUTRON POROSITY (SANDSTONE)
DPHI.V/V      00 890 00 00         : PHID         - DENSITY POROSITY (SANDSTONE)
GR  .API      00 310 00 00         : GR           - GAMMA RAY
CALI.MM       00 280 01 00         : CAL          - CALIPER
~PARAMETER INFORMATION
#MNEM.UNIT           DATA             DESCRIPTION OF MNEMONIC
#---------         -----------     ------------------------------
GL  .M        595.95               : gl           - GROUND LEVEL ELEVATION
EREF.M        600.6                : kb           - ELEVATION OF DEPTH REFERENCE
DATM.M        595.95               : datum        - DATUM ELEVATION
TDD .M        449                  : tdd          - TOTAL DEPTH DRILLER
RUN .         ONE                  : Run          - RUN NUMBER
ENG .         BILL                 : Engineer     - RECORDING ENGINEER
WIT .         JIM                  : Witness      - WITNESSED BY
MUD .         GEL                  : Mud_type     - MUD TYPE
MATR.         SANDSTONE            : Logunit      - NEUTRON MATRIX
TMAX.C        36                   : BHT          - MAXIMUM RECORDED TEMPERATURE
BHTD.M        449                  : BHTDEP       - MAXIMUM RECORDED TEMPERATURE
MATR.         1                    : LOGUNIT      - NEUTRON MATRIX
RMT .C        17                   : MDTP         - TEMPERATURE OF MUD
NEUT.         1                    : NEUTRON      - NEUTRON TYPE
RESI.         0                    : RESIST       - RESISTIVITY TYPE
RMC .OHMM     4.46                 : RMC          - RESISTIVITY OF MUD CAKE
RMF .OHMM     4.55                 : RMF          - RESISTIVITY OF MUD FILTRATE
SUFT.C        -20                  : SUFT         - SURFACE TEMPERATURE
~A  DEPTH     RESD     PHIN     PHID       GR      CAL
  185.000    5.450    0.446    0.235   99.062  224.648
  185.250    5.878    0.424    0.218   93.562  224.583
  185.500    6.437    0.410    0.197   92.615  224.225
  185.750    7.059    0.404    0.157   93.170  222.371
  186.000    7.475    0.414    0.131   94.909  219.718
  186.250    7.215    0.456    0.206  100.135  218.842
  186.500    6.576    0.476    0.234  105.056  218.777
  186.750    5.648    0.490    0.233  110.253  218.304
  187.000    5.270    0.489    0.225  114.016  217.846
  187.250    5.265    0.494    0.228  109.810  216.788
  187.500    5.700    0.506    0.243   94.185  215.228
  187.750    7.543    0.491    0.256   63.096  214.045
  188.000   11.707    0.422    0.268   44.708  214.393
  188.250   14.312    0.369    0.284   33.008  215.116
  188.500   18.776    0.345    0.293   27.910  216.136
  188.750   25.106    0.352    0.302   25.963  215.674
  189.000   30.667    0.374    0.315   25.621  213.527
  189.250   29.275    0.386    0.327   27.787  210.981
  189.500   26.274    0.404    0.334   30.474  210.495
  189.750   23.268    0.414    0.344   30.194  213.598
  190.000   22.478    0.424    0.366   30.089  217.592
  190.250   21.110    0.425    0.368   29.811  222.483
  190.500   18.684    0.411    0.349   31.441  226.385
  190.750   15.492    0.380    0.335   41.563  225.184
  191.000   12.903    0.399    0.317   51.933  223.460
  191.250   11.168    0.434    0.309   57.843  224.176
  191.500    9.735    0.447    0.309   59.828  223.416
  191.750    8.509    0.440    0.306   61.214  222.361
  192.000    7.523    0.423    0.296   62.478  221.801
  192.250    6.819    0.423    0.287   60.151  221.948
  192.500    6.760    0.436    0.284   54.650  221.049
  192.750    7.267    0.436    0.290   50.559  220.986
  193.000    7.194    0.420    0.297   51.656  221.210
  193.250    6.524    0.416    0.299   59.831  221.934
  193.500    5.491    0.433    0.294   73.712  223.753
  193.750    4.189    0.473    0.284   89.994  228.377
  194.000    3.413    0.514    0.284   96.646  232.022
  194.250    3.022    0.557    0.280   92.322  231.959
  194.500    3.034    0.534    0.275   82.106  230.409
  194.750    3.248    0.470    0.266   79.444  230.938
  195.000    3.506    0.423    0.260   85.589  234.736
  195.250    3.508    0.492    0.269   90.878  241.184
  195.500    3.296    0.529    0.268   97.287  243.995
  195.750    2.986    0.512    0.265   96.765  243.536
  196.000    2.997    0.509    0.262   94.105  242.482
  196.250    3.140    0.505    0.262   92.279  242.610
  196.500    3.311    0.495    0.264   92.715  243.131
  196.750    3.473    0.472    0.265   94.249  239.517
  197.000    3.692    0.453    0.259   89.001  233.654
  197.250    3.968    0.440    0.264   87.051  232.798
  197.500    4.291    0.453    0.268   85.105  232.521
  197.750    4.618    0.459    0.270   81.615  231.265
  198.000    5.007    0.443    0.268   73.961  228.731
  198.250    5.961    0.399    0.265   56.706  225.700
  198.500    7.484    0.378    0.278   47.984  224.808
  198.750    8.894    0.386    0.295   48.180  223.953
  199.000   10.432    0.399    0.291   49.982  222.789
  199.250   11.315    0.411    0.282   52.561  221.926
  199.500   11.176    0.416    0.280   54.547  221.167
  199.750   10.594    0.399    0.291   53.868  219.414
  200.000   10.184    0.383    0.300   53.086  218.928
  200.250   10.021    0.384    0.296   54.233  219.659
  200.500    9.751    0.395    0.283   56.276  219.784
  200.750    9.421    0.399    0.269   57.186  219.710
  201.000    8.981    0.392    0.258   56.965  219.741
  201.250    8.269    0.388    0.256   57.736  220.307
  201.500    7.947    0.403    0.271   58.188  221.466
  201.750    7.937    0.418    0.294   53.855  222.210
  202.000    8.329    0.425    0.317   50.962  222.047
  202.250    9.112    0.431    0.328   48.662  221.771
  202.500   10.223    0.434    0.327   46.952  221.695
  202.750   11.461    0.423    0.321   47.115  221.626
  203.000   12.085    0.407    0.314   49.306  221.560
  203.250   12.074    0.410    0.315   48.550  221.880
  203.500   11.726    0.393    0.312   49.761  222.210
  203.750   11.199    0.381    0.303   53.411  222.937
  204.000   10.581    0.385    0.288   58.071  224.753
  204.250    9.668    0.404    0.271   60.994  229.301
  204.500    8.678    0.427    0.251   63.920  232.533
  204.750    7.453    0.438    0.254   66.028  234.843
  205.000    6.563    0.418    0.255   68.661  235.670
  205.250    6.126    0.404    0.254   70.644  236.004
  205.500    6.030    0.407    0.252   72.332  236.138
  205.750    6.009    0.418    0.250   75.660  235.325
  206.000    5.731    0.423    0.252   75.873  233.593
  206.250    5.272    0.432    0.259   77.020  232.723
  206.500    4.852    0.447    0.260   81.383  232.766
  206.750    4.624    0.455    0.256   84.079  233.301
  207.000    4.585    0.458    0.249   84.693  233.825
  207.250    4.617    0.475    0.242   86.618  233.404
  207.500    4.472    0.489    0.241   83.349  231.687
  207.750    4.208    0.485    0.246   80.452  230.831
  208.000    4.283    0.481    0.249   77.733  232.646
  208.250    4.424    0.482    0.254   77.455  234.556
  208.500    4.477    0.486    0.263   79.916  235.074
  208.750    4.357    0.478    0.273   83.486  233.053
  209.000    4.124    0.471    0.265   83.681  229.285
  209.250    3.851    0.471    0.263   84.115  229.605
  209.500    3.639    0.475    0.259   86.165  231.725
  209.750    3.465    0.478    0.259   87.317  234.834
  210.000    3.304    0.479    0.264   87.093  237.937
  210.250    3.128    0.489    0.267   87.192  240.167
  210.500    3.099    0.516    0.268   87.897  241.754
  210.750    3.007    0.493    0.267   88.093  245.642
  211.000    2.867    0.484    0.271   87.932  247.762
  211.250    2.718    0.498    0.285   86.581  247.303
  211.500    2.593    0.524    0.304   85.112  243.563
  211.750    2.499    0.540    0.304   86.986  237.342
  212.000    2.420    0.545    0.289   89.430  244.291
  212.250    2.364    0.550    0.290   86.533  246.608
  212.500    2.284    0.552    0.296   83.996  246.842
  212.750    2.215    0.551    0.302   84.073  242.810
  213.000    2.180    0.551    0.300   85.813  237.586
  213.250    2.199    0.563    0.291   85.103  239.485
  213.500    2.232    0.541    0.310   85.307  239.420
  213.750    2.246    0.528    0.305   84.789  235.774
  214.000    2.235    0.542    0.302   83.736  236.005
  214.250    2.216    0.571    0.301   83.101  235.939
  214.500    2.205    0.595    0.296   83.361  234.876
  214.750    2.225    0.589    0.266   85.099  235.082
  215.000    2.258    0.595    0.233   88.029  232.531
  215.250    2.272    0.594    0.200   84.415  226.520
  215.500    2.312    0.574    0.173   82.412  225.268
  215.750    2.335    0.538    0.186   84.040  225.601
  216.000    2.332    0.508    0.235   87.986  225.933
  216.250    2.329    0.530    0.279   90.047  226.327
  216.500    2.327    0.534    0.269   92.234  226.660
  216.750    2.359    0.520    0.272   90.531  226.993
  217.000    2.404    0.511    0.272   90.784  227.025
  217.250    2.464    0.511    0.271   91.573  226.958
  217.500    2.531    0.517    0.270   92.128  226.894
  217.750    2.597    0.515    0.259   92.721  226.893
  218.000    2.655    0.504    0.258   94.664  227.241
  218.250    2.711    0.521    0.261   94.376  227.568
  218.500    2.754    0.549    0.261   92.138  226.992
  218.750    2.791    0.564    0.257   90.910  226.129
  219.000    2.830    0.560    0.250   92.059  225.276
  219.250    2.887    0.554    0.254   95.938  224.316
  219.500    2.973    0.545    0.272   98.864  223.831
  219.750    3.014    0.543    0.275   97.160  222.975
  220.000    3.056    0.520    0.271   95.094  222.416
  220.250    3.087    0.505    0.271   94.220  222.144
  220.500    3.095    0.511    0.275   94.836  222.365
  220.750    3.044    0.544    0.276   96.178  223.734
  221.000    2.926    0.569    0.279   97.125  224.907
  221.250    2.795    0.575    0.282   97.797  225.234
