~VERSION INFORMATION
 VERS.                 2.0:   CWLS LOG ASCII STANDARD -VERSION 2.0
 WRAP.                  NO:   ONE LINE PER DEPTH STEP
~WELL INFORMATION BLOCK
#MNEM.UNIT           DATA                    DESCRIPTION OF MNEMONIC
#---------    -------------------            -------------------------------
# Generated from Intellog Unique Number	CS_73_76/WELL/2197
WELL.         BOW VALLEY INDUSTRIES LTD.     : Well_name    - WELL
LOC .         00/11-06-074-13W4/0            : Location     - LOCATION
UWI .         00/11-06-074-13W4/0            : Uwi          - UNIQUE WELL ID
ENTR.         SP                             : Entered      - ENTERED BY
SRVC.         SCHLUMBERGER                   : Scn          - SERVICE COMPANY
STRT.M        340                            : top_depth    - START DEPTH
STOP.M        565                            : bot_depth    - STOP DEPTH
STEP.M        0.25                           : increment    - STEP LENGTH
 NULL. -999.2500:NULL Value
~CURVE INFORMATION BLOCK
#MNEM UNIT       ERCB CURVE CODE    CURVE DESCRIPTION
#-----------   ------------------   ----------------------------------
DEPT.M        00 001 00 00         : DEPTH        - DEPTH
GR  .API      00 310 00 00         : GR           - GAMMA RAY
DPHI.V/V      00 890 00 00         : PHID         - DENSITY POROSITY (LIMESTONE)
NPHI.V/V      00 330 00 00         : PHIN         - NEUTRON POROSITY (LIMESTONE)
ILD .OHMM     00 120 00 00         : RESD         - DEEP RESISTIVITY (DIL)
~PARAMETER INFORMATION
#MNEM.UNIT           DATA             DESCRIPTION OF MNEMONIC
#---------         -----------     ------------------------------
GL  .M        694.49               : gl           - GROUND LEVEL ELEVATION
EREF.M        697.84               : kb           - ELEVATION OF DEPTH REFERENCE
DATM.M        694.49               : datum        - DATUM ELEVATION
TDD .M        571                  : tdd          - TOTAL DEPTH DRILLER
RUN .         ONE                  : Run          - RUN NUMBER
ENG .         BILL                 : Engineer     - RECORDING ENGINEER
WIT .         JIM                  : Witness      - WITNESSED BY
MUD .         GEL                  : Mud_type     - MUD TYPE
MATR.         LIMESTONE            : Logunit      - NEUTRON MATRIX
TMAX.C        24                   : BHT          - MAXIMUM RECORDED TEMPERATURE
BHTD.M        571                  : BHTDEP       - MAXIMUM RECORDED TEMPERATURE
MATR.         1                    : LOGUNIT      - NEUTRON MATRIX
RMT .C        25                   : MDTP         - TEMPERATURE OF MUD
NEUT.         1                    : NEUTRON      - NEUTRON TYPE
RESI.         0                    : RESIST       - RESISTIVITY TYPE
RMC .OHMM     0.25                 : RMC          - RESISTIVITY OF MUD CAKE
RMF .OHMM     0.25                 : RMF          - RESISTIVITY OF MUD FILTRATE
SUFT.C        15                   : SUFT         - SURFACE TEMPERATURE
~A  DEPTH       GR     PHID     PHIN     RESD
# ...
  470.500   82.231    0.172    0.434    6.158
  470.750   77.398    0.131    0.338    6.273
  471.000   81.644    0.133    0.349    6.272
  471.250   85.883    0.168    0.438    6.271
  471.500   87.707    0.224    0.444    5.928
  471.750   88.924    0.188    0.420    5.605
  472.000   96.191    0.185    0.425    5.299
  472.250  102.248    0.236    0.452    5.009
  472.500   97.418    0.248    0.484    5.102
  472.750   96.214    0.247    0.452    5.296
  473.000   93.804    0.246    0.438    5.600
  473.250   92.601    0.261    0.452    5.704
  473.500   90.794    0.281    0.462    5.811
  473.750   90.802    0.288    0.451    5.919
  474.000   92.627    0.284    0.443    5.918
  474.250   92.028    0.280    0.451    5.917
  474.500   89.012    0.273    0.455    5.917
  474.750   85.996    0.270    0.457    5.915
  475.000   82.378    0.277    0.458    5.915
  475.250   81.777    0.282    0.455    5.913
  475.500   82.393    0.285    0.451    5.913
  475.750   83.004    0.290    0.445    6.023
  476.000   81.801    0.293    0.449    6.022
  476.250   81.208    0.288    0.461    5.910
  476.500   80.610    0.288    0.464    5.909
  476.750   81.225    0.297    0.466    5.691
  477.000   81.231    0.293    0.472    5.585
  477.250   81.845    0.305    0.470    5.379
  477.500   82.456    0.309    0.453    5.379
  477.750   82.463    0.300    0.456    5.377
  478.000   80.657    0.299    0.458    5.478
  478.250   80.059    0.298    0.453    5.477
  478.500   81.884    0.298    0.459    5.580
  478.750   83.706    0.289    0.468    5.579
  479.000   81.899    0.283    0.464    5.577
  479.250   77.677    0.270    0.461    5.577
  479.500   77.681    0.265    0.461    5.576
  479.750   83.135    0.284    0.468    5.575
  480.000   86.166    0.301    0.465    5.574
  480.250   88.593    0.306    0.454    5.573
  480.500   87.996    0.314    0.471    5.572
  480.750   86.795    0.298    0.482    5.571
  481.000   84.987    0.286    0.479    5.570
  481.250   84.995    0.279    0.452    5.570
  481.500   86.213    0.271    0.460    5.568
  481.750   86.826    0.281    0.470    5.568
  482.000   86.834    0.290    0.457    5.566
  482.250   82.610    0.287    0.457    5.566
  482.500   82.011    0.277    0.460    5.564
  482.750   85.044    0.276    0.458    5.564
  483.000   86.866    0.284    0.454    5.563
  483.250   86.876    0.293    0.472    5.459
  483.500   86.279    0.301    0.485    5.458
  483.750   88.100    0.293    0.463    5.457
  484.000   89.319    0.289    0.459    5.456
  484.250   89.326    0.233    0.458    5.355
  484.500   89.939    0.243    0.460    5.354
  484.750   94.183    0.251    0.466    5.254
  485.000   98.428    0.256    0.472    5.060
  485.250  100.247    0.265    0.469    4.966
  485.500  102.674    0.268    0.466    4.873
  485.750  101.473    0.274    0.477    4.872
  486.000   96.641    0.260    0.480    4.872
  486.250   92.414    0.252    0.465    5.152
  486.500   86.375    0.099    0.457    5.980
  486.750   77.915    0.048    0.436    8.213
  487.000   69.455    0.016    0.256   14.377
  487.250   64.623    0.006    0.205   17.984
  487.500   63.421    0.051    0.256   19.740
  487.750   67.665    0.130    0.319   14.916
  488.000   73.723    0.196    0.352   11.063
  488.250   77.963    0.232    0.384    9.007
  488.500   82.205    0.252    0.415    7.334
  488.750   84.633    0.264    0.435    6.679
  489.000   85.246    0.281    0.444    6.198
  489.250   87.072    0.291    0.439    5.859
  489.500   87.685    0.279    0.434    5.750
  489.750   88.296    0.263    0.430    5.642
  490.000   88.906    0.273    0.443    5.642
  490.250   90.127    0.281    0.456    5.536
  490.500   91.345    0.270    0.428    5.535
  490.750   91.350    0.266    0.426    5.534
  491.000   92.568    0.261    0.437    5.431
  491.250   93.786    0.257    0.444    5.430
  491.500   93.188    0.255    0.446    5.430
  491.750   90.172    0.264    0.446    5.328
  492.000   88.365    0.270    0.448    5.327
  492.250   92.608    0.281    0.455    5.426
  492.500   95.036    0.263    0.460    5.426
  492.750   93.835    0.265    0.459    5.425
  493.000   95.053    0.268    0.443    5.526
  493.250   96.269    0.256    0.426    5.629
  493.500   91.439    0.241    0.420    5.735
  493.750   85.398    0.222    0.431    5.952
  494.000   79.964    0.201    0.440    6.294
  494.250   81.180    0.138    0.423    6.655
  494.500   81.191    0.133    0.382    7.170
  494.750   83.615    0.177    0.370    7.304
  495.000   90.883    0.209    0.412    7.303
  495.250   93.309    0.214    0.446    7.033
  495.500   95.134    0.201    0.452    6.775
  495.750   96.349    0.189    0.446    6.405
  496.000   97.567    0.188    0.450    6.169
  496.250   99.391    0.202    0.461    6.054
  496.500   97.584    0.217    0.455    6.053
  496.750   99.407    0.201    0.438    6.166
  497.000  103.044    0.206    0.436    6.399
  497.250  107.285    0.214    0.434    6.519
  497.500  111.528    0.220    0.441    6.641
  497.750  112.745    0.227    0.435    6.765
  498.000  112.151    0.229    0.430    6.763
  498.250  110.946    0.214    0.436    6.762
  498.500  108.537    0.234    0.436    6.761
  498.750  106.126    0.251    0.427    6.760
  499.000  103.715    0.231    0.418    6.634
  499.250  101.304    0.226    0.413    6.390
  499.500   98.891    0.210    0.419    6.041
  499.750   95.875    0.218    0.433    5.818
  500.000   92.859    0.205    0.445    5.710
  500.250   89.843    0.171    0.444    5.603
  500.500   89.850    0.202    0.445    5.499
  500.750   95.906    0.222    0.448    5.297
  501.000  100.752    0.226    0.441    4.734
  501.250   98.949    0.242    0.439    3.784
  501.500   97.746    0.265    0.459    3.024
  501.750   97.148    0.271    0.498    2.604
  502.000   97.762    0.270    0.547    2.327
  502.250   98.981    0.262    0.562    2.242
  502.500   98.987    0.272    0.554    2.159
  502.750   98.994    0.270    0.547    2.119
  503.000  103.240    0.247    0.510    2.119
  503.250  105.060    0.245    0.508    2.118
  503.500  108.701    0.259    0.519    2.158
  503.750  109.310    0.266    0.517    2.198
  504.000  107.503    0.253    0.515    2.239
  504.250  106.906    0.245    0.521    2.458
  504.500  108.124    0.239    0.532    2.698
  504.750  106.923    0.214    0.530    3.312
  505.000  103.907    0.192    0.510    3.918
  505.250  102.704    0.195    0.474    4.810
  505.500  100.899    0.217    0.448    5.280
  505.750  101.511    0.208    0.434    5.688
  506.000  100.916    0.211    0.443    6.015
  506.250   99.713    0.215    0.443    6.014
  506.500   99.115    0.200    0.421    6.013
  506.750   98.518    0.164    0.421    6.478
  507.000   94.293    0.119    0.427    6.979
  507.250   85.228    0.079    0.412    7.380
  507.500   77.373    0.039    0.297    7.660
  507.750   76.171    0.127    0.291    6.976
  508.000   91.303    0.177    0.367    6.120
  508.250   99.171    0.195    0.398    5.369
  508.500  103.413    0.211    0.418    4.982
  508.750  104.029    0.215    0.435    4.799
  509.000  105.245    0.224    0.450    4.709
  509.250  103.439    0.230    0.462    4.622
  509.500  102.236    0.228    0.473    4.451
  509.750  103.453    0.224    0.478    4.450
  510.000  102.254    0.207    0.471    4.367
  510.250  102.263    0.202    0.470    4.367
  510.500  102.268    0.207    0.462    4.285
  510.750  102.884    0.168    0.461    4.205
  511.000  103.496    0.134    0.474    4.127
  511.250  104.107    0.154    0.479    3.829
  511.500  105.326    0.177    0.453    3.688
  511.750  107.149    0.196    0.460    3.688
  512.000  108.367    0.202    0.470    3.619
  512.250  107.768    0.204    0.484    3.687
  512.500  105.963    0.204    0.500    3.755
  512.750  105.366    0.204    0.485    3.755
  513.000  105.978    0.202    0.473    3.685
  513.250  108.409    0.201    0.483    3.616
  513.500  109.018    0.200    0.490    3.483
  513.750  111.448    0.206    0.478    3.418
