~VERSION INFORMATION
 VERS.                 2.0:   CWLS LOG ASCII STANDARD -VERSION 2.0
 WRAP.                  NO:   ONE LINE PER DEPTH STEP
~WELL INFORMATION BLOCK
#MNEM.UNIT           DATA                    DESCRIPTION OF MNEMONIC
#---------    -------------------            -------------------------------
# Generated from Intellog Unique Number	CC_84_87/WELL/2338
NULL.         -999.25                        : NULL_VALUE
WELL.         NOVALTA NEWBY                  : Well_name    - WELL              
LOC .         12-05-084-05W4                 : Location     - LOCATION          
UWI .         00/12-05-084-05W400            : Uwi          - UNIQUE WELL ID    
ENTR.         JHS                            : Entered      - ENTERED BY        
SRVC.         SCHLUMBERGER                   : Scn          - SERVICE COMPANY   
DATE.         12 FEB 85                      : Date         - LOG DATE
STRT.M        64                             : top_depth    - START DEPTH       
STOP.M        324.999                        : bot_depth    - STOP DEPTH        
STEP.M        0.3                            : increment    - STEP LENGTH       
~CURVE INFORMATION BLOCK
#MNEM UNIT       ERCB CURVE CODE    CURVE DESCRIPTION
#-----------   ------------------   ----------------------------------
DEPT.M        00 001 00 00         : DEPTH        - DEPTH                       
DPHI.V/V      00 890 00 00         : PHID         - DENSITY POROSITY (LIMESTONE)
NPHI.V/V      00 330 00 00         : PHIN         - NEUTRON POROSITY (LIMESTONE)
GR  .API      00 310 00 00         : GR           - GAMMA RAY                   
ILD .OHMM     00 120 00 00         : RESD         - DEEP RESISTIVITY (DIL)      
~PARAMETER INFORMATION       
#MNEM.UNIT           DATA             DESCRIPTION OF MNEMONIC
#---------         -----------     ------------------------------
GL  .M        490                  : gl           - GROUND LEVEL ELEVATION      
EREF.M        493                  : kb           - ELEVATION OF DEPTH REFERENCE
DATM.M        493                  : datum        - DATUM ELEVATION             
TDD .M        335                  : tdd          - TOTAL DEPTH DRILLER         
RUN .         ONE                  : Run          - RUN NUMBER                  
ENG .         BILL                 : Engineer     - RECORDING ENGINEER          
WIT .         JIM                  : Witness      - WITNESSED BY                
MUD .         GEL                  : Mud_type     - MUD TYPE                    
MATR.         LIMESTONE            : Logunit      - NEUTRON MATRIX              
TMAX.C        25                   : BHT          - MAXIMUM RECORDED TEMPERATURE
BHTD.M        335                  : BHTDEP       - MAXIMUM RECORDED TEMPERATURE
MATR.         1                    : LOGUNIT      - NEUTRON MATRIX              
RMT .C        25                   : MDTP         - TEMPERATURE OF MUD          
NEUT.         1                    : NEUTRON      - NEUTRON TYPE                
RESI.         0                    : RESIST       - RESISTIVITY TYPE            
RMC .OHMM     0.25                 : RMC          - RESISTIVITY OF MUD CAKE     
RMF .OHMM     0.25                 : RMF          - RESISTIVITY OF MUD FILTRATE 
SUFT.C        15                   : SUFT         - SURFACE TEMPERATURE         
~A  DEPTH     PHID     PHIN       GR     RESD
# ...
  272.801    0.365    0.380   27.965    0.870
  273.101    0.366    0.370   25.498    0.854
  273.401    0.370    0.366   27.353    0.839
  273.701    0.370    0.372   30.442    0.853
  274.001    0.363    0.380   33.531    0.853
  274.301    0.356    0.382   34.767    0.867
  274.601    0.356    0.381   32.918    0.897
  274.901    0.361    0.366   31.686    0.913
  275.201    0.360    0.363   31.071    0.928
  275.501    0.351    0.367   32.308    0.960
  275.801    0.339    0.372   36.632    0.976
  276.101    0.337    0.376   37.251    0.993
  276.401    0.345    0.385   34.167    1.027
  276.701    0.309    0.396   37.256    1.100
  277.001    0.243    0.409   47.135    1.157
  277.301    0.227    0.438   78.002    1.240
  277.601    0.229    0.463   91.585    1.472
  277.901    0.235    0.453   94.057    1.840
  278.201    0.238    0.445   94.676    2.223
  278.501    0.230    0.445   96.530    2.422
  278.801    0.237    0.435   89.126    2.379
  279.101    0.238    0.438   80.486    2.259
  279.401    0.246    0.435   81.723    2.071
  279.701    0.274    0.427   76.170    1.804
  280.001    0.330    0.403   40.370    1.518
  280.301    0.359    0.376   30.495    1.277
  280.601    0.359    0.372   27.411    1.093
  280.901    0.366    0.377   27.414    0.968
  281.201    0.375    0.380   28.034    0.919
  281.501    0.367    0.366   24.332    0.903
  281.801    0.350    0.361   29.273    0.934
  282.101    0.303    0.364   38.535    0.950
  282.401    0.291    0.372   47.179    1.053
  282.701    0.319    0.386   47.799    1.127
  283.001    0.335    0.386   37.307    1.228
  283.301    0.329    0.370   34.841    1.249
  283.601    0.301    0.367   41.016    1.248
  283.901    0.290    0.370   55.217    1.226
  284.201    0.309    0.383   54.602    1.144
  284.501    0.353    0.423   40.406    1.068
  284.801    0.374    0.422   29.915    0.962
  285.101    0.376    0.401   28.683    0.867
  285.401    0.367    0.371   29.303    0.795
  285.701    0.367    0.375   26.836    0.795
  286.001    0.372    0.383   23.752    0.808
  286.301    0.377    0.394   22.520    0.851
  286.601    0.380    0.394   23.140    0.911
  286.901    0.313    0.385   27.463    0.993
  287.201    0.252    0.376   44.132    1.159
  287.501    0.222    0.377   65.122    1.376
  287.801    0.225    0.390   71.298    1.691
  288.101    0.214    0.388   67.597    2.226
  288.401    0.227    0.352   65.130    2.426
  288.701    0.245    0.357   58.959    2.263
  289.001    0.336    0.380   47.233    1.747
  289.301    0.351    0.380   34.890    1.372
  289.601    0.338    0.383   28.720    1.174
  289.901    0.333    0.382   25.636    1.040
  290.201    0.314    0.368   29.342    1.022
  290.501    0.282    0.370   42.307    1.057
  290.801    0.287    0.373   50.952    1.113
  291.101    0.339    0.365   44.782    1.171
  291.401    0.328    0.345   49.105    1.191
  291.701    0.298    0.347   68.861    1.211
  292.000    0.305    0.354   68.863    1.211
  292.300    0.309    0.344   47.260    1.169
  292.600    0.288    0.324   25.658    1.169
  292.900    0.302    0.323   33.068    1.148
  293.200    0.345    0.373   42.329    1.128
  293.500    0.367    0.384   36.776    1.071
  293.800    0.370    0.377   29.371    0.999
  294.100    0.363    0.371   23.201    0.964
  294.400    0.354    0.391   21.352    0.981
  294.700    0.341    0.384   23.206    0.997
  295.000    0.325    0.357   25.678    0.997
  295.300    0.308    0.340   26.914    1.031
  295.600    0.302    0.326   23.831    1.049
  295.900    0.297    0.313   25.068    1.067
  296.200    0.288    0.312   23.835    1.103
  296.500    0.298    0.336   25.690    1.141
  296.800    0.289    0.339   28.778    1.181
  297.100    0.281    0.326   32.485    1.180
  297.400    0.296    0.330   32.487    1.180
  297.700    0.305    0.335   26.934    1.139
  298.000    0.309    0.328   21.381    1.100
  298.300    0.315    0.336   20.766    1.044
  298.600    0.307    0.339   19.534    1.044
  298.900    0.294    0.335   20.155    1.043
  299.200    0.294    0.326   20.774    1.061
  299.500    0.313    0.320   22.011    1.042
  299.800    0.328    0.329   23.247    1.024
  300.100    0.341    0.342   23.250    0.989
  300.400    0.339    0.352   22.636    0.971
  300.700    0.331    0.346   22.020    0.971
  301.000    0.323    0.331   22.640    0.971
  301.300    0.324    0.331   23.260    0.987
  301.600    0.305    0.331   23.880    1.057
  301.900    0.258    0.330   26.968    1.171
  302.200    0.224    0.340   33.761    1.344
  302.500    0.228    0.358   43.640    1.542
  302.800    0.235    0.362   57.223    1.895
  303.100    0.224    0.357   65.868    2.250
  303.400    0.223    0.368   73.277    2.249
  303.700    0.313    0.430   64.020    2.135
  304.000    0.387    0.477   53.529    2.134
  304.300    0.473    0.588   62.174    2.365
  304.600    0.551    0.604   56.003    2.760
  304.900    0.651    0.621   46.129    3.221
  305.200    0.693    0.611   34.403    4.169
  305.500    0.724    0.619   24.529    6.634
  305.800    0.724    0.610   22.680    6.982
  306.100    0.673    0.600   27.003    6.515
  306.400    0.599    0.579   51.697    5.772
  306.700    0.374    0.541   80.712    4.692
  307.000    0.283    0.506   86.270    4.016
  307.300    0.218    0.405   93.680    3.558
  307.600    0.200    0.399   89.361    3.152
  307.900    0.241    0.409   62.203    2.891
  308.200    0.248    0.435   65.909    2.792
  308.500    0.255    0.484  100.480    2.696
  308.800    0.273    0.536  102.951    2.603
  309.100    0.288    0.561   98.633    2.558
  309.400    0.297    0.560   98.635    2.556
  309.700    0.309    0.585  106.045    2.555
  310.000    0.301    0.566  114.072    2.643
  310.300    0.245    0.556  112.223    2.734
  310.600    0.246    0.592  102.966    2.781
  310.900    0.290    0.605   97.413    2.828
  311.200    0.282    0.574   99.884    2.827
  311.500    0.252    0.564  102.356    2.825
  311.800    0.222    0.579   91.865    2.873
  312.100    0.195    0.571   96.188    2.871
  312.400    0.184    0.553  106.067    2.971
  312.700    0.182    0.537   98.662    3.073
  313.000    0.195    0.527   97.430    3.180
  313.300    0.196    0.471   97.433    3.289
  313.600    0.209    0.477   94.348    3.345
  313.900    0.221    0.500   94.968    3.521
  314.200    0.220    0.501   94.353    3.706
  314.500    0.183    0.452   89.418    4.037
  314.800    0.161    0.430   91.272    4.323
  315.100    0.138    0.410   87.571    4.959
  315.400    0.000    0.321   75.228    5.403
  315.700    0.084    0.292   77.699    5.494
  316.000    0.157    0.295   88.195    5.492
  316.299    0.167    0.325  101.778    5.395
  316.599    0.161    0.331  106.102    5.486
  316.899    0.142    0.322   99.931    5.579
  317.199    0.080    0.311   83.267    5.772
  317.499    0.072    0.288   78.331    6.181
  317.799    0.110    0.273   72.160    6.505
  318.099    0.101    0.278   66.607    6.615
  318.399    0.022    0.384   67.227    6.388
  318.699    0.025    0.410   71.551    5.959
  318.999    0.054    0.415   86.985    5.755
  319.299    0.111    0.399   81.432    5.852
  319.599    0.125    0.368   65.385    6.159
  319.899    0.111    0.345   61.684    6.711
  320.199    0.077    0.315   58.600    7.567
  320.499    0.068    0.305   54.898    8.533
  320.799    0.069    0.299   53.667    9.136
  321.099    0.061    0.307   59.225    9.290
  321.399    0.052    0.307   58.610    9.287
  321.699    0.058    0.299   58.612    9.282
  321.999    0.061    0.299   60.466    9.277
  322.299    0.056    0.309   59.234    9.272
  322.599    0.061    0.312   58.620    9.270
  322.899    0.061    0.319   59.857    9.590
  323.199    0.056    0.320   62.945    9.919
  323.499    0.044    0.304   65.417   10.263
  323.799    0.032    0.263   58.012   11.375
  324.099    0.016    0.220   45.669   12.828
  324.399    0.007    0.205   38.264   16.601
  324.699    0.002    0.190   37.032   21.860
