~VERSION INFORMATION
 VERS.                 2.0:   CWLS LOG ASCII STANDARD -VERSION 2.0
 WRAP.                  NO:   ONE LINE PER DEPTH STEP
~WELL INFORMATION BLOCK
#MNEM.UNIT           DATA                    DESCRIPTION OF MNEMONIC
#---------    -------------------            -------------------------------
# Generated from Intellog Unique Number	CW_76_78/WELL/2808
WELL.         PAN AM S-1 MARTEN HILLS 10-22  : Well_name    - WELL
LOC .         00/10-22-076-24W4/0            : Location     - LOCATION
UWI .         00/10-22-076-24W4/0            : Uwi          - UNIQUE WELL ID
ENTR.         JJ                             : Entered      - ENTERED BY
SRVC.         SCHLUMBERGER                   : Scn          - SERVICE COMPANY
DATE.         18 JAN 66                      : Date         - LOG DATE
STRT.M        701.04                         : top_depth    - START DEPTH
STOP.M        862.54                         : bot_depth    - STOP DEPTH
STEP.M        0.25                           : increment    - STEP LENGTH
 NULL. -999.2500:NULL Value
~CURVE INFORMATION BLOCK
#MNEM UNIT       ERCB CURVE CODE    CURVE DESCRIPTION
#-----------   ------------------   ----------------------------------
DEPT.M        00 001 00 00         : DEPTH        - DEPTH
DELT.US/F     00 520 00 00         : DELT         - SONIC TRAVEL TIME
CALI.MM       00 280 01 00         : CAL          - CALIPER
GR  .API      00 310 00 00         : GR           - GAMMA RAY
ILD .OHMM     00 120 00 00         : RESD         - DEEP RESISTIVITY (DIL)
~PARAMETER INFORMATION
#MNEM.UNIT           DATA             DESCRIPTION OF MNEMONIC
#---------         -----------     ------------------------------
GL  .M        921.38               : gl           - GROUND LEVEL ELEVATION
EREF.M        924.885              : kb           - ELEVATION OF DEPTH REFERENCE
DATM.M        924.885              : datum        - DATUM ELEVATION
TDD .M        865.937              : tdd          - TOTAL DEPTH DRILLER
RUN .         ONE & TWO            : Run          - RUN NUMBER
ENG .         BERRY                : Engineer     - RECORDING ENGINEER
WIT .         SANDERSON            : Witness      - WITNESSED BY
BASE.         EDMONTON             : Branch       - HOME BASE OF LOGGING UNIT
MUD .         GEL CHEM             : Mud_type     - MUD TYPE
MATR.         SANDSTONE            : Logunit      - NEUTRON MATRIX
TMAX.C        25                   : BHT          - MAXIMUM RECORDED TEMPERATURE
BHTD.M        864.108              : BHTDEP       - MAXIMUM RECORDED TEMPERATURE
RMT .C        6.11111              : MDTP         - TEMPERATURE OF MUD
MUDD.KG/M     1056                 : MWT          - MUD DENSITY
NEUT.         1                    : NEUTRON      - NEUTRON TYPE
RESI.         0                    : RESIST       - RESISTIVITY TYPE
RM  .OHMM     5.05                 : RM           - RESISTIVITY OF MUD
RMC .OHMM     0                    : RMC          - RESISTIVITY OF MUD CAKE
RMF .OHMM     0                    : RMF          - RESISTIVITY OF MUD FILTRATE
SUFT.C        5                    : SUFT         - SURFACE TEMPERATURE
~A  DEPTH     DELT      CAL       GR     RESD
# ...
  831.540  356.565  207.502   21.606   11.974
  831.790  374.925  213.643   26.209    8.818
  832.040  394.898  221.479   39.127    6.300
  832.290  443.107  224.332   70.774    4.568
  832.540  425.567  223.157   79.434    4.106
  832.790  407.490  216.470   76.775    3.917
  833.040  367.294  205.966   74.518    4.033
  833.290  356.006  206.594   74.864    4.376
  833.540  381.695  209.447   86.279    4.679
  833.790  400.390  207.636   93.436    5.188
  834.040  369.001  199.783   86.470    5.800
  834.290  346.219  202.424   76.550    6.306
  834.540  342.123  209.518   70.537    7.432
  834.790  344.550  200.392   71.133    7.694
  835.040  350.943  209.712   69.977    6.907
  835.290  359.891  214.155   77.585    6.119
  835.540  371.999  210.436   87.347    5.742
  835.790  383.636  202.476   95.106    5.572
  836.040  378.467  196.743   87.489    5.791
  836.290  347.817  206.275   77.068    6.278
  836.540  325.974  193.758   65.895    7.032
  836.790  326.653  178.272   57.077    8.365
  837.040  346.493  186.849   50.662    9.388
  837.290  344.282  183.872   46.000   10.495
  837.540  342.270  184.710   48.850   11.331
  837.790  341.740  191.381   54.005   11.858
  838.040  347.797  196.885   57.306   11.977
  838.290  348.812  200.480   60.958   11.952
  838.540  345.725  201.532   63.157   11.863
  838.790  346.405  196.646   60.749   11.628
  839.040  351.117  199.075   59.393   11.231
  839.290  348.300  197.052   60.640   10.611
  839.540  346.559  203.192   62.389   10.212
  839.790  344.684  204.032   64.088    9.649
  840.040  341.934  199.357   62.531    9.127
  840.290  342.008  198.076   61.125    8.876
  840.540  339.862  199.977   62.323    9.694
  840.790  326.827  210.144   65.924   10.798
  841.040  306.934  219.676   70.377   11.861
  841.290  275.411  220.091   64.364   12.782
  841.540  225.737  218.492   52.590   13.024
  841.790  243.962  218.271   46.776   12.275
  842.040  263.733  214.552   50.929   11.176
  842.290  297.959  208.289   54.480    9.775
  842.540  317.999  202.873   56.630    9.005
  842.790  341.737  199.683   53.220    8.053
  843.040  345.912  198.298   55.920    7.347
  843.290  346.457  196.698   62.026    6.785
  843.540  344.716  196.265   66.229    6.449
  843.790  338.067  199.648   71.083    6.317
  844.040  333.368  204.940   68.074    6.065
  844.290  339.962  211.504   74.530    5.957
  844.540  356.104  222.307   82.940    5.948
  844.790  364.648  228.342   94.955    5.984
  845.040  352.219  221.019  103.014    6.329
  845.290  346.241  208.925   87.184    7.023
  845.540  346.585  197.573   74.209    7.530
  845.790  346.590  197.564   63.487    7.544
  846.040  342.430  202.855   57.523    6.982
  846.290  341.158  203.271   65.632    6.195
  846.540  353.468  205.489   76.445    5.798
  846.790  379.626  216.716   85.256    5.527
  847.040  406.995  206.531   88.957    5.415
  847.290  410.631  205.462   82.093    5.230
  847.540  369.830  221.672   84.492    5.180
  847.790  360.022  214.137   97.259    5.130
  848.040  353.979  206.177   90.794    5.101
  848.290  347.531  202.033   82.576    4.995
  848.540  338.394  204.569   86.879    4.964
  848.790  352.923  210.497   86.575    5.023
  849.040  367.383  217.483   91.778    5.117
  849.290  374.247  221.609   93.127    5.172
  849.540  312.740  217.149   91.370    5.002
  849.790  321.218  205.692   79.045    4.670
  850.040  327.678  201.123   72.781    4.460
  850.290  328.290  201.220   65.665    4.346
  850.540  325.405  201.420   61.254    4.174
  850.790  323.328  201.308   56.592    4.106
  851.040  325.016  200.664   61.346    4.059
  851.290  326.905  198.641   64.897    4.093
  851.540  326.508  191.317   66.346    4.112
  851.790  323.960  196.186   69.196    4.143
  852.040  317.109  202.008   72.748    4.179
  852.290  325.049  219.701   76.199    4.320
  852.540  329.761  223.403   80.502    4.437
  852.790  338.172  224.241   85.005    4.555
  853.040  349.876  224.445   92.413    4.671
  853.290  363.395  223.695   95.213    4.765
  853.540  354.863  221.884   92.305    4.904
  853.790  343.510  213.182   92.100    5.061
  854.040  337.936  215.187  116.887    5.199
  854.290  327.522  216.238  142.575    5.488
  854.540  304.604  207.326  133.856    5.619
  854.790  320.745  199.896  114.120    5.818
  855.040  338.231  203.067   84.016    6.040
  855.290  348.389  205.391   95.931    6.178
  855.540  341.203  201.778  107.747    6.231
  855.790  329.243  205.373  110.246    6.061
  856.040  324.409  206.743  109.190    5.767
  856.290  322.264  207.474  106.682    5.309
  856.540  330.472  212.130  103.072    4.931
  856.790  353.874  211.804   99.662    4.492
  857.040  354.553  211.583  101.411    4.056
  857.290  312.677  211.785  104.162    3.801
  857.540  317.726  209.444  102.054    3.611
  857.790  313.026  202.864   97.542    3.564
  858.040  298.310  216.000   94.783    3.679
  858.290  299.258  215.779   93.928    3.880
  858.540  282.121  212.060   94.475    4.245
  858.790  324.616  200.708   95.021    4.610
  859.040  350.976  202.924   95.318    4.953
  859.290  376.932  219.666   83.344    5.109
  859.540  260.635  222.412   83.741    4.918
  859.790  272.004  222.405   89.295    4.380
  860.040  320.078  222.606   92.196    4.186
  860.290  345.967  223.552   94.095    4.076
  860.540  378.983  225.238   94.442    4.131
  860.790  389.948  225.442   94.187    4.826
  861.040  384.374  223.843   93.080    5.869
  861.290  357.557  216.415   91.424    8.147
  861.540  144.720  204.639   81.053   10.013
  861.790  134.912  194.877   74.738   12.436
  862.040  134.918  184.798   69.876   26.137
  862.290  136.606  176.097   66.166   25.802
  862.540  138.024  178.420   63.457   24.602
