~VERSION INFORMATION
 VERS.                 2.0:   CWLS LOG ASCII STANDARD -VERSION 2.0
 WRAP.                  NO:   ONE LINE PER DEPTH STEP
~WELL INFORMATION BLOCK
#MNEM.UNIT           DATA                    DESCRIPTION OF MNEMONIC
#---------    -------------------            -------------------------------
# Generated from Intellog Unique Number	CW_82_90/WELL/1028
WELL.         SUNLITE CANPUAC GR 11-17       : Well_name    - WELL
LOC .         00/11-17-084-20W4/0            : Location     - LOCATION
UWI .         00/11-17-084-20W4/0            : Uwi          - UNIQUE WELL ID
ENTR.         JAYE                           : Entered      - ENTERED BY
SRVC.         SCHLUMBERGER                   : Scn          - SERVICE COMPANY
DATE.         25 MAR 74                      : Date         - LOG DATE
STRT.M        198.12                         : top_depth    - START DEPTH
STOP.M        390.12                         : bot_depth    - STOP DEPTH
STEP.M        0.25                           : increment    - STEP LENGTH
 NULL. -999.2500:NULL Value
~CURVE INFORMATION BLOCK
#MNEM UNIT       ERCB CURVE CODE    CURVE DESCRIPTION
#-----------   ------------------   ----------------------------------
DEPT.M        00 001 00 00         : DEPTH        - DEPTH
CALI.MM       00 280 01 00         : CAL          - CALIPER
GR  .API      00 310 00 00         : GR           - GAMMA RAY
NPHI.V/V      00 330 00 00         : PHIN         - NEUTRON POROSITY (SANDSTONE)
DPHI.V/V      00 890 00 00         : PHID         - DENSITY POROSITY (SANDSTONE)
ILD .OHMM     00 120 00 00         : RESD         - DEEP RESISTIVITY (DIL)
~PARAMETER INFORMATION
#MNEM.UNIT           DATA             DESCRIPTION OF MNEMONIC
#---------         -----------     ------------------------------
GL  .M        622.402              : gl           - GROUND LEVEL ELEVATION
EREF.M        625.45               : kb           - ELEVATION OF DEPTH REFERENCE
DATM.M        622.402              : datum        - DATUM ELEVATION
TDD .M        401.117              : tdd          - TOTAL DEPTH DRILLER
RUN .         ONE                  : Run          - RUN NUMBER
ENG .         CHAUDHARY            : Engineer     - RECORDING ENGINEER
WIT .         FYFFE                : Witness      - WITNESSED BY
BASE.         EDMONTON             : Branch       - HOME BASE OF LOGGING UNIT
MUD .         GEL                  : Mud_type     - MUD TYPE
MATR.         SANDSTONE            : Logunit      - NEUTRON MATRIX
TMAX.C        23.3333              : BHT          - MAXIMUM RECORDED TEMPERATURE
BHTD.M        401.117              : BHTDEP       - MAXIMUM RECORDED TEMPERATURE
RMT .C        14.4444              : MDTP         - TEMPERATURE OF MUD
MUDD.KG/M     8800                 : MWT          - MUD DENSITY
NEUT.         1                    : NEUTRON      - NEUTRON TYPE
RESI.         0                    : RESIST       - RESISTIVITY TYPE
RM  .OHMM     5.66                 : RM           - RESISTIVITY OF MUD
RMC .OHMM     0                    : RMC          - RESISTIVITY OF MUD CAKE
RMF .OHMM     0                    : RMF          - RESISTIVITY OF MUD FILTRATE
SUFT.C        -17.7778             : SUFT         - SURFACE TEMPERATURE
~A  DEPTH      CAL       GR     PHIN     PHID     RESD
# ...
  344.120  166.816   84.665    0.409    0.220   14.256
  344.370  167.234   85.034    0.438    0.204   15.116
  344.620  167.652   83.688    0.412    0.183   15.906
  344.870  167.655   83.936    0.381    0.143   16.612
  345.120  167.554   85.346    0.398    0.116   15.817
  345.370  168.698   90.066    0.425    0.166   12.864
  345.620  172.852   98.278    0.488    0.166   11.999
  345.870  176.797  102.508    0.505    0.154    8.686
  346.120  179.498  102.204    0.504    0.161    8.192
  346.370  180.124   95.955    0.500    0.165    8.262
  346.620  179.297   93.200    0.489    0.160    8.921
  346.870  177.120   90.751    0.470    0.161    9.980
  347.120  173.803   87.627    0.459    0.168   11.541
  347.370  172.666   84.811    0.462    0.176   13.474
  347.620  171.111   85.670    0.451    0.198   15.129
  347.870  167.172   84.998    0.421    0.222   14.649
  348.120  167.590   88.186    0.395    0.215   14.233
  348.370  168.216   90.271    0.412    0.195   13.604
  348.620  168.323   92.540    0.429    0.195   13.191
  348.870  168.532   93.093    0.505    0.189   12.262
  349.120  169.470   93.769    0.496    0.180   11.824
  349.370  170.510   93.097    0.492    0.173   11.616
  349.620  170.928   91.505    0.506    0.162   11.290
  349.870  171.035   91.997    0.510    0.151   11.236
  350.120  170.935   94.450    0.506    0.144   11.271
  350.370  171.249   96.596    0.492    0.154   11.319
  350.620  171.666   98.068    0.479    0.170   11.437
  350.870  172.084   95.987    0.475    0.169   11.661
  351.120  171.672   94.886    0.473    0.164   11.913
  351.370  170.949   96.297    0.483    0.157   11.902
  351.620  170.537   99.914    0.480    0.149   11.844
  351.870  170.332   99.241    0.475    0.166   11.616
  352.120  170.231   97.528    0.468    0.167   11.101
  352.370  170.234   97.345    0.460    0.156   10.532
  352.620  169.615   97.286    0.491    0.141   10.251
  352.870  168.373   98.820    0.541    0.125   10.034
  353.120  167.649   99.495    0.521    0.139    9.934
  353.370  167.652   97.843    0.495    0.155    9.832
  353.620  168.381   96.374    0.476    0.142    9.785
  353.870  168.799   97.050    0.458    0.127    9.582
  354.120  169.633  100.238    0.449    0.138    9.434
  354.370  170.051  102.813    0.476    0.177    9.387
  354.620  169.846  105.143    0.495    0.160    9.310
  354.870  169.849  106.554    0.493    0.155    9.318
  355.120  174.728  108.088    0.509    0.145    9.430
  355.370  179.297  109.192    0.499    0.153    9.778
  355.620  179.300  107.356    0.474    0.164   10.192
  355.870  177.124  102.395    0.471    0.135   11.007
  356.120  179.825   97.556    0.440    0.125   12.089
  356.370  174.225   93.881    0.398    0.129   12.983
  356.620  170.700   97.682    0.405    0.158   13.188
  356.870  170.081   96.029    0.405    0.172   13.177
  357.120  170.706   91.864    0.427    0.163   13.261
  357.370  170.605   89.476    0.449    0.159   14.136
  357.620  167.599   86.108    0.420    0.154   15.381
  357.870  165.320   82.678    0.391    0.151   16.829
  358.120  165.115   82.680    0.373    0.142   18.175
  358.370  165.222   84.275    0.361    0.193   18.770
  358.620  165.121   85.502    0.358    0.216   19.938
  358.870  165.331   85.320    0.350    0.222   20.634
  359.120  165.438   85.812    0.346    0.210   21.353
  359.370  165.648   82.566    0.349    0.189   22.094
  359.620  166.274   82.200    0.349    0.150   23.466
  359.870  166.277   78.771    0.346    0.130   25.249
  360.120  165.865   69.459    0.333    0.111   27.573
  360.370  166.905   67.377    0.299    0.096   29.664
  360.620  167.531   66.889    0.283    0.082   31.274
  360.870  167.742   67.810    0.319    0.101   31.775
  361.120  166.603   70.753    0.313    0.119   30.254
  361.370  165.465   73.573    0.311    0.123   28.637
  361.620  166.713   75.781    0.339    0.113   27.368
  361.870  164.952   77.437    0.354    0.117   26.846
  362.120  162.880   77.745    0.348    0.124   26.520
  362.370  161.741   78.972    0.349    0.123   24.467
  362.620  160.603   81.241    0.354    0.143   22.407
  362.870  160.710   82.775    0.380    0.158   21.448
  363.120  161.647   84.431    0.386    0.170   20.923
  363.370  162.480   84.555    0.388    0.186   21.094
  363.620  162.898   82.719    0.359    0.177   23.209
  363.870  163.732   82.292    0.333    0.146   25.249
  364.120  164.046   82.293    0.319    0.107   27.521
  364.370  164.566   80.763    0.308    0.086   29.944
  364.620  166.230   79.417    0.309    0.070   32.518
  364.870  168.412   77.887    0.326    0.080   33.524
  365.120  166.962   78.808    0.334    0.110   33.997
  365.370  167.069   80.341    0.323    0.083   31.832
  365.620  168.317   82.733    0.304    0.060   29.363
  365.870  169.668   85.492    0.333    0.077   26.152
  366.120  168.323   86.474    0.350    0.104   22.696
  366.370  165.525   86.047    0.405    0.123   20.175
  366.620  163.763   89.357    0.422    0.143   17.870
  366.870  162.729   91.933    0.427    0.162   16.669
  367.120  162.524   90.893    0.431    0.173   15.525
  367.370  162.216   90.466    0.435    0.195   15.027
  367.620  162.634   85.994    0.417    0.208   15.181
  367.870  163.778   84.403    0.409    0.224   14.863
  368.120  163.885   86.733    0.409    0.198   14.713
  368.370  165.444   88.634    0.414    0.196   14.560
  368.620  167.833   90.230    0.418    0.181   14.493
  368.870  169.081   91.028    0.411    0.175   14.453
  369.120  169.915   91.948    0.407    0.167   14.521
  369.370  170.333   92.930    0.409    0.155   14.534
  369.620  171.166   94.587    0.424    0.159   14.547
  369.870  170.754   95.446    0.436    0.150   14.266
  370.120  170.860   93.487    0.433    0.108   13.687
  370.370  172.627   93.305    0.403    0.074   13.199
  370.620  173.460   95.942    0.440    0.108   12.449
  370.870  172.944   99.436    0.454    0.145   11.133
  371.120  174.815  102.011    0.467    0.163   10.537
  371.370  177.516  101.952    0.480    0.137    9.811
  371.620  180.009  101.709    0.471    0.137    9.273
  371.870  179.285  102.875    0.454    0.146    8.894
  372.120  174.931  104.225    0.454    0.153    8.516
  372.370  174.103  103.307    0.459    0.146    8.258
  372.620  175.974  102.206    0.449    0.134    7.893
  372.870  173.073  102.821    0.455    0.124    7.712
  373.120  174.320  105.335    0.461    0.123    7.591
  373.370  177.021  108.951    0.453    0.113    7.642
  373.620  178.270  110.976    0.459    0.129    7.619
  373.870  178.998  111.896    0.499    0.144    7.783
  374.120  181.285  114.533    0.468    0.145    7.981
  374.370  182.324  117.598    0.460    0.153    8.167
  374.620  180.460  118.948    0.457    0.148    9.053
  374.870  178.699  119.256    0.460    0.140    9.958
  375.120  176.834  109.025    0.388    0.102   11.997
  375.370  176.007  100.509    0.325    0.058   18.526
  375.620  174.558   99.286    0.353    0.064   19.937
  375.870  172.694  102.290    0.356    0.084   19.959
  376.120  172.488  103.211    0.346    0.087   19.823
  376.370  171.558  104.070    0.338    0.073   18.355
  376.620  170.212  104.256    0.354    0.113   16.715
  376.870  169.384  100.275    0.366    0.149   15.025
  377.120  168.972   96.171    0.376    0.159   13.940
  377.370  173.022   96.173    0.380    0.145   13.027
  377.620  175.722   99.116    0.387    0.129   11.710
  377.870  175.933  103.162    0.391    0.119    9.009
  378.120  176.663  111.497    0.388    0.146    5.802
  378.370  177.184  118.545    0.428    0.157    4.807
  378.620  176.876  123.939    0.526    0.152    4.427
  378.870  171.380  128.659    0.517    0.155    4.719
  379.120  169.827  127.741    0.481    0.154    6.330
  379.370  169.725  125.292    0.454    0.148    7.987
  379.620  171.181  121.311    0.436    0.128    9.534
  379.870  173.363  112.122    0.421    0.100   10.354
  380.120  174.507  113.043    0.397    0.098    9.412
  380.370  173.992  121.562    0.413    0.138    8.018
