~VERSION INFORMATION
 VERS.                 2.0:   CWLS LOG ASCII STANDARD -VERSION 2.0
 WRAP.                  NO:   ONE LINE PER DEPTH STEP
~WELL INFORMATION BLOCK
#MNEM.UNIT           DATA                    DESCRIPTION OF MNEMONIC
#---------    -------------------            -------------------------------
# Generated from Intellog Unique Number	CS_69_70/WELL/881
WELL.         HUSKEY OIL OPERATION           : Well_name    - WELL
LOC .         00/10-34-069-05W4/0            : Location     - LOCATION
UWI .         00/10-34-069-05W4/0            : Uwi          - UNIQUE WELL ID
ENTR.         SP                             : Entered      - ENTERED BY
SRVC.         SCHLUMBERGER                   : Scn          - SERVICE COMPANY
STRT.M        300                            : top_depth    - START DEPTH
STOP.M        550                            : bot_depth    - STOP DEPTH
STEP.M        0.25                           : increment    - STEP LENGTH
 NULL. -999.2500:NULL Value
~CURVE INFORMATION BLOCK
#MNEM UNIT       ERCB CURVE CODE    CURVE DESCRIPTION
#-----------   ------------------   ----------------------------------
DEPT.M        00 001 00 00         : DEPTH        - DEPTH
ILD .OHMM     00 120 00 00         : RESD         - DEEP RESISTIVITY (DIL)
DPHI.V/V      00 890 00 00         : PHID         - DENSITY POROSITY (LIMESTONE)
NPHI.V/V      00 330 00 00         : PHIN         - NEUTRON POROSITY (LIMESTONE)
GR  .API      00 310 00 00         : GR           - GAMMA RAY
~PARAMETER INFORMATION
#MNEM.UNIT           DATA             DESCRIPTION OF MNEMONIC
#---------         -----------     ------------------------------
GL  .M        673.5                : gl           - GROUND LEVEL ELEVATION
EREF.M        677.2                : kb           - ELEVATION OF DEPTH REFERENCE
DATM.M        673.5                : datum        - DATUM ELEVATION
TDD .M        558                  : tdd          - TOTAL DEPTH DRILLER
RUN .         ONE                  : Run          - RUN NUMBER
ENG .         BILL                 : Engineer     - RECORDING ENGINEER
WIT .         JIM                  : Witness      - WITNESSED BY
MUD .         GEL                  : Mud_type     - MUD TYPE
MATR.         LIMESTONE            : Logunit      - NEUTRON MATRIX
TMAX.C        22                   : BHT          - MAXIMUM RECORDED TEMPERATURE
BHTD.M        558                  : BHTDEP       - MAXIMUM RECORDED TEMPERATURE
MATR.         1                    : LOGUNIT      - NEUTRON MATRIX
RMT .C        25                   : MDTP         - TEMPERATURE OF MUD
NEUT.         1                    : NEUTRON      - NEUTRON TYPE
RESI.         0                    : RESIST       - RESISTIVITY TYPE
RMC .OHMM     0.25                 : RMC          - RESISTIVITY OF MUD CAKE
RMF .OHMM     0.25                 : RMF          - RESISTIVITY OF MUD FILTRATE
SUFT.C        15                   : SUFT         - SURFACE TEMPERATURE
~A  DEPTH     RESD     PHID     PHIN       GR
# ...
  387.000   20.369   -0.006    0.105   50.897
  387.250   19.838   -0.016    0.104   52.591
  387.500   18.780   -0.015    0.104   55.011
  387.750   17.846   -0.011    0.103   58.947
  388.000   16.895   -0.015    0.102   61.427
  388.250   16.055   -0.020    0.102   62.636
  388.500   15.695   -0.006    0.102   63.298
  388.750   16.209    0.041    0.102   63.719
  389.000   17.582    0.092    0.126   69.533
  389.250   19.037    0.073    0.188   76.862
  389.500   20.495    0.042    0.175   83.767
  389.750   21.447    0.020    0.138   89.157
  390.000   22.024   -0.004    0.117   92.971
  390.250   22.025   -0.025    0.109   78.482
  390.500   17.225   -0.035    0.107   59.508
  390.750   10.576   -0.018    0.107   49.989
  391.000    8.445   -0.019    0.106   49.318
  391.250    7.412   -0.014    0.105   46.951
  391.500    6.991    0.011    0.105   40.280
  391.750    6.783    0.113    0.118   39.185
  392.000    6.581    0.346    0.283   41.545
  392.250    6.507    0.349    0.393   44.329
  392.500    6.544    0.352    0.416   46.385
  392.750    6.720    0.356    0.428   46.684
  393.000    6.849    0.359    0.436   48.620
  393.250    6.993    0.359    0.437   52.313
  393.500    7.127    0.347    0.424   56.854
  393.750    7.195    0.331    0.412   62.062
  394.000    7.141    0.321    0.437   67.269
  394.250    6.929    0.310    0.440   70.721
  394.500    6.799    0.297    0.428   74.838
  394.750    6.697    0.288    0.437   78.591
  395.000    6.787    0.280    0.473   81.436
  395.250    6.891    0.319    0.495   77.250
  395.500    7.103    0.301    0.475   70.882
  395.750    7.225    0.310    0.462   64.394
  396.000    7.308    0.336    0.451   59.541
  396.250    7.378    0.355    0.445   57.052
  396.500    7.462    0.352    0.442   53.836
  396.750    7.491    0.350    0.441   54.861
  397.000    7.520    0.352    0.448   56.312
  397.250    7.591    0.354    0.461   58.369
  397.500    7.592    0.344    0.446   61.941
  397.750    7.549    0.318    0.421   66.725
  398.000    7.549    0.303    0.410   71.509
  398.250    7.550    0.290    0.405   75.019
  398.500    6.357    0.281    0.407   76.895
  398.750    5.212    0.269    0.409   79.921
  399.000    4.653    0.257    0.410   87.674
  399.250    4.170    0.249    0.438   96.155
  399.500    3.794    0.245    0.518  100.030
  399.750    3.558    0.243    0.548   98.632
  400.000    3.465    0.246    0.530   97.900
  400.250    3.459    0.258    0.514   97.715
  400.500    3.446    0.259    0.499   99.831
  400.750    3.427    0.266    0.537  101.525
  401.000    3.414    0.281    0.570  103.460
  401.250    3.382    0.289    0.579  105.759
  401.500    3.350    0.284    0.566  107.391
  401.750    3.294    0.276    0.556  108.296
  402.000    3.257    0.271    0.548  104.777
  402.250    3.214    0.265    0.538  101.198
  402.500    3.263    0.262    0.560   99.981
  402.750    3.409    0.266    0.586  100.098
  403.000    3.533    0.283    0.580   98.579
  403.250    3.790    0.287    0.523   93.666
  403.500    4.080    0.282    0.498   89.177
  403.750    4.401    0.275    0.494   83.173
  404.000    4.729    0.271    0.499   78.321
  404.250    5.101    0.275    0.497   76.741
  404.500    5.512    0.292    0.482   76.858
  404.750    5.812    0.309    0.465   78.733
  405.000    6.082    0.313    0.451   81.335
  405.250    6.257    0.297    0.445   83.573
  405.500    6.401    0.290    0.450   84.781
  405.750    6.402    0.279    0.454   85.505
  406.000    6.306    0.270    0.451   82.895
  406.250    6.223    0.259    0.448   84.345
  406.500    6.307    0.252    0.449   85.916
  406.750    6.575    0.253    0.457   87.428
  407.000    6.739    0.258    0.463   88.818
  407.250    6.752    0.259    0.470   89.965
  407.500    6.588    0.253    0.474   90.385
  407.750    5.578    0.241    0.467   89.715
  408.000    4.697    0.227    0.488   88.438
  408.250    3.932    0.222    0.499   87.040
  408.500    3.772    0.234    0.489   85.702
  408.750    4.274    0.241    0.477   84.850
  409.000    4.769    0.236    0.481   84.362
  409.250    5.252    0.245    0.498   85.569
  409.500    5.633    0.239    0.505   87.504
  409.750    5.829    0.229    0.492   88.834
  410.000    5.851    0.225    0.489   89.375
  410.250    5.415    0.233    0.508   90.947
  410.500    4.927    0.232    0.519   94.034
  410.750    4.542    0.238    0.522   96.817
  411.000    4.227    0.248    0.518   98.814
  411.250    3.905    0.254    0.508   97.052
  411.500    3.620    0.251    0.496   92.745
  411.750    3.415    0.241    0.489   96.802
  412.000    3.263    0.229    0.494   99.888
  412.250    3.319    0.221    0.500  102.309
  412.500    3.513    0.220    0.497  103.759
  412.750    3.649    0.234    0.484  103.210
  413.000    3.818    0.225    0.470  103.933
  413.250    3.936    0.221    0.468  103.081
  413.500    3.951    0.239    0.482   98.167
  413.750    3.907    0.252    0.472   96.527
  414.000    3.798    0.239    0.489   97.674
  414.250    3.699    0.244    0.516   99.184
  414.500    3.588    0.252    0.534   99.787
  414.750    3.521    0.241    0.574  100.026
  415.000    3.535    0.235    0.581   99.840
  415.250    3.596    0.240    0.563   98.079
  415.500    3.672    0.270    0.549   90.862
  415.750    3.813    0.271    0.542   86.677
  416.000    4.082    0.273    0.531   83.097
  416.250    4.337    0.279    0.515   83.881
  416.500    4.713    0.273    0.485   86.786
  416.750    5.074    0.262    0.460   88.115
  417.000    5.201    0.252    0.472   88.050
  417.250    4.970    0.255    0.484   85.077
  417.500    4.795    0.272    0.493   81.375
  417.750    4.741    0.283    0.485   79.250
  418.000    5.173    0.290    0.465   78.640
  418.250    5.707    0.293    0.446   74.878
  418.500    6.262    0.290    0.440   73.359
  418.750    6.590    0.205    0.469   74.871
  419.000    6.831    0.159    0.486   74.503
  419.250    6.923    0.127    0.421   64.256
  419.500    6.989    0.103    0.276   51.707
  419.750    6.730    0.290    0.268   56.673
  420.000    6.240    0.314    0.385   62.184
  420.250    5.818    0.327    0.421   67.149
  420.500    5.508    0.337    0.430   70.297
  420.750    5.274    0.325    0.436   72.414
  421.000    5.225    0.313    0.456   73.076
  421.250    5.305    0.307    0.455   71.072
  421.500    5.325    0.311    0.443   69.856
  421.750    5.315    0.314    0.451   69.186
  422.000    5.285    0.308    0.457   72.576
  422.250    5.276    0.298    0.465   76.754
  422.500    5.316    0.286    0.479   80.871
  422.750    5.397    0.275    0.491   84.503
  423.000    5.500    0.268    0.478   88.802
  423.250    5.648    0.264    0.458   94.495
  423.500    5.789    0.260    0.444   94.066
  423.750    5.889    0.262    0.432   90.366
  424.000    5.945    0.266    0.440   89.150
  424.250    5.934    0.260    0.439   88.600
  424.500    5.957    0.257    0.428   86.899
  424.750    5.957    0.257    0.424   85.804
  425.000    5.890    0.255    0.432   84.891
  425.250    5.769    0.251    0.436   81.554
  425.500    5.451    0.271    0.428   76.398
  425.750    4.997    0.285    0.434   74.091
  426.000    4.428    0.275    0.461   76.632
  426.250    4.106    0.261    0.485   80.143
  426.500    3.976    0.256    0.510   83.533
  426.750    3.872    0.262    0.506   87.286
  427.000    3.743    0.267    0.492   87.889
  427.250    3.563    0.254    0.483   85.158
  427.500    3.200    0.246    0.487   84.668
  427.750    2.856    0.240    0.502   87.453
  428.000    2.609    0.252    0.515   89.509
  428.250    2.410    0.269    0.527   90.717
  428.500    2.255    0.278    0.553   91.864
  428.750    2.256    0.277    0.549   93.133
  429.000    2.273    0.279    0.536   94.584
  429.250    2.303    0.288    0.526   95.307
  429.500    2.338    0.297    0.532   95.121
  429.750    2.361    0.302    0.600   93.299
  430.000    2.383    0.297    0.586   92.749
  430.250    2.392    0.271    0.546   94.988
