~VERSION INFORMATION
 VERS.                 2.0:   CWLS LOG ASCII STANDARD -VERSION 2.0
 WRAP.                  NO:   ONE LINE PER DEPTH STEP
~WELL INFORMATION BLOCK
#MNEM.UNIT           DATA                    DESCRIPTION OF MNEMONIC
#---------    -------------------            -------------------------------
# Generated from Intellog Unique Number	CS_67_68/WELL/805
WELL.         TOTAL PETROLEUM (N.A.)         : Well_name    - WELL
LOC .         00/10-15-068-16W4/0            : Location     - LOCATION
UWI .         00/10-15-068-16W4/0            : Uwi          - UNIQUE WELL ID
ENTR.         SP                             : Entered      - ENTERED BY
SRVC.         SCHLUMBERGER                   : Scn          - SERVICE COMPANY
STRT.M        280                            : top_depth    - START DEPTH
STOP.M        490                            : bot_depth    - STOP DEPTH
STEP.M        0.25                           : increment    - STEP LENGTH
 NULL. -999.2500:NULL Value
~CURVE INFORMATION BLOCK
#MNEM UNIT       ERCB CURVE CODE    CURVE DESCRIPTION
#-----------   ------------------   ----------------------------------
DEPT.M        00 001 00 00         : DEPTH        - DEPTH
ILD .OHMM     00 120 00 00         : RESD         - DEEP RESISTIVITY (DIL)
DPHI.V/V      00 890 00 00         : PHID         - DENSITY POROSITY (LIMESTONE)
NPHI.V/V      00 330 00 00         : PHIN         - NEUTRON POROSITY (LIMESTONE)
GR  .API      00 310 00 00         : GR           - GAMMA RAY
~PARAMETER INFORMATION
#MNEM.UNIT           DATA             DESCRIPTION OF MNEMONIC
#---------         -----------     ------------------------------
GL  .M        547.15               : gl           - GROUND LEVEL ELEVATION
EREF.M        550                  : kb           - ELEVATION OF DEPTH REFERENCE
DATM.M        547.15               : datum        - DATUM ELEVATION
TDD .M        490                  : tdd          - TOTAL DEPTH DRILLER
RUN .         ONE                  : Run          - RUN NUMBER
ENG .         BILL                 : Engineer     - RECORDING ENGINEER
WIT .         JIM                  : Witness      - WITNESSED BY
MUD .         GEL                  : Mud_type     - MUD TYPE
MATR.         LIMESTONE            : Logunit      - NEUTRON MATRIX
TMAX.C        26                   : BHT          - MAXIMUM RECORDED TEMPERATURE
BHTD.M        490                  : BHTDEP       - MAXIMUM RECORDED TEMPERATURE
MATR.         1                    : LOGUNIT      - NEUTRON MATRIX
RMT .C        25                   : MDTP         - TEMPERATURE OF MUD
NEUT.         1                    : NEUTRON      - NEUTRON TYPE
RESI.         0                    : RESIST       - RESISTIVITY TYPE
RMC .OHMM     0.25                 : RMC          - RESISTIVITY OF MUD CAKE
RMF .OHMM     0.25                 : RMF          - RESISTIVITY OF MUD FILTRATE
SUFT.C        15                   : SUFT         - SURFACE TEMPERATURE
~A  DEPTH     RESD     PHID     PHIN       GR
# ...
  367.000    4.220    0.203    0.373   94.436
  367.250    4.349    0.199    0.358   91.503
  367.500    4.548    0.182    0.361   94.562
  367.750    4.634    0.163    0.359   96.337
  368.000    4.678    0.169    0.341   93.954
  368.250    4.688    0.184    0.322   97.442
  368.500    4.654    0.174    0.321   96.098
  368.750    4.611    0.179    0.358   94.388
  369.000    4.544    0.184    0.386   96.530
  369.250    4.494    0.185    0.384   96.104
  369.500    4.470    0.176    0.375   94.332
  369.750    4.470    0.181    0.377   95.557
  370.000    4.504    0.193    0.373   99.289
  370.250    4.547    0.199    0.374  100.941
  370.500    4.582    0.187    0.388  102.839
  370.750    4.643    0.192    0.394  103.330
  371.000    4.713    0.194    0.383   99.540
  371.250    4.758    0.186    0.371   96.668
  371.500    4.803    0.176    0.356   97.954
  371.750    4.894    0.174    0.347   99.240
  372.000    4.941    0.181    0.374  100.710
  372.250    4.969    0.177    0.389  103.096
  372.500    4.951    0.170    0.379  104.566
  372.750    4.834    0.167    0.370  101.877
  373.000    4.719    0.168    0.383   99.555
  373.250    4.685    0.177    0.405  101.819
  373.500    4.703    0.174    0.390  100.293
  373.750    4.730    0.166    0.370   98.338
  374.000    4.731    0.171    0.359   97.177
  374.250    4.714    0.165    0.345   98.035
  374.500    4.636    0.174    0.360  102.135
  374.750    4.476    0.176    0.384  104.215
  375.000    4.273    0.187    0.369  105.990
  375.250    4.132    0.188    0.368  106.115
  375.500    3.989    0.178    0.402  106.422
  375.750    3.669    0.191    0.418  106.852
  376.000    3.337    0.242    0.369   98.109
  376.250    3.069    0.247    0.393   92.424
  376.500    2.914    0.267    0.500   94.444
  376.750    2.808    0.303    0.466   98.543
  377.000    3.065    0.239    0.398   99.890
  377.250    3.371    0.198    0.363  100.748
  377.500    3.742    0.186    0.365  103.318
  377.750    3.980    0.158    0.384  102.953
  378.000    4.170    0.172    0.392  102.894
  378.250    4.337    0.171    0.374  105.341
  378.500    4.322    0.186    0.359  101.858
  378.750    4.282    0.186    0.361   99.780
  379.000    4.243    0.183    0.343   99.354
  379.250    4.158    0.194    0.334   95.320
  379.500    4.066    0.172    0.346   97.646
  379.750    3.904    0.179    0.378  100.828
  380.000    3.727    0.184    0.422  103.397
  380.250    3.584    0.198    0.432  103.338
  380.500    3.632    0.219    0.412   97.531
  380.750    3.736    0.215    0.395   92.274
  381.000    3.828    0.209    0.405   91.481
  381.250    3.821    0.208    0.379   94.234
  381.500    3.758    0.184    0.357   96.376
  381.750    3.635    0.171    0.365   93.259
  382.000    3.515    0.177    0.361   90.448
  382.250    3.562    0.219    0.351   88.432
  382.500    3.881    0.234    0.372   83.542
  382.750    4.044    0.238    0.421   80.058
  383.000    4.045    0.122    0.303   75.657
  383.250    3.538    0.075    0.264   67.587
  383.500    2.987    0.095    0.302   61.596
  383.750    2.937    0.293    0.379   66.490
  384.000    2.758    0.300    0.388   71.017
  384.250    2.879    0.283    0.377   78.602
  384.500    3.125    0.274    0.366   86.797
  384.750    3.214    0.277    0.354   88.144
  385.000    3.149    0.261    0.368   79.157
  385.250    2.897    0.253    0.395   74.573
  385.500    2.635    0.293    0.460   71.334
  385.750    2.361    0.323    0.446   67.606
  386.000    2.288    0.340    0.425   65.406
  386.250    2.229    0.323    0.401   63.268
  386.500    2.225    0.317    0.411   61.741
  386.750    2.226    0.308    0.402   62.476
  387.000    2.222    0.295    0.394   64.313
  387.250    2.218    0.295    0.406   63.947
  387.500    2.227    0.298    0.420   61.870
  387.750    2.227    0.314    0.402   65.174
  388.000    2.240    0.306    0.411   68.723
  388.250    2.244    0.297    0.424   71.660
  388.500    2.274    0.311    0.410   66.708
  388.750    2.383    0.316    0.410   63.836
  389.000    2.596    0.325    0.411   62.921
  389.250    3.193    0.311    0.432   64.268
  389.500    3.797    0.261    0.412   63.903
  389.750    4.408    0.126    0.322   62.498
  390.000    5.117    0.134    0.289   59.320
  390.250    5.118    0.154    0.306   54.430
  390.500    4.518    0.180    0.312   43.180
  390.750    4.034    0.222    0.329   47.096
  391.000    3.766    0.281    0.375   52.173
  391.250    4.012    0.143    0.426   57.006
  391.500    4.719    0.055    0.290   55.846
  391.750    5.591    0.047    0.198   53.096
  392.000    5.880    0.046    0.164   50.529
  392.250    4.928    0.059    0.144   51.265
  392.500    4.083    0.170    0.350   54.385
  392.750    3.422    0.240    0.391   58.912
  393.000    2.825    0.256    0.406   61.421
  393.250    2.475    0.290    0.417   61.545
  393.500    2.230    0.305    0.415   62.037
  393.750    2.153    0.311    0.399   62.711
  394.000    2.106    0.309    0.386   63.324
  394.250    2.106    0.298    0.380   63.815
  394.500    2.107    0.289    0.380   64.979
  394.750    2.119    0.290    0.369   66.509
  395.000    2.135    0.289    0.356   67.489
  395.250    2.151    0.269    0.383   68.164
  395.500    2.184    0.279    0.394   68.777
  395.750    2.250    0.289    0.404   70.308
  396.000    2.358    0.303    0.424   70.677
  396.250    2.541    0.294    0.432   72.513
  396.500    2.732    0.288    0.415   76.184
  396.750    3.022    0.268    0.407   79.059
  397.000    3.244    0.242    0.388   81.874
  397.250    3.431    0.203    0.370   83.527
  397.500    3.588    0.214    0.354   84.935
  397.750    3.746    0.212    0.353   88.422
  398.000    3.831    0.207    0.362   92.460
  398.250    3.940    0.163    0.370   96.070
  398.500    4.007    0.163    0.377   99.496
  398.750    4.046    0.176    0.366  101.944
  399.000    4.069    0.183    0.366   96.320
  399.250    4.062    0.162    0.375   93.692
  399.500    3.995    0.141    0.369   91.921
  399.750    3.849    0.147    0.354   90.333
  400.000    3.508    0.155    0.346   93.209
  400.250    3.262    0.173    0.352   96.451
  400.500    3.126    0.190    0.348   98.654
  400.750    3.109    0.173    0.357   94.865
  401.000    3.069    0.181    0.357   98.291
  401.250    3.064    0.191    0.353  101.779
  401.500    3.059    0.201    0.378  103.982
  401.750    3.014    0.184    0.397   99.459
  402.000    2.915    0.194    0.375   96.403
  402.250    2.809    0.246    0.399   97.445
  402.500    2.727    0.258    0.465  100.687
  402.750    2.682    0.247    0.436  104.419
  403.000    2.672    0.234    0.404  103.137
  403.250    2.673    0.225    0.442   99.041
  403.500    2.619    0.247    0.463  101.917
  403.750    2.510    0.235    0.465  104.610
  404.000    2.459    0.229    0.435  107.486
  404.250    2.392    0.238    0.417  109.077
  404.500    2.383    0.251    0.455  105.960
  404.750    2.424    0.226    0.446  105.351
  405.000    2.479    0.242    0.427  100.828
  405.250    2.641    0.237    0.454   98.750
  405.500    2.889    0.279    0.424  101.320
  405.750    3.078    0.251    0.389  104.930
  406.000    3.268    0.179    0.355  103.709
  406.250    3.430    0.188    0.386  101.693
  406.500    3.522    0.200    0.415  104.263
  406.750    3.489    0.211    0.442  106.649
  407.000    3.451    0.207    0.452  107.813
  407.250    3.477    0.193    0.423  104.757
  407.500    3.497    0.178    0.399  103.842
  407.750    3.485    0.171    0.380   94.427
  408.000    3.415    0.164    0.385   83.727
  408.250    3.454    0.158    0.389   73.945
  408.500    3.972    0.196    0.398   69.361
  408.750    5.352    0.211    0.408   71.014
  409.000    6.806    0.225    0.423   75.785
  409.250    7.871    0.146    0.406   79.945
  409.500    8.217    0.071    0.297   78.480
  409.750    7.815    0.039    0.160   69.859
  410.000    6.622    0.008    0.125   61.851
  410.250    5.675   -0.007    0.276   60.813
