~VERSION INFORMATION
 VERS.                 2.0:   CWLS LOG ASCII STANDARD -VERSION 2.0
 WRAP.                  NO:   ONE LINE PER DEPTH STEP
~WELL INFORMATION BLOCK
#MNEM.UNIT           DATA                    DESCRIPTION OF MNEMONIC
#---------    -------------------            -------------------------------
# Generated from Intellog Unique Number	CS_67_68/WELL/854
WELL.         AEC FISH CREEK                 : Well_name    - WELL
LOC .         00/13-30-068-08W4/0            : Location     - LOCATION
UWI .         00/13-30-068-08W4/0            : Uwi          - UNIQUE WELL ID
ENTR.         SP                             : Entered      - ENTERED BY
SRVC.         SCHLUMBERGER                   : Scn          - SERVICE COMPANY
STRT.M        405                            : top_depth    - START DEPTH
STOP.M        625                            : bot_depth    - STOP DEPTH
STEP.M        0.25                           : increment    - STEP LENGTH
 NULL. -999.2500:NULL Value
~CURVE INFORMATION BLOCK
#MNEM UNIT       ERCB CURVE CODE    CURVE DESCRIPTION
#-----------   ------------------   ----------------------------------
DEPT.M        00 001 00 00         : DEPTH        - DEPTH
ILD .OHMM     00 120 00 00         : RESD         - DEEP RESISTIVITY (DIL)
DPHI.V/V      00 890 00 00         : PHID         - DENSITY POROSITY (LIMESTONE)
NPHI.V/V      00 330 00 00         : PHIN         - NEUTRON POROSITY (LIMESTONE)
GR  .API      00 310 00 00         : GR           - GAMMA RAY
~PARAMETER INFORMATION
#MNEM.UNIT           DATA             DESCRIPTION OF MNEMONIC
#---------         -----------     ------------------------------
GL  .M        732.42               : gl           - GROUND LEVEL ELEVATION
EREF.M        731.68               : kb           - ELEVATION OF DEPTH REFERENCE
DATM.M        732.42               : datum        - DATUM ELEVATION
TDD .M        633                  : tdd          - TOTAL DEPTH DRILLER
RUN .         ONE                  : Run          - RUN NUMBER
ENG .         BILL                 : Engineer     - RECORDING ENGINEER
WIT .         JIM                  : Witness      - WITNESSED BY
MUD .         GEL                  : Mud_type     - MUD TYPE
MATR.         LIMESTONE            : Logunit      - NEUTRON MATRIX
TMAX.C        28                   : BHT          - MAXIMUM RECORDED TEMPERATURE
BHTD.M        625                  : BHTDEP       - MAXIMUM RECORDED TEMPERATURE
MATR.         1                    : LOGUNIT      - NEUTRON MATRIX
RMT .C        25                   : MDTP         - TEMPERATURE OF MUD
NEUT.         1                    : NEUTRON      - NEUTRON TYPE
RESI.         0                    : RESIST       - RESISTIVITY TYPE
RMC .OHMM     0.25                 : RMC          - RESISTIVITY OF MUD CAKE
RMF .OHMM     0.25                 : RMF          - RESISTIVITY OF MUD FILTRATE
SUFT.C        15                   : SUFT         - SURFACE TEMPERATURE
~A  DEPTH     RESD     PHID     PHIN       GR
  405.000    2.707    0.247    0.473  120.305
  405.250    2.864    0.249    0.471  119.337
  405.500    2.843    0.251    0.453  121.478
  405.750    2.837    0.252    0.441  123.618
  406.000    2.832    0.257    0.438  118.382
  406.250    2.806    0.266    0.451  112.780
  406.500    2.800    0.248    0.453  109.615
  406.750    2.790    0.241    0.450  110.720
  407.000    2.790    0.237    0.450  118.775
  407.250    2.795    0.239    0.454  116.772
  407.500    2.827    0.243    0.459  115.131
  407.750    2.859    0.245    0.463  118.858
  408.000    2.864    0.246    0.447  120.998
  408.250    2.848    0.242    0.435  115.153
  408.500    2.837    0.241    0.450  112.354
  408.750    2.821    0.249    0.452  109.862
  409.000    2.779    0.260    0.459  116.271
  409.250    2.748    0.266    0.469  127.009
  409.500    2.717    0.270    0.476  130.920
  409.750    2.707    0.273    0.426  131.109
  410.000    2.732    0.290    0.423  129.897
  410.250    2.784    0.289    0.431  125.451
  410.500    2.962    0.272    0.436  118.385
  410.750    3.206    0.277    0.436  111.991
  411.000    3.575    0.302    0.427  105.229
  411.250    3.964    0.315    0.413   97.919
  411.500    4.354    0.321    0.398   93.048
  411.750    4.738    0.302    0.378   89.153
  412.000    5.032    0.289    0.363   86.294
  412.250    5.294    0.262    0.353   81.728
  412.500    5.466    0.229    0.351   67.588
  412.750    5.569    0.218    0.359   56.681
  413.000    5.601    0.247    0.372   49.309
  413.250    5.517    0.260    0.385   45.596
  413.500    5.414    0.292    0.396   61.581
  413.750    5.314    0.311    0.400   72.990
  414.000    5.264    0.290    0.389   82.691
  414.250    5.244    0.278    0.385   92.698
  414.500    5.205    0.282    0.382   95.266
  414.750    5.264    0.288    0.368   92.102
  415.000    5.303    0.280    0.382   95.951
  415.250    5.363    0.270    0.400  102.300
  415.500    5.384    0.263    0.412  106.760
  415.750    5.404    0.257    0.395  108.837
  416.000    5.404    0.257    0.382  106.650
  416.250    5.383    0.255    0.376  106.473
  416.500    5.373    0.247    0.385  114.285
  416.750    5.353    0.241    0.393  119.170
  417.000    5.333    0.244    0.396  118.568
  417.250    5.293    0.253    0.402  116.318
  417.500    5.293    0.266    0.422  121.020
  417.750    5.373    0.277    0.436  123.955
  418.000    5.496    0.285    0.451  122.985
  418.250    5.558    0.291    0.430  125.005
  418.500    5.589    0.297    0.416  127.573
  418.750    5.506    0.288    0.417  112.153
  419.000    5.383    0.299    0.424   86.123
  419.250    5.233    0.311    0.408   70.886
  419.500    5.175    0.328    0.396   60.040
  419.750    5.145    0.338    0.394   62.303
  420.000    5.165    0.327    0.386   72.860
  420.250    5.194    0.307    0.378   78.780
  420.500    5.204    0.303    0.377   84.397
  420.750    5.204    0.314    0.387   87.635
  421.000    5.204    0.318    0.402   93.131
  421.250    5.165    0.318    0.417  100.820
  421.500    5.107    0.315    0.406  107.962
  421.750    5.049    0.299    0.401  111.444
  422.000    4.927    0.266    0.431  114.256
  422.250    4.675    0.245    0.449  120.361
  422.500    4.519    0.219    0.430  125.245
  422.750    4.353    0.119    0.418  130.131
  423.000    4.208    0.095    0.410  125.991
  423.250    3.992    0.095    0.418  123.071
  423.500    3.773    0.150    0.435  130.702
  423.750    3.620    0.198    0.445  137.842
  424.000    3.384    0.217    0.428  144.373
  424.250    3.144    0.231    0.428  147.916
  424.500    2.961    0.235    0.444  139.692
  424.750    2.841    0.242    0.447  132.382
  425.000    2.793    0.258    0.451  126.047
  425.250    2.798    0.280    0.455  136.116
  425.500    3.006    0.300    0.461  142.586
  425.750    3.051    0.313    0.476  145.336
  426.000    3.327    0.329    0.486  100.648
  426.250    3.519    0.367    0.470   79.558
  426.500    3.724    0.473    0.447   70.053
  426.750    3.962    0.442    0.433   64.084
  427.000    4.106    0.418    0.437   58.359
  427.250    4.176    0.399    0.444   63.917
  427.500    4.183    0.389    0.441   69.350
  427.750    4.137    0.385    0.435   72.344
  428.000    4.082    0.384    0.427   70.216
  428.250    4.067    0.391    0.423   66.078
  428.500    4.037    0.396    0.425   65.657
  428.750    3.991    0.392    0.430   73.287
  429.000    3.969    0.386    0.432   80.673
  429.250    3.954    0.381    0.429   84.641
  429.500    3.946    0.377    0.439   89.649
  429.750    3.984    0.377    0.442   86.485
  430.000    3.984    0.378    0.427   79.845
  430.250    3.932    0.383    0.422   77.231
  430.500    3.924    0.388    0.441   77.420
  430.750    3.999    0.386    0.454   76.148
  431.000    4.059    0.376    0.437   71.581
  431.250    4.152    0.368    0.422   71.222
  431.500    4.199    0.367    0.415   75.314
  431.750    4.246    0.374    0.412   73.004
  432.000    4.335    0.372    0.413   71.914
  432.250    4.368    0.358    0.432   76.738
  432.500    4.442    0.341    0.448   79.062
  432.750    4.526    0.328    0.448   81.691
  433.000    4.586    0.315    0.434   82.369
  433.250    4.699    0.324    0.431   82.376
  433.500    4.825    0.334    0.431   83.053
  433.750    4.916    0.341    0.428   88.914
  434.000    4.991    0.346    0.425   93.555
  434.250    5.047    0.336    0.428   98.136
  434.500    5.114    0.329    0.445  101.496
  434.750    5.240    0.330    0.453  103.942
  435.000    5.431    0.204    0.461   99.010
  435.250    5.649    0.154    0.401   89.383
  435.500    6.056    0.136    0.372   79.999
  435.750    6.276    0.183    0.335   71.958
  436.000    6.033    0.295    0.336   62.879
  436.250    5.461    0.324    0.378   70.508
  436.500    5.075    0.338    0.410   78.442
  436.750    4.943    0.333    0.421   85.279
  437.000    5.171    0.326    0.414   87.724
  437.250    6.229    0.322    0.386   90.963
  437.500    6.907    0.322    0.331   90.848
  437.750    7.775    0.162    0.285   86.587
  438.000    8.525    0.133    0.252   78.973
  438.250    9.139    0.122    0.266   74.650
  438.500    9.138    0.163    0.354   71.425
  438.750    7.376    0.214    0.401   75.212
  439.000    6.528    0.256    0.421   83.512
  439.250    5.987    0.289    0.434   88.397
  439.500    5.564    0.315    0.439   87.855
  439.750    5.171    0.342    0.444   86.277
  440.000    5.075    0.347    0.440   89.516
  440.250    5.075    0.343    0.428   94.524
  440.500    5.056    0.336    0.421   99.774
  440.750    4.989    0.325    0.410  105.817
  441.000    4.897    0.308    0.417  110.824
  441.250    4.805    0.296    0.425  113.757
  441.500    4.769    0.306    0.438  112.057
  441.750    4.760    0.308    0.446  112.491
  442.000    4.742    0.296    0.443  114.572
  442.250    4.742    0.288    0.442  112.567
  442.500    4.778    0.282    0.442  107.756
  442.750    4.796    0.273    0.426  103.739
  443.000    4.796    0.267    0.420  107.344
  443.250    4.859    0.264    0.421  111.131
  443.500    4.896    0.265    0.427  112.967
  443.750    4.878    0.263    0.436  108.097
  444.000    4.823    0.258    0.448  103.956
  444.250    4.796    0.259    0.461  100.062
  444.500    4.760    0.269    0.458  107.324
  444.750    4.742    0.277    0.442  117.577
  445.000    4.742    0.279    0.437  122.583
  445.250    4.751    0.280    0.458  123.748
  445.500    4.760    0.280    0.442  120.158
  445.750    4.769    0.276    0.429  116.018
  446.000    4.823    0.285    0.430  108.160
  446.250    4.868    0.304    0.439  101.824
  446.500    4.960    0.320    0.442  100.368
  446.750    5.045    0.303    0.443  105.009
  447.000    5.141    0.293    0.437  107.760
  447.250    5.288    0.287    0.421  105.999
  447.500    5.469    0.280    0.417  102.409
  447.750    5.615    0.290    0.433  103.146
  448.000    5.819    0.298    0.444   97.666
  448.250    5.896    0.290    0.450   90.174
