~VERSION INFORMATION
 VERS.                 2.0:   CWLS LOG ASCII STANDARD -VERSION 2.0
 WRAP.                  NO:   ONE LINE PER DEPTH STEP
~WELL INFORMATION BLOCK
#MNEM.UNIT           DATA                    DESCRIPTION OF MNEMONIC
#---------    -------------------            -------------------------------
# Generated from Intellog Unique Number	CW_73_75/WELL/1030
WELL.         CHEVRON ET AL ROCK 10-33       : Well_name    - WELL
LOC .         00/10-33-075-22W4/0            : Location     - LOCATION
UWI .         00/10-33-075-22W4/0            : Uwi          - UNIQUE WELL ID
ENTR.         JAYE                           : Entered      - ENTERED BY
SRVC.         SCHLUMBERGER                   : Scn          - SERVICE COMPANY
DATE.         14 JAN 73                      : Date         - LOG DATE
STRT.M        371.856                        : top_depth    - START DEPTH
STOP.M        655.356                        : bot_depth    - STOP DEPTH
STEP.M        0.25                           : increment    - STEP LENGTH
 NULL. -999.2500:NULL Value
~CURVE INFORMATION BLOCK
#MNEM UNIT       ERCB CURVE CODE    CURVE DESCRIPTION
#-----------   ------------------   ----------------------------------
DEPT.M        00 001 00 00         : DEPTH        - DEPTH
ILD .OHMM     00 120 00 00         : RESD         - DEEP RESISTIVITY (DLL)
NPHI.V/V      00 330 00 00         : PHIN         - NEUTRON POROSITY (SANDSTONE)
DPHI.V/V      00 890 00 00         : PHID         - DENSITY POROSITY (SANDSTONE)
GR  .API      00 310 00 00         : GR           - GAMMA RAY
CALI.MM       00 280 01 00         : CAL          - CALIPER
~PARAMETER INFORMATION
#MNEM.UNIT           DATA             DESCRIPTION OF MNEMONIC
#---------         -----------     ------------------------------
GL  .M        669.036              : gl           - GROUND LEVEL ELEVATION
EREF.M        672.267              : kb           - ELEVATION OF DEPTH REFERENCE
DATM.M        669.036              : datum        - DATUM ELEVATION
TDD .M        603.504              : tdd          - TOTAL DEPTH DRILLER
RUN .         ONE                  : Run          - RUN NUMBER
MATR.         SANDSTONE            : Logunit      - NEUTRON MATRIX
TMAX.C        32.7778              : BHT          - MAXIMUM RECORDED TEMPERATURE
BHTD.M        603.199              : BHTDEP       - MAXIMUM RECORDED TEMPERATURE
RMT .C        18.8889              : MDTP         - TEMPERATURE OF MUD
MUDD.KG/M     0                    : MWT          - MUD DENSITY
NEUT.         0                    : NEUTRON      - NEUTRON TYPE
RESI.         1                    : RESIST       - RESISTIVITY TYPE
RM  .OHMM     0                    : RM           - RESISTIVITY OF MUD
RMC .OHMM     3.5                  : RMC          - RESISTIVITY OF MUD CAKE
RMF .OHMM     3.51                 : RMF          - RESISTIVITY OF MUD FILTRATE
SUFT.C        -17.7778             : SUFT         - SURFACE TEMPERATURE
~A  DEPTH     RESD     PHIN     PHID       GR      CAL
# ...
  517.856    5.958    0.509    0.192  102.674  214.532
  518.106    6.008    0.515    0.173  103.278  214.830
  518.356    6.158    0.445    0.183  103.452  215.023
  518.606    6.430    0.419    0.192  103.138  215.005
  518.856    6.801    0.405    0.192   99.207  215.304
  519.106    7.114    0.417    0.175   99.014  215.391
  519.356    7.333    0.408    0.160  100.598  215.790
  519.606    7.434    0.423    0.177  102.919  215.880
  519.856    7.346    0.476    0.164  102.665  216.071
  520.106    7.190    0.484    0.175  101.368  216.162
  520.356    7.039    0.450    0.170  102.769  216.250
  520.606    6.904    0.435    0.189  105.518  216.130
  520.856    6.808    0.458    0.196  110.472  216.116
  521.106    6.702    0.471    0.175  107.032  215.894
  521.356    6.695    0.463    0.182   97.771  215.465
  521.606    6.664    0.448    0.187   97.578  215.139
  521.856    6.719    0.439    0.184   99.162  214.913
  522.106    6.725    0.451    0.171  100.194  214.794
  522.356    6.768    0.462    0.188  101.718  214.572
  522.606    6.773    0.473    0.178  103.548  214.558
  522.856    6.790    0.466    0.183  103.416  214.750
  523.106    6.784    0.444    0.191  104.080  214.529
  523.356    6.778    0.445    0.184  105.604  214.204
  523.606    6.770    0.455    0.182  105.289  213.981
  523.856    6.776    0.459    0.189  105.035  213.861
  524.106    6.756    0.442    0.182  104.597  213.950
  524.356    6.750    0.454    0.174  103.976  214.348
  524.606    6.705    0.498    0.185  104.641  214.958
  524.856    6.649    0.487    0.178  105.061  215.565
  525.106    6.618    0.477    0.193  105.542  215.757
  525.356    6.611    0.463    0.179  105.288  215.846
  525.606    6.580    0.453    0.192  104.298  215.623
  525.856    6.573    0.473    0.181  102.696  215.194
  526.106    6.604    0.473    0.166   99.686  214.865
  526.356    6.646    0.449    0.147   93.856  214.851
  526.606    6.651    0.455    0.132   93.968  215.459
  526.856    6.644    0.467    0.140   97.759  216.172
  527.106    6.552    0.466    0.153  101.611  216.986
  527.356    6.498    0.458    0.176  105.401  216.658
  527.606    6.444    0.508    0.183  107.169  216.644
  527.856    6.390    0.472    0.190  105.445  216.527
  528.106    6.384    0.449    0.179  105.865  216.408
  528.356    6.425    0.431    0.145  105.549  216.601
  528.606    6.359    0.478    0.141  102.169  216.790
  528.856    6.307    0.471    0.142  100.262  216.882
  529.106    6.276    0.488    0.160  100.253  217.177
  529.356    6.305    0.475    0.180  101.225  216.954
  529.606    6.451    0.446    0.176  100.112  216.628
  529.856    6.625    0.442    0.161   97.836  216.198
  530.106    6.754    0.450    0.156   96.847  215.976
  530.356    6.848    0.468    0.149   97.390  215.962
  530.606    6.852    0.482    0.165   98.422  216.049
  530.856    6.859    0.470    0.156   99.393  216.034
  531.106    6.865    0.451    0.145  101.040  216.019
  531.356    6.973    0.440    0.158  100.785  215.692
  531.606    7.135    0.428    0.185   97.223  215.161
  531.856    7.246    0.424    0.186   94.334  214.522
  532.106    7.373    0.417    0.199   92.610  213.883
  532.356    7.489    0.409    0.205   91.497  213.557
  532.606    7.592    0.408    0.193   90.141  213.957
  532.856    7.682    0.399    0.177   88.354  214.357
  533.106    7.761    0.436    0.180   87.181  214.552
  533.356    7.811    0.421    0.178   86.683  215.470
  533.606    7.717    0.402    0.159   89.248  216.387
  533.856    7.555    0.400    0.133   94.876  216.994
  534.106    7.234    0.417    0.148  101.914  217.290
  534.356    6.837    0.487    0.178  106.378  217.691
  534.606    6.607    0.473    0.153  108.453  217.573
  534.856    6.469    0.450    0.174  111.078  216.936
  535.106    6.546    0.437    0.171  114.501  214.949
  535.356    6.886    0.404    0.159  113.634  212.962
  535.606    7.655    0.368    0.147  102.534  212.117
  535.856    8.216    0.360    0.124   97.133  212.000
  536.106    8.423    0.368    0.146   99.391  212.606
  536.356    8.445    0.379    0.174  100.731  213.526
  536.606    8.252    0.393    0.177  100.232  214.653
  536.856    7.930    0.403    0.175   98.875  214.842
  537.106    7.749    0.383    0.155  100.091  214.205
  537.356    7.600    0.381    0.165  102.350  213.673
  537.606    7.593    0.386    0.175  105.528  213.657
  537.856    7.825    0.373    0.156  106.070  214.263
  538.106    8.052    0.377    0.146  105.387  214.766
  538.356    8.408    0.358    0.151   99.373  214.754
  538.606    9.092    0.300    0.134   93.482  214.429
  538.856   10.088    0.317    0.123   88.632  213.063
  539.106   11.254    0.341    0.128   81.209  209.210
  539.356   12.127    0.343    0.122   73.296  211.478
  539.606   13.113    0.300    0.103   71.081  214.160
  539.856   13.344    0.242    0.084   76.832  214.041
  540.106   12.848    0.281    0.063   82.889  212.988
  540.356   11.302    0.334    0.088   87.475  212.557
  540.606    9.708    0.345    0.110   90.898  212.750
  540.856    7.789    0.368    0.097   93.585  212.836
  541.106    6.181    0.467    0.117   95.905  213.137
  541.356    6.129    0.479    0.136   98.041  213.429
  541.606    6.213    0.484    0.147  100.238  213.518
  541.856    6.358    0.484    0.141   95.573  213.399
  542.106    6.601    0.461    0.143   96.605  213.177
  542.356    6.818    0.466    0.145   98.924  213.164
  542.606    6.963    0.465    0.133   99.774  213.254
  542.856    7.111    0.445    0.143   98.295  213.343
  543.106    7.103    0.440    0.158   97.183  213.536
  543.356    7.071    0.453    0.168   97.663  213.520
  543.606    6.960    0.460    0.162   97.716  213.298
  543.856    6.928    0.463    0.143   95.011  213.177
  544.106    6.832    0.420    0.134   95.921  213.266
  544.356    6.676    0.449    0.128   97.629  213.252
  544.606    6.428    0.469    0.149   99.519  213.342
  544.856    6.144    0.466    0.161  100.736  213.222
  545.106    6.015    0.433    0.162  100.237  213.415
  545.356    6.245    0.424    0.151  101.698  213.504
  545.606    6.618    0.419    0.163  104.263  213.385
  545.856    7.012    0.415    0.153  102.967  213.265
  546.106    7.044    0.415    0.138  103.020  213.044
  546.356    6.871    0.410    0.122  101.356  212.925
  546.606    6.628    0.406    0.136  103.676  213.636
  546.856    6.416    0.397    0.162  107.467  214.347
  547.106    6.235    0.411    0.164  107.151  218.483
  547.356    6.025    0.428    0.172  105.917  219.920
  547.606    5.824    0.447    0.149  103.150  216.896
  547.856    5.171    0.445    0.154  101.977  216.984
  548.106    4.058    0.451    0.169  103.868  217.592
  548.356    2.851    0.512    0.163  106.064  217.577
  548.606    2.431    0.573    0.192  105.382  216.110
  548.856    1.906    0.602    0.246  101.267  213.605
  549.106    1.723    0.621    0.266  102.055  211.411
  549.356    1.662    0.638    0.233  102.474  212.018
  549.606    1.722    0.604    0.217  102.405  211.275
  549.856    1.992    0.557    0.204   98.168  209.186
  550.106    2.412    0.528    0.188   99.385  208.550
  550.356    3.184    0.494    0.177   95.638  209.467
  550.606    4.212    0.423    0.164   94.098  211.527
  550.856    5.064    0.371    0.163   94.886  213.380
  551.106    6.009    0.360    0.162   97.634  215.234
  551.356    6.978    0.351    0.151   98.116  216.047
  551.606    6.981    0.345    0.131   97.677  214.892
  551.856    6.549    0.355    0.111   98.404  213.009
  552.106    6.154    0.375    0.143   99.252  212.165
  552.356    5.968    0.409    0.153   98.202  211.836
  552.606    6.403    0.432    0.162  102.177  212.237
  552.856    7.600    0.427    0.150   95.795  213.467
  553.106    9.321    0.398    0.134   87.820  213.972
  553.356   12.557    0.351    0.113   78.069  213.957
  553.606   17.878    0.333    0.101   61.393  213.526
  553.856   22.213    0.336    0.236   49.129  212.890
  554.106   24.051    0.343    0.242   52.551  211.733
