~VERSION INFORMATION
 VERS.                 2.0:   CWLS LOG ASCII STANDARD -VERSION 2.0
 WRAP.                  NO:   ONE LINE PER DEPTH STEP
~WELL INFORMATION BLOCK
#MNEM.UNIT           DATA                    DESCRIPTION OF MNEMONIC
#---------    -------------------            -------------------------------
# Generated from Intellog Unique Number	CS_73_76/WELL/850
WELL.         ESSO CLYDE LAKE                : Well_name    - WELL
LOC .         00/11-23-073-09W4/0            : Location     - LOCATION
UWI .         00/11-23-073-09W4/0            : Uwi          - UNIQUE WELL ID
ENTR.         SP                             : Entered      - ENTERED BY
SRVC.         SCHLUMBERGER                   : Scn          - SERVICE COMPANY
STRT.M        285                            : top_depth    - START DEPTH
STOP.M        495                            : bot_depth    - STOP DEPTH
STEP.M        0.25                           : increment    - STEP LENGTH
 NULL. -999.2500:NULL Value
~CURVE INFORMATION BLOCK
#MNEM UNIT       ERCB CURVE CODE    CURVE DESCRIPTION
#-----------   ------------------   ----------------------------------
DEPT.M        00 001 00 00         : DEPTH        - DEPTH
ILD .OHMM     00 120 00 00         : RESD         - DEEP RESISTIVITY (DIL)
DPHI.V/V      00 890 00 00         : PHID         - DENSITY POROSITY (LIMESTONE)
NPHI.V/V      00 330 00 00         : PHIN         - NEUTRON POROSITY (LIMESTONE)
GR  .API      00 310 00 00         : GR           - GAMMA RAY
~PARAMETER INFORMATION
#MNEM.UNIT           DATA             DESCRIPTION OF MNEMONIC
#---------         -----------     ------------------------------
GL  .M        650.3                : gl           - GROUND LEVEL ELEVATION
EREF.M        654.5                : kb           - ELEVATION OF DEPTH REFERENCE
DATM.M        650.3                : datum        - DATUM ELEVATION
TDD .M        503.5                : tdd          - TOTAL DEPTH DRILLER
RUN .         ONE                  : Run          - RUN NUMBER
ENG .         BILL                 : Engineer     - RECORDING ENGINEER
WIT .         JIM                  : Witness      - WITNESSED BY
MUD .         GEL                  : Mud_type     - MUD TYPE
MATR.         LIMESTONE            : Logunit      - NEUTRON MATRIX
TMAX.C        23                   : BHT          - MAXIMUM RECORDED TEMPERATURE
BHTD.M        503.5                : BHTDEP       - MAXIMUM RECORDED TEMPERATURE
MATR.         1                    : LOGUNIT      - NEUTRON MATRIX
RMT .C        25                   : MDTP         - TEMPERATURE OF MUD
NEUT.         1                    : NEUTRON      - NEUTRON TYPE
RESI.         0                    : RESIST       - RESISTIVITY TYPE
RMC .OHMM     0.25                 : RMC          - RESISTIVITY OF MUD CAKE
RMF .OHMM     0.25                 : RMF          - RESISTIVITY OF MUD FILTRATE
SUFT.C        15                   : SUFT         - SURFACE TEMPERATURE
~A  DEPTH     RESD     PHID     PHIN       GR
# ...
  415.500    4.404    0.224    0.434   99.165
  415.750    4.633    0.235    0.411  102.230
  416.000    4.712    0.231    0.393   96.115
  416.250    4.874    0.229    0.433   89.385
  416.500    4.958    0.218    0.433   87.553
  416.750    5.043    0.208    0.422   89.396
  417.000    5.044    0.201    0.427   89.402
  417.250    4.961    0.198    0.436   89.408
  417.500    5.046    0.185    0.441   91.865
  417.750    5.132    0.150    0.464   93.093
  418.000    5.220    0.061    0.445   92.486
  418.250    5.585    0.035    0.197   85.757
  418.500    5.874    0.025    0.298   70.457
  418.750    6.180    0.088    0.361   65.564
  419.000    6.181    0.129    0.389   79.654
  419.250    6.287    0.159    0.396   85.783
  419.500    5.979    0.175    0.400   90.687
  419.750    5.591    0.178    0.402   91.915
  420.000    5.407    0.181    0.420   89.473
  420.250    5.319    0.197    0.441   94.990
  420.500    5.231    0.208    0.412   95.606
  420.750    5.321    0.201    0.348   90.717
  421.000    5.412    0.199    0.360   89.496
  421.250    5.413    0.202    0.372   92.564
  421.500    5.414    0.201    0.388   93.795
  421.750    5.415    0.199    0.400   94.411
  422.000    5.326    0.191    0.403   95.028
  422.250    5.238    0.179    0.379   93.199
  422.500    5.240    0.175    0.384   93.817
  422.750    5.154    0.182    0.418   94.434
  423.000    4.984    0.193    0.458   90.767
  423.250    4.985    0.199    0.464   93.223
  423.500    4.902    0.179    0.391   95.677
  423.750    4.822    0.177    0.363   97.518
  424.000    4.586    0.207    0.406   97.525
  424.250    4.510    0.221    0.470   95.695
  424.500    4.362    0.211    0.428   93.251
  424.750    4.290    0.200    0.396   91.419
  425.000    4.149    0.191    0.421   88.977
  425.250    3.816    0.193    0.496   88.983
  425.500    3.509    0.193    0.455   90.213
  425.750    3.173    0.206    0.418   89.607
  426.000    2.918    0.226    0.528   86.552
  426.250    2.683    0.243    0.591   85.332
  426.500    2.386    0.270    0.583   84.114
  426.750    2.307    0.276    0.584   84.731
  427.000    2.194    0.289    0.571   85.961
  427.250    2.087    0.260    0.520   85.967
  427.500    2.123    0.236    0.528   84.136
  427.750    2.159    0.227    0.542   86.591
  428.000    2.160    0.225    0.561   90.271
  428.250    2.160    0.229    0.529   91.501
  428.500    2.350    0.243    0.553   90.283
  428.750    2.513    0.240    0.602   89.063
  429.000    2.781    0.237    0.599   86.012
  429.250    3.076    0.227    0.486   84.791
  429.500    3.347    0.212    0.424   84.795
  429.750    3.462    0.218    0.431   86.027
  430.000    3.581    0.227    0.447   86.644
  430.250    3.642    0.225    0.425   87.261
  430.500    3.832    0.208    0.433   86.658
  430.750    3.963    0.192    0.431   86.048
  431.000    4.031    0.210    0.405   82.994
  431.250    4.170    0.238    0.398   78.713
  431.500    4.536    0.254    0.416   71.374
  431.750    4.935    0.265    0.397   68.929
  432.000    5.460    0.284    0.405   65.873
  432.250    5.940    0.291    0.408   67.103
  432.500    6.248    0.275    0.390   67.721
  432.750    6.684    0.269    0.410   69.564
  433.000    7.150    0.274    0.444   68.957
  433.250    7.911    0.271    0.433   62.231
  433.500    8.182    0.277    0.408   59.173
  433.750    9.052    0.275    0.427   62.243
  434.000    9.848    0.274    0.454   63.471
  434.250   10.359    0.286    0.479   60.416
  434.500   11.081    0.289    0.422   59.810
  434.750   11.463    0.283    0.375   60.427
  435.000   11.659    0.230    0.300   62.271
  435.250   11.088    0.206    0.370   62.889
  435.500   10.724    0.245    0.417   62.895
  435.750   10.547    0.277    0.462   61.674
  436.000   10.549    0.263    0.437   63.517
  436.250   10.377    0.244    0.410   67.197
  436.500   10.378    0.238    0.426   64.753
  436.750   10.037    0.261    0.433   61.698
  437.000    9.229    0.280    0.437   61.091
  437.250    8.488    0.298    0.420   62.934
  437.500    7.547    0.275    0.409   62.940
  437.750    6.711    0.278    0.417   62.946
  438.000    6.490    0.297    0.421   66.015
  438.250    5.968    0.290    0.417   66.632
  438.500    5.581    0.281    0.409   67.250
  438.750    5.308    0.275    0.399   67.257
  439.000    5.220    0.269    0.409   67.260
  439.250    5.134    0.264    0.431   67.266
  439.500    5.135    0.259    0.410   65.435
  439.750    5.137    0.257    0.386   63.605
  440.000    5.052    0.244    0.366   64.835
  440.250    5.053    0.257    0.354   67.902
  440.500    4.969    0.264    0.363   66.685
  440.750    4.888    0.270    0.394   66.077
  441.000    5.142    0.272    0.412   65.471
  441.250    5.057    0.265    0.405   64.864
  441.500    4.891    0.248    0.421   64.870
  441.750    4.810    0.239    0.421   64.264
  442.000    4.652    0.256    0.410   64.269
  442.250    4.575    0.267    0.434   66.725
  442.500    4.500    0.248    0.435   67.343
  442.750    4.426    0.240    0.416   67.960
  443.000    4.281    0.254    0.405   67.353
  443.250    4.210    0.265    0.411   64.299
  443.500    4.141    0.270    0.406   67.366
  443.750    4.142    0.248    0.400   72.882
  444.000    4.142    0.220    0.380   84.522
  444.250    4.143    0.206    0.403   90.038
  444.500    4.214    0.196    0.420   92.491
  444.750    4.508    0.178    0.423   91.884
  445.000    4.743    0.160    0.409   89.442
  445.250    4.989    0.144    0.331   86.998
  445.500    5.248    0.158    0.307   83.331
  445.750    5.428    0.181    0.307   78.438
  446.000    5.710    0.196    0.328   77.219
  446.250    5.808    0.191    0.349   82.124
  446.500    5.907    0.179    0.359   83.966
  446.750    6.009    0.196    0.347   79.075
  447.000    6.111    0.207    0.331   76.018
  447.250    6.322    0.212    0.320   72.351
  447.500    6.540    0.213    0.311   68.073
  447.750    6.652    0.195    0.350   65.627
  448.000    6.542    0.224    0.366   63.184
  448.250    6.118    0.245    0.388   68.089
  448.500    6.328    0.259    0.400   68.094
  448.750    7.001    0.264    0.360   60.752
  449.000    8.284    0.268    0.348   54.023
  449.250    9.802    0.277    0.350   49.744
  449.500   10.311    0.247    0.382   47.300
  449.750    9.324    0.227    0.428   51.592
  450.000    9.018    0.225    0.430   62.007
  450.250    9.485    0.240    0.361   71.809
  450.500   12.839    0.257    0.303   76.099
  450.750   24.323    0.266    0.310   63.861
  451.000   28.299    0.261    0.321   59.581
  451.250   31.839    0.261    0.326   57.137
  451.500   34.639    0.266    0.332   52.245
  451.750   35.231    0.254    0.320   49.801
  452.000   32.949    0.248    0.295   54.707
  452.250   30.298    0.254    0.304   55.936
  452.500   24.771    0.247    0.315   55.942
  452.750   22.777    0.250    0.315   60.846
  453.000   18.311    0.242    0.328   68.813
  453.250   17.123    0.224    0.331   71.267
  453.500   16.013    0.222    0.335   73.722
  453.750   14.975    0.238    0.349   74.952
  454.000   13.771    0.246    0.337   75.568
  454.250   13.096    0.230    0.326   74.963
  454.500   12.043    0.224    0.320   82.930
  454.750   10.709    0.207    0.333   86.608
  455.000   10.014    0.213    0.334   88.451
  455.250    9.523    0.215    0.320   87.844
  455.500    8.758    0.211    0.318   89.074
  455.750    8.190    0.190    0.322   94.589
  456.000    7.659    0.173    0.328  107.453
  456.250    7.661    0.196    0.331  123.991
  456.500    7.924    0.224    0.326  126.445
  456.750    8.767    0.248    0.332  110.532
  457.000    9.537    0.262    0.338   84.210
  457.250   12.695    0.245    0.328   73.196
  457.500   13.809    0.239    0.326   64.630
  457.750   15.023    0.243    0.354   57.288
  458.000   13.584    0.227    0.360   47.498
  458.250   10.383    0.190    0.320   47.504
  458.500    9.079    0.173    0.284   62.204
  458.750    8.349    0.165    0.279   74.454
