~VERSION INFORMATION
 VERS.                 2.0:   CWLS LOG ASCII STANDARD -VERSION 2.0
 WRAP.                  NO:   ONE LINE PER DEPTH STEP
~WELL INFORMATION BLOCK
#MNEM.UNIT           DATA                    DESCRIPTION OF MNEMONIC
#---------    -------------------            -------------------------------
# Generated from Intellog Unique Number	CW_82_90/WELL/1032
WELL.         13-33-083-23W4                 : Well_name    - WELL
LOC .         00/13-33-083-23W4/0            : Location     - LOCATION
UWI .         00/13-33-083-23W4/0            : Uwi          - UNIQUE WELL ID
ENTR.         JAYE                           : Entered      - ENTERED BY
SRVC.         SCHLUMBERGER                   : Scn          - SERVICE COMPANY
DATE.         21 FEB 86                      : Date         - LOG DATE
STRT.M        200                            : top_depth    - START DEPTH
STOP.M        425                            : bot_depth    - STOP DEPTH
STEP.M        0.25                           : increment    - STEP LENGTH
 NULL. -999.2500:NULL Value
~CURVE INFORMATION BLOCK
#MNEM UNIT       ERCB CURVE CODE    CURVE DESCRIPTION
#-----------   ------------------   ----------------------------------
DEPT.M        00 001 00 00         : DEPTH        - DEPTH
CALI.MM       00 280 01 00         : CAL          - CALIPER
GR  .API      00 310 00 00         : GR           - GAMMA RAY
NPHI.V/V      00 330 00 00         : PHIN         - NEUTRON POROSITY (SANDSTONE)
DPHI.V/V      00 890 00 00         : PHID         - DENSITY POROSITY (SANDSTONE)
ILD .OHMM     00 120 00 00         : RESD         - DEEP RESISTIVITY (DIL)
~PARAMETER INFORMATION
#MNEM.UNIT           DATA             DESCRIPTION OF MNEMONIC
#---------         -----------     ------------------------------
GL  .M        593.3                : gl           - GROUND LEVEL ELEVATION
EREF.M        596.9                : kb           - ELEVATION OF DEPTH REFERENCE
DATM.M        593.3                : datum        - DATUM ELEVATION
TDD .M        424                  : tdd          - TOTAL DEPTH DRILLER
RUN .         ONE                  : Run          - RUN NUMBER
ENG .         MURRAY               : Engineer     - RECORDING ENGINEER
WIT .         KOSS                 : Witness      - WITNESSED BY
BASE.         S.L.                 : Branch       - HOME BASE OF LOGGING UNIT
MUD .         GEL CHEM             : Mud_type     - MUD TYPE
MATR.         SANDSTONE            : Logunit      - NEUTRON MATRIX
TMAX.C        22                   : BHT          - MAXIMUM RECORDED TEMPERATURE
BHTD.M        424                  : BHTDEP       - MAXIMUM RECORDED TEMPERATURE
RMT .C        10                   : MDTP         - TEMPERATURE OF MUD
MUDD.KG/M     1120                 : MWT          - MUD DENSITY
NEUT.         1                    : NEUTRON      - NEUTRON TYPE
RESI.         0                    : RESIST       - RESISTIVITY TYPE
RM  .OHMM     4.3                  : RM           - RESISTIVITY OF MUD
RMC .OHMM     0                    : RMC          - RESISTIVITY OF MUD CAKE
RMF .OHMM     3.8                  : RMF          - RESISTIVITY OF MUD FILTRATE
SUFT.C        0                    : SUFT         - SURFACE TEMPERATURE
~A  DEPTH      CAL       GR     PHIN     PHID     RESD
  200.000  259.294   83.638    0.598    0.614    2.915
  200.250  261.481   85.506    0.605    0.618    3.017
  200.500  262.023   85.587    0.583    0.619    3.013
  200.750  263.082   84.492    0.557    0.319    2.926
  201.000  264.343   86.493    0.568    0.315    2.906
  201.250  264.581   86.883    0.588    0.300    2.896
  201.500  261.950   84.241    0.599    0.298    2.775
  201.750  260.130   83.766    0.581    0.301    2.761
  202.000  258.421   85.082    0.579    0.300    2.805
  202.250  257.845   86.524    0.583    0.301    2.865
  202.500  258.494   86.421    0.584    0.306    2.866
  202.750  258.720   88.232    0.586    0.305    2.906
  203.000  258.853   90.172    0.567    0.300    2.957
  203.250  258.892   89.324    0.564    0.288    3.026
  203.500  259.028   86.436    0.560    0.266    3.174
  203.750  258.952   86.516    0.547    0.265    3.496
  204.000  257.548   90.001    0.535    0.277    3.639
  204.250  254.506   91.752    0.539    0.282    3.802
  204.500  253.202   91.149    0.521    0.283    3.876
  204.750  253.239   90.610    0.491    0.280    3.893
  205.000  253.986   90.816    0.489    0.280    3.932
  205.250  254.532   87.495    0.498    0.293    3.905
  205.500  254.973   87.884    0.501    0.301    3.820
  205.750  255.820   87.410    0.510    0.292    3.674
  206.000  256.979   91.944    0.533    0.286    3.547
  206.250  257.941   96.107    0.541    0.279    3.603
  206.500  259.000   95.508    0.534    0.269    3.708
  206.750  259.332   89.278    0.445    0.242    6.404
  207.000  258.547   73.710    0.291    0.198   11.905
  207.250  257.036   45.894    0.281    0.168   18.786
  207.500  251.943   36.328    0.311    0.174   30.040
  207.750  247.767   36.343    0.358    0.191   42.421
  208.000  243.390   36.920    0.434    0.319   42.688
  208.250  241.579   38.423    0.447    0.336   41.598
  208.500  242.332   39.869    0.449    0.341   43.467
  208.750  242.767   40.690    0.467    0.339   46.365
  209.000  242.805   40.089    0.476    0.341   47.813
  209.250  243.240   38.624    0.469    0.344   48.019
  209.500  243.991   39.322    0.447    0.345   48.223
  209.750  244.951   41.382    0.446    0.344   50.294
  210.000  245.594   41.524    0.451    0.339   51.375
  210.250  246.957   39.812    0.471    0.337   51.402
  210.500  247.912   39.648    0.493    0.345   53.302
  210.750  248.151   39.234    0.505    0.353   58.159
  211.000  247.672   39.066    0.496    0.356   63.335
  211.250  247.290   39.273    0.487    0.348   69.894
  211.500  247.118   40.651    0.465    0.346   76.404
  211.750  246.842   42.525    0.466    0.352   83.201
  212.000  247.181   42.852    0.483    0.361   92.167
  212.250  246.807   41.450    0.499    0.370   98.489
  212.500  246.943   39.427    0.491    0.373  107.869
  212.750  247.481   37.466    0.466    0.370  117.481
  213.000  247.719   37.239    0.473    0.365  125.316
  213.250  247.749   37.813    0.470    0.361  134.177
  213.500  247.783   38.579    0.472    0.358  144.754
  213.750  248.024   38.223    0.471    0.359  153.249
  214.000  247.849   36.698    0.458    0.365  157.126
  214.250  247.776   36.901    0.444    0.370  157.243
  214.500  248.118   38.468    0.452    0.374  157.601
  214.750  248.047   38.919    0.471    0.372  153.880
  215.000  247.768   38.504    0.461    0.367  145.511
  215.250  247.388   37.536    0.452    0.358  129.551
  215.500  247.013   37.119    0.446    0.353  114.258
  215.750  246.839   37.076    0.441    0.358  103.271
  216.000  246.664   36.972    0.441    0.361   87.559
  216.250  246.700   35.938    0.443    0.356   77.656
  216.500  247.238   33.978    0.448    0.351   73.019
  216.750  249.017   31.773    0.457    0.344   78.775
  217.000  251.304   31.357    0.472    0.344   81.396
  217.250  251.641   31.563    0.459    0.347   80.516
  217.500  249.007   31.581    0.437    0.351   75.425
  217.750  251.195   32.217    0.439    0.352   66.899
  218.000  251.635   34.651    0.456    0.354   59.447
  218.250  253.103   35.101    0.443    0.357   54.546
  218.500  256.628   34.625    0.451    0.360   47.569
  218.750  258.705   35.263    0.436    0.362   43.729
  219.000  259.454   35.096    0.429    0.360   42.776
  219.250  258.256   34.743    0.440    0.359   41.531
  219.500  256.747   33.839    0.467    0.360   40.781
  219.750  255.035   34.782    0.469    0.366   40.193
  220.000  251.481   37.462    0.453    0.370   39.912
  220.250  247.819   38.410    0.462    0.369   39.486
  220.500  245.083   38.921    0.484    0.363   39.216
  220.750  244.705   39.620    0.469    0.351   38.650
  221.000  246.481   41.620    0.457    0.321   38.454
  221.250  248.871   43.371    0.466    0.319   38.186
  221.500  251.259   42.090    0.492    0.327   37.919
  221.750  257.037   37.533    0.478    0.349   37.659
  222.000  262.295   35.262    0.449    0.347   37.324
  222.250  269.711   35.842    0.455    0.349   36.861
  222.500  275.382   37.280    0.451    0.354   35.852
  222.750  277.163   39.032    0.438    0.347   35.334
  223.000  280.474   39.111    0.445    0.336   35.422
  223.250  285.118   37.769    0.468    0.326   35.711
  223.500  289.666   36.305    0.478    0.318   35.393
  223.750  292.052   38.488    0.491    0.329   35.216
  224.000  292.697   43.580    0.479    0.343   35.434
  224.250  293.559   48.052    0.488    0.353   35.322
  224.500  295.533   48.938    0.514    0.356   34.814
  224.750  298.849   46.113    0.505    0.350   35.162
  225.000  303.799   41.800    0.494    0.346   35.513
  225.250  308.341   38.602    0.495    0.348   35.806
  225.500  308.886   34.668    0.474    0.349   35.623
  225.750  307.173   34.373    0.474    0.351   34.519
  226.000  307.308   35.383    0.493    0.340   34.213
  226.250  310.009   37.813    0.477    0.331   34.492
  226.500  312.498   40.183    0.462    0.334   34.970
  226.750  312.330   40.263    0.488    0.368   35.189
  227.000  309.897   39.973    0.485    0.384   35.208
  227.250  304.492   42.960    0.489    0.377   35.027
  227.500  297.858   44.465    0.474    0.372   34.851
  227.750  290.816   42.258    0.464    0.373   34.092
  228.000  283.260   40.298    0.492    0.372   33.855
  228.250  276.116   39.697    0.487    0.369   33.367
  228.500  272.762   41.385    0.485    0.367   32.701
  228.750  269.515   50.437    0.510    0.366   32.109
  229.000  265.852   63.878    0.532    0.365   31.765
  229.250  259.527   75.464    0.549    0.347   30.782
  229.500  250.841   82.101    0.495    0.315   29.717
  229.750  242.669   81.749    0.468    0.212   28.581
  230.000  240.752   73.665    0.470    0.202   26.675
  230.250  240.887   72.576    0.483    0.265   25.462
  230.500  240.921   71.788    0.503    0.319   22.330
  230.750  240.747   69.083    0.510    0.330   18.129
  231.000  240.985   61.370    0.509    0.334   16.571
  231.250  241.321   60.957    0.502    0.296   14.533
  231.500  242.382   60.295    0.481    0.216   13.795
  231.750  244.059   56.542    0.457    0.213   12.445
  232.000  245.313   55.508    0.441    0.267   10.710
  232.250  248.321   60.661    0.492    0.298    9.063
  232.500  255.633   62.413    0.490    0.285    7.626
  232.750  257.922   66.081    0.496    0.277    5.731
  233.000  258.675   76.924    0.510    0.263    4.348
  233.250  258.703   83.871    0.519    0.257    3.604
  233.500  257.815   89.335    0.546    0.262    3.479
  233.750  256.925   93.002    0.555    0.268    3.481
  234.000  255.927   93.703    0.559    0.271    3.543
  234.250  254.315   89.887    0.554    0.277    3.999
  234.500  251.993   84.586    0.500    0.286    4.968
  234.750  249.766   77.986    0.459    0.299    7.508
  235.000  247.232   68.169    0.450    0.312   10.562
  235.250  243.061   57.922    0.464    0.324   14.418
  235.500  242.168   59.425    0.449    0.326   20.592
  235.750  243.228   59.381    0.433    0.326   24.872
  236.000  245.105   57.421    0.430    0.329   25.169
  236.250  246.676   58.862    0.449    0.336   24.761
