~VERSION INFORMATION
 VERS.                 2.0:   CWLS LOG ASCII STANDARD -VERSION 2.0
 WRAP.                  NO:   ONE LINE PER DEPTH STEP
~WELL INFORMATION BLOCK
#MNEM.UNIT           DATA                    DESCRIPTION OF MNEMONIC
#---------    -------------------            -------------------------------
# Generated from Intellog Unique Number	CS_77_79/WELL/978
WELL.         TRANS-PRAIRIE PIPLINES         : Well_name    - WELL
LOC .         00/10-32-077-12W4/0            : Location     - LOCATION
UWI .         00/10-32-077-12W4/0            : Uwi          - UNIQUE WELL ID
ENTR.         SP                             : Entered      - ENTERED BY
SRVC.         SCHLUMBERGER                   : Scn          - SERVICE COMPANY
STRT.M        264.566                        : top_depth    - START DEPTH
STOP.M        469.066                        : bot_depth    - STOP DEPTH
STEP.M        0.25                           : increment    - STEP LENGTH
 NULL. -999.2500:NULL Value
~CURVE INFORMATION BLOCK
#MNEM UNIT       ERCB CURVE CODE    CURVE DESCRIPTION
#-----------   ------------------   ----------------------------------
DEPT.M        00 001 00 00         : DEPTH        - DEPTH
GR  .API      00 310 00 00         : GR           - GAMMA RAY
DPHI.V/V      00 890 00 00         : PHID         - DENSITY POROSITY (SANDSTONE)
NPHI.V/V      00 330 00 00         : PHIN         - NEUTRON POROSITY (SANDSTONE)
ILD .OHMM     00 120 00 00         : RESD         - DEEP RESISTIVITY (DIL)
~PARAMETER INFORMATION
#MNEM.UNIT           DATA             DESCRIPTION OF MNEMONIC
#---------         -----------     ------------------------------
GL  .M        669.188              : gl           - GROUND LEVEL ELEVATION
EREF.M        672.846              : kb           - ELEVATION OF DEPTH REFERENCE
DATM.M        669.188              : datum        - DATUM ELEVATION
TDD .M        475.488              : tdd          - TOTAL DEPTH DRILLER
RUN .         ONE                  : Run          - RUN NUMBER
ENG .         BILL                 : Engineer     - RECORDING ENGINEER
WIT .         JIM                  : Witness      - WITNESSED BY
MUD .         GEL                  : Mud_type     - MUD TYPE
MATR.         SANDSTONE            : Logunit      - NEUTRON MATRIX
TMAX.C        60                   : BHT          - MAXIMUM RECORDED TEMPERATURE
BHTD.M        475.488              : BHTDEP       - MAXIMUM RECORDED TEMPERATURE
MATR.         1                    : LOGUNIT      - NEUTRON MATRIX
RMT .C        25                   : MDTP         - TEMPERATURE OF MUD
NEUT.         1                    : NEUTRON      - NEUTRON TYPE
RESI.         0                    : RESIST       - RESISTIVITY TYPE
RMC .OHMM     0.25                 : RMC          - RESISTIVITY OF MUD CAKE
RMF .OHMM     0.25                 : RMF          - RESISTIVITY OF MUD FILTRATE
SUFT.C        15                   : SUFT         - SURFACE TEMPERATURE
~A  DEPTH       GR     PHID     PHIN     RESD
# ...
  438.566   78.010    0.224    0.444   10.948
  438.816   79.674    0.214    0.473   12.926
  439.066   71.318    0.235    0.507   17.023
  439.316   64.616    0.255    0.497   20.631
  439.566   59.026    0.267    0.443   24.628
  439.816   61.711    0.247    0.417   26.058
  440.066   67.118    0.227    0.438   23.731
  440.316   70.793    0.203    0.481   20.607
  440.566   73.799    0.225    0.478   16.152
  440.816   77.525    0.209    0.462   12.957
  441.066   80.688    0.209    0.455   11.489
  441.316   83.896    0.204    0.454    9.907
  441.566   89.755    0.185    0.467    9.328
  441.816   95.608    0.170    0.470    8.776
  442.066  101.000    0.165    0.490    8.879
  442.316  109.225    0.174    0.506    9.153
  442.566  111.015    0.178    0.488    9.562
  442.816  109.896    0.196    0.477   11.014
  443.066  105.571    0.229    0.492   13.472
  443.316   93.266    0.233    0.495   15.303
  443.566   80.911    0.236    0.478   17.894
  443.816   73.439    0.240    0.461   18.581
  444.066   67.995    0.249    0.440   18.948
  444.316   65.099    0.257    0.420   18.419
  444.566   65.517    0.239    0.389   17.489
  444.816   66.818    0.198    0.369   17.085
  445.066   69.659    0.169    0.391   17.713
  445.316   72.572    0.180    0.410   18.842
  445.566   72.032    0.190    0.390   19.986
  445.816   64.977    0.155    0.439   21.861
  446.066   66.900    0.156    0.467   23.777
  446.316   68.009    0.176    0.491   27.975
  446.566   59.587    0.195    0.499   35.246
  446.816   45.460    0.255    0.441   38.950
  447.066   48.750    0.278    0.433   40.797
  447.316   54.156    0.254    0.443   39.737
  447.566   57.624    0.226    0.437   37.315
  447.816   58.978    0.238    0.424   34.516
  448.066   55.666    0.233    0.414   30.735
  448.316   57.752    0.213    0.416   29.661
  448.566   59.597    0.236    0.425   29.202
  448.816   58.703    0.227    0.415   32.354
  449.066   57.719    0.236    0.426   33.956
  449.316   56.845    0.212    0.438   35.620
  449.566   58.835    0.184    0.447   35.716
  449.816   62.435    0.222    0.460   31.544
  450.066   66.011    0.228    0.469   25.834
  450.316   69.007    0.231    0.457   21.845
  450.566   67.730    0.242    0.443   20.462
  450.816   66.909    0.224    0.428   19.642
  451.066   71.341    0.237    0.430   18.699
  451.316   75.065    0.218    0.432   18.240
  451.566   81.164    0.200    0.430   18.258
  451.816   84.037    0.214    0.442   18.244
  452.066   85.532    0.225    0.454   18.206
  452.316   81.822    0.250    0.472   18.854
  452.566   80.860    0.250    0.494   20.397
  452.816   79.079    0.235    0.503   22.506
  453.066   77.032    0.234    0.501   24.730
  453.316   75.233    0.237    0.505   27.451
  453.566   72.592    0.240    0.512   31.350
  453.816   69.731    0.245    0.514   37.311
  454.066   65.991    0.249    0.507   41.732
  454.316   62.408    0.254    0.491   45.590
  454.566   59.020    0.258    0.474   49.439
  454.816   56.901    0.258    0.455   49.745
  455.066   58.794    0.256    0.447   49.814
  455.316   59.444    0.252    0.435   46.705
  455.566   59.396    0.250    0.419   44.465
  455.816   59.944    0.266    0.409   38.526
  456.066   59.747    0.272    0.451   34.656
  456.316   58.850    0.259    0.476   30.312
  456.566   63.975    0.233    0.480   21.765
  456.816   68.130    0.200    0.462   16.815
  457.066   72.852    0.181    0.450   13.622
  457.316   80.440    0.168    0.440   12.582
  457.566   86.304    0.166    0.462   12.552
  457.816   87.371    0.167    0.505   13.185
  458.066   84.031    0.221    0.527   13.982
  458.316   75.365    0.254    0.519   16.103
  458.566   61.940    0.272    0.453   16.985
  458.816   59.989    0.254    0.419   17.715
  459.066   64.813    0.240    0.401   17.930
  459.316   71.391    0.221    0.405   16.856
  459.566   74.072    0.217    0.436   15.584
  459.816   77.517    0.226    0.451   13.469
  460.066   82.595    0.229    0.455   12.362
  460.316   85.709    0.204    0.453   11.269
  460.566   90.344    0.187    0.443   10.502
  460.816   96.646    0.168    0.451   10.196
  461.066  101.232    0.161    0.460    9.940
  461.316  102.668    0.160    0.458    9.753
  461.566  102.277    0.178    0.424   10.027
  461.816   96.277    0.188    0.414   10.546
  462.066   90.560    0.166    0.384   11.012
  462.316   84.513    0.147    0.370   12.641
  462.566   79.861    0.154    0.400   14.883
  462.816   72.844    0.205    0.441   17.795
  463.066   66.240    0.233    0.461   21.449
  463.316   57.204    0.246    0.437   23.521
  463.566   51.861    0.244    0.440   24.507
  463.816   57.680    0.242    0.472   24.994
  464.066   61.928    0.233    0.459   23.410
  464.316   66.422    0.214    0.443   21.865
  464.566   68.247    0.191    0.427   20.642
  464.816   69.557    0.208    0.412   18.148
  465.066   71.179    0.226    0.418   16.362
  465.316   72.017    0.233    0.439   15.128
  465.566   71.958    0.236    0.462   13.335
  465.816   72.027    0.224    0.515   12.314
  466.066   70.528    0.185    0.641   12.528
  466.316   67.036    0.098    0.361   13.579
  466.566   63.852    0.050    0.263   17.446
  466.816   58.491    0.019    0.183   26.726
  467.066   50.826   -0.001    0.164   37.543
  467.316   29.674   -0.000    0.147   46.713
  467.566   24.100    0.000    0.136   56.010
  467.816   22.094    0.000    0.135   60.763
  468.066   20.990    0.003    0.141   60.656
  468.316   20.967    0.012    0.153   52.635
  468.566   21.841    0.006    0.185   44.651
  468.816   23.466    0.003    0.202   39.730
  469.066   25.420    0.013    0.208   37.431
