~VERSION INFORMATION
 VERS.                 2.0:   CWLS LOG ASCII STANDARD -VERSION 2.0
 WRAP.                  NO:   ONE LINE PER DEPTH STEP
~WELL INFORMATION BLOCK
#MNEM.UNIT           DATA                    DESCRIPTION OF MNEMONIC
#---------    -------------------            -------------------------------
# Generated from Intellog Unique Number	CN_91_93/WELL/3054
WELL.         11-08-092-21W4                 : Well_name    - WELL
LOC .         00/11-08-092-21W4/0            : Location     - LOCATION
UWI .         00/11-08-092-21W4/0            : Uwi          - UNIQUE WELL ID
ENTR.         JOETTE                         : Entered      - ENTERED BY
SRVC.         SCHLUMBERGER                   : Scn          - SERVICE COMPANY
DATE.         04/09/92                       : Date         - LOG DATE
STRT.F        300                            : top_depth    - START DEPTH
STOP.F        889.731                        : bot_depth    - STOP DEPTH
STEP.F        0.82                           : increment    - STEP LENGTH
 NULL. -999.2500:NULL Value
~CURVE INFORMATION BLOCK
#MNEM UNIT       ERCB CURVE CODE    CURVE DESCRIPTION
#-----------   ------------------   ----------------------------------
DEPT.F        00 001 00 00         : DEPTH        - DEPTH
CALI.IN       00 280 01 00         : CAL          - CALIPER
GR  .API      00 310 00 00         : GR           - GAMMA RAY
NPHI.V/V      00 330 00 00         : PHIN         - NEUTRON POROSITY (SANDSTONE)
DPHI.V/V      00 890 00 00         : PHID         - DENSITY POROSITY (SANDSTONE)
ILD .OHMM     00 120 00 00         : RESD         - DEEP RESISTIVITY (DIL)
~PARAMETER INFORMATION
#MNEM.UNIT           DATA             DESCRIPTION OF MNEMONIC
#---------         -----------     ------------------------------
GL  .M        547.421              : gl           - GROUND LEVEL ELEVATION
EREF.M        551.383              : kb           - ELEVATION OF DEPTH REFERENCE
DATM.M        551.383              : datum        - DATUM ELEVATION
TDD .M        274.32               : tdd          - TOTAL DEPTH DRILLER
RUN .         ONE                  : Run          - RUN NUMBER
ENG .         BILL                 : Engineer     - RECORDING ENGINEER
WIT .         JIM                  : Witness      - WITNESSED BY
MUD .         GEL                  : Mud_type     - MUD TYPE
MATR.         SANDSTONE            : Logunit      - NEUTRON MATRIX
TMAX.F        67                   : BHT          - MAXIMUM RECORDED TEMPERATURE
BHTD.F        900                  : BHTDEP       - MAXIMUM RECORDED TEMPERATURE
RMT .F        64                   : MDTP         - TEMPERATURE OF MUD
MUDD.LB/G     9.25                 : MWT          - MUD DENSITY
NEUT.         1                    : NEUTRON      - NEUTRON TYPE
RESI.         0                    : RESIST       - RESISTIVITY TYPE
RM  .OHMM     4.31                 : RM           - RESISTIVITY OF MUD
RMC .OHMM     4.31                 : RMC          - RESISTIVITY OF MUD CAKE
RMF .OHMM     3.38                 : RMF          - RESISTIVITY OF MUD FILTRATE
SUFT.F        39.2                 : SUFT         - SURFACE TEMPERATURE
~A  DEPTH      CAL       GR     PHIN     PHID     RESD
# ...
  779.003    8.475   84.913    0.429    0.054    8.920
  779.823    8.476   87.402    0.441    0.129    8.919
  780.643    8.436   87.421    0.456    0.131    9.263
  781.463    8.437   84.970    0.450    0.123   10.188
  782.283    8.439   83.752    0.450    0.115   10.787
  783.104    8.522   81.916    0.449    0.096   11.864
  783.924    8.606   80.079    0.461    0.089   12.802
  784.744    8.525   77.624    0.464    0.073   13.046
  785.564    8.362   75.787    0.430    0.034   13.043
  786.385    8.239   82.611    0.334    0.064   12.792
  787.205    8.241   88.816    0.391    0.085   12.310
  788.025    8.242   90.696    0.408    0.120   12.074
  788.845    8.284   90.096    0.406    0.107   12.782
  789.665    8.327   91.353    0.391    0.120   13.794
  790.486    8.369   93.841    0.391    0.107   14.885
  791.306    8.370   94.484    0.398    0.102   15.461
  792.126    8.413   93.885    0.401    0.102   15.163
  792.946    8.414   93.280    0.379    0.087   14.589
  793.766    8.375   91.448    0.370    0.067   15.446
  794.587    8.376   90.230    0.362    0.061   16.669
  795.407    8.336   89.012    0.370    0.083   18.688
  796.227    8.337   88.408    0.397    0.100   20.950
  797.047    8.297   84.720    0.407    0.110   20.945
  797.867    8.257   83.497    0.393    0.095   20.544
  798.688    8.217   79.805    0.376    0.075   19.395
  799.508    8.218   75.493    0.351    0.026   20.929
  800.328    8.179   75.513    0.308    0.003   22.585
  801.148    8.139   81.718    0.276    0.096   24.840
  801.969    8.140   82.360    0.327    0.124   27.320
  802.789    8.100   79.282    0.354    0.139   27.843
  803.609    8.102   76.831    0.405    0.125   27.309
  804.429    8.103   76.232    0.392    0.111   25.781
  805.249    8.104   78.725    0.359    0.090   22.983
  806.070    8.105   83.693    0.339    0.088   20.101
  806.890    8.189   92.373    0.347    0.077   17.247
  807.710    8.314  101.671    0.359    0.083   15.672
  808.530    8.439  112.207    0.394    0.044   13.970
  809.350    8.440  121.505    0.424    0.021   13.189
  810.171    8.441  127.711    0.419    0.018   11.757
  810.991    8.442  117.832    0.417    0.080   10.889
  811.811    8.403   97.437    0.447    0.131   10.280
  812.631    8.404   92.507    0.484    0.120    9.891
  813.451    8.364   92.526    0.475    0.106    9.701
  814.272    8.324   94.401    0.452    0.086    9.515
  815.092    8.325   95.039    0.442    0.107    9.333
  815.912    8.327   92.584    0.420    0.099    9.331
  816.732    8.328   89.510    0.430    0.086    9.328
  817.552    8.329   86.436    0.445    0.070    9.149
  818.373    8.331   83.990    0.456    0.048    9.149
  819.193    8.332   87.102    0.457    0.003    8.970
  820.013    8.334   88.972    0.440    0.042    9.142
  820.833    8.335   90.224    0.430    0.076    8.965
  821.654    8.336   88.387    0.452    0.114    8.964
  822.474    8.296   89.025    0.466    0.099    8.961
  823.294    8.256   90.900    0.469    0.098    9.131
  824.114    8.257   89.682    0.465    0.072    9.129
  824.934    8.258   92.799    0.458    0.049    9.127
  825.755    8.219   97.153    0.458    0.079    9.300
  826.575    8.219   95.930    0.459    0.081    9.475
  827.395    8.221   93.480    0.458    0.079    9.842
  828.215    8.222   95.355    0.456    0.081   10.420
  829.035    8.182   94.136    0.449    0.112   10.823
  829.856    8.142   93.537    0.450    0.077   11.029
  830.676    8.020   95.407    0.454    0.017   10.022
  831.496    8.021  100.994    0.448    0.079    8.765
  832.316    8.228   99.776    0.434    0.133    7.378
  833.136    8.478   96.702    0.448    0.146    6.705
  833.957    8.602   95.489    0.456    0.133    6.210
  834.777    8.769   97.977    0.457    0.118    6.830
  835.597    8.935   96.145    0.462    0.165    7.512
  836.417    9.184   93.071    0.468    0.119    7.803
  837.238    9.185   92.472    0.474    0.053    7.951
  838.058    9.021   93.728    0.468    0.036    8.102
  838.878    8.693   97.459    0.446    0.069    8.415
  839.698    8.488   99.948    0.423    0.096    8.909
  840.518    8.984  101.204    0.451    0.113    9.254
  841.339    9.274   98.754    0.457    0.119   10.374
  842.159    9.193  101.247    0.466    0.120   10.372
  842.979    8.905   97.555    0.459    0.088    9.791
  843.799    8.618   93.248    0.448    0.017    9.243
  844.619    8.289   98.216    0.437    0.036    8.561
  845.440    8.455  104.417    0.400    0.066    7.929
  846.260    8.869  114.953    0.412    0.117    7.204
  847.080    9.118  120.544    0.426    0.121    6.801
  847.900    9.037  121.800    0.443    0.121    6.931
  848.720    9.244  119.345    0.464    0.131    7.623
  849.541    9.534  115.652    0.477    0.133    8.071
  850.361    9.288  113.197    0.483    0.105    7.915
  851.181    8.835  115.686    0.438    0.047    7.764
  852.001    8.466  119.417    0.409   -0.015    7.911
  852.822    8.302  125.003    0.397    0.036    9.041
  853.642    8.468  131.827    0.439    0.082   12.038
  854.462    8.965  136.800    0.465    0.126   16.973
  855.282    9.048  118.256    0.445    0.143   22.599
  856.102    8.926   72.498    0.377    0.178   37.125
  856.923    8.680   57.670    0.343    0.253   59.834
  857.743    8.392   49.029    0.293    0.267   75.229
  858.563    8.022   44.099    0.239    0.271   81.164
  859.383    7.941   40.411    0.207    0.274   81.153
  860.203    7.777   39.188    0.174    0.275   81.125
  861.024    7.779   37.351    0.172    0.286   79.563
  861.844    7.986   36.757    0.229    0.315   78.042
  862.664    8.153   37.394    0.261    0.355   76.549
  863.484    8.278   38.651    0.303    0.356   76.523
  864.304    8.362   39.907    0.311    0.337   77.988
  865.125    8.445   42.396    0.334    0.315   84.152
  865.945    8.405   46.132    0.342    0.282   94.340
  866.765    8.324   43.053    0.351    0.284  105.768
  867.585    8.243   40.597    0.360    0.283  114.143
  868.406    8.120   37.528    0.362    0.299  116.304
  869.226    8.039   37.547    0.368    0.292  107.719
  870.046    8.081   38.804    0.373    0.292   96.035
  870.866    8.166   40.060    0.377    0.290   83.986
  871.686    8.208   43.172    0.379    0.272   68.055
  872.507    8.210   46.280    0.384    0.254   33.555
  873.327    8.211   49.392    0.437    0.220   29.916
  874.147    8.212   53.746    0.447    0.182   23.781
  874.967    8.213   56.240    0.441    0.166   20.019
  875.787    8.214   58.733    0.430    0.166   16.852
  876.608    8.257   60.608    0.415    0.179   13.917
  877.428    8.300   61.874    0.402    0.199   13.139
  878.248    8.301   63.121    0.409    0.187   16.206
  879.068    8.343   65.001    0.416    0.159   23.291
  879.888    8.345   66.876    0.426    0.138   51.940
  880.709    8.264   68.751    0.430    0.114   59.359
  881.529    8.182   70.621    0.437    0.082   74.626
  882.349    8.060   73.738    0.442    0.056   74.601
  883.169    8.020   75.608    0.439    0.119   74.586
  883.990    8.021   79.344    0.442    0.110   74.565
  884.810    8.023   82.456    0.442    0.113   78.942
  885.630    8.024   84.945    0.439    0.100   97.374
  886.450    8.066   89.922    0.438    0.106  109.170
  887.270    8.109   93.030    0.439    0.096  122.386
  888.091    8.192   96.761    0.434    0.168  129.578
  888.911    8.317  103.585    0.438    0.157  129.543
  889.731    8.277  112.264    0.442    0.141  129.498
