~VERSION INFORMATION
 VERS.                 2.0:   CWLS LOG ASCII STANDARD -VERSION 2.0
 WRAP.                  NO:   ONE LINE PER DEPTH STEP
~WELL INFORMATION BLOCK
#MNEM.UNIT           DATA                    DESCRIPTION OF MNEMONIC
#---------    -------------------            -------------------------------
# Generated from Intellog Unique Number	CS_71_72/WELL/913
WELL.         MAYNARD EXPLORATION            : Well_name    - WELL
LOC .         00/11-34-071-11W4/0            : Location     - LOCATION
UWI .         00/11-34-071-11W4/0            : Uwi          - UNIQUE WELL ID
ENTR.         SP                             : Entered      - ENTERED BY
SRVC.         SCHLUMBERGER                   : Scn          - SERVICE COMPANY
STRT.M        290                            : top_depth    - START DEPTH
STOP.M        490                            : bot_depth    - STOP DEPTH
STEP.M        0.25                           : increment    - STEP LENGTH
 NULL. -999.2500:NULL Value
~CURVE INFORMATION BLOCK
#MNEM UNIT       ERCB CURVE CODE    CURVE DESCRIPTION
#-----------   ------------------   ----------------------------------
DEPT.M        00 001 00 00         : DEPTH        - DEPTH
ILD .OHMM     00 120 00 00         : RESD         - DEEP RESISTIVITY (DIL)
DPHI.V/V      00 890 00 00         : PHID         - DENSITY POROSITY (LIMESTONE)
NPHI.V/V      00 330 00 00         : PHIN         - NEUTRON POROSITY (LIMESTONE)
GR  .API      00 310 00 00         : GR           - GAMMA RAY
~PARAMETER INFORMATION
#MNEM.UNIT           DATA             DESCRIPTION OF MNEMONIC
#---------         -----------     ------------------------------
GL  .M        652.3                : gl           - GROUND LEVEL ELEVATION
EREF.M        635.5                : kb           - ELEVATION OF DEPTH REFERENCE
DATM.M        652.3                : datum        - DATUM ELEVATION
TDD .M        507.3                : tdd          - TOTAL DEPTH DRILLER
RUN .         ONE                  : Run          - RUN NUMBER
ENG .         BILL                 : Engineer     - RECORDING ENGINEER
WIT .         JIM                  : Witness      - WITNESSED BY
MUD .         GEL                  : Mud_type     - MUD TYPE
MATR.         LIMESTONE            : Logunit      - NEUTRON MATRIX
TMAX.C        22                   : BHT          - MAXIMUM RECORDED TEMPERATURE
BHTD.M        507.3                : BHTDEP       - MAXIMUM RECORDED TEMPERATURE
MATR.         1                    : LOGUNIT      - NEUTRON MATRIX
RMT .C        25                   : MDTP         - TEMPERATURE OF MUD
NEUT.         1                    : NEUTRON      - NEUTRON TYPE
RESI.         0                    : RESIST       - RESISTIVITY TYPE
RMC .OHMM     0.25                 : RMC          - RESISTIVITY OF MUD CAKE
RMF .OHMM     0.25                 : RMF          - RESISTIVITY OF MUD FILTRATE
SUFT.C        15                   : SUFT         - SURFACE TEMPERATURE
~A  DEPTH     RESD     PHID     PHIN       GR
# ...
  333.500    7.226    0.238    0.440  109.227
  333.750    6.571    0.256    0.460  109.222
  334.000    6.038    0.270    0.448  108.850
  334.250    5.522    0.262    0.432  107.010
  334.500    5.162    0.258    0.425  105.660
  334.750    5.064    0.257    0.423  104.371
  335.000    5.236    0.258    0.429  103.448
  335.250    5.458    0.265    0.422  103.136
  335.500    5.663    0.275    0.424  103.312
  335.750    5.811    0.283    0.430  103.305
  336.000    5.992    0.278    0.436  102.872
  336.250    6.091    0.278    0.447  100.972
  336.500    6.091    0.285    0.457  101.515
  336.750    6.026    0.285    0.466  103.892
  337.000    5.756    0.286    0.460  106.085
  337.250    5.502    0.288    0.452  106.323
  337.500    5.125    0.282    0.447  105.827
  337.750    5.019    0.277    0.446  105.332
  338.000    4.970    0.276    0.465  102.271
  338.250    5.118    0.267    0.463  100.798
  338.500    5.701    0.261    0.454  100.914
  338.750    6.144    0.262    0.451  101.580
  339.000    6.620    0.263    0.450  103.895
  339.250    6.957    0.254    0.466  108.716
  339.500    6.645    0.247    0.470  113.475
  339.750    6.023    0.246    0.470  115.546
  340.000    5.514    0.252    0.454  111.813
  340.250    4.965    0.264    0.432  106.857
  340.500    4.605    0.286    0.421  105.262
  340.750    4.737    0.294    0.451  106.416
  341.000    5.213    0.281    0.461  106.837
  341.250    5.574    0.273    0.445  106.220
  341.500    5.992    0.265    0.432  102.242
  341.750    6.206    0.297    0.437   95.148
  342.000    6.280    0.324    0.430   89.460
  342.250    6.699    0.334    0.412   91.286
  342.500    7.396    0.326    0.418   93.968
  342.750    8.143    0.309    0.437   96.406
  343.000    8.570    0.290    0.448   99.454
  343.250    8.398    0.273    0.457  100.670
  343.500    8.021    0.273    0.444   94.371
  343.750    7.751    0.302    0.426   88.927
  344.000    7.669    0.328    0.418   86.781
  344.250    8.137    0.344    0.422   88.240
  344.500    8.449    0.333    0.438   89.274
  344.750    8.802    0.322    0.434   90.429
  345.000    9.048    0.308    0.431   92.621
  345.250    9.098    0.298    0.429   95.608
  345.500    9.000    0.292    0.419   97.557
  345.750    8.927    0.295    0.439   99.018
  346.000    8.927    0.266    0.420   95.162
  346.250    8.927    0.246    0.406   97.783
  346.500    8.903    0.224    0.408  100.952
  346.750    8.854    0.222    0.419  102.230
  347.000    8.748    0.240    0.418  103.017
  347.250    8.699    0.244    0.412  101.668
  347.500    8.536    0.237    0.431  100.867
  347.750    8.397    0.240    0.449  102.082
  348.000    8.200    0.247    0.444  103.420
  348.250    7.905    0.258    0.440  105.122
  348.500    7.594    0.268    0.448  107.134
  348.750    7.340    0.261    0.453  104.806
  349.000    7.095    0.252    0.454  108.893
  349.250    6.833    0.248    0.445  110.659
  349.500    6.612    0.254    0.436  105.520
  349.750    6.481    0.272    0.418  103.376
  350.000    6.678    0.285    0.407   92.676
  350.250    7.039    0.293    0.402   87.783
  350.500    7.450    0.291    0.405   92.418
  350.750    7.827    0.291    0.406   94.796
  351.000    8.180    0.306    0.400   95.340
  351.250    8.509    0.317    0.398   90.812
  351.500    8.804    0.325    0.410   87.628
  351.750    9.198    0.338    0.426   85.483
  352.000    9.527    0.360    0.441   84.500
  352.250    9.765    0.361    0.427   85.043
  352.500    9.880    0.350    0.431   85.403
  352.750    9.798    0.339    0.422   83.014
  353.000    9.569    0.330    0.414   83.435
  353.250    9.447    0.331    0.417   85.994
  353.500    9.537    0.329    0.419   89.776
  353.750    9.825    0.319    0.424   92.764
  354.000    9.858    0.303    0.422   96.910
  354.250    9.637    0.292    0.418   98.676
  354.500    9.293    0.282    0.416   99.588
  354.750    8.973    0.276    0.420  100.070
  355.000    8.719    0.270    0.413  101.592
  355.250    8.449    0.265    0.415  103.967
  355.500    8.245    0.263    0.432  105.244
  355.750    8.097    0.270    0.445  102.550
  356.000    7.958    0.285    0.442   98.572
  356.250    7.852    0.294    0.423   91.782
  356.500    7.762    0.309    0.412   85.972
  356.750    7.755    0.334    0.416   80.834
  357.000    8.050    0.346    0.405   76.612
  357.250    8.805    0.345    0.421   74.528
  357.500   10.347    0.337    0.411   73.178
  357.750   11.528    0.333    0.397   70.605
  358.000   12.012    0.334    0.385   68.460
  358.250   12.365    0.337    0.384   71.020
  358.500   12.464    0.348    0.398   72.784
  358.750   12.448    0.353    0.404   73.451
  359.000   12.383    0.355    0.390   73.873
  359.250   12.293    0.349    0.393   73.316
  359.500   12.293    0.343    0.387   72.759
  359.750   12.934    0.336    0.379   72.446
  360.000   13.533    0.336    0.372   72.746
  360.250   13.746    0.341    0.388   73.534
  360.500   14.042    0.348    0.399   76.277
  360.750   14.255    0.355    0.391   78.043
  361.000   14.133    0.360    0.391   78.404
  361.250   13.895    0.365    0.398   77.114
  361.500   13.707    0.364    0.396   76.557
  361.750   13.609    0.359    0.390   76.429
  362.000   13.577    0.359    0.398   76.851
  362.250   13.553    0.359    0.408   77.211
  362.500   13.537    0.356    0.403   77.021
  362.750   13.463    0.353    0.401   76.098
  363.000   13.381    0.353    0.418   79.452
  363.250   13.234    0.354    0.413   79.934
  363.500   13.087    0.356    0.412   77.667
  363.750   12.850    0.371    0.429   76.316
  364.000   12.645    0.378    0.429   76.799
  364.250   12.473    0.378    0.418   78.992
  364.500   12.301    0.373    0.412   80.208
  364.750   12.187    0.367    0.423   78.918
  365.000   12.122    0.360    0.420   77.201
  365.250   12.155    0.352    0.407   78.355
  365.500   12.254    0.352    0.410   79.815
  365.750   12.279    0.348    0.433   80.604
  366.000   12.181    0.342    0.435   80.047
  366.250   12.034    0.343    0.431   77.658
  366.500   11.927    0.346    0.426   77.896
  366.750   11.870    0.345    0.421   79.600
  367.000   11.748    0.346    0.420   80.998
  367.250   11.805    0.348    0.426   80.688
  367.500   11.896    0.351    0.433   77.381
  367.750   11.905    0.354    0.425   76.275
  368.000   11.921    0.343    0.418   76.086
  368.250   11.954    0.329    0.416   76.691
  368.500   11.971    0.323    0.416   77.660
  368.750   12.029    0.318    0.415   78.144
  369.000   12.062    0.326    0.414   78.258
  369.250   12.120    0.338    0.423   78.495
  369.500   12.186    0.347    0.430   78.675
  369.750   12.236    0.353    0.437   78.727
  370.000   12.261    0.345    0.428   76.951
  370.250   12.245    0.319    0.421   70.956
  370.500   12.212    0.324    0.414   67.529
  370.750   12.147    0.330    0.408   67.706
  371.000   12.024    0.334    0.421   70.079
  371.250   11.935    0.341    0.428   70.747
  371.500   11.919    0.348    0.417   71.169
  371.750   11.944    0.352    0.411   65.908
  372.000   11.960    0.350    0.416   63.764
  372.250   11.994    0.344    0.421   67.912
  372.500   11.986    0.339    0.431   69.005
  372.750   11.962    0.342    0.431   70.892
  373.000   11.872    0.352    0.424   71.192
  373.250   11.749    0.346    0.411   66.542
  373.500   11.692    0.346    0.419   64.275
  373.750   11.725    0.338    0.419   65.063
  374.000   11.791    0.347    0.413   71.166
  374.250   11.833    0.359    0.419   75.376
  374.500   11.841    0.359    0.427   76.958
  374.750   11.858    0.353    0.416   76.523
  375.000   11.818    0.357    0.408   76.334
  375.250   11.785    0.356    0.419   79.260
  375.500   11.638    0.347    0.420   82.431
  375.750   11.474    0.334    0.414   86.884
  376.000   11.204    0.327    0.427   88.956
  376.250   10.876    0.316    0.432   89.865
  376.500   10.294    0.307    0.441   89.798
  376.750    9.254    0.303    0.451   89.548
