~VERSION INFORMATION
 VERS.                 2.0:   CWLS LOG ASCII STANDARD -VERSION 2.0
 WRAP.                  NO:   ONE LINE PER DEPTH STEP
~WELL INFORMATION BLOCK
#MNEM.UNIT           DATA                    DESCRIPTION OF MNEMONIC
#---------    -------------------            -------------------------------
# Generated from Intellog Unique Number	CW_76_78/WELL/903
WELL.         AMOCO ROCK  10-23              : Well_name    - WELL
LOC .         00/10-23-077-23W4/0            : Location     - LOCATION
UWI .         00/10-23-077-23W4/0            : Uwi          - UNIQUE WELL ID
ENTR.         jj                             : Entered      - ENTERED BY
SRVC.         WESTERN ATLAS                  : Scn          - SERVICE COMPANY
DATE.         17 MARCH 78                    : Date         - LOG DATE
STRT.M        332.232                        : top_depth    - START DEPTH
STOP.M        575.982                        : bot_depth    - STOP DEPTH
STEP.M        0.25                           : increment    - STEP LENGTH
 NULL. -999.2500:NULL Value
~CURVE INFORMATION BLOCK
#MNEM UNIT       ERCB CURVE CODE    CURVE DESCRIPTION
#-----------   ------------------   ----------------------------------
DEPT.M        00 001 00 00         : DEPTH        - DEPTH
ILD .OHMM     00 120 00 00         : RESD         - DEEP RESISTIVITY (DIL)
DPHI.V/V      00 890 00 00         : PHID         - DENSITY POROSITY (SANDSTONE)
NPHI.V/V      00 330 00 00         : PHIN         - NEUTRON POROSITY (SANDSTONE)
GR  .API      00 310 00 00         : GR           - GAMMA RAY
CALI.MM       00 280 01 00         : CAL          - CALIPER
~PARAMETER INFORMATION
#MNEM.UNIT           DATA             DESCRIPTION OF MNEMONIC
#---------         -----------     ------------------------------
GL  .M        654.101              : gl           - GROUND LEVEL ELEVATION
EREF.M        658.063              : kb           - ELEVATION OF DEPTH REFERENCE
DATM.M        654.101              : datum        - DATUM ELEVATION
TDD .M        577.291              : tdd          - TOTAL DEPTH DRILLER
RUN .         ONE                  : Run          - RUN NUMBER
ENG .         BURLET               : Engineer     - RECORDING ENGINEER
WIT .         DAHLSTEDT/REGAN      : Witness      - WITNESSED BY
BASE.         EDMONTON             : Branch       - HOME BASE OF LOGGING UNIT
MUD .         GEL BENDEX           : Mud_type     - MUD TYPE
MATR.         SANDSTONE            : Logunit      - NEUTRON MATRIX
TMAX.C        26.1111              : BHT          - MAXIMUM RECORDED TEMPERATURE
BHTD.M        575.767              : BHTDEP       - MAXIMUM RECORDED TEMPERATURE
RMT .C        21.1111              : MDTP         - TEMPERATURE OF MUD
MUDD.KG/M     1140                 : MWT          - MUD DENSITY
NEUT.         1                    : NEUTRON      - NEUTRON TYPE
RESI.         0                    : RESIST       - RESISTIVITY TYPE
RM  .OHMM     2.13                 : RM           - RESISTIVITY OF MUD
RMC .OHMM     2.9                  : RMC          - RESISTIVITY OF MUD CAKE
RMF .OHMM     2.2                  : RMF          - RESISTIVITY OF MUD FILTRATE
SUFT.C        4.5                  : SUFT         - SURFACE TEMPERATURE
~A  DEPTH     RESD     PHID     PHIN       GR      CAL
# ...
  368.732    2.855    0.276    0.382   86.376  234.345
  368.982    2.456    0.288    0.400   85.012  234.468
  369.232    2.145    0.302    0.407   89.894  235.753
  369.482    1.908    0.291    0.402   96.151  237.674
  369.732    1.861    0.226    0.396  109.281  241.498
  369.982    1.919    0.227    0.391  110.477  244.264
  370.232    1.943    0.232    0.392  105.613  244.705
  370.482    1.949    0.232    0.399  111.371  241.865
  370.732    1.936    0.233    0.409  113.879  238.178
  370.982    1.924    0.237    0.410  115.140  234.598
  371.232    1.955    0.228    0.417  116.148  232.286
  371.482    2.013    0.213    0.415  120.343  230.188
  371.732    2.127    0.202    0.410  116.167  229.569
  371.982    2.261    0.230    0.397  106.119  230.010
  372.232    2.500    0.259    0.385  104.441  231.190
  372.482    2.842    0.266    0.376  103.015  233.215
  372.732    3.444    0.273    0.380   98.963  236.406
  372.982    4.027    0.264    0.389   94.162  238.538
  373.232    4.321    0.247    0.387   95.172  239.505
  373.482    4.245    0.253    0.375   95.244  238.888
  373.732    4.070    0.256    0.352   89.132  236.897
  373.982    3.925    0.253    0.355   89.204  235.007
  374.232    3.849    0.261    0.343   95.522  233.228
  374.482    3.810    0.269    0.348   95.282  231.760
  374.732    3.836    0.274    0.356   98.167  230.717
  374.982    3.927    0.275    0.369  103.361  229.464
  375.232    4.399    0.274    0.355   96.873  228.638
  375.482    4.992    0.281    0.357   89.698  228.229
  375.732    5.655    0.292    0.366   82.837  227.821
  375.982    6.588    0.308    0.363   79.034  227.416
  376.232    7.338    0.316    0.362   75.672  227.324
  376.482    7.035    0.319    0.366   73.931  226.919
  376.732    6.414    0.320    0.345   71.317  226.616
  376.982    5.569    0.313    0.338   69.952  226.635
  377.232    4.667    0.305    0.345   79.146  227.180
  377.482    3.947    0.278    0.357   83.904  228.464
  377.732    3.332    0.271    0.369   83.350  230.916
  377.982    2.899    0.252    0.351   82.860  232.306
  378.232    2.550    0.247    0.347   85.994  232.640
  378.482    2.436    0.252    0.349   82.442  231.598
  378.732    2.430    0.258    0.360   80.016  229.286
  378.982    2.554    0.260    0.360   84.274  227.398
  379.232    2.834    0.265    0.365   83.971  226.251
  379.482    3.289    0.280    0.386   74.047  224.892
  379.732    3.882    0.296    0.350   70.309  223.006
  379.982    5.363    0.319    0.352   69.132  221.011
  380.232    6.836    0.338    0.398   68.079  218.171
  380.482    8.712    0.353    0.397   65.589  215.755
  380.732   10.498    0.354    0.396   60.227  214.290
  380.982   10.627    0.350    0.380   56.489  214.201
  381.232   10.151    0.342    0.375   57.560  215.698
  381.482    9.662    0.341    0.386   59.132  219.628
  381.732    9.024    0.342    0.385   63.639  222.184
  381.982    8.539    0.340    0.381   62.711  223.472
  382.232    8.314    0.338    0.377   58.599  223.908
  382.482    8.047    0.335    0.373   56.546  223.609
  382.732    7.950    0.336    0.365   55.120  223.625
  382.982    8.064    0.344    0.356   54.128  223.643
  383.232    8.149    0.346    0.354   55.888  223.657
  383.482    8.249    0.346    0.359   57.272  223.252
  383.732    8.288    0.342    0.383   57.031  222.844
  383.982    8.345    0.342    0.377   53.917  222.542
  384.232    8.338    0.338    0.368   51.491  221.818
  384.482    8.269    0.338    0.359   49.439  221.518
  384.732    8.184    0.340    0.357   48.324  221.536
  384.982    8.148    0.340    0.365   48.833  221.549
  385.232    8.080    0.338    0.362   50.967  221.461
  385.482    8.029    0.335    0.356   51.477  221.371
  385.732    7.963    0.336    0.350   52.236  221.283
  385.982    7.957    0.339    0.352   53.245  221.088
  386.232    8.040    0.340    0.360   54.817  221.001
  386.482    8.231    0.338    0.368   54.452  221.014
  386.732    8.334    0.333    0.370   54.463  221.031
  386.982    8.312    0.328    0.360   54.471  220.732
  387.232    8.258    0.329    0.342   56.979  220.750
  387.482    8.220    0.333    0.354   54.802  220.763
  387.732    8.122    0.329    0.358   53.375  220.671
  387.982    7.905    0.329    0.358   55.009  220.371
  388.232    7.723    0.333    0.361   59.080  220.177
  388.482    7.588    0.339    0.360   56.715  220.191
  388.732    7.442    0.341    0.354   53.977  220.210
  388.982    7.298    0.340    0.368   52.362  220.224
  389.232    7.157    0.337    0.382   54.995  220.455
  389.482    7.044    0.318    0.392   60.315  220.574
  389.732    7.026    0.313    0.391   63.698  220.803
  389.982    7.112    0.315    0.366   62.396  221.348
  390.232    7.268    0.322    0.355   57.720  222.529
  390.482    7.400    0.323    0.354   57.230  223.286
  390.732    7.491    0.322    0.354   53.054  223.831
  390.982    7.527    0.327    0.356   46.129  224.484
  391.232    7.522    0.335    0.356   45.952  224.923
  391.482    7.559    0.342    0.343   46.836  225.045
  391.732    7.509    0.346    0.347   50.593  225.166
  391.982    7.474    0.348    0.353   51.541  225.181
  392.232    7.441    0.347    0.352   49.551  225.094
  392.482    7.298    0.344    0.346   48.999  225.110
  392.732    7.064    0.339    0.348   49.572  224.915
  392.982    6.773    0.331    0.330   50.267  224.826
  393.232    6.434    0.325    0.333   50.464  224.840
  393.482    6.032    0.322    0.345   53.160  224.646
  393.732    5.592    0.322    0.354   58.542  224.558
  393.982    5.253    0.314    0.346   62.301  224.257
  394.232    4.898    0.304    0.346   65.934  224.169
  394.482    4.558    0.295    0.346   74.377  223.972
  394.732    4.131    0.285    0.349   81.885  223.775
  394.982    3.823    0.275    0.365   84.580  223.580
  395.232    3.485    0.262    0.365   84.215  223.490
  395.482    3.225    0.249    0.363   86.661  223.192
  395.732    3.069    0.250    0.369   88.857  222.995
  395.982    3.032    0.255    0.375   86.930  222.587
  396.232    3.070    0.261    0.380   92.312  222.075
  396.482    3.269    0.269    0.383   94.384  221.776
  396.732    3.896    0.282    0.383   81.836  221.789
  396.982    4.729    0.293    0.378   66.477  222.231
  397.232    5.752    0.310    0.365   52.931  222.991
  397.482    6.892    0.344    0.362   52.690  223.638
  397.732    7.677    0.358    0.366   53.325  224.291
  397.982    7.947    0.364    0.386   51.897  224.518
  398.232    8.091    0.364    0.373   50.783  224.217
  398.482    8.146    0.358    0.361   51.543  223.177
  398.732    8.124    0.350    0.351   51.802  222.768
  398.982    8.117    0.350    0.352   50.874  222.362
  399.232    8.050    0.361    0.358   49.884  222.165
  399.482    7.835    0.369    0.365   50.018  221.971
  399.732    7.670    0.356    0.368   50.716  221.880
  399.982    7.535    0.346    0.349   51.788  221.899
  400.232    7.375    0.347    0.353   54.171  221.915
  400.482    7.288    0.354    0.360   57.243  222.035
  400.732    7.241    0.354    0.366   57.065  222.477
  400.982    7.195    0.354    0.371   52.825  223.236
  401.232    7.230    0.353    0.384   49.961  223.778
  401.482    7.347    0.352    0.387   46.535  224.429
  401.732    7.466    0.364    0.376   45.982  225.079
  401.982    7.629    0.360    0.371   46.805  225.415
  402.232    7.796    0.354    0.361   49.000  225.643
  402.482    7.893    0.346    0.354   51.634  225.871
  402.732    7.990    0.340    0.357   51.081  225.888
  402.982    8.013    0.344    0.362   49.405  225.902
  403.232    8.037    0.348    0.368   50.164  225.709
  403.482    8.016    0.347    0.384   53.109  225.299
  403.732    7.980    0.345    0.385   53.994  224.791
  403.982    7.928    0.344    0.381   51.567  224.594
  404.232    7.862    0.345    0.374   50.578  224.293
  404.482    7.812    0.346    0.380   51.337  223.884
  404.732    7.748    0.346    0.385   52.472  223.588
  404.982    7.698    0.345    0.368   53.792  223.604
