~VERSION INFORMATION
 VERS.                 2.0:   CWLS LOG ASCII STANDARD -VERSION 2.0
 WRAP.                  NO:   ONE LINE PER DEPTH STEP
~WELL INFORMATION BLOCK
#MNEM.UNIT           DATA                    DESCRIPTION OF MNEMONIC
#---------    -------------------            -------------------------------
# Generated from Intellog Unique Number	CW_73_75/WELL/1032
WELL.         AMOCO MARTEN HILLS 11-02       : Well_name    - WELL
LOC .         00/11-02-075-02W5/0            : Location     - LOCATION
UWI .         00/11-02-075-02W5/0            : Uwi          - UNIQUE WELL ID
ENTR.         JAYE                           : Entered      - ENTERED BY
SRVC.         SCHLUMBERGER                   : Scn          - SERVICE COMPANY
DATE.         30 MAR 80                      : Date         - LOG DATE
STRT.M        500                            : top_depth    - START DEPTH
STOP.M        690                            : bot_depth    - STOP DEPTH
STEP.M        0.25                           : increment    - STEP LENGTH
 NULL. -999.2500:NULL Value
~CURVE INFORMATION BLOCK
#MNEM UNIT       ERCB CURVE CODE    CURVE DESCRIPTION
#-----------   ------------------   ----------------------------------
DEPT.M        00 001 00 00         : DEPTH        - DEPTH
ILD .OHMM     00 120 00 00         : RESD         - DEEP RESISTIVITY (DIL)
NPHI.V/V      00 330 00 00         : PHIN         - NEUTRON POROSITY (SANDSTONE)
DPHI.V/V      00 890 00 00         : PHID         - DENSITY POROSITY (SANDSTONE)
GR  .API      00 310 00 00         : GR           - GAMMA RAY
CALI.MM       00 280 01 00         : CAL          - CALIPER
~PARAMETER INFORMATION
#MNEM.UNIT           DATA             DESCRIPTION OF MNEMONIC
#---------         -----------     ------------------------------
GL  .M        773.04               : gl           - GROUND LEVEL ELEVATION
EREF.M        778.83               : kb           - ELEVATION OF DEPTH REFERENCE
DATM.M        773.04               : datum        - DATUM ELEVATION
TDD .M        691.8                : tdd          - TOTAL DEPTH DRILLER
RUN .         ONE                  : Run          - RUN NUMBER
ENG .         VERWAIK              : Engineer     - RECORDING ENGINEER
WIT .         MACMAHON             : Witness      - WITNESSED BY
BASE.         EDM                  : Branch       - HOME BASE OF LOGGING UNIT
MUD .         GEL                  : Mud_type     - MUD TYPE
MATR.         SANDSTONE            : Logunit      - NEUTRON MATRIX
TMAX.C        29                   : BHT          - MAXIMUM RECORDED TEMPERATURE
BHTD.M        691.7                : BHTDEP       - MAXIMUM RECORDED TEMPERATURE
RMT .C        29                   : MDTP         - TEMPERATURE OF MUD
MUDD.KG/M     1110                 : MWT          - MUD DENSITY
NEUT.         1                    : NEUTRON      - NEUTRON TYPE
RESI.         0                    : RESIST       - RESISTIVITY TYPE
RM  .OHMM     4.4                  : RM           - RESISTIVITY OF MUD
RMC .OHMM     0                    : RMC          - RESISTIVITY OF MUD CAKE
RMF .OHMM     4.96                 : RMF          - RESISTIVITY OF MUD FILTRATE
SUFT.C        0                    : SUFT         - SURFACE TEMPERATURE
~A  DEPTH     RESD     PHIN     PHID       GR      CAL
# ...
  646.000   11.659    0.423    0.240   69.963  223.930
  646.250   10.235    0.427    0.247   69.458  223.803
  646.500    8.590    0.431    0.264   69.503  223.674
  646.750    6.854    0.421    0.272   69.917  223.653
  647.000    5.928    0.407    0.254   70.516  223.420
  647.250    5.215    0.391    0.233   69.214  223.087
  647.500    4.770    0.375    0.201   64.602  222.862
  647.750    4.497    0.337    0.161   62.012  222.940
  648.000    4.410    0.337    0.143   60.833  223.119
  648.250    4.381    0.345    0.153   59.466  222.988
  648.500    4.436    0.324    0.158   58.472  222.963
  648.750    4.559    0.292    0.148   57.293  223.245
  649.000    4.711    0.295    0.143   55.991  223.427
  649.250    4.850    0.310    0.153   51.747  223.602
  649.500    5.003    0.297    0.152   47.993  223.683
  649.750    5.092    0.298    0.156   48.897  223.863
  650.000    5.233    0.363    0.204   55.011  223.940
  650.250    5.358    0.405    0.258   62.045  224.219
  650.500    5.505    0.427    0.273   68.405  224.298
  650.750    5.787    0.435    0.267   69.002  224.273
  651.000    6.196    0.401    0.251   65.861  223.940
  651.250    7.006    0.367    0.197   62.353  223.810
  651.500    8.348    0.284    0.129   58.413  223.685
  651.750    9.529    0.262    0.096   56.683  223.656
  652.000   10.835    0.271    0.132   57.648  223.739
  652.250   12.321    0.299    0.170   61.004  223.609
  652.500   14.248    0.322    0.196   64.240  223.382
  652.750   16.477    0.361    0.225   66.614  223.047
  653.000   18.595    0.400    0.274   66.231  222.719
  653.250   18.372    0.434    0.231   59.841  222.487
  653.500   15.333    0.450    0.203   50.694  222.668
  653.750   12.489    0.437    0.226   55.460  222.439
  654.000   10.041    0.420    0.238   63.535  219.554
  654.250    9.116    0.397    0.224   69.894  212.684
  654.500    8.562    0.384    0.218   73.803  212.044
  654.750    8.865    0.395    0.227   72.866  212.121
  655.000   10.824    0.397    0.235   69.850  212.302
  655.250   13.517    0.390    0.205   66.953  213.193
  655.500   15.457    0.405    0.198   65.591  214.599
  655.750   16.491    0.417    0.206   67.353  216.109
  656.000   16.823    0.411    0.183   70.462  217.917
  656.250   16.997    0.394    0.168   73.698  218.917
  656.500   17.014    0.382    0.180   77.667  219.711
  656.750   16.840    0.386    0.185   87.092  220.807
  657.000   16.359    0.386    0.163   90.876  221.806
  657.250   15.364    0.371    0.150   86.938  223.107
  657.500   11.698    0.379    0.172   83.062  223.897
  657.750    8.890    0.395    0.189   81.514  224.281
  658.000    7.322    0.406    0.171   81.561  224.871
  658.250    6.477    0.401    0.151   81.850  224.948
  658.500    6.257    0.391    0.140   82.939  224.618
  658.750    6.431    0.389    0.172   84.519  224.286
  659.000    6.595    0.389    0.177   87.262  224.157
  659.250    7.023    0.388    0.164   89.393  223.827
  659.500    7.506    0.397    0.191   88.824  222.679
  659.750    7.613    0.404    0.162   88.136  220.609
  660.000    7.152    0.384    0.150   87.570  217.930
  660.250    6.691    0.396    0.167   89.883  215.247
  660.500    6.087    0.413    0.180   96.365  216.141
  660.750    5.706    0.399    0.181   98.313  217.545
  661.000    5.461    0.378    0.199   90.880  219.051
  661.250    5.426    0.367    0.223   82.897  220.658
  661.500    5.471    0.358    0.205   76.201  221.354
  661.750    5.477    0.351    0.194   77.902  221.634
  662.000    5.515    0.356    0.194   79.418  219.056
  662.250    5.490    0.383    0.212   77.505  215.043
  662.500    5.505    0.378    0.232   74.180  214.000
  662.750    5.489    0.369    0.231   74.286  213.258
  663.000    5.455    0.356    0.203   77.950  212.824
  663.250    5.429    0.348    0.178   81.305  212.801
  663.500    5.434    0.341    0.160   84.049  214.306
  663.750    5.511    0.354    0.143   85.075  216.326
  664.000    5.623    0.373    0.182   83.957  218.547
  664.250    5.756    0.389    0.202   81.368  220.054
  664.500    6.004    0.357    0.179   77.429  220.951
  664.750    6.454    0.328    0.081   77.108  221.332
  665.000    7.056    0.262    0.053   76.909  221.306
  665.250    7.799    0.289    0.094   75.177  221.692
  665.500    9.053    0.324    0.142   75.347  221.971
  665.750    9.861    0.331    0.192   77.046  222.050
  666.000   10.266    0.326    0.173   77.214  222.229
  666.250   10.452    0.330    0.153   76.711  222.303
  666.500   10.463    0.338    0.172   78.718  222.282
  666.750   10.435    0.340    0.186   84.220  222.249
  667.000   10.269    0.339    0.198   88.068  222.022
  667.250    9.919    0.347    0.178   91.055  221.899
  667.500    9.370    0.356    0.164   91.223  221.872
  667.750    8.637    0.371    0.159   92.436  221.747
  668.000    7.961    0.402    0.157   95.853  222.025
  668.250    7.748    0.402    0.154   92.221  222.000
  668.500    8.007    0.390    0.141   85.219  222.079
  668.750    9.053    0.375    0.118   79.748  222.152
  669.000   11.138    0.376    0.182   76.851  222.132
  669.250   12.857    0.385    0.204   76.469  222.210
  669.500   13.768    0.378    0.182   76.577  222.183
  669.750   13.475    0.366    0.152   75.704  222.362
  670.000   12.609    0.356    0.140   75.137  222.339
  670.250   11.689    0.370    0.175   75.242  222.715
  670.500   10.895    0.384    0.184   75.659  222.589
  670.750    9.987    0.394    0.171   76.502  222.666
  671.000    9.053    0.374    0.128   76.484  222.949
  671.250    8.533    0.367    0.118   76.226  223.233
  671.500    7.676    0.384    0.131   76.028  223.716
  671.750    7.063    0.382    0.143   77.359  223.999
  672.000    6.645    0.369    0.120   77.345  224.181
  672.250    6.467    0.360    0.143   77.454  224.360
  672.500    6.584    0.343    0.144   76.886  224.642
  672.750    6.805    0.332    0.128   76.136  224.709
  673.000    7.273    0.321    0.109   78.144  224.379
  673.250    7.906    0.323    0.096   82.051  224.258
  673.500    8.451    0.342    0.135   84.732  224.541
  673.750    8.882    0.369    0.154   86.006  225.026
  674.000    9.162    0.402    0.174   85.316  226.015
  674.250    8.541    0.390    0.162   85.117  226.203
  674.500    7.526    0.379    0.138   84.367  226.274
  674.750    6.977    0.389    0.166   82.390  226.561
  675.000    6.828    0.362    0.176   82.559  226.942
  675.250    6.862    0.347    0.143   81.195  227.736
  675.500    7.024    0.330    0.115   81.732  228.834
  675.750    7.369    0.340    0.148   84.107  230.134
  676.000    7.629    0.374    0.170   88.505  231.031
  676.250    7.825    0.354    0.180   91.248  232.234
  676.500    7.673    0.339    0.176   88.660  233.023
  676.750    7.439    0.344    0.171   84.967  232.999
  677.000    7.351    0.380    0.146   90.775  232.669
  677.250    7.371    0.418    0.200   94.129  231.927
  677.500    7.505    0.454    0.220   91.049  234.867
  677.750    7.512    0.490    0.251   88.583  247.202
  678.000    7.339    0.537    0.302   86.668  258.821
  678.250    7.102    0.515    0.278   87.880  266.767
  678.500    6.874    0.518    0.258   90.991  256.933
  678.750    6.653    0.477    0.209   80.433  239.031
  679.000    6.647    0.389    0.178   78.027  231.651
  679.250    6.831    0.352    0.142   80.587  232.239
  679.500    6.953    0.375    0.109   85.167  235.687
  679.750    7.119    0.390    0.091   86.931  234.436
  680.000    7.128    0.380    0.118   79.806  232.469
  680.250    7.015    0.372    0.160   70.290  231.525
  680.500    6.826    0.375    0.156   71.254  230.581
  680.750    6.364    0.364    0.138   72.649  229.737
  681.000    5.494    0.367    0.103   73.860  228.794
  681.250    4.654    0.332    0.181   75.746  226.927
  681.500    3.884    0.340    0.220   76.833  226.394
  681.750    3.181    0.339    0.210   75.900  225.755
  682.000    2.567    0.324    0.206   73.923  225.219
  682.250    2.075    0.320    0.221   72.560  224.682
