~VERSION INFORMATION
 VERS.                 2.0:   CWLS LOG ASCII STANDARD -VERSION 2.0
 WRAP.                  NO:   ONE LINE PER DEPTH STEP
~WELL INFORMATION BLOCK
#MNEM.UNIT           DATA                    DESCRIPTION OF MNEMONIC
#---------    -------------------            -------------------------------
# Generated from Intellog Unique Number	CS_71_72/WELL/865
WELL.         ALLIED ET AL WANDER            : Well_name    - WELL
LOC .         00/10-20-072-14W4/0            : Location     - LOCATION
UWI .         00/10-20-072-14W4/0            : Uwi          - UNIQUE WELL ID
ENTR.         SP                             : Entered      - ENTERED BY
SRVC.         SCHLUMBERGER                   : Scn          - SERVICE COMPANY
STRT.M        265.176                        : top_depth    - START DEPTH
STOP.M        487.426                        : bot_depth    - STOP DEPTH
STEP.M        0.25                           : increment    - STEP LENGTH
 NULL. -999.2500:NULL Value
~CURVE INFORMATION BLOCK
#MNEM UNIT       ERCB CURVE CODE    CURVE DESCRIPTION
#-----------   ------------------   ----------------------------------
DEPT.M        00 001 00 00         : DEPTH        - DEPTH
GR  .API      00 310 00 00         : GR           - GAMMA RAY
DPHI.V/V      00 890 00 00         : PHID         - DENSITY POROSITY (SANDSTONE)
NPHI.V/V      00 330 00 00         : PHIN         - NEUTRON POROSITY (SANDSTONE)
ILD .OHMM     00 120 00 00         : RESD         - DEEP RESISTIVITY (DIL)
~PARAMETER INFORMATION
#MNEM.UNIT           DATA             DESCRIPTION OF MNEMONIC
#---------         -----------     ------------------------------
GL  .M        606.095              : gl           - GROUND LEVEL ELEVATION
EREF.M        609.143              : kb           - ELEVATION OF DEPTH REFERENCE
DATM.M        606.095              : datum        - DATUM ELEVATION
TDD .M        534.924              : tdd          - TOTAL DEPTH DRILLER
RUN .         ONE                  : Run          - RUN NUMBER
ENG .         BILL                 : Engineer     - RECORDING ENGINEER
WIT .         JIM                  : Witness      - WITNESSED BY
MUD .         GEL                  : Mud_type     - MUD TYPE
MATR.         SANDSTONE            : Logunit      - NEUTRON MATRIX
TMAX.C        30.5556              : BHT          - MAXIMUM RECORDED TEMPERATURE
BHTD.M        534.924              : BHTDEP       - MAXIMUM RECORDED TEMPERATURE
MATR.         1                    : LOGUNIT      - NEUTRON MATRIX
RMT .C        25                   : MDTP         - TEMPERATURE OF MUD
NEUT.         1                    : NEUTRON      - NEUTRON TYPE
RESI.         0                    : RESIST       - RESISTIVITY TYPE
RMC .OHMM     0.25                 : RMC          - RESISTIVITY OF MUD CAKE
RMF .OHMM     0.25                 : RMF          - RESISTIVITY OF MUD FILTRATE
SUFT.C        15                   : SUFT         - SURFACE TEMPERATURE
~A  DEPTH       GR     PHID     PHIN     RESD
  265.176  114.141    0.240    0.504    3.175
  265.426  112.322    0.249    0.500    3.259
  265.676  108.822    0.250    0.521    3.274
  265.926  105.870    0.241    0.534    3.328
  266.176  107.423    0.251    0.523    3.372
  266.426  109.663    0.262    0.528    3.332
  266.676  110.613    0.232    0.536    3.336
  266.926  110.316    0.234    0.541    3.250
  267.176  110.005    0.255    0.547    3.166
  267.426  110.481    0.253    0.530    3.108
  267.676  110.448    0.245    0.536    3.100
  267.926  108.772    0.247    0.551    3.009
  268.176  107.159    0.266    0.567    2.895
  268.426  107.100    0.281    0.592    2.837
  268.676  106.477    0.279    0.576    2.691
  268.926  104.890    0.288    0.562    2.650
  269.176  102.051    0.281    0.545    2.526
  269.426  101.637    0.273    0.552    2.525
  269.676  103.458    0.267    0.573    2.609
  269.926  102.222    0.258    0.563    2.695
  270.176  101.905    0.256    0.552    2.679
  270.426  100.059    0.290    0.553    2.774
  270.676   96.701    0.260    0.528    2.765
  270.926   94.236    0.243    0.508    2.773
  271.176   94.170    0.224    0.511    2.684
  271.426   99.969    0.205    0.506    2.605
  271.676  104.684    0.161    0.522    2.685
  271.926  106.990    0.281    0.546    2.793
  272.176  109.530    0.263    0.542    2.839
  272.426  107.465    0.227    0.532    2.928
  272.676  107.883    0.256    0.521    2.923
  272.926  109.403    0.267    0.508    2.847
  273.176  110.747    0.266    0.523    2.810
  273.426  112.083    0.248    0.548    2.677
  273.676  113.652    0.247    0.534    2.625
  273.926  114.634    0.241    0.524    2.543
  274.176  114.928    0.246    0.537    2.594
  274.426  112.581    0.239    0.560    2.572
  274.676  109.967    0.242    0.543    2.609
  274.926  111.370    0.262    0.563    2.831
  275.176  112.390    0.249    0.572    2.954
  275.426  112.476    0.242    0.579    3.192
  275.676  111.505    0.234    0.547    3.456
  275.926  109.757    0.227    0.517    3.630
  276.176  110.403    0.220    0.495    3.793
  276.426  112.891    0.216    0.483    4.002
  276.676  114.353    0.223    0.505    4.053
  276.926  112.585    0.214    0.504    4.098
  277.176  113.025    0.224    0.498    4.109
  277.426  114.883    0.211    0.496    4.023
  277.676  116.849    0.199    0.501    3.858
  277.926  115.474    0.208    0.516    3.674
  278.176  113.527    0.216    0.522    3.500
  278.426  111.020    0.233    0.529    3.305
  278.676  107.703    0.252    0.535    3.303
  278.926  106.825    0.241    0.539    3.303
  279.176  109.489    0.239    0.540    3.296
  279.426  111.483    0.259    0.530    3.382
  279.676  113.440    0.257    0.520    3.474
  279.926  113.915    0.245    0.540    3.531
  280.176  113.726    0.246    0.555    3.598
  280.426  112.706    0.250    0.553    3.451
  280.676  110.817    0.235    0.524    3.425
  280.926  109.327    0.232    0.504    3.563
  281.176  105.599    0.261    0.497    3.692
  281.426  103.659    0.238    0.482    3.912
  281.676  102.856    0.222    0.468    3.915
  281.926  106.614    0.220    0.468    3.779
  282.176  109.004    0.200    0.481    3.658
  282.426  110.482    0.184    0.494    3.442
  282.676  108.074    0.217    0.520    3.449
  282.926  100.867    0.219    0.541    3.596
  283.176   94.277    0.231    0.510    3.956
  283.426   85.140    0.212    0.451    4.545
  283.676   78.272    0.196    0.421    5.114
  283.926   80.589    0.251    0.427    5.598
  284.176   84.175    0.274    0.434    5.899
  284.426   86.840    0.283    0.444    5.908
  284.676   88.860    0.272    0.446    5.907
  284.926   92.237    0.267    0.444    5.859
  285.176   94.770    0.262    0.450    5.829
  285.426   98.347    0.253    0.461    5.827
  285.676  100.826    0.243    0.463    5.826
  285.926  100.147    0.246    0.459    5.828
  286.176  101.484    0.252    0.451    5.759
  286.426   99.402    0.251    0.446    5.745
  286.676   97.235    0.257    0.443    5.740
  286.926   97.189    0.255    0.449    5.666
  287.176   97.302    0.257    0.460    5.556
  287.426   97.371    0.252    0.466    5.425
  287.676   93.383    0.265    0.473    5.376
  287.926   90.381    0.263    0.458    5.366
  288.176   86.281    0.252    0.436    5.425
  288.426   84.517    0.266    0.422    5.432
  288.676   84.039    0.269    0.421    5.340
  288.926   81.596    0.277    0.430    5.273
  289.176   77.492    0.283    0.442    5.251
  289.426   79.631    0.276    0.444    5.436
  289.676   88.968    0.281    0.429    5.556
  289.926   94.728    0.269    0.432    5.663
  290.176   99.945    0.255    0.439    5.656
  290.426  104.073    0.247    0.434    5.464
  290.676  106.722    0.246    0.427    5.295
  290.926  109.438    0.229    0.443    5.029
  291.176  104.760    0.224    0.451    4.730
  291.426   99.010    0.257    0.448    4.512
  291.676   94.186    0.300    0.442    4.468
  291.926   92.941    0.333    0.448    4.400
  292.176   93.213    0.333    0.446    4.627
  292.426   92.652    0.318    0.445    4.734
  292.676   92.063    0.311    0.452    5.092
  292.926   88.987    0.307    0.437    5.342
  293.176   84.158    0.299    0.438    5.469
  293.426   79.176    0.297    0.448    5.605
  293.676   73.018    0.292    0.432    5.649
  293.926   66.247    0.272    0.398    5.735
  294.176   61.830    0.261    0.375    5.735
  294.426   62.740    0.280    0.374    6.027
  294.676   69.087    0.291    0.381    6.333
  294.926   74.570    0.276    0.383    6.618
  295.176   81.542    0.258    0.384    6.748
  295.426   87.685    0.251    0.395    6.738
  295.676   93.859    0.255    0.412    6.419
  295.926   97.589    0.251    0.424    6.251
  296.176   93.548    0.228    0.406    5.904
  296.426   76.874    0.211    0.383    5.475
  296.676   68.899    0.223    0.399    5.302
  296.926   62.024    0.236    0.395    5.012
  297.176   58.813    0.266    0.391    4.692
  297.426   57.247    0.278    0.386    4.572
  297.676   60.234    0.294    0.376    4.361
  297.926   62.201    0.290    0.390    4.296
  298.176   61.761    0.295    0.405    4.238
  298.426   59.667    0.308    0.406    4.283
  298.676   59.150    0.308    0.393    4.273
  298.926   68.249    0.297    0.384    4.311
  299.176   74.243    0.305    0.381    4.446
  299.426   84.831    0.264    0.377    4.568
  299.676   99.830    0.220    0.405    4.628
  299.926  112.696    0.196    0.430    4.683
  300.176  120.269    0.167    0.456    4.768
  300.426  124.395    0.185    0.477    4.763
  300.676  125.104    0.180    0.475    4.690
  300.926  128.098    0.160    0.487    4.513
  301.176  130.340    0.153    0.494    4.407
  301.426  132.333    0.168    0.501    4.222
  301.676  131.861    0.189    0.508    3.875
  301.926  129.776    0.168    0.522    3.625
  302.176  130.136    0.157    0.536    3.365
  302.426  132.347    0.160    0.533    3.128
  302.676  132.994    0.156    0.533    3.004
  302.926  132.967    0.203    0.534    2.976
  303.176  133.861    0.224    0.536    3.105
  303.426  134.217    0.245    0.542    3.397
  303.676  134.185    0.251    0.543    3.956
  303.926  133.923    0.261    0.509    4.720
  304.176  130.334    0.257    0.468    5.428
  304.426  123.796    0.254    0.452    5.880
  304.676  119.115    0.258    0.446    6.131
  304.926  121.340    0.259    0.445    6.324
  305.176  122.842    0.257    0.453    6.425
  305.426  121.898    0.259    0.474    6.420
  305.676  113.924    0.263    0.484    6.555
  305.926  104.811    0.266    0.465    6.695
  306.176   99.040    0.268    0.451    6.651
  306.426  104.301    0.221    0.466    6.551
  306.676  108.831    0.201    0.487    6.390
  306.926  112.587    0.180    0.499    6.262
  307.176  118.836    0.156    0.518    5.868
  307.426  123.653    0.187    0.518    5.451
  307.676  128.041    0.218    0.512    5.005
  307.926  130.525    0.205    0.512    4.697
  308.176  131.418    0.196    0.519    4.491
  308.426  132.893    0.200    0.514    4.610
