~VERSION INFORMATION
 VERS.                 2.0:   CWLS LOG ASCII STANDARD -VERSION 2.0
 WRAP.                  NO:   ONE LINE PER DEPTH STEP
~WELL INFORMATION BLOCK
#MNEM.UNIT           DATA                    DESCRIPTION OF MNEMONIC
#---------    -------------------            -------------------------------
# Generated from Intellog Unique Number	CS_73_76/WELL/2186
WELL.         TOTAL PETROLEUM (N.A.) LT      : Well_name    - WELL
LOC .         00/10-09-074-07W4/0            : Location     - LOCATION
UWI .         00/10-09-074-07W4/0            : Uwi          - UNIQUE WELL ID
ENTR.         SP                             : Entered      - ENTERED BY
SRVC.         SCHLUMBERGER                   : Scn          - SERVICE COMPANY
STRT.M        304.8                          : top_depth    - START DEPTH
STOP.M        530.05                         : bot_depth    - STOP DEPTH
STEP.M        0.25                           : increment    - STEP LENGTH
 NULL. -999.2500:NULL Value
~CURVE INFORMATION BLOCK
#MNEM UNIT       ERCB CURVE CODE    CURVE DESCRIPTION
#-----------   ------------------   ----------------------------------
DEPT.M        00 001 00 00         : DEPTH        - DEPTH
GR  .API      00 310 00 00         : GR           - GAMMA RAY
DPHI.V/V      00 890 00 00         : PHID         - DENSITY POROSITY (SANDSTONE)
NPHI.V/V      00 330 00 00         : PHIN         - NEUTRON POROSITY (SANDSTONE)
ILD .OHMM     00 120 00 00         : RESD         - DEEP RESISTIVITY (DIL)
~PARAMETER INFORMATION
#MNEM.UNIT           DATA             DESCRIPTION OF MNEMONIC
#---------         -----------     ------------------------------
GL  .M        692.81               : gl           - GROUND LEVEL ELEVATION
EREF.M        696.163              : kb           - ELEVATION OF DEPTH REFERENCE
DATM.M        692.81               : datum        - DATUM ELEVATION
TDD .M        357.226              : tdd          - TOTAL DEPTH DRILLER
RUN .         ONE                  : Run          - RUN NUMBER
ENG .         BILL                 : Engineer     - RECORDING ENGINEER
WIT .         JIM                  : Witness      - WITNESSED BY
MUD .         GEL                  : Mud_type     - MUD TYPE
MATR.         SANDSTONE            : Logunit      - NEUTRON MATRIX
TMAX.C        21.1111              : BHT          - MAXIMUM RECORDED TEMPERATURE
BHTD.M        357.226              : BHTDEP       - MAXIMUM RECORDED TEMPERATURE
MATR.         1                    : LOGUNIT      - NEUTRON MATRIX
RMT .C        25                   : MDTP         - TEMPERATURE OF MUD
NEUT.         1                    : NEUTRON      - NEUTRON TYPE
RESI.         0                    : RESIST       - RESISTIVITY TYPE
RMC .OHMM     0.25                 : RMC          - RESISTIVITY OF MUD CAKE
RMF .OHMM     0.25                 : RMF          - RESISTIVITY OF MUD FILTRATE
SUFT.C        15                   : SUFT         - SURFACE TEMPERATURE
~A  DEPTH       GR     PHID     PHIN     RESD
# ...
  391.800   60.322    0.334    0.493    5.613
  392.050   61.221    0.319    0.487    5.667
  392.300   62.877    0.321    0.476    5.718
  392.550   64.353    0.326    0.468    5.807
  392.800   64.538    0.335    0.471    5.817
  393.050   64.577    0.341    0.504    5.941
  393.300   63.983    0.347    0.528    6.035
  393.550   64.039    0.353    0.540    6.160
  393.800   64.035    0.363    0.555    6.262
  394.050   64.638    0.381    0.550    6.376
  394.300   65.320    0.370    0.496    6.511
  394.550   65.266    0.341    0.469    6.495
  394.800   65.286    0.333    0.470    6.438
  395.050   65.300    0.323    0.478    6.227
  395.300   65.305    0.308    0.486    5.857
  395.550   66.875    0.301    0.475    5.328
  395.800   70.924    0.299    0.469    4.721
  396.050   77.885    0.289    0.507    4.506
  396.300   82.165    0.278    0.525    4.538
  396.550   86.761    0.264    0.514    4.832
  396.800   89.046    0.252    0.484    5.149
  397.050   85.595    0.245    0.463    5.397
  397.300   82.169    0.262    0.453    5.897
  397.550   77.618    0.287    0.471    6.475
  397.800   73.366    0.283    0.472    6.766
  398.050   73.420    0.284    0.459    7.092
  398.300   75.892    0.247    0.456    7.033
  398.550   72.913    0.270    0.476    6.970
  398.800   71.374    0.295    0.476    7.036
  399.050   71.668    0.303    0.472    7.572
  399.300   72.038    0.278    0.465    7.938
  399.550   72.166    0.294    0.462    8.075
  399.800   70.520    0.295    0.460    8.090
  400.050   71.457    0.304    0.458    7.641
  400.300   75.953    0.299    0.455    6.742
  400.550   82.521    0.307    0.455    5.449
  400.800   82.984    0.301    0.471    4.943
  401.050   77.974    0.326    0.484    4.458
  401.300   72.684    0.356    0.527    4.113
  401.550   75.990    0.368    0.586    3.935
  401.800   78.549    0.351    0.591    3.961
  402.050   81.096    0.358    0.576    4.000
  402.300   79.577    0.373    0.565    4.140
  402.550   81.290    0.341    0.558    4.039
  402.800   84.739    0.325    0.579    3.844
  403.050   90.094    0.281    0.589    3.524
  403.300   92.630    0.263    0.596    3.339
  403.550   96.512    0.260    0.600    3.203
  403.800   98.178    0.255    0.589    3.108
  404.050   99.174    0.266    0.578    3.023
  404.300   98.637    0.261    0.569    3.026
  404.550   96.082    0.247    0.562    3.022
  404.800   92.742    0.244    0.585    3.095
  405.050   91.287    0.260    0.593    3.327
  405.300   91.597    0.226    0.547    3.829
  405.550   91.975    0.244    0.536    4.408
  405.800   94.212    0.252    0.515    5.112
  406.050   91.504    0.221    0.491    5.741
  406.300   87.854    0.215    0.470    6.425
  406.550   88.371    0.224    0.470    6.822
  406.800   88.806    0.245    0.473    7.228
  407.050   89.510    0.240    0.479    7.309
  407.300   90.972    0.231    0.499    7.307
  407.550   90.106    0.219    0.512    7.305
  407.800   87.603    0.217    0.521    7.303
  408.050   85.700    0.230    0.517    7.301
  408.300   86.908    0.230    0.505    7.300
  408.550   86.177    0.232    0.500    7.298
  408.800   82.507    0.241    0.506    7.293
  409.050   80.309    0.252    0.514    7.292
  409.300   83.103    0.222    0.501    7.167
  409.550   84.267    0.231    0.501    7.038
  409.800   82.715    0.246    0.512    6.662
  410.050   82.602    0.255    0.519    6.386
  410.300   86.394    0.244    0.521    6.125
  410.550   90.236    0.218    0.539    5.936
  410.800   93.012    0.215    0.544    6.056
  411.050   93.513    0.229    0.534    6.178
  411.300   96.016    0.233    0.525    6.167
  411.550   98.637    0.227    0.519    6.168
  411.800   98.146    0.219    0.543    6.169
  412.050   95.020    0.203    0.556    5.937
  412.300   90.411    0.237    0.526    5.601
  412.550   87.581    0.243    0.509    5.031
  412.800   86.316    0.211    0.530    4.268
  413.050   83.282    0.210    0.542    3.939
  413.300   85.489    0.252    0.562    3.248
  413.550   91.100    0.279    0.587    2.956
  413.800   95.052    0.281    0.612    2.774
  414.050   97.078    0.270    0.619    2.641
  414.300   95.195    0.225    0.619    2.661
  414.550   97.106    0.207    0.618    2.686
  414.800  102.936    0.200    0.608    2.815
  415.050  102.644    0.203    0.598    2.925
  415.300   98.283    0.221    0.587    3.112
  415.550   95.758    0.228    0.571    3.442
  415.800   94.665    0.242    0.552    3.714
  416.050   90.812    0.250    0.538    4.166
  416.300   87.599    0.244    0.535    4.430
  416.550   89.355    0.250    0.527    4.896
  416.800   88.153    0.258    0.519    5.281
  417.050   81.276    0.267    0.532    5.489
  417.300   78.540    0.260    0.520    5.831
  417.550   80.623    0.258    0.511    5.914
  417.800   82.315    0.260    0.499    5.909
  418.050   82.539    0.252    0.490    5.904
  418.300   82.153    0.241    0.505    5.705
  418.550   81.210    0.235    0.498    5.844
  418.800   79.605    0.245    0.503    6.016
  419.050   78.257    0.256    0.506    6.325
  419.300   77.087    0.274    0.502    6.538
  419.550   76.674    0.283    0.496    6.830
  419.800   76.344    0.288    0.503    7.038
  420.050   76.073    0.279    0.480    7.257
  420.300   74.527    0.273    0.458    7.349
  420.550   73.937    0.278    0.445    7.506
  420.800   75.726    0.278    0.437    7.493
  421.050   77.724    0.279    0.454    7.382
  421.300   78.781    0.272    0.465    7.094
  421.550   79.777    0.266    0.469    6.945
  421.800   79.359    0.264    0.463    6.692
  422.050   78.115    0.271    0.468    6.541
  422.300   75.640    0.282    0.466    6.224
  422.550   77.103    0.271    0.459    6.149
  422.800   80.237    0.262    0.450    6.083
  423.050   82.609    0.251    0.446    5.987
  423.300   84.057    0.237    0.455    5.930
  423.550   84.901    0.236    0.477    5.881
  423.800   86.877    0.220    0.494    5.880
  424.050   88.518    0.224    0.504    5.917
  424.300   89.415    0.230    0.499    6.107
  424.550   89.420    0.237    0.495    6.280
  424.800   88.317    0.238    0.502    6.606
  425.050   87.638    0.216    0.498    6.934
  425.300   84.271    0.235    0.475    7.236
  425.550   81.180    0.249    0.459    7.529
  425.800   79.414    0.258    0.455    7.875
  426.050   78.357    0.239    0.471    7.856
  426.300   78.942    0.242    0.476    8.012
  426.550   80.504    0.249    0.464    7.754
  426.800   82.434    0.242    0.443    7.317
  427.050   83.523    0.235    0.463    6.896
  427.300   83.816    0.246    0.478    6.395
  427.550   79.674    0.251    0.492    5.859
  427.800   76.903    0.266    0.479    5.473
  428.050   78.654    0.255    0.468    5.058
  428.300   83.081    0.232    0.476    4.965
  428.550   87.068    0.217    0.495    5.299
  428.800   87.357    0.221    0.504    5.395
  429.050   86.312    0.227    0.510    5.495
  429.300   85.888    0.222    0.518    5.410
  429.550   86.104    0.217    0.528    5.132
  429.800   87.854    0.231    0.526    4.545
  430.050   87.736    0.227    0.519    4.224
  430.300   89.127    0.235    0.520    3.979
  430.550   89.976    0.251    0.535    3.835
  430.800   87.730    0.263    0.546    3.880
  431.050   83.928    0.280    0.547    4.239
  431.300   81.045    0.297    0.519    4.982
  431.550   78.213    0.301    0.501    5.904
  431.800   74.805    0.292    0.501    6.636
  432.050   73.992    0.280    0.494    6.134
  432.300   75.001    0.282    0.492    4.727
  432.550   76.513    0.294    0.503    3.884
  432.800   78.511    0.269    0.518    3.147
  433.050   79.939    0.277    0.596    2.792
  433.300   80.701    0.276    0.591    2.805
  433.550   82.264    0.279    0.555    3.063
  433.800   81.849    0.252    0.508    3.865
  434.050   79.100    0.267    0.483    4.849
  434.300   76.549    0.276    0.471    5.708
  434.550   75.680    0.277    0.466    6.294
  434.800   75.065    0.291    0.463    6.361
  435.050   75.810    0.284    0.470    6.255
