~VERSION INFORMATION
 VERS.                 2.0:   CWLS LOG ASCII STANDARD -VERSION 2.0
 WRAP.                  NO:   ONE LINE PER DEPTH STEP
~WELL INFORMATION BLOCK
#MNEM.UNIT           DATA                    DESCRIPTION OF MNEMONIC
#---------    -------------------            -------------------------------
# Generated from Intellog Unique Number	CS_69_70/WELL/856
WELL.         ET AL CHARRON                  : Well_name    - WELL
LOC .         00/10-01-069-16W4/0            : Location     - LOCATION
UWI .         00/10-01-069-16W4/0            : Uwi          - UNIQUE WELL ID
ENTR.         SP                             : Entered      - ENTERED BY
SRVC.         SCHLUMBERGER                   : Scn          - SERVICE COMPANY
STRT.M        274.32                         : top_depth    - START DEPTH
STOP.M        457.07                         : bot_depth    - STOP DEPTH
STEP.M        0.25                           : increment    - STEP LENGTH
 NULL. -999.2500:NULL Value
~CURVE INFORMATION BLOCK
#MNEM UNIT       ERCB CURVE CODE    CURVE DESCRIPTION
#-----------   ------------------   ----------------------------------
DEPT.M        00 001 00 00         : DEPTH        - DEPTH
GR  .API      00 310 00 00         : GR           - GAMMA RAY
DPHI.V/V      00 890 00 00         : PHID         - DENSITY POROSITY (SANDSTONE)
NPHI.V/V      00 330 00 00         : PHIN         - NEUTRON POROSITY (SANDSTONE)
ILD .OHMM     00 120 00 00         : RESD         - DEEP RESISTIVITY (DIL)
~PARAMETER INFORMATION
#MNEM.UNIT           DATA             DESCRIPTION OF MNEMONIC
#---------         -----------     ------------------------------
GL  .M        557.784              : gl           - GROUND LEVEL ELEVATION
EREF.M        560.222              : kb           - ELEVATION OF DEPTH REFERENCE
DATM.M        557.784              : datum        - DATUM ELEVATION
TDD .M        452.323              : tdd          - TOTAL DEPTH DRILLER
RUN .         ONE                  : Run          - RUN NUMBER
ENG .         BILL                 : Engineer     - RECORDING ENGINEER
WIT .         JIM                  : Witness      - WITNESSED BY
MUD .         GEL                  : Mud_type     - MUD TYPE
MATR.         SANDSTONE            : Logunit      - NEUTRON MATRIX
TMAX.C        22.2222              : BHT          - MAXIMUM RECORDED TEMPERATURE
BHTD.M        452.323              : BHTDEP       - MAXIMUM RECORDED TEMPERATURE
MATR.         1                    : LOGUNIT      - NEUTRON MATRIX
RMT .C        25                   : MDTP         - TEMPERATURE OF MUD
NEUT.         1                    : NEUTRON      - NEUTRON TYPE
RESI.         0                    : RESIST       - RESISTIVITY TYPE
RMC .OHMM     0.25                 : RMC          - RESISTIVITY OF MUD CAKE
RMF .OHMM     0.25                 : RMF          - RESISTIVITY OF MUD FILTRATE
SUFT.C        15                   : SUFT         - SURFACE TEMPERATURE
~A  DEPTH       GR     PHID     PHIN     RESD
  274.320   94.407    0.254    0.577    3.657
  274.570   95.079    0.255    0.590    2.522
  274.820   94.512    0.260    0.582    2.639
  275.070   92.871    0.258    0.541    2.750
  275.320   92.418    0.250    0.508    2.827
  275.570   93.721    0.246    0.517    2.902
  275.820   95.842    0.252    0.536    2.969
  276.070   97.837    0.237    0.556    3.015
  276.320   98.671    0.227    0.541    3.045
  276.570   99.252    0.217    0.517    3.018
  276.820   98.540    0.208    0.508    2.957
  277.070   95.077    0.220    0.508    2.843
  277.320   92.365    0.243    0.499    2.692
  277.570   91.323    0.231    0.493    2.559
  277.820   92.239    0.234    0.490    2.447
  278.070   94.370    0.219    0.516    2.393
  278.320   96.103    0.209    0.530    2.406
  278.570   97.793    0.222    0.531    2.456
  278.820   94.206    0.227    0.519    2.516
  279.070   93.571    0.223    0.516    2.566
  279.320   95.353    0.227    0.541    2.618
  279.570   96.647    0.228    0.524    2.640
  279.820   95.784    0.235    0.536    2.672
  280.070   92.862    0.242    0.557    2.653
  280.320   89.996    0.236    0.548    2.597
  280.570   91.585    0.230    0.529    2.526
  280.820   93.823    0.221    0.520    2.409
  281.070   95.792    0.211    0.515    2.286
  281.320   97.513    0.226    0.536    2.218
  281.570   95.092    0.241    0.545    2.194
  281.820   91.177    0.225    0.547    2.238
  282.070   88.103    0.220    0.521    2.378
  282.320   85.081    0.215    0.497    2.475
  282.570   86.556    0.221    0.474    2.628
  282.820   89.312    0.223    0.482    2.781
  283.070   92.564    0.214    0.491    2.907
  283.320   94.743    0.235    0.495    3.069
  283.570   95.559    0.258    0.492    3.239
  283.820   87.511    0.275    0.475    3.425
  284.070   82.329    0.289    0.460    3.607
  284.320   84.839    0.287    0.451    3.852
  284.570   88.545    0.274    0.444    4.037
  284.820   91.916    0.257    0.441    4.164
  285.070   94.578    0.254    0.438    4.064
  285.320   94.607    0.261    0.440    3.878
  285.570   90.376    0.283    0.447    3.640
  285.820   84.818    0.302    0.449    3.406
  286.070   79.673    0.319    0.431    3.310
  286.320   74.107    0.340    0.390    3.263
  286.570   69.256    0.360    0.373    3.206
  286.820   75.182    0.354    0.393    3.158
  287.070   80.989    0.337    0.411    3.151
  287.320   84.794    0.318    0.394    3.236
  287.570   77.317    0.297    0.374    3.371
  287.820   70.778    0.314    0.353    3.557
  288.070   66.859    0.331    0.347    3.862
  288.320   67.399    0.334    0.371    4.327
  288.570   69.878    0.327    0.391    4.920
  288.820   72.069    0.319    0.409    5.664
  289.070   76.031    0.308    0.408    6.299
  289.320   77.525    0.292    0.404    7.472
  289.570   71.777    0.263    0.402    8.772
  289.820   64.872    0.263    0.407    9.009
  290.070   58.607    0.295    0.422    8.178
  290.320   53.762    0.318    0.415    6.383
  290.570   50.919    0.312    0.409    4.722
  290.820   49.416    0.308    0.402    4.165
  291.070   50.806    0.319    0.402    3.983
  291.320   53.966    0.335    0.405    3.947
  291.570   55.338    0.327    0.445    4.019
  291.820   55.961    0.319    0.487    4.188
  292.070   57.344    0.347    0.534    4.375
  292.320   60.056    0.381    0.548    4.583
  292.570   61.825    0.362    0.512    4.757
  292.820   62.587    0.332    0.491    5.138
  293.070   63.581    0.344    0.490    5.475
  293.320   63.952    0.332    0.497    5.817
  293.570   64.210    0.322    0.503    5.998
  293.820   62.611    0.321    0.508    5.920
  294.070   60.765    0.304    0.491    5.662
  294.320   60.535    0.291    0.475    5.280
  294.570   61.429    0.292    0.450    4.924
  294.820   62.317    0.303    0.449    4.774
  295.070   62.039    0.309    0.453    4.935
  295.320   62.019    0.302    0.454    5.188
  295.570   61.843    0.293    0.450    5.439
  295.820   61.591    0.280    0.445    5.605
  296.070   61.483    0.270    0.452    5.590
  296.320   61.436    0.267    0.459    5.396
  296.570   61.156    0.284    0.471    5.049
  296.820   61.425    0.295    0.464    4.637
  297.070   61.436    0.300    0.473    4.310
  297.320   61.596    0.297    0.486    4.121
  297.570   61.955    0.289    0.441    4.631
  297.820   62.399    0.295    0.414    5.374
  298.070   62.121    0.292    0.380    6.511
  298.320   60.297    0.287    0.408    8.055
  298.570   58.950    0.298    0.441    9.973
  298.820   57.684    0.313    0.464   12.092
  299.070   57.481    0.312    0.473   13.144
  299.320   59.604    0.300    0.475   11.920
  299.570   61.529    0.278    0.466    9.722
  299.820   63.465    0.259    0.442    7.966
  300.070   62.043    0.167    0.344    5.985
  300.320   57.199    0.053    0.160    4.969
  300.570   50.735    0.018    0.126    4.361
  300.820   44.832    0.008    0.119    3.960
  301.070   43.964    0.042    0.123    3.691
  301.320   45.446    0.113    0.222    3.439
  301.570   50.660    0.225    0.285    3.271
  301.820   54.538    0.294    0.374    3.151
  302.070   56.277    0.317    0.436    3.123
  302.320   56.849    0.306    0.456    3.218
  302.570   58.134    0.304    0.463    3.318
  302.820   59.219    0.305    0.453    3.417
  303.070   62.116    0.303    0.445    3.487
  303.320   68.155    0.293    0.437    3.495
  303.570   74.607    0.282    0.453    3.448
  303.820   80.791    0.264    0.468    3.272
  304.070   86.510    0.246    0.478    3.180
  304.320   90.347    0.233    0.472    3.177
  304.570   93.521    0.238    0.462    3.201
  304.820   96.933    0.222    0.480    3.289
  305.070   99.569    0.205    0.493    3.418
  305.320   98.403    0.193    0.500    3.637
  305.570   98.371    0.194    0.514    3.815
  305.820  101.246    0.201    0.531    3.964
  306.070  103.633    0.208    0.517    4.049
  306.320  106.364    0.197    0.522    4.101
  306.570  108.927    0.200    0.509    4.143
  306.820  110.285    0.211    0.493    4.195
  307.070  107.095    0.218    0.479    4.233
  307.320  103.478    0.231    0.458    4.212
  307.570   98.005    0.249    0.447    4.141
  307.820   95.451    0.251    0.423    4.060
  308.070   95.330    0.246    0.432    3.953
  308.320   93.640    0.243    0.433    3.829
  308.570   91.809    0.234    0.424    3.718
  308.820   92.306    0.231    0.429    3.672
  309.070   94.259    0.241    0.442    3.642
  309.320   95.935    0.230    0.451    3.629
  309.570   97.155    0.239    0.454    3.616
  309.820   99.313    0.240    0.445    3.596
  310.070  101.592    0.245    0.435    3.583
  310.320  103.192    0.256    0.430    3.596
  310.570  104.966    0.242    0.439    3.630
  310.820  107.475    0.223    0.457    3.681
  311.070  109.134    0.214    0.463    3.741
  311.320  108.572    0.235    0.454    3.803
  311.570  104.928    0.240    0.463    3.875
  311.820  102.263    0.256    0.471    3.899
  312.070   98.710    0.269    0.455    3.921
  312.320   99.046    0.253    0.444    3.857
  312.570   99.927    0.231    0.428    3.650
  312.820  101.357    0.213    0.441    3.427
  313.070  103.041    0.223    0.440    3.261
  313.320  105.362    0.214    0.434    3.133
  313.570  108.111    0.205    0.430    3.065
  313.820  108.859    0.210    0.443    3.014
  314.070  107.652    0.208    0.479    2.973
  314.320  107.815    0.199    0.503    2.935
  314.570  110.395    0.194    0.514    2.924
  314.820  110.416    0.206    0.503    2.925
  315.070  108.023    0.238    0.492    2.908
  315.320  105.167    0.237    0.501    2.902
  315.570  103.145    0.232    0.493    2.904
  315.820   95.299    0.231    0.474    2.894
  316.070   89.153    0.254    0.448    2.828
  316.320   85.640    0.244    0.448    2.886
  316.570   83.629    0.231    0.470    2.822
  316.820   84.322    0.237    0.462    2.785
  317.070   84.563    0.256    0.451    2.742
  317.320   83.357    0.266    0.448    2.694
  317.570   82.223    0.273    0.440    2.663
