~VERSION INFORMATION
 VERS.                 2.0:   CWLS LOG ASCII STANDARD -VERSION 2.0
 WRAP.                  NO:   ONE LINE PER DEPTH STEP
~WELL INFORMATION BLOCK
#MNEM.UNIT           DATA                    DESCRIPTION OF MNEMONIC
#---------    -------------------            -------------------------------
# Generated from Intellog Unique Number	CC_84_87/WELL/2353
NULL.         -999.25                        : NULL_VALUE
WELL.         PETROREP ET AL HOUSE            : Well_name    - WELL              
LOC .         15-31-084-14W4                 : Location     - LOCATION          
UWI .         00/15-31-084-14W400            : Uwi          - UNIQUE WELL ID    
ENTR.         JHS                            : Entered      - ENTERED BY        
SRVC.         COMPUTALOG                     : Scn          - SERVICE COMPANY   
DATE.         07 JAN 85                      : Date         - LOG DATE
STRT.M        96                             : top_depth    - START DEPTH       
STOP.M        251.102                        : bot_depth    - STOP DEPTH        
STEP.M        0.3                            : increment    - STEP LENGTH       
~CURVE INFORMATION BLOCK
#MNEM UNIT       ERCB CURVE CODE    CURVE DESCRIPTION
#-----------   ------------------   ----------------------------------
DEPT.M        00 001 00 00         : DEPTH        - DEPTH                       
DPHI.V/V      00 890 00 00         : PHID         - DENSITY POROSITY (LIMESTONE)
NPHI.V/V      00 330 00 00         : PHIN         - NEUTRON POROSITY (LIMESTONE)
GR  .API      00 310 00 00         : GR           - GAMMA RAY                   
ILD .OHMM     00 120 00 00         : RESD         - DEEP RESISTIVITY (DIL)      
~PARAMETER INFORMATION       
#MNEM.UNIT           DATA             DESCRIPTION OF MNEMONIC
#---------         -----------     ------------------------------
GL  .M        531.17               : gl           - GROUND LEVEL ELEVATION      
EREF.M        534.67               : kb           - ELEVATION OF DEPTH REFERENCE
DATM.M        534.67               : datum        - DATUM ELEVATION             
TDD .M        254                  : tdd          - TOTAL DEPTH DRILLER         
RUN .         ONE                  : Run          - RUN NUMBER                  
ENG .         BILL                 : Engineer     - RECORDING ENGINEER          
WIT .         JIM                  : Witness      - WITNESSED BY                
MUD .         GEL                  : Mud_type     - MUD TYPE                    
MATR.         LIMESTONE            : Logunit      - NEUTRON MATRIX              
TMAX.C        22                   : BHT          - MAXIMUM RECORDED TEMPERATURE
BHTD.M        254                  : BHTDEP       - MAXIMUM RECORDED TEMPERATURE
MATR.         1                    : LOGUNIT      - NEUTRON MATRIX              
RMT .C        25                   : MDTP         - TEMPERATURE OF MUD          
NEUT.         1                    : NEUTRON      - NEUTRON TYPE                
RESI.         0                    : RESIST       - RESISTIVITY TYPE            
RMC .OHMM     0.25                 : RMC          - RESISTIVITY OF MUD CAKE     
RMF .OHMM     0.25                 : RMF          - RESISTIVITY OF MUD FILTRATE 
SUFT.C        15                   : SUFT         - SURFACE TEMPERATURE         
~A  DEPTH     PHID     PHIN       GR     RESD
# ...
  200.401    0.242    0.477   97.353    6.403
  200.701    0.239    0.461   90.596    7.735
  201.001    0.227    0.425   86.299    8.188
  201.301    0.226    0.416   89.993    7.887
  201.601    0.231    0.434   98.606    7.045
  201.901    0.232    0.450  106.603    6.413
  202.201    0.237    0.446  109.068    6.177
  202.501    0.233    0.440  104.772    6.296
  202.801    0.226    0.430  106.008    6.665
  203.101    0.190    0.415  104.782    6.667
  203.401    0.171    0.428  104.176    6.544
  203.701    0.189    0.442  106.639    6.546
  204.001    0.222    0.438  110.949    6.672
  204.301    0.222    0.445  111.570    7.063
  204.601    0.227    0.441  106.658    8.063
  204.901    0.229    0.408  104.205    9.559
  205.201    0.212    0.378  102.981   10.312
  205.501    0.180    0.371  102.371   10.511
  205.801    0.176    0.383   99.303   10.514
  206.101    0.207    0.393   99.310   10.320
  206.401    0.224    0.392  101.160    9.942
  206.701    0.225    0.394  101.781    9.576
  207.001    0.221    0.403  103.015    9.224
  207.301    0.214    0.408  105.482    8.885
  207.601    0.219    0.407  106.101    8.721
  207.901    0.219    0.404  109.182    8.723
  208.201    0.234    0.398  107.958    8.892
  208.501    0.248    0.393   99.356    9.413
  208.801    0.252    0.395   99.362   10.348
  209.101    0.259    0.394   99.369   10.548
  209.401    0.267    0.384   87.080   10.752
  209.701    0.270    0.382   82.783   10.555
  210.001    0.260    0.385   79.100   10.166
  210.301    0.268    0.388   79.720    9.979
  210.601    0.268    0.389   82.800    9.613
  210.901    0.260    0.389   82.191    9.615
  211.201    0.250    0.387   84.042    9.438
  211.501    0.240    0.373   86.507    9.440
  211.801    0.245    0.383   84.668    9.443
  212.101    0.254    0.398   81.600    9.446
  212.401    0.267    0.403   79.148    9.628
  212.701    0.258    0.424   82.229   10.192
  213.001    0.240    0.407   78.544   12.787
  213.301    0.208    0.214   69.944   16.347
  213.601    0.019    0.168   61.343   21.297
  213.901    0.014    0.175   61.349   26.719
  214.201    0.098    0.203   63.816   25.737
  214.501    0.140    0.229   65.664   20.143
  214.801    0.253    0.335   70.588   11.656
  215.101    0.252    0.390   77.356   10.216
  215.401    0.248    0.396   84.124    9.299
  215.701    0.247    0.400   84.130    8.790
  216.001    0.231    0.411   85.366    8.628
  216.301    0.245    0.432   86.601    8.630
  216.601    0.254    0.431   89.066    8.798
  216.901    0.253    0.422   90.916    8.968
  217.201    0.243    0.397   91.537    9.493
  217.501    0.243    0.380   90.313   10.049
  217.801    0.238    0.384   88.477   10.052
  218.101    0.230    0.384   89.096    9.501
  218.401    0.227    0.390   89.717    8.981
  218.701    0.225    0.405   87.878    8.175
  219.001    0.210    0.418   85.427    7.727
  219.301    0.188    0.429   86.045    6.522
  219.601    0.195    0.433   87.896    5.716
  219.901    0.224    0.444   90.975    5.106
  220.201    0.247    0.444   97.130    4.150
  220.501    0.251    0.453  103.282    3.637
  220.801    0.251    0.462  108.207    3.571
  221.101    0.246    0.466  110.059    3.709
  221.401    0.239    0.451  110.677    3.926
  221.701    0.225    0.430  114.372    4.743
  222.001    0.217    0.432  111.304    8.047
  222.301    0.217    0.434   99.629   10.684
  222.601    0.199    0.423   93.488   14.184
  222.901    0.168    0.377   89.806   16.192
  223.201    0.227    0.377   89.812   17.141
  223.501    0.236    0.386   96.580   16.511
  223.801    0.233    0.386   99.045   14.749
  224.101    0.218    0.396   95.362   14.205
  224.401    0.200    0.402   93.525   12.219
  224.701    0.204    0.407   96.604   10.509
  225.001    0.205    0.392  100.298    8.541
  225.301    0.218    0.386   96.001    7.209
  225.601    0.238    0.415   80.023    7.348
  225.901    0.284    0.419   66.504    8.877
  226.201    0.303    0.394   54.215   16.244
  226.501    0.308    0.377   49.918   19.998
  226.801    0.306    0.391   54.227   21.985
  227.101    0.299    0.393   56.078   21.991
  227.401    0.295    0.388   53.624   20.786
  227.701    0.290    0.389   55.474   19.280
  228.001    0.290    0.392   58.554   16.584
  228.301    0.295    0.389   59.174   14.812
  228.601    0.292    0.397   62.254   11.813
  228.901    0.287    0.412   69.022   10.753
  229.201    0.280    0.439   67.799   10.358
  229.501    0.265    0.423   62.887   10.964
  229.801    0.262    0.411   66.582    9.610
  230.101    0.245    0.419   72.735    8.423
  230.401    0.214    0.423   82.576    6.977
  230.701    0.222    0.424   96.107    6.115
  231.001    0.227    0.410   95.500    5.260
  231.301    0.233    0.403   97.349    4.610
  231.601    0.259    0.457  105.347    3.747
  231.901    0.280    0.488  107.812    3.541
  232.201    0.262    0.475  105.358    3.543
  232.501    0.236    0.468  104.749    3.680
  232.801    0.233    0.463  107.830    3.896
  233.101    0.240    0.473  109.679    3.971
  233.401    0.241    0.483  101.693    3.825
  233.701    0.199    0.468   90.634    3.684
  234.001    0.182    0.428   90.641    3.617
  234.301    0.231    0.446  101.096    3.686
  234.601    0.250    0.465  112.168    3.758
  234.901    0.255    0.476  112.175    3.903
  235.201    0.237    0.476  109.721    4.291
  235.501    0.219    0.403  104.808    5.283
  235.801    0.221    0.378   85.757    6.262
  236.101    0.241    0.374   79.616   10.427
  236.401    0.252    0.388   83.311   14.650
  236.701    0.253    0.411   82.701   18.730
  237.001    0.282    0.415   71.642   23.497
  237.301    0.320    0.388   57.508   31.195
  237.601    0.325    0.391   55.055   36.982
  237.901    0.320    0.393   58.750   43.019
  238.201    0.327    0.388   65.518   47.293
  238.501    0.336    0.396   73.516   48.208
  238.801    0.338    0.400   68.604   49.143
  239.101    0.337    0.395   55.085   47.334
  239.401    0.331    0.381   54.476   43.082
  239.701    0.323    0.383   56.941   37.056
  240.001    0.315    0.380   59.407   30.692
  240.301    0.304    0.390   61.871   25.906
  240.601    0.278    0.386   69.254   23.579
  240.901    0.258    0.375   73.563   20.281
  241.201    0.241    0.368   77.258   17.443
  241.501    0.231    0.378   85.870   10.681
  241.801    0.238    0.395   95.098    9.016
  242.101    0.243    0.391   98.177    8.851
  242.401    0.236    0.385  100.643    8.853
  242.701    0.238    0.398  103.108    9.196
  243.001    0.252    0.402  106.187   10.301
  243.301    0.269    0.395  110.496   12.923
  243.602    0.287    0.374  113.575   17.158
  243.902    0.283    0.361  124.032   21.122
  244.202    0.275    0.381  128.342   27.519
  244.502    0.281    0.374   76.093   30.252
  244.802    0.287    0.329   59.501   29.137
  245.102    0.274    0.323   63.195   22.804
  245.402    0.222    0.356   74.881   14.779
  245.702    0.193    0.393   92.715   11.350
  246.002    0.183    0.412   97.025   10.933
  246.302    0.175    0.418   89.039   11.357
  246.602    0.167    0.406   87.201   12.484
  246.902    0.178    0.337   92.739   15.083
  247.202    0.204    0.311   92.131   17.217
  247.502    0.208    0.329   90.907   21.197
  247.802    0.079    0.323   92.143   26.094
  248.102    0.032    0.286   93.993   32.125
  248.402    0.020    0.254   93.383   38.807
  248.702    0.021    0.258   90.317   43.474
  249.002    0.020    0.265   91.552   43.486
  249.302    0.017    0.265   93.402   41.888
  249.602    0.014    0.260   87.874   39.595
  249.902    0.009    0.263   87.266   38.139
  250.202    0.003    0.266   45.468   37.437
  250.502    0.009    0.266   19.654   36.748
  250.802    0.032    0.260   18.431   36.758
  251.102    0.091    0.256   17.823   38.182
