~VERSION INFORMATION
 VERS.                 2.0:   CWLS LOG ASCII STANDARD -VERSION 2.0
 WRAP.                  NO:   ONE LINE PER DEPTH STEP
~WELL INFORMATION BLOCK
#MNEM.UNIT           DATA                    DESCRIPTION OF MNEMONIC
#---------    -------------------            -------------------------------
# Generated from Intellog Unique Number	CN_91_93/WELL/3069
WELL.         CANADIAN SUPERIOR OIL LTD.     : Well_name    - WELL
LOC .         00/12-23-092-21W4/0            : Location     - LOCATION
UWI .         00/12-23-092-21W4/0            : Uwi          - UNIQUE WELL ID
ENTR.         JOETTE                         : Entered      - ENTERED BY
SRVC.         SCHLUMBERGER                   : Scn          - SERVICE COMPANY
DATE.         04/10/92                       : Date         - LOG DATE
STRT.M        50                             : top_depth    - START DEPTH
STOP.M        252                            : bot_depth    - STOP DEPTH
STEP.M        0.25                           : increment    - STEP LENGTH
 NULL. -999.2500:NULL Value
~CURVE INFORMATION BLOCK
#MNEM UNIT       ERCB CURVE CODE    CURVE DESCRIPTION
#-----------   ------------------   ----------------------------------
DEPT.M        00 001 00 00         : DEPTH        - DEPTH
CALI.MM       00 280 01 00         : CAL          - CALIPER
GR  .API      00 310 00 00         : GR           - GAMMA RAY
NPHI.V/V      00 330 00 00         : PHIN         - NEUTRON POROSITY (SANDSTONE)
DPHI.V/V      00 890 00 00         : PHID         - DENSITY POROSITY (SANDSTONE)
ILD .OHMM     00 120 00 00         : RESD         - DEEP RESISTIVITY (DIL)
~PARAMETER INFORMATION
#MNEM.UNIT           DATA             DESCRIPTION OF MNEMONIC
#---------         -----------     ------------------------------
GL  .M        534.92               : gl           - GROUND LEVEL ELEVATION
EREF.M        538.77               : kb           - ELEVATION OF DEPTH REFERENCE
DATM.M        538.77               : datum        - DATUM ELEVATION
TDD .M        253.1                : tdd          - TOTAL DEPTH DRILLER
RUN .         ONE                  : Run          - RUN NUMBER
ENG .         BILL                 : Engineer     - RECORDING ENGINEER
WIT .         JIM                  : Witness      - WITNESSED BY
MUD .         GEL                  : Mud_type     - MUD TYPE
MATR.         SANDSTONE            : Logunit      - NEUTRON MATRIX
TMAX.C        20                   : BHT          - MAXIMUM RECORDED TEMPERATURE
BHTD.M        253.1                : BHTDEP       - MAXIMUM RECORDED TEMPERATURE
RMT .C        14                   : MDTP         - TEMPERATURE OF MUD
MUDD.KG/M     1120                 : MWT          - MUD DENSITY
NEUT.         1                    : NEUTRON      - NEUTRON TYPE
RESI.         0                    : RESIST       - RESISTIVITY TYPE
RM  .OHMM     5.11                 : RM           - RESISTIVITY OF MUD
RMC .OHMM     3.3                  : RMC          - RESISTIVITY OF MUD CAKE
RMF .OHMM     3.3                  : RMF          - RESISTIVITY OF MUD FILTRATE
SUFT.C        4                    : SUFT         - SURFACE TEMPERATURE
~A  DEPTH      CAL       GR     PHIN     PHID     RESD
# ...
  123.000  259.971   89.768    0.458    0.276    4.149
  123.250  258.874   89.104    0.514    0.289    3.990
  123.500  257.788   84.689    0.557    0.285    3.984
  123.750  256.701   82.783    0.549    0.265    3.981
  124.000  256.659   80.250    0.533    0.264    4.055
  124.250  257.663   77.723    0.510    0.269    4.206
  124.500  258.666   76.444    0.514    0.259    4.450
  124.750  260.715   77.046    0.523    0.267    5.802
  125.000  261.719   73.258    0.489    0.269    7.566
  125.250  261.677   71.979    0.451    0.230    7.703
  125.500  260.590   76.971    0.398    0.150    7.266
  125.750  261.594   81.329    0.416    0.197    6.601
  126.000  267.813   84.440    0.469    0.252    5.770
  126.250  268.816   82.534    0.472    0.254    5.043
  126.500  266.684   78.746    0.476    0.257    4.851
  126.750  264.553   74.952    0.496    0.264    4.490
  127.000  263.476   75.561    0.536    0.280    4.398
  127.250  262.390   79.919    0.536    0.258    4.313
  127.500  262.348   84.290    0.531    0.215    4.308
  127.750  262.306   86.140    0.531    0.184    4.470
  128.000  262.265   86.742    0.523    0.211    4.553
  128.250  261.178   85.463    0.525    0.241    4.906
  128.500  261.126   82.936    0.515    0.252    5.190
  128.750  260.039   81.024    0.485    0.243    5.593
  129.000  259.998   85.388    0.460    0.242    5.695
  129.250  260.991   91.634    0.470    0.252    5.690
  129.500  260.939   92.863    0.463    0.232    5.792
  129.750  261.963   90.330    0.456    0.201    5.784
  130.000  262.946   90.305    0.447    0.136    5.780
  130.250  262.925   94.043    0.475    0.147    5.772
  130.500  263.918   94.645    0.473    0.213    5.767
  130.750  263.866   97.122    0.487    0.205    5.869
  131.000  263.846   99.611    0.505    0.187    5.977
  131.250  265.884  100.214    0.498    0.194    5.969
  131.500  267.943   98.934    0.487    0.197    5.964
  131.750  268.936   99.537    0.493    0.195    5.845
  132.000  267.860  100.766    0.518    0.202    5.840
  132.250  265.718  101.989    0.527    0.214    5.945
  132.500  263.586  101.964    0.493    0.218    6.054
  132.750  262.489  100.678    0.487    0.214    6.048
  133.000  262.447  100.647    0.481    0.208    5.814
  133.250  264.496  101.262    0.491    0.207    5.591
  133.500  265.499  101.864    0.495    0.208    5.480
  133.750  268.593   98.704    0.490    0.211    5.371
  134.000  267.506   95.543    0.497    0.216    5.365
  134.250  265.375   97.400    0.518    0.221    5.258
  134.500  264.298   98.629    0.540    0.223    5.152
  134.750  262.166   98.604    0.554    0.223    5.148
  135.000  258.969   97.325    0.537    0.232    5.044
  135.250  257.882   92.910    0.522    0.246    4.944
  135.500  258.896   85.354    0.483    0.245    5.227
  135.750  261.990   79.686    0.479    0.246    5.531
  136.000  261.948   73.383    0.473    0.243    6.194
  136.250  259.816   77.127    0.444    0.230    6.805
  136.500  259.764   82.746    0.437    0.227    6.929
  136.750  261.813   86.484    0.441    0.253    6.917
  137.000  262.806   88.340    0.444    0.247    6.912
  137.250  262.785   86.434    0.446    0.241    7.451
  137.500  261.688   81.386    0.453    0.237    8.029
  137.750  260.591   82.615    0.468    0.237    8.175
  138.000  260.539   85.092    0.464    0.249    8.012
  138.250  260.508   89.451    0.456    0.259    7.707
  138.500  260.477   91.313    0.462    0.265    7.271
  138.750  260.425   93.796    0.482    0.265    6.989
  139.000  260.393   93.144    0.492    0.263    6.722
  139.250  261.397   91.244    0.504    0.258    6.466
  139.500  261.355   89.965    0.519    0.255    4.945
  139.750  261.314   89.307    0.534    0.255    5.332
  140.000  261.262   86.774    0.531    0.255    5.746
  140.250  261.220   84.247    0.506    0.252    6.310
  140.500  261.179   80.459    0.501    0.228    6.550
  140.750  261.127   85.451    0.469    0.188    6.672
  141.000  261.075   85.420    0.474    0.164    7.188
  141.250  261.054   81.005    0.496    0.190    7.321
  141.500  261.002   82.234    0.470    0.140    7.594
  141.750  260.960   89.107    0.453    0.077    7.734
  142.000  261.974   92.839    0.444    0.148    7.726
  142.250  261.922   92.820    0.438    0.207    7.718
  142.500  261.881   91.541    0.440    0.227    7.566
  142.750  261.839   95.278    0.439    0.227    7.556
  143.000  261.798   95.880    0.453    0.237    7.408
  143.250  261.756   92.093    0.452    0.237    6.985
  143.500  261.714   88.299    0.451    0.226    6.848
  143.750  261.662   86.387    0.468    0.230    6.582
  144.000  261.621   85.114    0.485    0.226    6.578
  144.250  261.579   86.971    0.498    0.216    6.571
  144.500  261.548   89.448    0.507    0.216    6.564
  144.750  261.486   88.789    0.504    0.223    6.683
  145.000  261.455   86.896    0.502    0.219    6.804
  145.250  261.423   84.362    0.503    0.199    7.195
  145.500  261.382   80.569    0.499    0.172    7.609
  145.750  261.340   83.046    0.482    0.147    7.749
  146.000  261.299   84.287    0.456    0.179    8.194
  146.250  259.156   84.890    0.452    0.223    8.505
  146.500  257.035   82.983    0.456    0.243    8.825
  146.750  255.927   79.817    0.475    0.260    9.331
  147.000  254.841   77.277    0.474    0.254    9.872
  147.250  254.809   82.275    0.451    0.234   10.435
  147.500  254.768   83.504    0.439    0.234   10.831
  147.750  254.726   83.480    0.444    0.234   10.817
  148.000  254.685   83.455    0.466    0.219   10.602
  148.250  254.643   84.057    0.458    0.217   10.000
  148.500  254.602   84.032    0.464    0.220    9.440
  148.750  273.362   84.007    0.476    0.227    7.943
  149.000  278.536   83.982    0.455    0.232    7.080
  149.250  280.605   92.109    0.460    0.252    6.074
  149.500  263.831   90.203    0.478    0.246    5.111
  149.750  263.789   85.161    0.484    0.246    4.819
  150.000  264.783   80.740    0.495    0.231    5.004
  150.250  264.751   78.834    0.522    0.191    5.494
  150.500  265.734   83.193    0.490    0.138    5.704
  150.750  265.713   91.953    0.466    0.096    5.808
  151.000  265.672  101.334    0.466    0.158    5.373
  151.250  264.564  105.065    0.490    0.211    5.072
  151.500  264.543  104.413    0.526    0.219    4.783
  151.750  262.412  102.507    0.550    0.221    4.689
  152.000  260.280  101.228    0.540    0.226    4.686
  152.250  258.148   98.695    0.523    0.230    4.771
  152.500  257.051   96.168    0.523    0.229    4.948
  152.750  256.988   93.001    0.507    0.225    5.039
  153.000  256.957   92.349    0.475    0.224    5.227
  153.250  256.926   94.206    0.439    0.239    5.423
  153.500  257.930   94.801    0.449    0.254    5.524
  153.750  257.867   96.031    0.474    0.255    5.729
  154.000  258.892   99.774    0.470    0.259    5.725
  154.250  258.850  103.512    0.469    0.240    5.720
  154.500  258.788   98.464    0.470    0.213    5.712
  154.750  258.756   95.937    0.471    0.211    5.600
  155.000  259.770   93.404    0.500    0.221    5.384
  155.250  260.753   92.752    0.494    0.200    5.380
  155.500  260.722   92.727    0.489    0.160    5.372
  155.750  261.725   96.464    0.475    0.171    5.471
  156.000  261.674   98.314    0.479    0.192    5.567
  156.250  261.642   95.781    0.507    0.206    5.670
  156.500  261.601   95.756    0.517    0.209    5.880
  156.750  261.559   96.985    0.508    0.214    5.989
  157.000  261.507   96.954    0.489    0.221    6.099
  157.250  260.431   95.675    0.474    0.231    6.701
  157.500  260.379   93.769    0.468    0.221    7.499
  157.750  260.337   90.615    0.469    0.205    7.639
  158.000  260.296   85.573    0.451    0.179    7.927
  158.250  260.265   83.667    0.436    0.157    7.917
  158.500  260.213   84.896    0.432    0.197    7.910
  158.750  260.171   91.136    0.441    0.225    7.607
  159.000  260.119   94.873    0.448    0.235    7.313
  159.250  260.088   97.363    0.453    0.238    7.034
