~VERSION INFORMATION
 VERS.                 2.0:   CWLS LOG ASCII STANDARD -VERSION 2.0
 WRAP.                  NO:   ONE LINE PER DEPTH STEP
~WELL INFORMATION BLOCK
#MNEM.UNIT           DATA                    DESCRIPTION OF MNEMONIC
#---------    -------------------            -------------------------------
# Generated from Intellog Unique Number	CS_73_76/WELL/2199
WELL.         SIEBENS OIL & GAS LTD.         : Well_name    - WELL
LOC .         00/11-08-074-09W4/0            : Location     - LOCATION
UWI .         00/11-08-074-09W4/0            : Uwi          - UNIQUE WELL ID
ENTR.         SP                             : Entered      - ENTERED BY
SRVC.         SCHLUMBERGER                   : Scn          - SERVICE COMPANY
STRT.M        298.704                        : top_depth    - START DEPTH
STOP.M        481.454                        : bot_depth    - STOP DEPTH
STEP.M        0.25                           : increment    - STEP LENGTH
 NULL. -999.2500:NULL Value
~CURVE INFORMATION BLOCK
#MNEM UNIT       ERCB CURVE CODE    CURVE DESCRIPTION
#-----------   ------------------   ----------------------------------
DEPT.M        00 001 00 00         : DEPTH        - DEPTH
GR  .API      00 310 00 00         : GR           - GAMMA RAY
DPHI.V/V      00 890 00 00         : PHID         - DENSITY POROSITY (SANDSTONE)
NPHI.V/V      00 330 00 00         : PHIN         - NEUTRON POROSITY (SANDSTONE)
ILD .OHMM     00 120 00 00         : RESD         - DEEP RESISTIVITY (DIL)
~PARAMETER INFORMATION
#MNEM.UNIT           DATA             DESCRIPTION OF MNEMONIC
#---------         -----------     ------------------------------
GL  .M        666.598              : gl           - GROUND LEVEL ELEVATION
EREF.M        670.255              : kb           - ELEVATION OF DEPTH REFERENCE
DATM.M        666.598              : datum        - DATUM ELEVATION
TDD .M        493.776              : tdd          - TOTAL DEPTH DRILLER
RUN .         ONE                  : Run          - RUN NUMBER
ENG .         BILL                 : Engineer     - RECORDING ENGINEER
WIT .         JIM                  : Witness      - WITNESSED BY
MUD .         GEL                  : Mud_type     - MUD TYPE
MATR.         SANDSTONE            : Logunit      - NEUTRON MATRIX
TMAX.C        13.3333              : BHT          - MAXIMUM RECORDED TEMPERATURE
BHTD.M        493.776              : BHTDEP       - MAXIMUM RECORDED TEMPERATURE
MATR.         1                    : LOGUNIT      - NEUTRON MATRIX
RMT .C        25                   : MDTP         - TEMPERATURE OF MUD
NEUT.         1                    : NEUTRON      - NEUTRON TYPE
RESI.         0                    : RESIST       - RESISTIVITY TYPE
RMC .OHMM     0.25                 : RMC          - RESISTIVITY OF MUD CAKE
RMF .OHMM     0.25                 : RMF          - RESISTIVITY OF MUD FILTRATE
SUFT.C        15                   : SUFT         - SURFACE TEMPERATURE
~A  DEPTH       GR     PHID     PHIN     RESD
# ...
  385.704   89.940    0.198    0.443    6.169
  385.954   90.359    0.215    0.432    6.474
  386.204   89.157    0.227    0.427    6.454
  386.454   85.255    0.241    0.420    6.242
  386.704   80.146    0.248    0.433    6.186
  386.954   77.396    0.250    0.451    6.115
  387.204   78.116    0.243    0.472    6.113
  387.454   77.031    0.244    0.481    6.115
  387.704   75.638    0.238    0.447    6.111
  387.954   75.293    0.234    0.434    6.237
  388.204   76.254    0.228    0.438    6.246
  388.454   76.207    0.227    0.433    6.447
  388.704   76.129    0.236    0.416    6.686
  388.954   76.759    0.224    0.407    7.269
  389.204   76.270    0.209    0.403    8.212
  389.454   73.098    0.184    0.393    9.279
  389.704   67.363    0.162    0.357   10.460
  389.954   58.342    0.029    0.198   10.944
  390.204   60.697    0.076    0.240   11.225
  390.454   65.471    0.145    0.321   10.990
  390.704   72.067    0.178    0.370    9.880
  390.954   83.649    0.207    0.414    9.103
  391.204   90.993    0.194    0.433    8.071
  391.454   91.831    0.199    0.443    7.078
  391.704   90.331    0.211    0.450    6.413
  391.954   89.392    0.214    0.451    6.235
  392.204   89.572    0.216    0.455    6.037
  392.454   90.543    0.209    0.466    5.982
  392.704   90.547    0.204    0.472    5.885
  392.954   89.606    0.206    0.468    5.718
  393.204   89.317    0.214    0.458    5.666
  393.454   89.322    0.209    0.451    5.567
  393.704   89.464    0.209    0.442    5.422
  393.954   90.488    0.229    0.439    5.365
  394.204   91.084    0.226    0.446    5.361
  394.454   91.863    0.209    0.455    5.341
  394.704   92.826    0.199    0.469    5.266
  394.954   93.867    0.189    0.483    5.329
  395.204   94.137    0.171    0.491    5.254
  395.454   95.144    0.170    0.500    5.272
  395.704   95.646    0.175    0.496    5.126
  395.954   95.292    0.185    0.482    4.860
  396.204   97.107    0.200    0.469    4.272
  396.454   99.642    0.232    0.466    3.343
  396.704  102.490    0.250    0.517    2.810
  396.954  105.002    0.262    0.555    2.417
  397.204  106.722    0.252    0.588    2.139
  397.454  106.059    0.242    0.601    1.989
  397.704  104.719    0.236    0.609    2.003
  397.954  104.829    0.231    0.590    2.109
  398.204  107.011    0.229    0.567    2.402
  398.454  106.635    0.227    0.532    2.689
  398.704  103.741    0.219    0.482    3.075
  398.954   98.727    0.225    0.464    3.633
  399.204   94.309    0.218    0.451    4.265
  399.454   92.182    0.212    0.452    4.547
  399.704   91.323    0.206    0.455    4.690
  399.954   88.677    0.199    0.465    4.700
  400.204   88.050    0.208    0.477    4.795
  400.454   88.989    0.226    0.473    4.855
  400.704   92.663    0.222    0.475    4.905
  400.954   93.550    0.238    0.475    4.971
  401.204   88.735    0.249    0.463    5.068
  401.454   83.951    0.263    0.449    5.180
  401.704   80.095    0.268    0.430    5.336
  401.954   76.472    0.264    0.415    5.510
  402.204   72.975    0.255    0.402    5.560
  402.454   73.074    0.254    0.402    5.650
  402.704   74.014    0.256    0.408    5.771
  402.954   77.319    0.254    0.406    5.758
  403.204   80.145    0.251    0.404    5.758
  403.454   81.745    0.240    0.412    5.757
  403.704   83.224    0.232    0.421    5.757
  403.954   83.136    0.233    0.428    5.768
  404.204   84.827    0.234    0.420    5.641
  404.454   87.779    0.224    0.409    5.652
  404.704   90.515    0.209    0.437    5.651
  404.954   91.695    0.212    0.446    5.650
  405.204   92.164    0.234    0.430    5.650
  405.454   93.065    0.218    0.420    5.652
  405.704   94.035    0.214    0.439    5.655
  405.954   91.567    0.223    0.437    5.760
  406.204   87.027    0.232    0.419    5.762
  406.454   86.195    0.239    0.413    5.648
  406.704   87.241    0.240    0.410    5.661
  406.954   87.349    0.231    0.409    5.538
  407.204   87.920    0.219    0.412    5.453
  407.454   88.565    0.206    0.421    5.344
  407.704   89.299    0.220    0.419    5.220
  407.954   90.315    0.225    0.417    5.153
  408.204   90.576    0.221    0.428    5.002
  408.454   86.946    0.205    0.444    4.966
  408.704   82.547    0.207    0.452    4.890
  408.954   78.767    0.241    0.467    4.875
  409.204   77.212    0.274    0.469    4.872
  409.454   78.245    0.283    0.453    4.871
  409.704   78.100    0.286    0.449    4.870
  409.954   76.043    0.293    0.450    4.871
  410.204   73.686    0.295    0.457    4.928
  410.454   71.408    0.284    0.460    4.972
  410.704   72.179    0.268    0.464    5.141
  410.954   74.510    0.271    0.457    5.194
  411.204   76.723    0.278    0.467    5.239
  411.454   77.197    0.279    0.444    5.232
  411.704   77.157    0.288    0.409    5.347
  411.954   77.875    0.301    0.412    5.338
  412.204   79.062    0.308    0.425    5.262
  412.454   77.948    0.307    0.459    5.241
  412.704   76.571    0.296    0.476    5.238
  412.954   76.168    0.301    0.473    5.234
  413.204   75.917    0.309    0.459    5.212
  413.454   73.725    0.312    0.450    5.140
  413.704   71.272    0.302    0.438    5.143
  413.954   71.998    0.281    0.446    5.157
  414.204   74.033    0.274    0.457    5.240
  414.454   75.300    0.277    0.456    5.285
  414.704   77.350    0.275    0.445    5.337
  414.954   80.376    0.281    0.434    5.518
  415.204   82.433    0.270    0.448    5.559
  415.454   83.720    0.259    0.456    5.738
  415.704   84.189    0.251    0.464    5.814
  415.954   83.469    0.249    0.468    5.864
  416.204   83.092    0.259    0.448    6.059
  416.454   84.636    0.256    0.433    6.059
  416.704   86.098    0.249    0.436    6.066
  416.954   84.957    0.252    0.441    5.956
  417.204   84.224    0.248    0.432    5.903
  417.454   85.126    0.251    0.426    5.722
  417.704   88.593    0.244    0.433    5.384
  417.954   91.877    0.259    0.439    4.864
  418.204   92.719    0.245    0.428    4.589
  418.454   93.657    0.215    0.438    4.669
  418.704   92.730    0.217    0.467    5.374
  418.954   84.195    0.187    0.443    6.178
  419.204   77.565    0.159    0.402    6.986
  419.454   71.507    0.087    0.348    7.477
  419.704   69.274    0.084    0.282    7.183
  419.954   73.093    0.121    0.325    6.176
  420.204   77.698    0.159    0.367    5.547
  420.454   83.375    0.238    0.407    5.070
  420.704   82.626    0.253    0.429    4.719
  420.954   87.105    0.232    0.416    4.502
  421.204   92.941    0.218    0.433    4.360
  421.454   96.395    0.203    0.439    4.374
  421.704   95.566    0.207    0.445    4.511
  421.954   94.994    0.202    0.445    4.849
  422.204   95.189    0.191    0.440    5.083
  422.454   95.603    0.184    0.436    5.414
  422.704   95.653    0.177    0.430    5.688
  422.954   94.829    0.168    0.429    5.833
  423.204   93.856    0.170    0.433    5.929
  423.454   92.806    0.164    0.429    5.931
  423.704   92.508    0.153    0.423    5.920
  423.954   92.417    0.160    0.415    5.824
  424.204   94.407    0.172    0.411    5.824
  424.454   95.671    0.197    0.410    5.819
  424.704   97.730    0.208    0.403    5.712
  424.954   98.915    0.198    0.398    5.682
  425.204   97.938    0.205    0.400    5.617
  425.454   96.520    0.208    0.409    5.556
  425.704   94.936    0.206    0.432    5.412
  425.954   92.034    0.202    0.433    5.316
  426.204   90.345    0.198    0.436    5.254
  426.454   90.292    0.179    0.437    5.199
  426.704   91.258    0.193    0.439    5.125
  426.954   92.713    0.203    0.443    5.029
  427.204   87.123    0.213    0.446    4.939
  427.454   82.701    0.220    0.450    5.031
  427.704   80.884    0.228    0.459    5.018
  427.954   80.661    0.242    0.459    5.122
  428.204   82.587    0.230    0.434    5.117
  428.454   85.105    0.208    0.429    5.118
  428.704   85.975    0.179    0.422    5.117
  428.954   85.893    0.152    0.416    5.065
