~VERSION INFORMATION
 VERS.                 2.0:   CWLS LOG ASCII STANDARD -VERSION 2.0
 WRAP.                  NO:   ONE LINE PER DEPTH STEP
~WELL INFORMATION BLOCK
#MNEM.UNIT           DATA                    DESCRIPTION OF MNEMONIC
#---------    -------------------            -------------------------------
# Generated from Intellog Unique Number	CW_76_78/WELL/2770
WELL.         11-10-076-25W4                 : Well_name    - WELL
LOC .         00/11-10-076-25W4/0            : Location     - LOCATION
UWI .         00/11-10-076-25W4/0            : Uwi          - UNIQUE WELL ID
ENTR.         JAYE                           : Entered      - ENTERED BY
SRVC.         SCHLUMBERGER                   : Scn          - SERVICE COMPANY
DATE.         17 FEB 75                      : Date         - LOG DATE
STRT.M        591.312                        : top_depth    - START DEPTH
STOP.M        751.062                        : bot_depth    - STOP DEPTH
STEP.M        0.25                           : increment    - STEP LENGTH
 NULL. -999.2500:NULL Value
~CURVE INFORMATION BLOCK
#MNEM UNIT       ERCB CURVE CODE    CURVE DESCRIPTION
#-----------   ------------------   ----------------------------------
DEPT.M        00 001 00 00         : DEPTH        - DEPTH
DPHI.V/V      00 890 00 00         : PHID         - DENSITY POROSITY (LIMESTONE)
ILD .OHMM     00 120 00 00         : RESD         - DEEP RESISTIVITY (DIL)
CALI.IN       00 280 01 00         : CAL          - CALIPER
GR  .API      00 310 00 00         : GR           - GAMMA RAY
NPHI.V/V      00 330 00 00         : PHIN         - NEUTRON POROSITY (LIMESTONE)
~PARAMETER INFORMATION
#MNEM.UNIT           DATA             DESCRIPTION OF MNEMONIC
#---------         -----------     ------------------------------
GL  .M        844.479              : gl           - GROUND LEVEL ELEVATION
EREF.M        848.594              : kb           - ELEVATION OF DEPTH REFERENCE
DATM.M        844.479              : datum        - DATUM ELEVATION
TDD .M        748.589              : tdd          - TOTAL DEPTH DRILLER
RUN .         ONE                  : Run          - RUN NUMBER
ENG .         FETTERLEY            : Engineer     - RECORDING ENGINEER
WIT .         WOOLSEY              : Witness      - WITNESSED BY
BASE.         EDM                  : Branch       - HOME BASE OF LOGGING UNIT
MUD .         GEL CHEM             : Mud_type     - MUD TYPE
MATR.         LIMESTONE            : Logunit      - NEUTRON MATRIX
TMAX.C        29.4444              : BHT          - MAXIMUM RECORDED TEMPERATURE
BHTD.M        748.894              : BHTDEP       - MAXIMUM RECORDED TEMPERATURE
RMT .C        18.3333              : MDTP         - TEMPERATURE OF MUD
MUDD.KG/M     1068                 : MWT          - MUD DENSITY
NEUT.         1                    : NEUTRON      - NEUTRON TYPE
RESI.         0                    : RESIST       - RESISTIVITY TYPE
RM  .OHMM     4.25                 : RM           - RESISTIVITY OF MUD
RMC .OHMM     0.25                 : RMC          - RESISTIVITY OF MUD CAKE
RMF .OHMM     3.26                 : RMF          - RESISTIVITY OF MUD FILTRATE
SUFT.C        -17.7778             : SUFT         - SURFACE TEMPERATURE
~A  DEPTH     PHID     RESD      CAL       GR     PHIN
# ...
  700.812    0.080   15.478    9.271   69.769    0.335
  701.062    0.076   14.294    9.135   83.463    0.372
  701.312    0.136   13.274    9.135   87.645    0.404
  701.562    0.144   12.371    9.144   89.763    0.418
  701.812    0.105   11.915    9.144   90.118    0.393
  702.062    0.134   11.927    9.154   87.831    0.370
  702.312    0.110   11.850    9.156   86.727    0.359
  702.562    0.148   11.540    9.156   86.804    0.385
  702.812    0.168   10.933    9.167   87.438    0.406
  703.062    0.188   10.154    9.189   88.088    0.420
  703.312    0.172    9.941    9.192   89.031    0.414
  703.562    0.151    9.861    9.216   89.394    0.428
  703.812    0.133    9.941    9.241   92.107    0.420
  704.062    0.112    9.841    9.241   89.225    0.415
  704.312    0.124    9.671    9.249   89.001    0.429
  704.562    0.164    9.334    9.253   91.119    0.445
  704.812    0.191    9.155    9.253   90.308    0.459
  705.062    0.186    8.916    9.262   89.489    0.443
  705.312    0.144    8.793    9.246   90.432    0.436
  705.562    0.153    8.738    9.246   91.383    0.451
  705.812    0.174    8.761    9.236   92.326    0.463
  706.062    0.151    8.882    9.199   93.563    0.421
  706.312    0.168    9.103    9.184   93.618    0.413
  706.562    0.140    9.365    9.190   91.925    0.416
  706.812    0.130    9.652    9.212   88.749    0.382
  707.062    0.111    9.821    9.212   85.875    0.379
  707.312    0.129    9.884    9.242   84.477    0.394
  707.562    0.174    9.838    9.264   86.594    0.408
  707.812    0.162    9.829    9.249   87.244    0.408
  708.062    0.172    9.784    9.195   86.139    0.403
  708.312    0.162    9.864    9.140   85.019    0.397
  708.562    0.149    9.820    9.140   83.914    0.391
  708.812    0.152    9.827    9.070   84.857    0.376
  709.062    0.178    9.855    8.977   82.578    0.393
  709.312    0.206    9.774    8.981   82.339    0.402
  709.562    0.181    9.380    8.985   85.631    0.389
  709.812    0.149    9.018    8.989   84.225    0.383
  710.062    0.144    8.766    9.072   81.350    0.411
  710.312    0.168    8.598    9.175   84.063    0.426
  710.562    0.206    8.653    9.198   88.245    0.410
  710.812    0.185    8.918    9.222   89.775    0.422
  711.062    0.154    9.225    9.227   86.908    0.421
  711.312    0.082    9.559    9.231   85.201    0.408
  711.562    0.100    9.621    9.274   84.390    0.427
  711.812    0.153    9.525    9.279   87.968    0.440
  712.062    0.160    9.817    9.224   88.633    0.439
  712.312    0.166   10.513    9.189   86.925    0.422
  712.562    0.206   11.403    9.233   88.456    0.443
  712.812    0.225   12.713    9.275   89.693    0.461
  713.062    0.224   14.330    9.261   86.525    0.470
  713.312    0.205   17.506    9.225   82.182    0.460
  713.562    0.141   21.901    9.151   77.839    0.443
  713.812    0.077   26.268    9.136   70.853    0.370
  714.062    0.062   32.923    9.179   66.502    0.328
  714.312    0.077   37.656    9.223   64.231    0.324
  714.562    0.052   35.615    9.188   62.229    0.342
  714.812    0.083   32.590    9.035   58.466    0.338
  715.062    0.120   29.287    8.961   57.949    0.348
  715.312    0.130   26.799    8.946   60.955    0.346
  715.562    0.111   24.794    9.009   63.954    0.359
  715.812    0.094   22.036    9.033   66.659    0.386
  716.062    0.098   19.873    9.037   65.547    0.391
  716.312    0.080   18.220    9.022   60.918    0.366
  716.562    0.054   16.401    9.026   61.853    0.356
  716.812    0.060   14.078    9.030   65.439    0.375
  717.062    0.097   11.975    9.034   71.383    0.399
  717.312    0.179    9.928    9.058   82.612    0.420
  717.562    0.168    9.003    9.082   82.396    0.416
  717.812    0.172    8.735    9.146   82.165    0.402
  718.062    0.196    8.695    9.189   84.568    0.424
  718.312    0.204    8.864    9.232   88.749    0.416
  718.562    0.208    8.953    9.275   87.637    0.407
  718.812    0.219    8.814    9.299   87.993    0.422
  719.062    0.203    8.583    9.323   90.134    0.436
  719.312    0.188    8.298    9.347   91.355    0.439
  719.562    0.176    8.096    9.391   93.767    0.431
  719.812    0.174    8.088    9.415   97.075    0.418
  720.062    0.174    8.306    9.438   99.486    0.419
  720.312    0.166    8.798    9.442  101.898    0.427
  720.562    0.186    9.863    9.388  102.849    0.421
  720.812    0.183   11.342    9.334  100.554    0.408
  721.062    0.127   12.949    9.279   94.743    0.380
  721.312    0.042   16.833    9.205   83.050    0.323
  721.562    0.062   21.368    9.150   68.715    0.318
  721.812    0.119   23.393    9.096   67.904    0.339
  722.062    0.163   22.863    9.080   70.895    0.370
  722.312    0.138   20.394    9.065   75.370    0.389
  722.562    0.156   17.830    9.070   78.662    0.390
  722.812    0.148   16.316    9.070   81.963    0.378
  723.062    0.117   15.207    9.079   81.453    0.355
  723.312    0.151   14.277    9.122   81.793    0.369
  723.562    0.178   13.356    9.122   84.506    0.395
  723.812    0.152   12.676    9.130   87.219    0.403
  724.062    0.153   11.988    9.154   87.868    0.399
  724.312    0.156   11.297    9.178   87.653    0.389
  724.562    0.156   10.881    9.202   89.168    0.389
  724.812    0.169   10.443    9.205   91.873    0.391
  725.062    0.178   10.039    9.209   95.760    0.390
  725.312    0.179    9.582    9.233   99.370    0.390
  725.562    0.186    9.213    9.277  100.599    0.396
  725.812    0.173    9.070    9.359   99.780    0.421
  726.062    0.168    9.857    9.305   96.604    0.432
  726.312    0.178   11.275    9.211   93.436    0.415
  726.562    0.175   12.569    9.196   92.323    0.398
  726.812    0.102   13.634    9.181   89.457    0.389
  727.062    0.056   14.182    9.204   84.812    0.365
  727.312    0.020   14.089    9.189   80.477    0.378
  727.562    0.152   13.036    9.154   79.952    0.387
  727.812    0.151   11.714    9.119   81.475    0.370
  728.062    0.139   10.468    9.103   86.537    0.379
  728.312    0.135    9.614    9.147   88.948    0.427
  728.562    0.128    8.847    9.192   88.137    0.449
  728.812    0.114    8.336    9.214   82.318    0.426
  729.062    0.115    8.750    9.179   78.563    0.378
  729.312    0.082    9.184    9.107   82.736    0.374
  729.562    0.159    9.430    9.110   86.918    0.397
  729.812    0.149    9.508    9.133   84.924    0.422
  730.062    0.130    9.430    9.157   80.875    0.383
  730.312    0.104    9.150    9.201   77.127    0.354
  730.562    0.121    8.959    9.225   77.181    0.374
  730.812    0.164    8.692    9.248   80.474    0.428
  731.062    0.175    8.296    9.272   89.068    0.419
  731.312    0.152    7.789    9.296   92.948    0.420
  731.562    0.147    7.246    9.301   91.835    0.431
  731.812    0.178    6.667    9.306   88.088    0.437
  732.062    0.168    6.124    9.309   86.967    0.426
  732.312    0.153    5.749    9.316   87.331    0.414
  732.562    0.133    5.682    9.317   88.576    0.404
  732.812    0.106    5.718    9.341   90.686    0.419
  733.062    0.162    5.958    9.366   95.454    0.425
  733.312    0.159    6.073    9.369   98.461    0.423
  733.562    0.173    6.023    9.413  100.579    0.412
  733.812    0.168    6.006    9.437  102.990    0.409
  734.062    0.142    5.871    9.480  106.878    0.420
  734.312    0.122    5.552    9.466  109.289    0.439
  734.562    0.114    5.223    9.430  114.645    0.419
  734.812    0.118    4.832    9.376  119.112    0.430
  735.062    0.131    4.342    9.301  123.301    0.464
  735.312    0.162    4.017    9.189  123.649    0.494
  735.562    0.204    3.947    9.114  117.838    0.565
  735.812    0.211    4.450    9.060  111.138    0.567
  736.062    0.209    5.269    9.044   98.271    0.472
  736.312    0.201    6.640    9.009   75.713    0.359
  736.562    0.181    9.119    8.974   76.077    0.375
  736.812    0.196   10.204    8.959   77.314    0.377
  737.062    0.217   10.010    8.964   73.844    0.366
