~VERSION INFORMATION
 VERS.                 2.0:   CWLS LOG ASCII STANDARD -VERSION 2.0
 WRAP.                  NO:   ONE LINE PER DEPTH STEP
~WELL INFORMATION BLOCK
#MNEM.UNIT           DATA                    DESCRIPTION OF MNEMONIC
#---------    -------------------            -------------------------------
# Generated from Intellog Unique Number	CW_70_72/WELL/3750
NULL.         -999.25                        : NULL_VALUE
WELL.         NORCEN ENERGY RESOURCES LTD.   : Well_name    - WELL              
LOC .         00/10-22-071-05W5/0            : Location     - LOCATION          
UWI .         00/10-22-071-05W5/0            : Uwi          - UNIQUE WELL ID    
ENTR.         JOETTE                         : Entered      - ENTERED BY        
SRVC.         COMPUTALOG                     : Scn          - SERVICE COMPANY   
DATE.         05/13/92                       : Date         - LOG DATE          
STRT.M        610                            : top_depth    - START DEPTH       
STOP.M        835                            : bot_depth    - STOP DEPTH        
STEP.M        0.25                           : increment    - STEP LENGTH       
~CURVE INFORMATION BLOCK
#MNEM UNIT       ERCB CURVE CODE    CURVE DESCRIPTION
#-----------   ------------------   ----------------------------------
DEPT.M        00 001 00 00         : DEPTH        - DEPTH                       
DPHI.V/V      00 890 00 00         : PHID         - DENSITY POROSITY (SANDSTONE)
GR  .API      00 310 00 00         : GR           - GAMMA RAY                   
CALI.MM       00 280 01 00         : CAL          - CALIPER                     
ILD .OHMM     00 120 00 00         : RESD         - DEEP RESISTIVITY (DIL)      
NPHI.V/V      00 330 00 00         : PHIN         - NEUTRON POROSITY (SANDSTONE)
~PARAMETER INFORMATION       
#MNEM.UNIT           DATA             DESCRIPTION OF MNEMONIC
#---------         -----------     ------------------------------
GL  .M        778.85               : gl           - GROUND LEVEL ELEVATION      
EREF.M        782.2                : kb           - ELEVATION OF DEPTH REFERENCE
DATM.M        782.2                : datum        - DATUM ELEVATION             
TDD .M        874.9                : tdd          - TOTAL DEPTH DRILLER         
RUN .         ONE                  : Run          - RUN NUMBER                  
ENG .         BILL                 : Engineer     - RECORDING ENGINEER          
WIT .         JIM                  : Witness      - WITNESSED BY                
MUD .         GEL                  : Mud_type     - MUD TYPE                    
MATR.         SANDSTONE            : Logunit      - NEUTRON MATRIX              
TMAX.C        39                   : BHT          - MAXIMUM RECORDED TEMPERATURE
BHTD.M        874.9                : BHTDEP       - MAXIMUM RECORDED TEMPERATURE
MATR.         1                    : LOGUNIT      - NEUTRON MATRIX              
RMT .C        24.4                 : MDTP         - TEMPERATURE OF MUD          
NEUT.         1                    : NEUTRON      - NEUTRON TYPE                
RESI.         0                    : RESIST       - RESISTIVITY TYPE            
RMC .OHMM     2.7                  : RMC          - RESISTIVITY OF MUD CAKE     
RMF .OHMM     4.4                  : RMF          - RESISTIVITY OF MUD FILTRATE 
SUFT.C        15                   : SUFT         - SURFACE TEMPERATURE         
~A  DEPTH     PHID       GR      CAL     RESD     PHIN
# ...
  719.500    0.278   57.753  189.726    3.522    0.348
  719.750    0.280   58.428  189.782    3.662    0.360
  720.000    0.282   59.115  188.806    3.734    0.361
  720.250    0.280   59.159  187.848    3.808    0.352
  720.500    0.278   59.204  185.821    3.884    0.340
  720.750    0.278   57.988  183.812    3.886    0.336
  721.000    0.276   54.880  182.799    3.964    0.348
  721.250    0.274   53.663  183.943    3.966    0.367
  721.500    0.265   52.447  185.050    3.895    0.386
  721.750    0.264   52.492  188.315    3.822    0.381
  722.000    0.267   53.167  189.421    3.681    0.372
  722.250    0.273   53.831  191.598    3.614    0.357
  722.500    0.278   54.507  192.779    3.481    0.354
  722.750    0.278   55.812  192.835    3.416    0.354
  723.000    0.276   55.227  192.891    3.290    0.365
  723.250    0.272   54.641  191.934    3.230    0.364
  723.500    0.267   54.066  191.990    3.171    0.361
  723.750    0.263   56.622  192.046    3.113    0.366
  724.000    0.260   56.667  191.069    3.115    0.380
  724.250    0.264   53.559  191.162    3.177    0.378
  724.500    0.266   51.081  191.237    3.240    0.382
  724.750    0.256   50.495  191.330    3.305    0.401
  725.000    0.250   52.443  191.368    3.502    0.387
  725.250    0.247   51.857  191.442    3.571    0.371
  725.500    0.249   51.272  191.517    3.933    0.358
  725.750    0.252   52.577  191.610    4.011    0.363
  726.000    0.253   55.156  191.703    4.169    0.370
  726.250    0.254   57.711  191.759    4.172    0.366
  726.500    0.254   57.126  191.853    3.943    0.359
  726.750    0.254   55.909  191.927    3.869    0.351
  727.000    0.254   54.704  192.020    3.588    0.348
  727.250    0.254   54.107  192.076    3.521    0.355
  727.500    0.254   54.163  192.151    3.457    0.352
  727.750    0.259   54.827  191.175    3.394    0.347
  728.000    0.259   57.405  191.249    3.461    0.383
  728.250    0.260   59.342  191.324    3.530    0.383
  728.500    0.272   58.767  191.380    3.670    0.374
  728.750    0.265   58.790  190.441    3.965    0.361
  729.000    0.262   58.868  190.478    4.042    0.352
  729.250    0.266   58.271  189.539    4.285    0.357
  729.500    0.269   59.588  189.595    4.287    0.360
  729.750    0.271   60.883  189.651    4.372    0.358
  730.000    0.267   58.405  189.725    4.633    0.351
  730.250    0.260   56.558  189.837    5.100    0.348
  730.500    0.257   54.711  189.875    6.061    0.341
  730.750    0.197   52.876  191.019    6.423    0.331
  731.000    0.140   52.279  192.126    6.551    0.309
  731.250    0.040   51.682  196.423    6.432    0.208
  731.500    0.032   49.835  197.548    6.435    0.172
  731.750    0.037   48.618  198.674    6.198    0.180
  732.000    0.127   47.402  196.647    5.969    0.235
  732.250    0.195   49.969  194.638    5.748    0.268
  732.500    0.232   53.189  191.578    5.129    0.336
  732.750    0.273   54.484  189.532    4.665    0.347
  733.000    0.311   55.790  187.524    4.492    0.376
  733.250    0.289   55.846  186.529    4.245    0.398
  733.500    0.274   57.151  185.534    4.166    0.375
  733.750    0.260   58.457  184.595    4.014    0.377
  734.000    0.267   56.599  183.581    3.940    0.384
  734.250    0.286   54.752  183.656    3.867    0.381
  734.500    0.285   54.797  184.819    3.655    0.376
  734.750    0.280   54.842  185.926    3.520    0.361
  735.000    0.275   54.886  187.032    3.389    0.368
  735.250    0.271   54.931  189.228    3.264    0.368
  735.500    0.271   53.084  190.353    2.968    0.359
  735.750    0.275   51.868  191.516    2.751    0.361
  736.000    0.281   52.554  191.572    2.599    0.372
  736.250    0.286   56.371  191.646    2.503    0.388
  736.500    0.281   60.830  191.721    2.506    0.376
  736.750    0.272   61.505  191.796    2.507    0.373
  737.000    0.273   71.020  191.870    2.557    0.401
  737.250    0.280   71.707  190.875    2.558    0.409
  737.500    0.285   71.740  190.950    2.560    0.392
  737.750    0.280   71.154  191.043    2.561    0.381
  738.000    0.273   61.121  191.118    2.563    0.381
  738.250    0.274   63.677  192.225    2.565    0.388
  738.500    0.280   66.244  193.369    2.566    0.389
  738.750    0.282   64.397  194.494    2.568    0.386
  739.000    0.285   60.658  195.620    2.521    0.383
  739.250    0.287   60.703  195.676    2.475    0.384
  739.500    0.283   60.748  195.788    2.429    0.385
  739.750    0.278   61.434  195.862    2.384    0.389
  740.000    0.276   61.468  194.886    2.386    0.389
  740.250    0.279   61.535  194.961    2.387    0.386
  740.500    0.282   61.558  195.035    2.344    0.384
  740.750    0.283   61.602  194.059    2.345    0.384
  741.000    0.283   61.658  193.101    2.302    0.387
  741.250    0.278   61.692  193.157    2.304    0.396
  741.500    0.271   63.651  193.213    2.306    0.406
  741.750    0.269   63.695  193.288    2.307    0.422
  742.000    0.265   61.849  192.349    2.308    0.417
  742.250    0.264   64.415  192.423    2.309    0.388
  742.500    0.264   67.602  192.479    2.311    0.385
  742.750    0.263   72.691  192.554    2.312    0.394
  743.000    0.270   76.519  192.628    2.314    0.399
  743.250    0.277   70.258  192.703    2.315    0.395
  743.500    0.278   68.412  192.778    2.316    0.376
  743.750    0.277   70.990  192.852    2.318    0.380
  744.000    0.275   71.665  192.946    2.319    0.396
  744.250    0.272   71.079  193.039    2.321    0.407
  744.500    0.269   70.493  193.095    2.322    0.410
  744.750    0.271   68.647  193.151    2.324    0.398
  745.000    0.276   69.333  194.332    2.325    0.386
  745.250    0.277   69.997  194.388    2.326    0.383
  745.500    0.267   71.303  194.425    2.373    0.383
  745.750    0.265   73.251  194.537    2.375    0.387
  746.000    0.267   73.926  194.575    2.376    0.387
  746.250    0.266   71.449  194.668    2.423    0.385
  746.500    0.265   68.971  194.724    2.471    0.401
  746.750    0.259   67.124  194.798    2.520    0.406
  747.000    0.253   69.049  194.873    2.672    0.398
  747.250    0.248   74.139  194.948    2.777    0.405
  747.500    0.243   76.075  195.041    2.886    0.402
  747.750    0.223   73.598  195.116    3.059    0.392
  748.000    0.214   74.273  195.171    3.060    0.390
  748.250    0.224   79.385  195.302    3.123    0.397
  748.500    0.229   81.963  195.358    3.124    0.413
  748.750    0.223   82.627  195.414    3.066    0.417
  749.000    0.198   82.661  195.489    3.068    0.403
  749.250    0.191   82.075  195.582    3.071    0.394
  749.500    0.194   80.228  195.656    3.072    0.392
  749.750    0.196   81.534  195.712    3.075    0.393
  750.000    0.190   85.373  195.824    3.076    0.395
  750.250    0.200   82.254  195.880    3.078    0.400
  750.500    0.211   75.993  197.006    3.080    0.395
  750.750    0.216   72.254  197.080    3.141    0.392
  751.000    0.216   72.930  197.174    3.143    0.399
  751.250    0.221   76.127  197.211    3.145    0.403
  751.500    0.223   76.183  197.323    3.147    0.407
  751.750    0.225   75.597  196.309    3.089    0.401
  752.000    0.209   76.903  196.384    3.091    0.393
  752.250    0.208   80.101  195.426    3.034    0.392
  752.500    0.216   83.298  195.519    3.036    0.396
  752.750    0.206   87.768  195.594    3.097    0.402
  753.000    0.191   88.444  195.669    3.158    0.409
  753.250    0.180   86.597  196.775    3.412    0.414
  753.500    0.174   87.272  196.850    3.479    0.418
  753.750    0.172   88.567  197.994    3.618    0.406
  754.000    0.174   89.873  198.069    3.690    0.407
  754.250    0.178   91.179  198.143    3.692    0.409
  754.500    0.190   92.496  198.199    3.624    0.400
  754.750    0.209   91.279  198.274    3.490    0.395
  755.000    0.220   89.421  197.316    3.236    0.391
  755.250    0.238   85.052  197.391    3.176    0.395
  755.500    0.246   76.269  196.396    3.179    0.397
  755.750    0.249   73.802  196.470    3.180    0.389
