~VERSION INFORMATION
 VERS.                 2.0:   CWLS LOG ASCII STANDARD -VERSION 2.0
 WRAP.                  NO:   ONE LINE PER DEPTH STEP
~WELL INFORMATION BLOCK
#MNEM.UNIT           DATA                    DESCRIPTION OF MNEMONIC
#---------    -------------------            -------------------------------
# Generated from Intellog Unique Number	CN_91_93/WELL/2727
WELL.         PARAMOUNT RESOURCES LTD.       : Well_name    - WELL
LOC .         00/13-28-091-19W4/0            : Location     - LOCATION
UWI .         00/13-28-091-19W4/0            : Uwi          - UNIQUE WELL ID
ENTR.         JOETTE                         : Entered      - ENTERED BY
SRVC.         COMPUTALOG                     : Scn          - SERVICE COMPANY
DATE.         02/11/92                       : Date         - LOG DATE
STRT.M        100                            : top_depth    - START DEPTH
STOP.M        262                            : bot_depth    - STOP DEPTH
STEP.M        0.25                           : increment    - STEP LENGTH
 NULL. -999.2500:NULL Value
~CURVE INFORMATION BLOCK
#MNEM UNIT       ERCB CURVE CODE    CURVE DESCRIPTION
#-----------   ------------------   ----------------------------------
DEPT.M        00 001 00 00         : DEPTH        - DEPTH
GR  .API      00 310 00 00         : GR           - GAMMA RAY
CALI.MM       00 280 01 00         : CAL          - CALIPER
NPHI.V/V      00 330 00 00         : PHIN         - NEUTRON POROSITY (SANDSTONE)
DPHI.V/V      00 890 00 00         : PHID         - DENSITY POROSITY (SANDSTONE)
ILD .OHMM     00 120 00 00         : RESD         - DEEP RESISTIVITY (DIL)
~PARAMETER INFORMATION
#MNEM.UNIT           DATA             DESCRIPTION OF MNEMONIC
#---------         -----------     ------------------------------
GL  .M        535.6                : gl           - GROUND LEVEL ELEVATION
EREF.M        539                  : kb           - ELEVATION OF DEPTH REFERENCE
DATM.M        539                  : datum        - DATUM ELEVATION
TDD .M        263                  : tdd          - TOTAL DEPTH DRILLER
RUN .         ONE                  : Run          - RUN NUMBER
ENG .         BILL                 : Engineer     - RECORDING ENGINEER
WIT .         JIM                  : Witness      - WITNESSED BY
MUD .         GEL                  : Mud_type     - MUD TYPE
MATR.         SANDSTONE            : Logunit      - NEUTRON MATRIX
TMAX.C        15                   : BHT          - MAXIMUM RECORDED TEMPERATURE
BHTD.M        263                  : BHTDEP       - MAXIMUM RECORDED TEMPERATURE
RMT .C        7.8                  : MDTP         - TEMPERATURE OF MUD
MUDD.KG/M     1070                 : MWT          - MUD DENSITY
NEUT.         1                    : NEUTRON      - NEUTRON TYPE
RESI.         0                    : RESIST       - RESISTIVITY TYPE
RM  .OHMM     4.5                  : RM           - RESISTIVITY OF MUD
RMC .OHMM     4.5                  : RMC          - RESISTIVITY OF MUD CAKE
RMF .OHMM     4.5                  : RMF          - RESISTIVITY OF MUD FILTRATE
SUFT.C        4                    : SUFT         - SURFACE TEMPERATURE
~A  DEPTH       GR      CAL     PHIN     PHID     RESD
# ...
  173.000   91.889  161.201    0.371    0.163   14.509
  173.250   88.549  159.664    0.379    0.170   13.459
  173.500   87.023  158.617    0.364    0.206   12.721
  173.750   88.220  157.099    0.355    0.222   12.022
  174.000   91.836  156.071    0.356    0.234   11.683
  174.250   96.964  157.057    0.386    0.223   11.569
  174.500   96.346  159.552    0.400    0.217   11.562
  174.750   95.123  164.067    0.407    0.221   11.449
  175.000   98.132  171.605    0.407    0.219   10.820
  175.250  109.309  177.128    0.401    0.211    9.945
  175.500  112.622  175.593    0.406    0.210    8.971
  175.750  110.489  171.538    0.389    0.216    8.093
  176.000  106.547  165.464    0.338    0.206   10.401
  176.250   87.479  159.390    0.334    0.204   14.269
  176.500   74.762  153.823    0.333    0.228   17.834
  176.750   73.841  153.823    0.338    0.265   18.329
  177.000   76.550  153.266    0.358    0.253   15.204
  177.250   82.888  153.754    0.373    0.211   12.850
  177.500   89.225  154.233    0.391    0.172   11.810
  177.750   91.934  154.233    0.406    0.146   10.752
  178.000   91.008  154.698    0.417    0.161   10.067
  178.250   93.418  155.683    0.417    0.197    9.604
  178.500   99.453  161.206    0.400    0.210    9.422
  178.750  100.045  168.745    0.397    0.212    9.243
  179.000   99.427  166.202    0.401    0.218    9.151
  179.250  101.228  164.665    0.396    0.227    9.318
  179.500  102.122  167.160    0.398    0.218    9.489
  179.750   98.778  165.623    0.402    0.222    9.752
  180.000   96.347  162.576    0.405    0.216   10.306
  180.250   96.029  159.535    0.405    0.192   11.201
  180.500   98.740  158.502    0.406    0.164   11.201
  180.750   98.726  161.498    0.406    0.172   14.119
  181.000   96.292  159.966    0.399    0.177   16.690
  181.250   93.254  156.418    0.301    0.128   23.540
  181.500   89.611  152.865    0.293    0.061   23.978
  181.750   85.968  151.330    0.284    0.051   29.415
  182.000   82.626  151.815    0.271    0.040   31.377
  182.250   80.496  152.798    0.262    0.012   31.069
  182.500   78.668  152.798    0.270   -0.010   25.535
  182.750   77.445  153.750    0.305    0.026   24.133
  183.000   76.524  154.747    0.387    0.135   19.287
  183.250   76.511  154.725    0.389    0.174   15.704
  183.500   96.761  156.719    0.390    0.219   12.905
  183.750  104.610  168.290    0.398    0.220   12.905
  184.000  106.713  170.281    0.411    0.207   12.189
  184.250  107.606  167.736    0.394    0.196   10.595
  184.500  106.082  161.163    0.394    0.191    9.646
  184.750  107.275  173.231    0.406    0.182    9.032
  185.000  107.263  176.740    0.402    0.168    8.698
  185.250  107.251  177.728    0.408    0.159    8.144
  185.500  107.540  175.188    0.430    0.164    7.696
  185.750  108.735  171.131    0.434    0.175    7.342
  186.000  112.048  168.084    0.432    0.179    7.136
  186.250  113.850  166.549    0.419    0.176    7.066
  186.500  114.441  166.524    0.404    0.161    7.261
  186.750  113.821  171.039    0.393    0.149    7.261
  187.000  109.574  172.024    0.372    0.072    7.598
  187.250  101.396  167.970    0.386    0.046    9.149
  187.500   96.843  162.907    0.386    0.077    9.149
  187.750  106.511  159.356    0.358    0.091    9.574
  188.000  110.424  158.827    0.352    0.217   11.318
  188.250  110.717  159.810    0.352    0.204   11.962
  188.500  115.845  159.790    0.353    0.199   12.642
  188.750  113.412  159.790    0.347    0.197   13.611
  189.000  106.140  159.740    0.337    0.191   14.120
  189.250  103.702  159.723    0.304    0.164   14.120
  189.500  103.085  159.723    0.297    0.098   14.502
  189.750  100.654  159.679    0.299    0.072   15.329
  190.000   93.684  159.679    0.315    0.048   15.608
  190.250   91.856  160.127    0.332    0.116   15.599
  190.500  100.009  161.121    0.368    0.173   15.599
  190.750  108.160  162.605    0.394    0.188   15.149
  191.000  110.568  163.090    0.391    0.186   14.056
  191.250  111.761  163.054    0.397    0.183   11.879
  191.500  112.048  163.549    0.400    0.182   11.879
  191.750  112.340  165.036    0.392    0.178   11.538
  192.000  111.420  166.022    0.399    0.157   10.705
  192.250  107.473  167.011    0.400    0.143   10.117
  192.500  105.643  167.997    0.397    0.145   10.111
  192.750  105.934  169.988    0.395    0.170   10.200
  193.000  108.340  167.443    0.390    0.190   10.284
  193.250  111.350  164.900    0.369    0.182   10.476
  193.500  112.245  162.861    0.350    0.146   10.969
  193.750  104.973  161.831    0.339    0.124   13.209
  194.000  100.421  160.800    0.327    0.148   14.092
  194.250  102.221  160.778    0.322    0.180   16.811
  194.500  104.930  161.257    0.327    0.191   17.933
  194.750  107.334  161.744    0.338    0.215   17.590
  195.000  108.231  162.209    0.348    0.215   16.626
  195.250  109.124  162.201    0.350    0.219   15.566
  195.500  109.414  162.201    0.349    0.225   15.264
  195.750  107.887  162.647    0.350    0.227   14.982
  196.000  106.358  162.638    0.357    0.223   14.982
  196.250  106.348  162.613    0.381    0.212   14.281
  196.500  106.940  162.574    0.384    0.188   13.881
  196.750  108.739  162.568    0.383    0.168   13.739
  197.000  110.845  163.050    0.372    0.182   13.737
  197.250  112.948  165.044    0.358    0.194   13.730
  197.500  113.841  166.529    0.341    0.174   13.980
  197.750  107.173  162.476    0.323    0.151   14.913
  198.000   99.596  158.419    0.310    0.127   16.205
  198.250   96.862  154.868    0.324    0.156   16.503
  198.500   95.034  153.333    0.348    0.180   15.742
  198.750   97.138  155.325    0.366    0.197   14.739
  199.000  100.451  159.340    0.378    0.197   14.063
  199.250  107.392  170.408    0.366    0.171   13.415
  199.500  111.008  174.922    0.363    0.145   12.678
  199.750  112.205  171.873    0.369    0.127   12.322
  200.000  104.225  166.527    0.366    0.149   10.044
  200.250  109.077  163.476    0.353    0.166    9.788
  200.500  111.499  164.981    0.350    0.179    9.540
  200.750  110.582  163.449    0.343    0.105    9.540
  201.000  104.192  160.398    0.338    0.063    9.535
  201.250   96.587  155.827    0.336    0.087    9.613
  201.500   89.896  155.306    0.367    0.143    7.708
  201.750   87.457  162.891    0.394    0.177    6.340
  202.000  109.632  167.943    0.415    0.224    5.923
  202.250  122.994  169.446    0.446    0.199    5.486
  202.500  122.681  166.395    0.444    0.200    5.301
  202.750  114.166  161.316    0.430    0.186    5.672
  203.000  108.688  159.281    0.406    0.168    6.833
  203.250  110.807  159.267    0.390    0.132    7.066
  203.500  110.495  159.762    0.374    0.095    7.497
  203.750  104.715  160.254    0.385    0.109    7.754
  204.000  102.884  159.230    0.399    0.152    7.951
  204.250  103.484  157.695    0.410    0.166    7.949
  204.500  111.680  158.696    0.423    0.181    7.747
  204.750  117.446  160.203    0.426    0.185    7.550
  205.000  120.477  161.709    0.414    0.189    7.420
  205.250  119.862  161.697    0.409    0.196    7.482
  205.500  111.346  159.655    0.381    0.134    7.803
  205.750  104.651  156.604    0.336    0.097    9.322
  206.000  101.302  154.059    0.334    0.037   10.949
  206.250   97.040  153.033    0.339    0.107   11.714
  206.500  103.718  153.528    0.352    0.158   12.323
  206.750  105.531  154.527    0.366    0.187   12.637
  207.000  108.259  155.021    0.384    0.160   12.420
  207.250  110.075  155.006    0.385    0.147   11.901
  207.500  111.284  154.995    0.373    0.138   11.901
  207.750  110.970  153.969    0.361    0.181   11.693
  208.000  110.052  152.942    0.355    0.199   11.690
  208.250  112.475  155.462    0.344    0.195   11.786
  208.500  110.036  153.931    0.344    0.187   12.086
  208.750  106.686  153.412    0.348    0.181   12.290
  209.000  106.678  154.917    0.361    0.177   12.496
  209.250  107.886  153.383    0.363    0.152   12.815
