~VERSION INFORMATION
 VERS.                 2.0:   CWLS LOG ASCII STANDARD -VERSION 2.0
 WRAP.                  NO:   ONE LINE PER DEPTH STEP
~WELL INFORMATION BLOCK
#MNEM.UNIT           DATA                    DESCRIPTION OF MNEMONIC
#---------    -------------------            -------------------------------
# Generated from Intellog Unique Number	CX_WELLS/WELL/2787
WELL.         10-26-088-16W4                 : Well_name    - WELL
LOC .         00/10-26-081-10W4/0            : Location     - LOCATION
UWI .         00/10-26-081-10W400            : Uwi          - UNIQUE WELL ID
ENTR.         T                              : Entered      - ENTERED BY
SRVC.         SCHLUMBERGER                   : Scn          - SERVICE COMPANY
STRT.F        850                            : top_depth    - START DEPTH
STOP.F        1589.83                        : bot_depth    - STOP DEPTH
STEP.F        0.82                           : increment    - STEP LENGTH
 NULL. -999.2500:NULL Value
~CURVE INFORMATION BLOCK
#MNEM UNIT       ERCB CURVE CODE    CURVE DESCRIPTION
#-----------   ------------------   ----------------------------------
DEPT.F        00 001 00 00         : DEPTH        - DEPTH
GR  .API      00 310 00 00         : GR           - GAMMA RAY
DPHI.V/V      00 890 00 00         : PHID         - DENSITY POROSITY (SANDSTONE)
ILD .OHMM     00 120 00 00         : RESD         - DEEP RESISTIVITY (OTHER)
~PARAMETER INFORMATION
#MNEM.UNIT           DATA             DESCRIPTION OF MNEMONIC
#---------         -----------     ------------------------------
GL  .F        2316                 : gl           - GROUND LEVEL ELEVATION
EREF.F        2327                 : kb           - ELEVATION OF DEPTH REFERENCE
DATM.F        2327                 : datum        - DATUM ELEVATION
TDD .F        1610                 : tdd          - TOTAL DEPTH DRILLER
RUN .         ONE                  : Run          - RUN NUMBER
ENG .         BILL                 : Engineer     - RECORDING ENGINEER
WIT .         JIM                  : Witness      - WITNESSED BY
MUD .         GEL                  : Mud_type     - MUD TYPE
MATR.         SANDSTONE            : Logunit      - NEUTRON MATRIX
TMAX.F        69                   : BHT          - MAXIMUM RECORDED TEMPERATURE
BHTD.F        1610                 : BHTDEP       - MAXIMUM RECORDED TEMPERATURE
MATR.         1                    : LOGUNIT      - NEUTRON MATRIX
RMT .F        45                   : MDTP         - TEMPERATURE OF MUD
NEUT.         1                    : NEUTRON      - NEUTRON TYPE
RESI.         2                    : RESIST       - RESISTIVITY TYPE
RMC .OHMM     2                    : RMC          - RESISTIVITY OF MUD CAKE
RMF .OHMM     2                    : RMF          - RESISTIVITY OF MUD FILTRATE
SUFT.F        32                   : SUFT         - SURFACE TEMPERATURE
~A  DEPTH       GR     PHID     RESD
  850.000   90.520    0.309    2.930
  850.820   88.163    0.302    2.931
  851.640   85.798    0.293    2.933
  852.461   86.430    0.284    2.936
  853.281   87.053    0.277    2.939
  854.101   88.891    0.269    2.941
  854.921   88.324    0.267    2.943
  855.741   88.349    0.266    3.002
  856.562   91.394    0.263    3.003
  857.382   93.224    0.260    3.063
  858.202   92.049    0.255    3.066
  859.022   87.886    0.250    3.067
  859.843   84.922    0.249    3.128
  860.663   83.164    0.252    3.130
  861.483   83.796    0.253    3.193
  862.303   88.023    0.255    3.256
  863.123   92.251    0.244    3.385
  863.944   92.890    0.234    3.517
  864.764   89.934    0.216    3.518
  865.584   88.759    0.207    3.588
  866.404   88.184    0.204    3.660
  867.224   88.832    0.208    3.733
  868.045   88.864    0.211    3.735
  868.865   88.896    0.217    3.809
  869.685   88.920    0.227    3.885
  870.505   88.353    0.240    3.887
  871.325   85.988    0.250    3.890
  872.146   83.024    0.257    3.894
  872.966   77.662    0.254    3.897
  873.786   78.294    0.252    3.900
  874.606   84.335    0.252    3.902
  875.427   83.768    0.257    3.832
  876.247   81.994    0.268    3.693
  877.067   78.431    0.282    3.493
  877.887   74.268    0.294    3.630
  878.707   68.906    0.309    3.844
  879.528   61.747    0.322    4.733
  880.348   61.180    0.327    5.719
  881.168   63.609    0.325    7.739
  881.988   66.055    0.284    9.710
  882.808   66.694    0.280   10.091
  883.629   66.718    0.291    9.366
  884.449   65.560    0.312    8.856
  885.269   64.377    0.339    8.377
  886.089   60.822    0.347    9.212
  886.909   57.250    0.358   10.923
  887.730   53.095    0.362   12.952
  888.550   53.119    0.356   14.245
  889.370   53.767    0.347   15.088
  890.190   56.796    0.338   15.386
  891.010   60.416    0.314   14.010
  891.831   63.445    0.305   11.834
  892.651   64.675    0.314   10.776
  893.471   65.331    0.337   10.191
  894.291   64.748    0.359   10.010
  895.112   59.386    0.385   10.602
  895.932   57.021    0.399   11.015
  896.752   59.467    0.421   12.343
  897.572   61.281    0.441   13.831
  898.392   64.917    0.415   14.928
  899.213   68.553    0.362   13.857
  900.033   72.181    0.297   12.857
  900.853   75.809    0.253   11.068
  901.673   77.640    0.282   10.078
  902.493   72.270    0.320    8.838
  903.314   51.925    0.347    9.013
  904.134   44.167    0.360    9.726
  904.954   37.606    0.374   11.318
  905.774   39.445    0.366   13.680
  906.594   41.275    0.360   15.918
  907.415   41.906    0.356   17.838
  908.235   43.145    0.350   17.521
  909.055   44.376    0.343   16.882
  909.875   45.008    0.337   16.269
  910.696   47.429    0.335   15.386
  911.516   52.863    0.326   14.830
  912.336   58.297    0.295   13.763
  913.156   61.917    0.285   13.014
  913.976   66.153    0.269   12.077
  914.797   66.185    0.248   11.421
  915.617   66.217    0.228   10.406
  916.437   67.456    0.228   10.028
  917.257   66.897    0.239    9.848
  918.077   65.714    0.235    9.855
  918.898   63.357    0.263    9.862
  919.718   62.183    0.329   10.057
  920.538   60.433    0.345   10.254
  921.358   59.858    0.358   11.280
  922.178   58.100    0.350   11.720
  922.999   57.525    0.342   12.652
  923.819   58.165    0.340   13.148
  924.639   59.388    0.347   13.660
  925.459   61.817    0.351   14.198
  926.280   63.048    0.354   14.479
  927.100   63.688    0.356   14.768
  927.920   63.720    0.356   14.773
  928.740   64.359    0.355   15.065
  929.560   65.598    0.353   15.363
  930.381   66.813    0.353   15.377
  931.201   69.251    0.357   15.684
  932.021   71.680    0.369   15.997
  932.841   74.109    0.367   16.003
  933.661   75.340    0.349   16.320
  934.482   71.185    0.347   16.331
  935.302   68.812    0.340   16.352
  936.122   66.455    0.337   16.056
  936.942   68.893    0.329   15.768
  937.762   70.715    0.324   15.485
  938.583   73.752    0.323   14.925
  939.403   74.975    0.322   14.655
  940.223   78.611    0.317   14.389
  941.043   81.632    0.311   13.869
  941.864   85.268    0.293   13.368
  942.684   89.495    0.291   12.883
  943.504   88.928    0.286   12.184
  944.324   84.765    0.281   11.307
  945.144   81.201    0.271   10.895
  945.965   80.634    0.262    9.924
  946.785   81.865    0.252    9.038
  947.605   86.716    0.238    8.547
  948.425   88.530    0.202    7.932
  949.245   92.158    0.154    7.363
  950.066   94.588    0.157    6.962
  950.886  100.022    0.199    6.463
  951.706  103.050    0.221    6.112
  952.526  103.083    0.219    5.889
  953.346  103.123    0.217    5.365
  954.167  103.147    0.217    5.072
  954.987  102.580    0.216    4.620
  955.807  106.224    0.217    4.129
  956.627  108.054    0.223    3.761
  957.448  107.487    0.256    3.624
  958.268  106.912    0.270    3.558
  959.088  103.948    0.290    3.840
  959.908  100.384    0.316    4.386
  960.728   90.228    0.332    4.733
  961.549   82.469    0.339    5.507
  962.369   80.703    0.332    6.781
  963.189   79.537    0.308    8.195
  964.009   77.771    0.302    9.536
  964.829   76.005    0.309   10.486
  965.650   76.062    0.317   11.315
  966.470   76.078    0.335   11.323
  967.290   75.519    0.337   10.915
  968.110   74.952    0.315   10.326
  968.930   77.973    0.292    9.949
  969.751   90.606    0.263    9.586
  970.571   94.234    0.257    8.734
  971.391   97.863    0.251    8.260
  972.211  102.689    0.251    7.810
  973.031  103.928    0.258    7.112
  973.852  102.171    0.273    6.986
  974.672  100.397    0.300    6.991
  975.492   99.222    0.309    7.129
  976.312   96.266    0.322    7.270
  977.133   93.893    0.335    7.554
  977.953   89.131    0.343    8.310
  978.773   82.579    0.328    8.798
  979.593   78.407    0.297    9.676
  980.413   75.459    0.285   10.245
  981.234   77.873    0.278   10.849
  982.054   82.715    0.278   11.276
  982.874   84.546    0.281   11.718
  983.694   84.578    0.285   11.726
  984.514   83.411    0.299   10.681
  985.335   81.038    0.318    9.911
  986.155   75.077    0.345    9.373
  986.975   69.716    0.356    9.558
  987.795   68.566    0.333    9.936
  988.615   69.796    0.313   10.131
  989.436   71.635    0.290   10.331
  990.256   72.849    0.288   10.148
  991.076   75.287    0.282    9.964
  991.896   77.125    0.270    9.604
  992.717   78.340    0.260    9.086
  993.537   83.782    0.251    8.919
  994.357   88.009    0.250    8.597
  995.177   92.229    0.249    8.131
  995.997   95.865    0.248    7.689
  996.818   97.096    0.245    7.136
  997.638   97.128    0.243    6.876
  998.458   95.961    0.243    6.381
  999.278   94.803    0.243    6.761
 1000.100   93.637    0.242    7.024
 1000.920   91.871    0.247    7.162
 1001.740   90.105    0.253    7.304
 1002.560   87.740    0.258    7.448
 1003.380   85.383    0.267    8.040
 1004.200   83.618    0.270    8.841
 1005.020   83.650    0.268    9.722
 1005.840   86.071    0.263   10.489
 1006.660   90.299    0.258   10.109
 1007.480   93.335    0.257    8.703
 1008.300   96.364    0.256    8.229
 1009.120   96.396    0.258    7.496
 1009.940   92.849    0.264    7.939
 1010.760   91.067    0.268    8.093
 1011.580   87.503    0.268    8.412
 1012.400   85.138    0.261    8.417
 1013.220   82.174    0.250    8.746
 1014.040   78.610    0.237    8.754
 1014.860   73.856    0.241    8.761
 1015.680   73.281    0.256    8.769
 1016.500   75.127    0.279    8.774
 1017.320   75.167    0.305    9.294
 1018.140   75.183    0.312    9.475
 1018.960   73.418    0.325   10.037
 1019.780   69.255    0.338   10.831
 1020.600   62.695    0.347   11.467
 1021.420   57.932    0.358   12.377
 1022.240   51.971    0.369   13.106
 1023.060   50.206    0.369   14.692
 1023.880   49.039    0.367   15.268
 1024.700   49.072    0.367   15.863
 1025.520   49.719    0.369   16.481
 1026.350   49.751    0.370   17.127
 1027.170   49.783    0.371   17.469
