~VERSION INFORMATION
 VERS.                 2.0:   CWLS LOG ASCII STANDARD -VERSION 2.0
 WRAP.                  NO:   ONE LINE PER DEPTH STEP
~WELL INFORMATION BLOCK
#MNEM.UNIT           DATA                    DESCRIPTION OF MNEMONIC
#---------    -------------------            -------------------------------
# Generated from Intellog Unique Number	CS_67_68/WELL/862
WELL.         AEC FISH CREEK                 : Well_name    - WELL
LOC .         00/16-21-068-08W4/0            : Location     - LOCATION
UWI .         00/16-21-068-08W4/0            : Uwi          - UNIQUE WELL ID
ENTR.         SP                             : Entered      - ENTERED BY
SRVC.         SCHLUMBERGER                   : Scn          - SERVICE COMPANY
STRT.M        320                            : top_depth    - START DEPTH
STOP.M        555                            : bot_depth    - STOP DEPTH
STEP.M        0.25                           : increment    - STEP LENGTH
 NULL. -999.2500:NULL Value
~CURVE INFORMATION BLOCK
#MNEM UNIT       ERCB CURVE CODE    CURVE DESCRIPTION
#-----------   ------------------   ----------------------------------
DEPT.M        00 001 00 00         : DEPTH        - DEPTH
ILD .OHMM     00 120 00 00         : RESD         - DEEP RESISTIVITY (DIL)
DPHI.V/V      00 890 00 00         : PHID         - DENSITY POROSITY (LIMESTONE)
NPHI.V/V      00 330 00 00         : PHIN         - NEUTRON POROSITY (LIMESTONE)
GR  .API      00 310 00 00         : GR           - GAMMA RAY
~PARAMETER INFORMATION
#MNEM.UNIT           DATA             DESCRIPTION OF MNEMONIC
#---------         -----------     ------------------------------
GL  .M        646.55               : gl           - GROUND LEVEL ELEVATION
EREF.M        649.8                : kb           - ELEVATION OF DEPTH REFERENCE
DATM.M        646.55               : datum        - DATUM ELEVATION
TDD .M        561                  : tdd          - TOTAL DEPTH DRILLER
RUN .         ONE                  : Run          - RUN NUMBER
ENG .         BILL                 : Engineer     - RECORDING ENGINEER
WIT .         JIM                  : Witness      - WITNESSED BY
MUD .         GEL                  : Mud_type     - MUD TYPE
MATR.         LIMESTONE            : Logunit      - NEUTRON MATRIX
TMAX.C        25                   : BHT          - MAXIMUM RECORDED TEMPERATURE
BHTD.M        561                  : BHTDEP       - MAXIMUM RECORDED TEMPERATURE
MATR.         1                    : LOGUNIT      - NEUTRON MATRIX
RMT .C        25                   : MDTP         - TEMPERATURE OF MUD
NEUT.         1                    : NEUTRON      - NEUTRON TYPE
RESI.         0                    : RESIST       - RESISTIVITY TYPE
RMC .OHMM     0.25                 : RMC          - RESISTIVITY OF MUD CAKE
RMF .OHMM     0.25                 : RMF          - RESISTIVITY OF MUD FILTRATE
SUFT.C        15                   : SUFT         - SURFACE TEMPERATURE
~A  DEPTH     RESD     PHID     PHIN       GR
  320.000    2.975    0.244    0.446  117.007
  320.250    2.970    0.244    0.438  112.711
  320.500    3.004    0.243    0.429  108.606
  320.750    3.079    0.234    0.417  110.433
  321.000    3.120    0.236    0.419  115.546
  321.250    3.162    0.219    0.439  113.044
  321.500    3.174    0.202    0.439  108.871
  321.750    3.163    0.209    0.435  105.806
  322.000    3.134    0.232    0.436  105.171
  322.250    3.105    0.236    0.440  108.920
  322.500    3.082    0.241    0.465  110.749
  322.750    3.014    0.268    0.478  106.701
  323.000    2.914    0.284    0.484  104.569
  323.250    2.860    0.298    0.480  111.843
  323.500    2.801    0.286    0.482  114.914
  323.750    2.791    0.280    0.485  114.951
  324.000    2.792    0.274    0.472  110.532
  324.250    2.782    0.270    0.470  112.113
  324.500    2.782    0.271    0.448  117.407
  324.750    2.767    0.274    0.433  118.003
  325.000    2.731    0.267    0.436  114.450
  325.250    2.706    0.268    0.447  119.931
  325.500    2.676    0.273    0.458  112.788
  325.750    2.592    0.283    0.467  107.071
  326.000    2.558    0.290    0.470  107.106
  326.250    2.947    0.282    0.438  104.913
  326.500    3.736    0.285    0.402   97.833
  326.750    4.711    0.310    0.325   89.515
  327.000    5.828    0.343    0.290   78.847
  327.250    7.293    0.383    0.276   66.631
  327.500    8.690    0.404    0.269   64.007
  327.750   10.957    0.419    0.262   67.322
  328.000   11.552    0.422    0.260   66.117
  328.250   10.736    0.417    0.279   63.061
  328.500   10.167    0.411    0.299   62.231
  328.750    9.289    0.404    0.308   65.856
  329.000    8.488    0.397    0.309   70.278
  329.250    7.785    0.403    0.324   74.584
  329.500    7.235    0.382    0.358   77.039
  329.750    6.648    0.361    0.399   78.746
  330.000    5.839    0.341    0.422   77.790
  330.250    5.519    0.348    0.403   77.947
  330.500    5.139    0.359    0.392   78.296
  330.750    4.876    0.348    0.412   77.961
  331.000    4.687    0.328    0.435   78.738
  331.250    4.464    0.320    0.457   80.201
  331.500    4.316    0.326    0.453   74.667
  331.750    4.260    0.330    0.432   68.391
  332.000    4.261    0.320    0.409   63.846
  332.250    4.285    0.314    0.416   64.379
  332.500    4.319    0.314    0.425   68.500
  332.750    4.344    0.323    0.432   70.513
  333.000    4.328    0.331    0.441   70.675
  333.250    4.369    0.327    0.445   69.411
  333.500    4.403    0.333    0.436   67.095
  333.750    4.462    0.358    0.447   61.501
  334.000    4.531    0.374    0.462   57.514
  334.250    4.583    0.356    0.455   62.439
  334.500    4.644    0.328    0.438   60.678
  334.750    4.671    0.305    0.455   56.629
  335.000    4.646    0.312    0.479   54.130
  335.250    4.526    0.328    0.437   56.085
  335.500    4.400    0.339    0.401   59.648
  335.750    4.327    0.322    0.391   63.583
  336.000    4.295    0.310    0.416   66.465
  336.250    4.280    0.314    0.432   68.110
  336.500    4.296    0.299    0.418   68.146
  336.750    4.321    0.264    0.407   59.766
  337.000    4.355    0.279    0.433   65.185
  337.250    4.421    0.317    0.435   68.934
  337.500    4.472    0.338    0.432   64.328
  337.750    4.473    0.355    0.436   66.901
  338.000    4.382    0.371    0.440   71.950
  338.250    4.237    0.393    0.456   73.036
  338.500    4.088    0.395    0.471   70.103
  338.750    3.938    0.383    0.454   62.837
  339.000    3.843    0.375    0.440   59.404
  339.250    3.765    0.367    0.436   67.114
  339.500    3.681    0.366    0.431   71.547
  339.750    3.661    0.368    0.427   73.064
  340.000    3.676    0.370    0.425   73.159
  340.250    3.732    0.372    0.421   70.478
  340.500    3.768    0.372    0.416   63.644
  340.750    3.768    0.369    0.429   61.763
  341.000    3.769    0.362    0.438   67.428
  341.250    3.769    0.356    0.426   69.013
  341.500    3.798    0.361    0.405   67.440
  341.750    3.835    0.370    0.410   72.054
  342.000    3.923    0.356    0.435   76.787
  342.250    4.006    0.346    0.443   79.487
  342.500    4.083    0.339    0.428   77.915
  342.750    4.145    0.333    0.417   77.520
  343.000    4.217    0.312    0.404   86.838
  343.250    4.233    0.288    0.394   99.928
  343.500    4.163    0.265    0.418  108.319
  343.750    4.002    0.246    0.412  115.223
  344.000    3.847    0.235    0.408  119.096
  344.250    3.734    0.238    0.426  115.786
  344.500    3.658    0.241    0.449  114.030
  344.750    3.590    0.240    0.444  113.821
  345.000    3.550    0.247    0.443  114.228
  345.250    3.524    0.252    0.433  115.932
  345.500    3.505    0.259    0.418  120.859
  345.750    3.486    0.263    0.407  123.802
  346.000    3.473    0.243    0.414  121.981
  346.250    3.480    0.228    0.408  119.106
  346.500    3.520    0.225    0.400  115.308
  346.750    3.642    0.231    0.406  111.508
  347.000    3.698    0.239    0.413  110.183
  347.250    3.712    0.247    0.422  111.825
  347.500    3.713    0.255    0.434  114.463
  347.750    3.742    0.238    0.425  117.467
  348.000    3.806    0.220    0.403  114.101
  348.250    3.975    0.218    0.385  107.144
  348.500    4.144    0.226    0.398  101.859
  348.750    4.312    0.237    0.430  100.780
  349.000    4.444    0.241    0.418  105.088
  349.250    4.538    0.242    0.397  104.625
  349.500    4.660    0.245    0.386  103.551
  349.750    4.696    0.248    0.388  102.596
  350.000    4.626    0.252    0.389  101.021
  350.250    4.540    0.257    0.394  108.356
  350.500    4.423    0.270    0.399  113.224
  350.750    4.391    0.287    0.385  103.421
  351.000    4.433    0.298    0.370   89.283
  351.250    4.475    0.294    0.373   73.356
  351.500    4.561    0.267    0.361   63.740
  351.750    4.684    0.252    0.368   76.585
  352.000    4.827    0.241    0.386   88.870
  352.250    4.957    0.253    0.383   86.802
  352.500    5.024    0.273    0.365   80.094
  352.750    5.072    0.290    0.357   77.410
  353.000    5.092    0.286    0.362   68.224
  353.250    5.073    0.270    0.349   63.744
  353.500    5.084    0.255    0.348   75.228
  353.750    5.094    0.247    0.359   81.200
  354.000    5.124    0.250    0.374   83.340
  354.250    5.144    0.255    0.390   79.853
  354.500    5.145    0.251    0.396   91.271
  354.750    5.097    0.243    0.393  106.159
  355.000    5.041    0.233    0.399  114.240
  355.250    4.901    0.224    0.413  124.857
  355.500    4.801    0.221    0.420  128.173
  355.750    4.748    0.225    0.426  123.073
  356.000    4.678    0.227    0.450  120.572
  356.250    4.652    0.225    0.435  117.823
  356.500    4.679    0.217    0.414  109.691
  356.750    4.706    0.207    0.400  102.052
  357.000    4.779    0.198    0.386   97.697
  357.250    4.898    0.188    0.375   99.897
  357.500    4.963    0.194    0.371  107.977
  357.750    5.039    0.203    0.373  112.654
  358.000    5.078    0.202    0.374  115.537
  358.250    5.079    0.196    0.374  116.997
  358.500    5.023    0.193    0.388  116.287
  358.750    4.958    0.194    0.401  115.459
  359.000    4.921    0.198    0.397  114.319
  359.250    4.885    0.210    0.412  111.879
  359.500    4.840    0.217    0.425  107.952
  359.750    4.814    0.222    0.417  105.391
  360.000    4.778    0.214    0.411  103.942
  360.250    4.734    0.204    0.410  103.669
  360.500    4.673    0.193    0.404  112.302
  360.750    4.638    0.196    0.411  116.366
  361.000    4.622    0.202    0.428  121.288
  361.250    4.614    0.205    0.439  124.604
  361.500    4.641    0.207    0.426  126.127
  361.750    4.659    0.207    0.410  123.438
  362.000    4.659    0.208    0.394  118.089
  362.250    4.651    0.209    0.414  116.953
  362.500    4.661    0.212    0.423  112.280
  362.750    4.661    0.221    0.441  115.291
  363.000    4.653    0.238    0.454  122.256
  363.250    4.602    0.250    0.435  125.635
