~VERSION INFORMATION
 VERS.                 2.0:   CWLS LOG ASCII STANDARD -VERSION 2.0
 WRAP.                  NO:   ONE LINE PER DEPTH STEP
~WELL INFORMATION BLOCK
#MNEM.UNIT           DATA                    DESCRIPTION OF MNEMONIC
#---------    -------------------            -------------------------------
# Generated from Intellog Unique Number	CW_76_78/WELL/2803
WELL.         10-04-078-01W5                 : Well_name    - WELL
LOC .         00/10-04-078-01W5/0            : Location     - LOCATION
UWI .         00/10-04-078-01W5/0            : Uwi          - UNIQUE WELL ID
ENTR.         JJ                             : Entered      - ENTERED BY
SRVC.         WESTERN ATLAS                  : Scn          - SERVICE COMPANY
DATE.         21 JAN 73                      : Date         - LOG DATE
STRT.M        398.069                        : top_depth    - START DEPTH
STOP.M        526.069                        : bot_depth    - STOP DEPTH
STEP.M        0.25                           : increment    - STEP LENGTH
 NULL. -999.2500:NULL Value
~CURVE INFORMATION BLOCK
#MNEM UNIT       ERCB CURVE CODE    CURVE DESCRIPTION
#-----------   ------------------   ----------------------------------
DEPT.M        00 001 00 00         : DEPTH        - DEPTH
DELT.US/F     00 520 00 00         : DELT         - SONIC TRAVEL TIME
GR  .API      00 310 00 00         : GR           - GAMMA RAY
ILD .OHMM     00 120 00 00         : RESD         - DEEP RESISTIVITY (DIL)
~PARAMETER INFORMATION
#MNEM.UNIT           DATA             DESCRIPTION OF MNEMONIC
#---------         -----------     ------------------------------
GL  .M        613.41               : gl           - GROUND LEVEL ELEVATION
EREF.M        617.311              : kb           - ELEVATION OF DEPTH REFERENCE
DATM.M        613.41               : datum        - DATUM ELEVATION
TDD .M        529.133              : tdd          - TOTAL DEPTH DRILLER
RUN .         ONE                  : Run          - RUN NUMBER
ENG .         DUNCAN               : Engineer     - RECORDING ENGINEER
WIT .         GRIGGS-KIRKPATRICK   : Witness      - WITNESSED BY
BASE.         R.D.                 : Branch       - HOME BASE OF LOGGING UNIT
MUD .         GEL                  : Mud_type     - MUD TYPE
MATR.         SANDSTONE            : Logunit      - NEUTRON MATRIX
TMAX.C        24.4444              : BHT          - MAXIMUM RECORDED TEMPERATURE
BHTD.M        527.609              : BHTDEP       - MAXIMUM RECORDED TEMPERATURE
RMT .C        15.5556              : MDTP         - TEMPERATURE OF MUD
MUDD.KG/M     1224                 : MWT          - MUD DENSITY
NEUT.         1                    : NEUTRON      - NEUTRON TYPE
RESI.         0                    : RESIST       - RESISTIVITY TYPE
RM  .OHMM     5.1                  : RM           - RESISTIVITY OF MUD
RMC .OHMM     4.5                  : RMC          - RESISTIVITY OF MUD CAKE
RMF .OHMM     5.8                  : RMF          - RESISTIVITY OF MUD FILTRATE
SUFT.C        5                    : SUFT         - SURFACE TEMPERATURE
~A  DEPTH     DELT       GR     RESD
# ...
  452.319  306.654   63.753   26.840
  452.569  261.094   56.713   33.306
  452.819  240.758   54.270   37.369
  453.069  230.191   56.576   38.100
  453.319  256.343   60.060   37.377
  453.569  322.109   62.418   34.635
  453.819  354.438   63.038   30.156
  454.069  383.777   65.595   24.627
  454.319  392.293   68.752   19.805
  454.569  383.572   73.711   16.012
  454.819  383.939   75.561   14.481
  455.069  386.113   70.040   13.314
  455.319  379.621   66.251   15.580
  455.569  371.648   68.494   20.370
  455.819  357.470   66.911   25.948
  456.069  329.554   63.317   29.930
  456.319  336.256   63.346   30.419
  456.569  351.419   63.994   28.808
  456.819  327.664   66.943   25.762
  457.069  343.186   69.882   22.213
  457.319  362.896   71.394   19.228
  457.569  367.485   67.705   17.394
  457.819  364.760   66.866   16.288
  458.069  369.209   69.637   15.241
  458.319  364.093   72.552   14.175
  458.569  361.439   76.089   13.492
  458.819  359.004   75.409   13.699
  459.069  369.038   72.539   15.137
  459.319  375.468   75.058   15.949
  459.569  373.009   73.464   16.316
  459.819  375.878   75.557   16.360
  460.069  371.837   78.409   15.861
  460.319  361.949   75.874   15.500
  460.569  353.902   78.929   14.838
  460.819  344.848   78.624   14.074
  461.069  350.208   77.986   13.049
  461.319  353.544   81.630   12.487
  461.569  367.794   88.251   12.047
  461.819  376.459   90.513   11.647
  462.069  372.601   84.712   11.490
  462.319  372.121   78.841   11.837
  462.569  375.462   78.990   12.003
  462.819  373.086   81.216   11.704
  463.069  372.697   77.587   11.608
  463.319  369.339   75.464   11.652
  463.569  360.487   77.048   12.120
  463.819  353.580   76.683   13.255
  464.069  359.074   79.216   14.147
  464.319  364.830   83.757   14.757
  464.569  363.793   85.444   14.762
  464.819  361.424   81.254   13.937
  465.069  368.008   81.980   12.326
  465.319  367.640   83.841   11.320
  465.569  370.786   84.428   10.335
  465.819  373.746   86.485    9.410
  466.069  372.937   82.311    8.808
  466.319  369.690   77.751    8.853
  466.569  371.013   78.656    9.119
  466.819  372.214   79.558    9.406
  467.069  366.861   77.245    9.612
  467.319  368.358   81.647    9.677
  467.569  368.272   83.084    9.863
  467.819  359.661   84.527   10.028
  468.069  360.711   87.500    9.891
  468.319  359.283   86.282    9.350
  468.569  351.583   85.075    8.526
  468.819  348.345   81.830    7.924
  469.069  368.378   83.760    7.524
  469.319  370.025   88.281    7.084
  469.569  376.326   92.140    6.927
  469.819  374.239   95.820    6.931
  470.069  366.436   90.965    7.116
  470.319  363.747   88.645    7.504
  470.569  356.510   88.012    7.872
  470.819  347.216   82.116    8.300
  471.069  336.786   83.945    8.991
  471.319  327.614   84.551    9.479
  471.569  334.623   82.849    9.746
  471.819  340.933   83.552    9.912
  472.069  331.038   82.632    9.774
  472.319  329.755   82.740    9.374
  472.569  357.616   85.242    8.793
  472.819  376.940   89.222    8.192
  473.069  388.280   93.711    7.630
  473.319  391.485   94.823    7.068
  473.569  378.520   98.907    6.487
  473.819  370.637   93.166    6.693
  474.069  367.944   90.980    7.606
  474.319  365.500   91.336    8.680
  474.569  360.587   85.358   10.199
  474.819  355.725   83.188   11.879
  475.069  355.043   79.984   14.205
  475.319  356.982   79.326   17.319
  475.569  368.965   75.724   19.646
  475.819  379.886   71.835   22.497
  476.069  366.604   70.156   26.217
  476.319  339.060   71.615   31.774
  476.569  309.785   65.273   35.999
  476.819  295.444   59.373   39.315
  477.069  311.286   61.981   41.581
  477.319  323.756   64.320   41.282
  477.569  307.462   61.070   39.125
  477.819  304.722   59.303   35.090
  478.069  331.058   65.082   30.308
  478.319  335.251   71.572   24.658
  478.569  316.570   72.988   18.503
  478.819  315.010   78.402   15.943
  479.069  329.678   86.558   14.028
  479.319  331.820   87.520   12.780
  479.569  328.753   80.218   11.270
  479.819  333.480   80.629   10.284
  480.069  332.956   78.543    9.500
  480.319  357.687   77.404    8.899
  480.569  370.159   88.824    8.621
  480.819  364.780   93.929    8.584
  481.069  361.421   92.312    8.770
  481.319  358.217   88.032    9.076
  481.569  351.587   83.712    9.565
  481.819  356.798   81.769    9.993
  482.069  359.868   83.686    9.937
  482.319  349.097   84.014    9.880
  482.569  349.477   85.244    9.744
  482.819  355.213   88.469    9.626
  483.069  355.757   85.541    9.569
  483.319  348.336   83.449    9.433
  483.569  340.742   80.189    9.296
  483.819  349.246   82.775    9.179
  484.069  348.742   80.241    9.061
  484.319  348.877   82.843    9.024
  484.569  352.408   85.899    8.908
  484.819  350.738   84.115    8.851
  485.069  349.934   82.658    9.058
  485.319  342.329   82.975    9.526
  485.569  345.623   83.826    9.994
  485.819  346.941   84.908    9.978
  486.069  342.250   79.901    9.639
  486.319  337.857   78.884    9.381
  486.569  343.342   80.323    9.284
  486.819  347.942   83.252    9.227
  487.069  349.478   90.342    9.171
  487.319  351.433   88.592    9.114
  487.569  348.793   87.090    9.037
  487.819  352.909   87.315    8.940
  488.069  348.117   87.534    8.884
  488.319  346.132   89.112    8.928
  488.569  346.640   90.365    9.397
  488.819  353.081   88.204    9.987
  489.069  358.142   86.589   10.111
  489.319  359.425   84.528    9.409
  489.569  356.629   84.056    9.130
  489.819  360.354   83.135    9.801
  490.069  359.053   87.392   11.502
  490.319  351.983   84.737   12.960
  490.569  350.445   82.102   14.417
  490.819  354.625   74.374   16.461
  491.069  335.253   74.765   17.777
  491.319  307.452   72.535   19.679
  491.569  319.348   68.282   22.107
  491.819  266.725   63.659   24.736
  492.069  246.582   57.958   27.486
  492.319  258.744   53.299   31.004
  492.569  285.780   54.204   34.846
  492.819  296.827   54.791   35.940
  493.069  268.572   52.088   33.056
  493.319  235.768   58.729   30.172
  493.569  262.598   63.958   27.148
  493.819  302.817   67.857   25.132
  494.069  284.366   69.437   22.713
  494.319  302.188   67.331   18.698
  494.569  340.328   71.698   15.512
  494.819  345.066   75.944   13.497
  495.069  341.447   75.111   11.885
  495.319  337.175   76.844   10.233
  495.569  335.132   82.444   10.621
  495.819  333.879   81.325   11.473
  496.069  328.783   78.527   10.831
  496.319  321.097   75.770   10.088
  496.569  327.685   78.501    9.345
  496.819  326.475   77.881    9.107
  497.069  324.697   75.275    9.192
  497.319  330.164   73.289    9.539
  497.569  337.615   82.348   10.108
  497.819  344.700   86.227    9.870
  498.069  338.175   83.033    8.885
  498.319  335.464   83.365    8.344
  498.569  355.012   92.057    8.246
  498.819  353.247   96.552    8.230
  499.069  343.154   92.744    8.335
  499.319  325.928   93.399    8.764
  499.569  316.839   91.270    9.959
  499.819  310.076   82.546   11.741
  500.069  300.661   74.407   13.118
  500.319  272.211   69.662   14.838
  500.569  270.486   69.211   16.801
  500.819  264.261   69.645   19.551
  501.069  216.921   64.944   23.433
  501.319  213.714   61.459   26.264
  501.569  215.275   67.220   22.774
  501.819  244.661   75.316   18.821
  502.069  307.389   83.510   14.685
  502.319  317.798   88.327   13.013
  502.569  319.556   83.987   11.543
  502.819  318.012   88.864   10.779
  503.069  319.737   91.570   11.592
  503.319  319.876   88.700   11.531
  503.569  314.543   85.556   12.088
  503.819  309.323   89.636   12.504
  504.069  307.726   90.167   12.619
  504.319  316.817   93.710   12.018
  504.569  327.880   97.542   11.295
  504.819  338.679  101.229   10.473
  505.069  348.311  101.659    9.812
  505.319  346.572   99.957    9.486
  505.569  332.702   92.098    9.283
  505.819  319.188   80.561    9.242
  506.069  331.511   74.384    9.257
  506.319  337.824   76.838    9.333
