~VERSION INFORMATION
 VERS.                 2.0:   CWLS LOG ASCII STANDARD -VERSION 2.0
 WRAP.                  NO:   ONE LINE PER DEPTH STEP
~WELL INFORMATION BLOCK
#MNEM.UNIT           DATA                    DESCRIPTION OF MNEMONIC
#---------    -------------------            -------------------------------
# Generated from Intellog Unique Number	CW_76_78/WELL/995
WELL.         GULF POC DROWNED 11-17         : Well_name    - WELL
LOC .         00/11-17-076-20W4/0            : Location     - LOCATION
UWI .         00/11-17-076-20W4/0            : Uwi          - UNIQUE WELL ID
ENTR.         JAYE                           : Entered      - ENTERED BY
SRVC.         SCHLUMBERGER                   : Scn          - SERVICE COMPANY
DATE.         19 MAR 78                      : Date         - LOG DATE
STRT.M        277.368                        : top_depth    - START DEPTH
STOP.M        455.118                        : bot_depth    - STOP DEPTH
STEP.M        0.25                           : increment    - STEP LENGTH
 NULL. -999.2500:NULL Value
~CURVE INFORMATION BLOCK
#MNEM UNIT       ERCB CURVE CODE    CURVE DESCRIPTION
#-----------   ------------------   ----------------------------------
DEPT.M        00 001 00 00         : DEPTH        - DEPTH
ILD .OHMM     00 120 00 00         : RESD         - DEEP RESISTIVITY (DIL)
NPHI.V/V      00 330 00 00         : PHIN         - NEUTRON POROSITY (SANDSTONE)
DPHI.V/V      00 890 00 00         : PHID         - DENSITY POROSITY (SANDSTONE)
GR  .API      00 310 00 00         : GR           - GAMMA RAY
CALI.MM       00 280 01 00         : CAL          - CALIPER
~PARAMETER INFORMATION
#MNEM.UNIT           DATA             DESCRIPTION OF MNEMONIC
#---------         -----------     ------------------------------
GL  .M        604.114              : gl           - GROUND LEVEL ELEVATION
EREF.M        608.228              : kb           - ELEVATION OF DEPTH REFERENCE
DATM.M        604.114              : datum        - DATUM ELEVATION
TDD .M        461.772              : tdd          - TOTAL DEPTH DRILLER
RUN .         ONE                  : Run          - RUN NUMBER
ENG .         DEROCHIE             : Engineer     - RECORDING ENGINEER
WIT .         ROY/ROZENHART        : Witness      - WITNESSED BY
BASE.         EDM                  : Branch       - HOME BASE OF LOGGING UNIT
MUD .         GEL CHEM             : Mud_type     - MUD TYPE
MATR.         SANDSTONE            : Logunit      - NEUTRON MATRIX
TMAX.C        18.3333              : BHT          - MAXIMUM RECORDED TEMPERATURE
BHTD.M        461.162              : BHTDEP       - MAXIMUM RECORDED TEMPERATURE
RMT .C        16.6667              : MDTP         - TEMPERATURE OF MUD
MUDD.KG/M     1116                 : MWT          - MUD DENSITY
NEUT.         1                    : NEUTRON      - NEUTRON TYPE
RESI.         0                    : RESIST       - RESISTIVITY TYPE
RM  .OHMM     5.43                 : RM           - RESISTIVITY OF MUD
RMC .OHMM     0                    : RMC          - RESISTIVITY OF MUD CAKE
RMF .OHMM     5.39                 : RMF          - RESISTIVITY OF MUD FILTRATE
SUFT.C        -17.7778             : SUFT         - SURFACE TEMPERATURE
~A  DEPTH     RESD     PHIN     PHID       GR      CAL
# ...
  313.868    5.676    0.421    0.236  112.233  158.231
  314.118    5.963    0.432    0.259   96.697  155.237
  314.368    6.160    0.420    0.304   89.371  150.960
  314.618    6.328    0.408    0.303   96.003  147.752
  314.868    6.428    0.413    0.305  100.424  147.111
  315.118    6.518    0.419    0.290   93.288  148.502
  315.368    6.574    0.427    0.280   92.846  150.000
  315.618    6.590    0.430    0.269   91.268  151.284
  315.868    6.583    0.419    0.283   92.468  152.569
  316.118    6.552    0.409    0.291   94.995  153.425
  316.368    6.485    0.402    0.278   94.300  154.709
  316.618    6.394    0.398    0.260   94.364  156.742
  316.868    6.177    0.398    0.241   96.007  158.240
  317.118    6.022    0.407    0.230   98.975  157.492
  317.368    5.894    0.424    0.245   99.797  154.605
  317.618    5.866    0.438    0.259   95.503  149.686
  317.868    5.936    0.436    0.283   86.914  147.869
  318.118    6.075    0.426    0.286   88.619  147.014
  318.368    6.242    0.420    0.288   93.736  147.015
  318.618    6.317    0.410    0.281   93.925  148.727
  318.868    6.310    0.415    0.280   92.979  151.508
  319.118    6.176    0.432    0.297   93.421  153.434
  319.368    5.988    0.433    0.287   95.632  155.360
  319.618    5.838    0.422    0.272   99.106  156.430
  319.868    5.682    0.412    0.270  104.349  156.324
  320.118    5.571    0.422    0.271  111.044  156.110
  320.368    5.463    0.430    0.258  117.297  156.111
  320.618    5.396    0.431    0.231  121.971  156.326
  320.868    5.400    0.433    0.233  117.677  156.006
  321.118    5.425    0.439    0.245  111.930  155.793
  321.368    5.492    0.444    0.255  101.509  155.900
  321.618    5.557    0.453    0.268   89.447  156.115
  321.868    5.490    0.462    0.263   83.700  156.437
  322.118    5.205    0.470    0.268   81.742  154.512
  322.368    4.925    0.449    0.273   82.690  152.267
  322.618    4.661    0.433    0.250   86.733  150.022
  322.868    4.445    0.418    0.238   91.533  149.060
  323.118    4.245    0.424    0.219   97.028  152.269
  323.368    3.951    0.438    0.204  100.881  155.478
  323.618    3.718    0.451    0.209  101.134  157.618
  323.868    3.558    0.463    0.217   97.724  158.582
  324.118    3.574    0.472    0.222  101.704  159.010
  324.368    3.685    0.478    0.227  106.504  159.118
  324.618    3.915    0.459    0.233  106.947  158.798
  324.868    4.391    0.450    0.242   99.052  157.622
  325.118    4.970    0.448    0.265   90.147  155.377
  325.368    5.350    0.437    0.281   83.516  152.704
  325.618    5.425    0.423    0.301   77.896  150.566
  325.868    5.201    0.429    0.304   73.601  149.176
  326.118    4.913    0.455    0.295   70.886  148.214
  326.368    4.693    0.469    0.274   70.950  148.322
  326.618    4.593    0.449    0.252   71.582  150.783
  326.868    4.657    0.449    0.277   72.277  153.671
  327.118    4.757    0.462    0.314   69.056  153.030
  327.368    4.906    0.468    0.334   67.288  150.036
  327.618    5.012    0.444    0.344   69.941  147.577
  327.868    5.101    0.438    0.336   72.089  146.081
  328.118    5.133    0.433    0.327   71.269  145.547
  328.368    5.177    0.435    0.315   72.595  145.547
  328.618    5.210    0.448    0.315   75.438  145.548
  328.868    5.224    0.445    0.327   75.628  145.977
  329.118    5.268    0.430    0.313   74.744  146.512
  329.368    5.311    0.447    0.296   75.881  146.513
  329.618    5.335    0.460    0.285   77.208  146.193
  329.868    5.370    0.437    0.281   75.187  145.980
  330.118    5.395    0.436    0.292   77.714  145.873
  330.368    5.440    0.436    0.283   79.799  145.874
  330.618    5.485    0.432    0.279   76.262  145.875
  330.868    5.500    0.428    0.285   76.010  145.662
  331.118    5.483    0.418    0.281   79.042  145.235
  331.368    5.366    0.416    0.292   81.064  145.022
  331.618    5.060    0.425    0.289   83.338  145.129
  331.868    4.869    0.430    0.276   86.496  145.986
  332.118    4.730    0.433    0.263   90.918  148.018
  332.368    4.629    0.419    0.252   97.297  150.479
  332.618    4.581    0.414    0.235  104.624  153.688
  332.868    4.619    0.422    0.216  111.445  155.400
  333.118    4.710    0.451    0.213  114.414  156.363
  333.368    4.920    0.470    0.238  115.173  156.364
  333.618    5.286    0.463    0.256  112.836  155.295
  333.868    5.533    0.451    0.263  113.216  154.761
  334.118    5.653    0.460    0.257  114.669  154.976
  334.368    5.689    0.450    0.251  115.553  155.511
  334.618    5.630    0.430    0.234  119.406  155.833
  334.868    5.480    0.417    0.224  121.428  156.048
  335.118    5.413    0.422    0.217  122.060  156.476
  335.368    5.377    0.431    0.217  122.818  156.905
  335.618    5.331    0.438    0.213  124.398  157.440
  335.868    5.306    0.446    0.205  125.345  157.762
  336.118    5.310    0.458    0.203  122.441  158.083
  336.368    5.256    0.465    0.213  118.904  158.298
  336.618    5.241    0.472    0.236  118.778  158.406
  336.868    5.206    0.474    0.226  118.463  158.406
  337.118    5.171    0.464    0.186  116.948  158.514
  337.368    5.099    0.451    0.171  112.401  158.087
  337.618    5.037    0.459    0.193  105.012  157.660
  337.868    5.013    0.470    0.210   95.854  156.912
  338.118    4.970    0.475    0.246   90.423  155.416
  338.368    4.810    0.456    0.284   88.529  152.636
  338.618    4.170    0.458    0.290   94.845  150.497
  338.868    3.568    0.513    0.288   99.014  148.359
  339.118    3.223    0.520    0.298  101.793  148.360
  339.368    2.895    0.526    0.277  106.025  149.430
  339.618    2.709    0.536    0.278  111.015  150.821
  339.868    2.857    0.522    0.298  106.721  152.747
  340.118    3.186    0.504    0.276  104.763  154.780
  340.368    3.660    0.501    0.264  105.648  156.599
  340.618    4.159    0.492    0.263  108.806  157.776
  340.868    4.664    0.518    0.268  112.470  158.525
  341.118    5.501    0.505    0.284  107.607  158.633
  341.368    6.146    0.465    0.270  104.197  158.420
  341.618    6.361    0.459    0.247  104.513  156.923
  341.868    6.366    0.453    0.246  103.630  154.143
  342.118    6.396    0.448    0.256   97.314  151.150
  342.368    6.425    0.439    0.272   89.925  148.156
  342.618    6.394    0.426    0.282   86.831  145.162
  342.868    6.363    0.438    0.286   85.821  143.772
  343.118    6.286    0.444    0.301   85.316  144.094
  343.368    6.152    0.445    0.283   85.695  144.950
  343.618    5.998    0.444    0.291   87.401  146.555
  343.868    5.719    0.443    0.275   91.760  148.695
  344.118    5.576    0.441    0.259   96.244  151.476
  344.368    5.601    0.442    0.234   99.150  153.295
  344.618    5.701    0.466    0.250   97.635  153.938
  344.868    5.946    0.465    0.241   90.688  152.334
  345.118    6.085    0.456    0.259   84.246  151.265
  345.368    6.123    0.445    0.250   84.941  150.732
  345.618    6.060    0.426    0.232   94.289  151.160
  345.868    5.767    0.409    0.238   98.016  152.337
  346.118    5.417    0.412    0.215  107.806  153.514
  346.368    5.253    0.437    0.214  125.553  154.157
  346.618    5.219    0.451    0.223  142.670  154.264
  346.868    5.261    0.462    0.236  169.449  154.479
  347.118    5.345    0.470    0.221  189.407  154.373
  347.368    5.440    0.465    0.222  181.450  153.946
  347.618    5.557    0.441    0.242  156.882  152.663
  347.868    5.731    0.432    0.252  118.419  150.739
  348.118    5.976    0.421    0.264  107.872  148.387
  348.368    6.196    0.413    0.256   88.609  145.928
  348.618    6.389    0.415    0.262   89.052  144.859
  348.868    6.442    0.408    0.264   88.547  144.753
  349.118    6.364    0.369    0.244   88.358  145.823
  349.368    6.251    0.349    0.233   91.453  147.214
  349.618    6.198    0.329    0.219   97.328  149.247
  349.868    6.320    0.329    0.244  104.528  152.563
  350.118    6.615    0.360    0.301   96.949  155.558
