~VERSION INFORMATION
 VERS.                 2.0:   CWLS LOG ASCII STANDARD -VERSION 2.0
 WRAP.                  NO:   ONE LINE PER DEPTH STEP
~WELL INFORMATION BLOCK
#MNEM.UNIT           DATA                    DESCRIPTION OF MNEMONIC
#---------    -------------------            -------------------------------
# Generated from Intellog Unique Number	CS_73_76/WELL/4866
WELL.         ESSO KIRBY 15-23-75-4          : Well_name    - WELL
LOC .         00/15-23-075-04W4/0            : Location     - LOCATION
UWI .         00/15-23-075-04W4/0            : Uwi          - UNIQUE WELL ID
ENTR.         ANDERSEN                       : Entered      - ENTERED BY
SRVC.         COMPUTALOG                     : Scn          - SERVICE COMPANY
STRT.M        200                            : top_depth    - START DEPTH
STOP.M        435                            : bot_depth    - STOP DEPTH
STEP.M        0.25                           : increment    - STEP LENGTH
 NULL. -999.2500:NULL Value
~CURVE INFORMATION BLOCK
#MNEM UNIT       ERCB CURVE CODE    CURVE DESCRIPTION
#-----------   ------------------   ----------------------------------
DEPT.M        00 001 00 00         : DEPTH        - DEPTH
ILD .OHMM     00 120 00 00         : RESD         - DEEP RESISTIVITY (DIL)
DPHI.V/V      00 890 00 00         : PHID         - DENSITY POROSITY (SANDSTONE)
NPHI.V/V      00 330 00 00         : PHIN         - NEUTRON POROSITY (SANDSTONE)
CALI.MM       00 280 01 00         : CAL          - CALIPER
GR  .API      00 310 00 00         : GR           - GAMMA RAY
~PARAMETER INFORMATION
#MNEM.UNIT           DATA             DESCRIPTION OF MNEMONIC
#---------         -----------     ------------------------------
GL  .M        596.42               : gl           - GROUND LEVEL ELEVATION
EREF.M        606.22               : kb           - ELEVATION OF DEPTH REFERENCE
DATM.M        606.22               : datum        - DATUM ELEVATION
TDD .M        446                  : tdd          - TOTAL DEPTH DRILLER
RUN .         ONE                  : Run          - RUN NUMBER
ENG .         BILL                 : Engineer     - RECORDING ENGINEER
WIT .         JIM                  : Witness      - WITNESSED BY
MUD .         GEL                  : Mud_type     - MUD TYPE
MATR.         SANDSTONE            : Logunit      - NEUTRON MATRIX
TMAX.C        32                   : BHT          - MAXIMUM RECORDED TEMPERATURE
BHTD.M        456                  : BHTDEP       - MAXIMUM RECORDED TEMPERATURE
MATR.         1                    : LOGUNIT      - NEUTRON MATRIX
RMT .C        10                   : MDTP         - TEMPERATURE OF MUD
NEUT.         1                    : NEUTRON      - NEUTRON TYPE
RESI.         0                    : RESIST       - RESISTIVITY TYPE
RMC .OHMM     6.2                  : RMC          - RESISTIVITY OF MUD CAKE
RMF .OHMM     6                    : RMF          - RESISTIVITY OF MUD FILTRATE
SUFT.C        15                   : SUFT         - SURFACE TEMPERATURE
~A  DEPTH     RESD     PHID     PHIN      CAL       GR
# ...
  236.500   24.391    0.312    0.440  198.774   73.536
  236.750   23.497    0.306    0.428  198.782   71.185
  237.000   23.473    0.303    0.422  197.810   66.953
  237.250   23.449    0.292    0.429  197.818   65.075
  237.500   23.851    0.279    0.435  197.826   67.903
  237.750   24.266    0.277    0.440  197.837   74.967
  238.000   25.143    0.287    0.441  200.787   75.442
  238.250   26.053    0.294    0.439  204.715   76.858
  238.500   27.486    0.306    0.433  210.608   78.743
  238.750   27.957    0.306    0.421  214.539   80.630
  239.000   28.459    0.311    0.402  215.525   77.339
  239.250   28.954    0.317    0.404  217.495   73.578
  239.500   28.924    0.293    0.402  215.542   72.641
  239.750   28.894    0.267    0.392  212.608   74.058
  240.000   29.397    0.247    0.394  209.675   72.178
  240.250   30.460    0.233    0.403  209.685   66.534
  240.500   31.554    0.231    0.413  209.692   59.478
  240.750   32.103    0.252    0.420  210.680   56.188
  241.000   32.070    0.276    0.392  212.652   57.133
  241.250   32.037    0.280    0.383  213.640   61.373
  241.500   31.424    0.263    0.381  211.688   65.615
  241.750   30.265    0.253    0.373  210.713   63.735
  242.000   29.148    0.255    0.360  210.722   58.562
  242.250   28.591    0.244    0.369  217.596   56.683
  242.500   27.037    0.225    0.378  219.567   61.864
  242.750   26.040    0.228    0.383  220.554   67.517
  243.000   25.541    0.251    0.392  220.564   64.226
  243.250   24.599    0.257    0.410  217.628   64.229
  243.500   23.692    0.244    0.396  211.754   68.469
  243.750   23.238    0.253    0.401  209.803   66.121
  244.000   22.381    0.269    0.399  207.850   61.888
  244.250   21.555    0.279    0.396  206.876   61.892
  244.500   20.760    0.261    0.405  205.903   70.368
  244.750   19.999    0.230    0.417  205.912   82.138
  245.000   18.912    0.224    0.423  204.941   84.966
  245.250   18.215    0.222    0.422  205.930   82.146
  245.500   17.861    0.213    0.414  207.899   79.326
  245.750   18.168    0.219    0.405  207.908   76.506
  246.000   19.521    0.245    0.398  206.935   74.627
  246.250   20.605    0.262    0.398  205.963   68.983
  246.500   21.362    0.254    0.393  204.991   61.927
  246.750   23.814    0.241    0.383  204.997   59.578
  247.000   27.037    0.254    0.376  205.005   61.935
  247.250   31.263    0.274    0.377  205.994   57.233
  247.500   34.220    0.307    0.385  207.963   53.942
  247.750   34.815    0.319    0.395  207.971   63.830
  248.000   33.522    0.305    0.410  206.019   71.835
  248.250   31.134    0.301    0.419  208.970   77.958
  248.500   26.870    0.293    0.424  209.959   85.022
  248.750   22.346    0.269    0.438  207.024   94.439
  249.000   20.754    0.252    0.447  204.090   97.739
  249.250   19.271    0.264    0.431  207.040   98.213
  249.500   18.224    0.249    0.420  206.072  100.099
  249.750   17.551    0.245    0.431  203.139  100.105
  250.000   16.598    0.242    0.444  200.205   98.224
  250.250   16.280    0.236    0.465  200.212   95.875
  250.500   15.680    0.239    0.482  200.220   93.055
  250.750   15.659    0.237    0.475  200.228   91.176
  251.000   15.643    0.248    0.463  200.236   91.652
  251.250   15.627    0.258    0.456  199.264   92.596
  251.500   16.192    0.271    0.450  196.333   89.305
  251.750   17.403    0.290    0.448  196.341   82.721
  252.000   19.405    0.297    0.444  195.369   80.841
  252.250   20.478    0.297    0.440  195.377   78.022
  252.500   22.009    0.291    0.436  195.385   77.084
  252.750   23.226    0.279    0.433  195.395   78.971
  253.000   24.510    0.276    0.437  195.399   83.210
  253.250   25.390    0.279    0.442  195.410   86.039
  253.500   25.832    0.282    0.449  195.418   84.160
  253.750   26.282    0.272    0.448  195.426   84.164
  254.000   26.739    0.259    0.442  195.434   88.404
  254.250   27.211    0.255    0.442  196.423   90.762
  254.500   28.196    0.281    0.444  197.412   84.176
  254.750   29.755    0.313    0.438  197.420   69.589
  255.000   33.782    0.316    0.424  196.448   55.003
  255.250   39.782    0.323    0.417  195.474   49.831
  255.500   46.837    0.336    0.421  194.501   51.246
  255.750   50.351    0.336    0.421  194.510   54.073
  256.000   50.287    0.322    0.419  194.518   60.197
  256.250   48.431    0.307    0.418  194.528   63.025
  256.500   44.981    0.296    0.428  195.517   66.794
  256.750   36.084    0.279    0.443  195.525   72.446
  257.000   29.480    0.241    0.456  196.516   78.098
  257.250   24.529    0.224    0.464  197.505   86.104
  257.500   19.316    0.228    0.463  197.513   81.401
  257.750   18.266    0.260    0.458  196.541   78.582
  258.000   18.584    0.289    0.450  195.568   77.643
  258.250   19.256    0.301    0.440  195.574   75.294
  258.500   21.466    0.302    0.431  194.602   74.357
  258.750   23.497    0.297    0.424  194.610   76.244
  259.000   26.194    0.285    0.420  194.619   78.129
  259.250   28.679    0.270    0.420  194.629   79.545
  259.500   31.383    0.254    0.428  194.637   80.961
  259.750   31.351    0.250    0.433  194.643   80.494
  260.000   31.319    0.254    0.438  194.652   76.262
  260.250   33.050    0.269    0.427  194.660   71.089
  260.500   35.530    0.290    0.425  194.668   64.033
  260.750   41.084    0.306    0.415  195.657   57.448
  261.000   45.799    0.297    0.393  195.667   53.216
  261.250   48.319    0.279    0.379  195.675   56.044
  261.500   48.269    0.267    0.386  195.686   60.755
  261.750   44.819    0.251    0.390  195.690   64.994
  262.000   40.872    0.231    0.399  195.700   68.763
  262.250   35.266    0.221    0.413  195.706   69.709
  262.500   33.341    0.197    0.387  195.714   62.653
  262.750   35.184    0.106    0.334  196.705   53.244
  263.000   41.445   -0.005    0.214  196.714   44.305
  263.250   58.612    0.038    0.225  196.722   34.896
  263.500  103.197    0.104    0.262  196.730   27.841
  263.750  188.463    0.144    0.306  196.738   26.904
  264.000  217.919    0.190    0.337  196.746   29.260
  264.250  181.323    0.217    0.362  196.755   34.913
  264.500  132.749    0.247    0.382  196.765   38.682
  264.750  110.456    0.298    0.396  196.773   44.334
  265.000   98.879    0.313    0.404  196.784   46.221
  265.250   88.492    0.311    0.413  196.788   45.755
  265.500   86.822    0.314    0.410  196.796   45.758
  265.750   82.104    0.317    0.409  196.804   46.232
  266.000   81.998    0.310    0.409  196.812   47.178
  266.250   81.914    0.297    0.404  196.821   47.652
  266.500   84.877    0.265    0.396  195.852   46.715
  266.750   89.593    0.223    0.310  195.857   43.896
  267.000  103.596    0.050    0.277  194.886   42.487
  267.250  115.487    0.056    0.286  194.895   43.432
  267.500  119.633    0.121    0.306  194.903   46.732
  267.750  119.510    0.215    0.342  194.911   45.323
  268.000  113.045    0.245    0.368  194.917   41.561
  268.250  101.196    0.265    0.379  194.929   39.684
  268.500   87.315    0.284    0.375  194.934   41.100
  268.750   82.549    0.291    0.370  194.944   42.045
  269.000   82.485    0.298    0.371  194.952   40.636
  269.250   83.920    0.305    0.371  194.960   39.699
  269.500   85.359    0.306    0.368  194.967   39.232
  269.750   85.249    0.306    0.365  194.977   39.236
  270.000   86.777    0.306    0.366  194.987   38.769
  270.250   86.688    0.307    0.366  194.991   38.302
  270.500   86.598    0.308    0.368  195.002   40.189
  270.750   88.060    0.312    0.373  195.010   38.781
  271.000   88.014    0.317    0.378  195.018   37.373
  271.250   87.924    0.321    0.382  195.026   35.966
  271.500   87.811    0.326    0.385  195.034   36.441
  271.750   89.362    0.330    0.388  195.045   37.856
  272.000   89.270    0.330    0.385  195.051   37.860
  272.250   89.155    0.325    0.383  195.061   39.747
  272.500   90.706    0.321    0.386  195.069   42.576
  272.750   90.636    0.318    0.384  195.076   42.108
