~VERSION INFORMATION
 VERS.                 2.0:   CWLS LOG ASCII STANDARD -VERSION 2.0
 WRAP.                  NO:   ONE LINE PER DEPTH STEP
~WELL INFORMATION BLOCK
#MNEM.UNIT           DATA                    DESCRIPTION OF MNEMONIC
#---------    -------------------            -------------------------------
# Generated from Intellog Unique Number	CW_79_81/WELL/927
WELL.         14-14-079-22W4                 : Well_name    - WELL
LOC .         00/14-14-079-22W4/0            : Location     - LOCATION
UWI .         00/14-14-079-22W4/0            : Uwi          - UNIQUE WELL ID
ENTR.         MAX                            : Entered      - ENTERED BY
SRVC.         SCHLUMBERGER                   : Scn          - SERVICE COMPANY
STRT.M        220                            : top_depth    - START DEPTH
STOP.M        432                            : bot_depth    - STOP DEPTH
STEP.M        0.25                           : increment    - STEP LENGTH
 NULL. -999.2500:NULL Value
~CURVE INFORMATION BLOCK
#MNEM UNIT       ERCB CURVE CODE    CURVE DESCRIPTION
#-----------   ------------------   ----------------------------------
DEPT.M        00 001 00 00         : DEPTH        - DEPTH
ILD .OHMM     00 120 00 00         : RESD         - DEEP RESISTIVITY (DIL)
NPHI.V/V      00 330 00 00         : PHIN         - NEUTRON POROSITY (SANDSTONE)
DPHI.V/V      00 890 00 00         : PHID         - DENSITY POROSITY (SANDSTONE)
CALI.MM       00 280 01 00         : CAL          - CALIPER
GR  .API      00 310 00 00         : GR           - GAMMA RAY
~PARAMETER INFORMATION
#MNEM.UNIT           DATA             DESCRIPTION OF MNEMONIC
#---------         -----------     ------------------------------
GL  .M        570.7                : gl           - GROUND LEVEL ELEVATION
EREF.M        574.1                : kb           - ELEVATION OF DEPTH REFERENCE
DATM.M        570.7                : datum        - DATUM ELEVATION
TDD .M        441                  : tdd          - TOTAL DEPTH DRILLER
RUN .         ONE                  : Run          - RUN NUMBER
ENG .         BILL                 : Engineer     - RECORDING ENGINEER
WIT .         JIM                  : Witness      - WITNESSED BY
MUD .         GEL                  : Mud_type     - MUD TYPE
MATR.         SANDSTONE            : Logunit      - NEUTRON MATRIX
TMAX.C        32                   : BHT          - MAXIMUM RECORDED TEMPERATURE
BHTD.M        441                  : BHTDEP       - MAXIMUM RECORDED TEMPERATURE
RMT .C        17                   : MDTP         - TEMPERATURE OF MUD
MUDD.KG/M     1140                 : MWT          - MUD DENSITY
NEUT.         1                    : NEUTRON      - NEUTRON TYPE
RESI.         0                    : RESIST       - RESISTIVITY TYPE
RM  .OHMM     8.8                  : RM           - RESISTIVITY OF MUD
RMC .OHMM     0                    : RMC          - RESISTIVITY OF MUD CAKE
RMF .OHMM     10.7                 : RMF          - RESISTIVITY OF MUD FILTRATE
SUFT.C        -5                   : SUFT         - SURFACE TEMPERATURE
~A  DEPTH     RESD     PHIN     PHID      CAL       GR
# ...
  329.500   25.759    0.301    0.109  230.384   65.655
  329.750   28.993    0.272    0.102  230.385   61.105
  330.000   38.112    0.288    0.125  230.881   50.882
  330.250   39.151    0.324    0.148  231.872   53.171
  330.500   29.470    0.402    0.159  232.368   63.796
  330.750   20.433    0.461    0.194  232.864   71.746
  331.000   16.398    0.458    0.210  232.865   76.116
  331.250   14.685    0.452    0.206  232.866   77.216
  331.500   13.515    0.448    0.192  233.362   78.315
  331.750   13.261    0.436    0.187  233.858   79.711
  332.000   13.261    0.431    0.187  233.859   81.108
  332.250   13.123    0.434    0.194  234.355   82.516
  332.500   12.998    0.434    0.197  234.851   85.685
  332.750   13.109    0.438    0.199  234.852   85.298
  333.000   13.099    0.442    0.203  234.853   83.104
  333.250   13.211    0.431    0.205  234.854   83.928
  333.500   13.203    0.424    0.210  234.855   85.919
  333.750   12.721    0.426    0.204  235.351   87.613
  334.000   11.925    0.426    0.185  235.847   88.106
  334.250   11.078    0.436    0.174  235.848   86.827
  334.500   10.382    0.458    0.177  235.849   85.261
  334.750   10.095    0.468    0.201  235.850   84.554
  335.000   10.095    0.468    0.199  235.851   85.070
  335.250   10.082    0.445    0.185  234.367   85.871
  335.500   10.076    0.448    0.188  232.883   84.581
  335.750   10.076    0.456    0.199  231.399   82.706
  336.000   10.062    0.469    0.197  229.915   82.902
  336.250   10.337    0.469    0.192  229.917   84.001
  336.500   10.521    0.464    0.191  229.423   82.413
  336.750   10.708    0.468    0.198  228.433   81.751
  337.000   10.800    0.460    0.197  230.909   82.530
  337.250   10.793    0.455    0.205  233.385   84.841
  337.500   10.885    0.444    0.203  232.396   86.227
  337.750   10.878    0.438    0.207  231.903   85.256
  338.000   10.675    0.431    0.212  232.893   84.548
  338.250   10.475    0.423    0.208  234.874   84.767
  338.500   10.091    0.424    0.205  234.380   85.557
  338.750   10.091    0.435    0.204  233.391   86.062
  339.000    9.804    0.450    0.206  233.888   84.782
  339.250    9.108    0.461    0.204  235.374   82.611
  339.500    8.617    0.459    0.198  235.375   82.807
  339.750    8.227    0.454    0.204  234.385   84.214
  340.000    8.221    0.454    0.214  233.397   83.518
  340.250    8.445    0.474    0.238  231.913   80.454
  340.500   10.413    0.473    0.228  231.914   76.499
  340.750   13.079    0.480    0.207  231.915   71.937
  341.000   15.838    0.464    0.200  231.421   65.888
  341.250   20.823    0.384    0.182  230.432   60.137
  341.500   24.532    0.371    0.159  229.938   58.252
  341.750   25.427    0.355    0.154  229.444   59.946
  342.000   23.835    0.327    0.138  229.940   65.516
  342.250   21.741    0.370    0.183  228.951   71.087
  342.500   18.431    0.434    0.225  227.467   74.554
  342.750   16.658    0.436    0.234  226.973   73.275
  343.000   15.330    0.423    0.214  227.469   74.374
  343.250   14.635    0.428    0.225  227.965   77.566
  343.500   14.487    0.442    0.229  227.966   78.642
  343.750   14.221    0.450    0.242  229.452   78.564
  344.000   14.215    0.464    0.226  229.948   77.879
  344.250   14.215    0.466    0.233  228.959   77.502
  344.500   14.457    0.458    0.241  227.970   77.390
  344.750   17.664    0.453    0.242  228.466   77.299
  345.000   18.649    0.450    0.218  229.952   77.221
  345.250   20.609    0.445    0.209  231.438   75.644
  345.500   23.196    0.440    0.211  231.934   72.569
  345.750   26.346    0.432    0.197  231.440   68.602
  346.000   29.112    0.419    0.184  229.461   66.110
  346.250   31.881    0.402    0.158  227.978   66.637
  346.500   31.571    0.403    0.153  226.494   69.520
  346.750   28.015    0.419    0.188  226.000   72.987
  347.000   23.321    0.429    0.207  226.001   75.298
  347.250   20.506    0.435    0.200  225.507   78.171
  347.500   17.542    0.428    0.205  225.013   79.270
  347.750   15.855    0.434    0.219  225.014   80.975
  348.000   14.459    0.458    0.228  225.510   82.966
  348.250   14.459    0.475    0.231  226.501   85.255
  348.500   13.666    0.475    0.226  227.492   86.640
  348.750   13.050    0.473    0.227  228.483   86.561
  349.000   12.807    0.464    0.208  227.989   87.066
  349.250   12.684    0.464    0.204  228.980   85.466
  349.500   12.674    0.466    0.212  229.476   87.458
  349.750   13.139    0.456    0.205  229.477   88.866
  350.000   14.798    0.448    0.213  232.251   86.980
  350.250   14.260    0.450    0.213  232.243   84.808
  350.500   13.998    0.461    0.211  231.739   82.042
  350.750   13.739    0.478    0.204  231.734   80.156
  351.000   13.610    0.481    0.188  231.727   79.769
  351.250   13.359    0.477    0.196  231.224   82.058
  351.500   13.231    0.462    0.194  230.720   86.428
  351.750   13.109    0.450    0.202  230.713   85.445
  352.000   13.226    0.447    0.210  230.706   83.560
  352.250   13.845    0.434    0.225  230.699   86.466
  352.500   14.627    0.427    0.231  230.693   87.565
  352.750   15.453    0.414    0.238  231.183   85.085
  353.000   15.592    0.407    0.245  231.671   82.902
  353.250   15.445    0.423    0.235  232.161   84.310
  353.500   15.445    0.438    0.222  232.155   86.290
  353.750   15.016    0.441    0.212  232.645   87.103
  354.000   14.740    0.442    0.206  232.638   87.596
  354.250   14.740    0.439    0.201  232.631   87.803
  354.500   14.463    0.446    0.194  233.617   87.988
  354.750   14.329    0.445    0.204  234.602   87.909
  355.000   14.194    0.433    0.199  234.597   87.224
  355.250   14.191    0.436    0.202  234.590   86.231
  355.500   14.056    0.434    0.198  234.086   85.557
  355.750   14.053    0.431    0.200  234.080   86.061
  356.000   13.921    0.423    0.192  234.569   86.246
  356.250   13.918    0.428    0.190  234.563   84.978
  356.500   13.915    0.428    0.201  234.555   84.304
  356.750   13.911    0.434    0.202  234.549   83.608
  357.000   13.780    0.448    0.196  234.542   83.518
  357.250   13.650    0.451    0.191  234.038   83.119
  357.500   13.521    0.448    0.193  235.520   83.315
  357.750   13.395    0.448    0.187  236.508   84.128
  358.000   13.269    0.466    0.186  236.500   85.239
  358.250   13.144    0.466    0.193  235.998   86.933
  358.500   13.144    0.458    0.184  234.004   87.437
  358.750   13.018    0.451    0.187  231.513   85.243
  359.000   13.135    0.461    0.195  231.011   85.450
  359.250   13.375    0.456    0.196  231.005   85.360
  359.500   13.371    0.450    0.205  231.494   85.270
  359.750   13.368    0.440    0.202  233.474   84.596
  360.000   13.365    0.438    0.193  236.446   84.781
  360.250   13.119    0.443    0.194  240.410   86.200
  360.500   12.642    0.443    0.202  240.404   87.894
  360.750   12.642    0.446    0.200  239.902   90.182
  361.000   12.291    0.459    0.192  238.902   92.769
  361.250   11.736    0.453    0.190  238.399   93.262
  361.500   11.951    0.452    0.199  237.893   92.885
  361.750   12.625    0.457    0.199  238.384   92.475
  362.000   13.095    0.451    0.194  238.378   92.099
  362.250   12.972    0.442    0.192  238.867   92.604
  362.500   11.721    0.435    0.194  239.357   93.406
  362.750   10.787    0.427    0.198  240.840   94.791
  363.000   10.300    0.431    0.195  242.323   95.009
  363.250   10.110    0.455    0.193  243.805   94.919
  363.500   10.295    0.454    0.188  243.302   93.617
  363.750   10.484    0.431    0.164  240.316   91.434
  364.000   10.874    0.422    0.138  237.330   89.285
  364.250   10.871    0.425    0.167  237.324   84.723
  364.500   10.670    0.423    0.196  237.814   81.351
  364.750   10.668    0.420    0.189  237.309   84.829
  365.000   10.863    0.421    0.185  236.310   86.832
  365.250   11.797    0.420    0.186  236.310   88.525
  365.500   14.176    0.405    0.183  234.803   89.030
  365.750   15.972    0.408    0.187  233.807   85.349
