~VERSION INFORMATION
 VERS.                 2.0:   CWLS LOG ASCII STANDARD -VERSION 2.0
 WRAP.                  NO:   ONE LINE PER DEPTH STEP
~WELL INFORMATION BLOCK
#MNEM.UNIT           DATA                    DESCRIPTION OF MNEMONIC
#---------    -------------------            -------------------------------
# Generated from Intellog Unique Number	CS_69_70/WELL/867
WELL.         MAYNARD EXPLORATION            : Well_name    - WELL
LOC .         00/10-13-070-16W4/0            : Location     - LOCATION
UWI .         00/10-13-070-16W4/0            : Uwi          - UNIQUE WELL ID
ENTR.         SP                             : Entered      - ENTERED BY
SRVC.         SCHLUMBERGER                   : Scn          - SERVICE COMPANY
STRT.M        275                            : top_depth    - START DEPTH
STOP.M        500                            : bot_depth    - STOP DEPTH
STEP.M        0.25                           : increment    - STEP LENGTH
 NULL. -999.2500:NULL Value
~CURVE INFORMATION BLOCK
#MNEM UNIT       ERCB CURVE CODE    CURVE DESCRIPTION
#-----------   ------------------   ----------------------------------
DEPT.M        00 001 00 00         : DEPTH        - DEPTH
GR  .API      00 310 00 00         : GR           - GAMMA RAY
NPHI.V/V      00 330 00 00         : PHIN         - NEUTRON POROSITY (LIMESTONE)
DPHI.V/V      00 890 00 00         : PHID         - DENSITY POROSITY (LIMESTONE)
ILD .OHMM     00 120 00 00         : RESD         - DEEP RESISTIVITY (DIL)
~PARAMETER INFORMATION
#MNEM.UNIT           DATA             DESCRIPTION OF MNEMONIC
#---------         -----------     ------------------------------
GL  .M        570.5                : gl           - GROUND LEVEL ELEVATION
EREF.M        573.7                : kb           - ELEVATION OF DEPTH REFERENCE
DATM.M        570.5                : datum        - DATUM ELEVATION
TDD .M        508                  : tdd          - TOTAL DEPTH DRILLER
RUN .         ONE                  : Run          - RUN NUMBER
ENG .         BILL                 : Engineer     - RECORDING ENGINEER
WIT .         JIM                  : Witness      - WITNESSED BY
MUD .         GEL                  : Mud_type     - MUD TYPE
MATR.         LIMESTONE            : Logunit      - NEUTRON MATRIX
TMAX.C        22                   : BHT          - MAXIMUM RECORDED TEMPERATURE
BHTD.M        508                  : BHTDEP       - MAXIMUM RECORDED TEMPERATURE
MATR.         1                    : LOGUNIT      - NEUTRON MATRIX
RMT .C        25                   : MDTP         - TEMPERATURE OF MUD
NEUT.         1                    : NEUTRON      - NEUTRON TYPE
RESI.         0                    : RESIST       - RESISTIVITY TYPE
RMC .OHMM     0.25                 : RMC          - RESISTIVITY OF MUD CAKE
RMF .OHMM     0.25                 : RMF          - RESISTIVITY OF MUD FILTRATE
SUFT.C        15                   : SUFT         - SURFACE TEMPERATURE
~A  DEPTH       GR     PHIN     PHID     RESD
# ...
  405.500   64.501    0.347    0.358    2.650
  405.750   64.077    0.345    0.366    2.700
  406.000   63.836    0.349    0.367    2.709
  406.250   63.778    0.362    0.359    2.734
  406.500   63.901    0.368    0.352    2.726
  406.750   64.268    0.370    0.348    2.727
  407.000   64.757    0.364    0.346    2.679
  407.250   66.707    0.360    0.342    2.671
  407.500   67.621    0.357    0.335    2.639
  407.750   69.510    0.361    0.329    2.640
  408.000   70.059    0.364    0.322    2.706
  408.250   70.244    0.367    0.316    2.747
  408.500   72.011    0.367    0.311    2.863
  408.750   73.534    0.365    0.302    2.994
  409.000   74.023    0.358    0.287    3.084
  409.250   71.348    0.343    0.272    3.372
  409.500   70.985    0.323    0.189    3.560
  409.750   71.778    0.290    0.164    3.839
  410.000   74.396    0.273    0.141    4.232
  410.250   79.024    0.345    0.186    4.364
  410.500   83.042    0.378    0.224    4.340
  410.750   85.478    0.390    0.268    4.169
  411.000   88.279    0.400    0.279    3.997
  411.250   88.342    0.399    0.272    3.883
  411.500   86.397    0.389    0.265    3.827
  411.750   83.965    0.383    0.260    3.811
  412.000   82.385    0.387    0.258    3.869
  412.250   82.448    0.386    0.259    3.886
  412.500   82.936    0.381    0.257    3.968
  412.750   82.757    0.377    0.252    4.051
  413.000   82.210    0.376    0.254    4.125
  413.250   80.874    0.375    0.256    4.199
  413.500   80.998    0.369    0.257    4.233
  413.750   81.669    0.363    0.254    4.348
  414.000   82.280    0.357    0.245    4.480
  414.250   80.518    0.357    0.236    4.578
  414.500   80.033    0.358    0.226    4.824
  414.750   82.408    0.359    0.214    4.907
  415.000   86.365    0.363    0.200    5.161
  415.250   89.227    0.365    0.193    5.219
  415.500   90.690    0.360    0.190    5.260
  415.750   91.483    0.366    0.194    5.163
  416.000   90.998    0.375    0.202    4.885
  416.250   89.905    0.382    0.212    4.550
  416.500   94.776    0.386    0.230    4.077
  416.750   97.759    0.408    0.253    3.734
  417.000  101.595    0.424    0.284    3.489
  417.250  104.944    0.449    0.281    3.367
  417.500  105.737    0.463    0.254    3.318
  417.750  102.392    0.445    0.241    3.344
  418.000   98.865    0.435    0.247    3.328
  418.250   96.981    0.429    0.254    3.312
  418.500   96.313    0.439    0.260    3.199
  418.750  100.089    0.447    0.261    3.093
  419.000  102.647    0.445    0.255    3.028
  419.250  104.900    0.444    0.253    2.988
  419.500  104.111    0.448    0.252    2.972
  419.750  101.922    0.453    0.254    2.964
  420.000  101.316    0.460    0.255    2.948
  420.250  101.075    0.454    0.259    2.998
  420.500  100.894    0.447    0.261    3.048
  420.750   99.801    0.451    0.260    3.114
  421.000   98.404    0.443    0.258    3.172
  421.250   97.432    0.435    0.256    3.262
  421.500   98.286    0.424    0.251    3.435
  421.750   98.227    0.419    0.247    3.689
  422.000   96.830    0.406    0.241    3.763
  422.250   95.006    0.401    0.226    4.017
  422.500   86.124    0.392    0.213    4.411
  422.750   79.189    0.386    0.207    4.608
  423.000   77.852    0.377    0.207    4.813
  423.250   80.471    0.369    0.220    4.961
  423.500   82.298    0.364    0.232    5.059
  423.750   83.579    0.360    0.242    5.134
  424.000   84.250    0.368    0.247    5.101
  424.250   83.157    0.369    0.254    4.996
  424.500   82.002    0.360    0.248    4.906
  424.750   79.753    0.361    0.240    4.793
  425.000   79.695    0.374    0.247    4.630
  425.250   80.610    0.382    0.256    4.499
  425.500   82.680    0.372    0.254    4.418
  425.750   85.178    0.361    0.233    4.452
  426.000   88.284    0.364    0.219    4.559
  426.250   90.415    0.374    0.211    4.666
  426.500   91.391    0.387    0.203    4.773
  426.750   89.385    0.380    0.197    4.847
  427.000   88.961    0.373    0.194    4.888
  427.250   89.693    0.365    0.190    4.930
  427.500   90.364    0.359    0.187    4.955
  427.750   91.766    0.378    0.177    4.997
  428.000   94.263    0.376    0.170    4.997
  428.250   96.213    0.378    0.183    4.973
  428.500   96.762    0.385    0.194    4.974
  428.750   94.939    0.383    0.190    4.934
  429.000   92.689    0.378    0.184    4.918
  429.250   90.866    0.377    0.184    4.509
  429.500   92.511    0.381    0.180    4.976
  429.750   95.069    0.382    0.175    5.108
  430.000   95.862    0.376    0.171    5.247
  430.250   93.734    0.367    0.166    5.363
  430.500   92.641    0.361    0.160    5.412
  430.750   92.947    0.356    0.154    5.405
  431.000   94.715    0.361    0.165    5.340
  431.250   97.516    0.363    0.180    5.251
  431.500   99.526    0.374    0.195    5.120
  431.750  100.745    0.378    0.197    4.990
  432.000  102.695    0.370    0.191    4.835
  432.250  103.122    0.365    0.185    4.713
  432.500  102.212    0.363    0.178    4.583
  432.750   97.041    0.375    0.175    4.461
  433.000   91.993    0.392    0.186    4.437
  433.250   92.299    0.402    0.206    4.348
  433.500   91.875    0.403    0.227    4.291
  433.750   88.591    0.393    0.221    4.324
  434.000   86.889    0.382    0.217    4.448
  434.250   86.162    0.371    0.211    4.579
  434.500   86.650    0.360    0.202    4.727
  434.750   87.809    0.354    0.199    4.785
  435.000   89.271    0.364    0.229    4.802
  435.250   91.403    0.371    0.231    4.803
  435.500   92.500    0.378    0.219    4.754
  435.750   93.781    0.389    0.216    4.624
  436.000   95.730    0.392    0.224    4.060
  436.250   98.592    0.394    0.239    3.684
  436.500  101.393    0.412    0.260    3.145
  436.750  104.073    0.432    0.282    2.663
  437.000  105.535    0.444    0.296    2.328
  437.250   99.817    0.454    0.282    2.239
  437.500  102.193    0.449    0.263    2.264
  437.750  102.986    0.436    0.237    2.445
  438.000   99.276    0.424    0.219    2.846
  438.250   96.053    0.411    0.207    3.338
  438.500   92.222    0.398    0.203    4.107
  438.750   89.668    0.379    0.211    4.664
  439.000   88.513    0.367    0.221    5.303
  439.250   91.680    0.365    0.234    5.663
  439.500   92.656    0.360    0.221    5.966
  439.750   91.137    0.346    0.195    6.065
  440.000   88.826    0.329    0.177    6.246
  440.250   85.299    0.326    0.160    6.516
  440.500   82.380    0.335    0.168    7.082
  440.750   83.782    0.332    0.172    8.072
  441.000   81.471    0.274    0.151    9.128
  441.250   75.571    0.243    0.099   10.036
  441.500   76.546    0.227    0.110   10.299
  441.750   82.208    0.243    0.145    9.367
  442.000   88.295    0.282    0.172    7.821
  442.250   94.991    0.330    0.192    7.037
  442.500   96.332    0.359    0.208    6.530
  442.750   93.900    0.366    0.209    6.122
  443.000   93.476    0.363    0.188    5.828
  443.250   94.391    0.364    0.176    5.551
  443.500   98.227    0.365    0.180    5.347
  443.750  101.941    0.366    0.192    5.135
  444.000  104.073    0.368    0.201    4.955
  444.250  104.136    0.370    0.200    4.784
  444.500  102.495    0.377    0.194    4.629
  444.750  101.523    0.381    0.180    4.483
  445.000   98.604    0.375    0.164    4.385
  445.250   92.521    0.356    0.146    4.255
  445.500   87.898    0.343    0.165    4.182
  445.750   94.047    0.350    0.182    3.995
  446.000   99.221    0.384    0.199    3.938
  446.250  102.266    0.389    0.186    3.832
  446.500  102.572    0.390    0.179    3.702
  446.750  101.053    0.386    0.180    3.662
  447.000  103.794    0.382    0.192    3.638
  447.250  104.343    0.382    0.203    3.696
  447.500  102.155    0.387    0.200    3.819
  447.750   98.019    0.393    0.185    3.909
  448.000   96.743    0.390    0.168    4.033
  448.250   96.989    0.385    0.155    4.132
  448.500   97.903    0.387    0.170    4.181
  448.750   99.183    0.391    0.179    4.207
