~VERSION INFORMATION
 VERS.                 2.0:   CWLS LOG ASCII STANDARD -VERSION 2.0
 WRAP.                  NO:   ONE LINE PER DEPTH STEP
~WELL INFORMATION BLOCK
#MNEM.UNIT           DATA                    DESCRIPTION OF MNEMONIC
#---------    -------------------            -------------------------------
# Generated from Intellog Unique Number	CC_80_83/WELL/2378
NULL.         -999.25                        : NULL_VALUE
WELL.         PACIFIC STONY RAPIDS           : Well_name    - WELL
LOC .         10-27-080-18W4                 : Location     - LOCATION          
UWI .         00/10-27-080-18W4/0            : Uwi          - UNIQUE WELL ID    
ENTR.         DW                             : Entered      - ENTERED BY        
SRVC.         SCHLUMBERGER                   : Scn          - SERVICE COMPANY   
DATE.         04 FEB 77                      : Date         - LOG DATE
STRT.M        149.352                        : top_depth    - START DEPTH       
STOP.M        356.617                        : bot_depth    - STOP DEPTH        
STEP.M        0.305                          : increment    - STEP LENGTH       
~CURVE INFORMATION BLOCK
#MNEM UNIT       ERCB CURVE CODE    CURVE DESCRIPTION
#-----------   ------------------   ----------------------------------
DEPT.M        00 001 00 00         : DEPTH        - DEPTH                       
DPHI.V/V      00 890 00 00         : PHID         - DENSITY POROSITY (LIMESTONE)
NPHI.V/V      00 330 00 00         : PHIN         - NEUTRON POROSITY (LIMESTONE)
GR  .API      00 310 00 00         : GR           - GAMMA RAY                   
ILD .OHMM     00 120 00 00         : RESD         - DEEP RESISTIVITY (DIL)      
~PARAMETER INFORMATION       
#MNEM.UNIT           DATA             DESCRIPTION OF MNEMONIC
#---------         -----------     ------------------------------
GL  .M        554.126              : gl           - GROUND LEVEL ELEVATION      
EREF.M        557.327              : kb           - ELEVATION OF DEPTH REFERENCE
DATM.M        557.327              : datum        - DATUM ELEVATION             
TDD .M        387.401              : tdd          - TOTAL DEPTH DRILLER         
RUN .         ONE                  : Run          - RUN NUMBER                  
ENG .         BILL                 : Engineer     - RECORDING ENGINEER          
WIT .         JIM                  : Witness      - WITNESSED BY                
MUD .         GEL                  : Mud_type     - MUD TYPE                    
MATR.         LIMESTONE            : Logunit      - NEUTRON MATRIX              
TMAX.C        19.4444              : BHT          - MAXIMUM RECORDED TEMPERATURE
BHTD.M        387.096              : BHTDEP       - MAXIMUM RECORDED TEMPERATURE
MATR.         1                    : LOGUNIT      - NEUTRON MATRIX              
RMT .C        25                   : MDTP         - TEMPERATURE OF MUD          
NEUT.         1                    : NEUTRON      - NEUTRON TYPE                
RESI.         0                    : RESIST       - RESISTIVITY TYPE            
RMC .OHMM     0.25                 : RMC          - RESISTIVITY OF MUD CAKE     
RMF .OHMM     0.25                 : RMF          - RESISTIVITY OF MUD FILTRATE 
SUFT.C        15                   : SUFT         - SURFACE TEMPERATURE         
~A  DEPTH     PHID     PHIN       GR     RESD
  149.352    0.271    0.419  123.359    3.250
  149.657    0.269    0.436  123.359    3.249
  149.962    0.273    0.448  122.116    3.248
  150.266    0.288    0.452  121.494    3.247
  150.571    0.288    0.429  120.250    3.245
  150.876    0.285    0.441  120.251    3.244
  151.181    0.274    0.449  120.252    3.242
  151.486    0.274    0.460  123.365    3.241
  151.790    0.278    0.436  118.387    3.442
  152.095    0.279    0.440  112.164    3.441
  152.400    0.278    0.439  107.808    3.642
  152.705    0.276    0.436  111.543    3.641
  153.010    0.267    0.424  108.432    3.843
  153.314    0.263    0.425  110.923    3.841
  153.619    0.259    0.431  114.036    3.840
  153.924    0.253    0.413  115.281    4.042
  154.229    0.242    0.400  114.660    4.446
  154.534    0.218    0.384   97.856    4.852
  154.838    0.216    0.353   87.276    5.663
  155.143    0.315    0.341   79.809    7.491
  155.448    0.311    0.356   84.166    9.521
  155.753    0.307    0.333   86.034   10.332
  156.057    0.309    0.352   89.770   10.534
  156.362    0.305    0.358   96.617   10.532
  156.667    0.298    0.357   99.730   10.328
  156.972    0.288    0.346  101.598    9.920
  157.277    0.281    0.332  106.578    9.309
  157.581    0.284    0.342  109.691    8.901
  157.886    0.293    0.338  107.824    9.103
  158.191    0.295    0.336   94.133    9.508
  158.496    0.298    0.343  102.225    9.913
  158.801    0.302    0.347  107.205   11.130
  159.105    0.306    0.342  104.094   11.332
  159.410    0.312    0.337   98.493   11.534
  159.715    0.315    0.331   96.627   11.736
  160.020    0.310    0.335   91.026   11.937
  160.325    0.310    0.347   85.426   12.139
  160.629    0.307    0.345   90.406   12.138
  160.934    0.278    0.377   94.763   11.933
  161.239    0.279    0.379  105.967   11.119
  161.544    0.289    0.342  104.723   10.507
  161.849    0.294    0.342   90.409   10.505
  162.153    0.290    0.355   92.278   10.707
  162.458    0.288    0.337   96.013   10.908
  162.763    0.288    0.332   92.902   11.110
  163.068    0.285    0.361   96.637   11.109
  163.373    0.284    0.351   99.128   11.108
  163.677    0.294    0.343   96.017   11.107
  163.982    0.324    0.329   86.059   11.512
  164.287    0.320    0.324   83.571   12.730
  164.592    0.299    0.336   87.306   13.338
  164.897    0.288    0.353   92.286   12.930
  165.201    0.304    0.353   90.420   12.725
  165.506    0.317    0.337   86.064   13.739
  165.811    0.329    0.326   81.086   14.551
  166.116    0.353    0.327   75.485   16.988
  166.420    0.353    0.341   74.864   17.393
  166.725    0.327    0.336   80.466   15.969
  167.030    0.309    0.330   92.292   13.529
  167.335    0.310    0.324   86.070   12.715
  167.640    0.330    0.315   82.958   13.323
  167.944    0.347    0.307   74.868   16.573
  168.249    0.355    0.306   72.380   18.603
  168.554    0.356    0.319   82.339   20.430
  168.859    0.357    0.331   87.941   21.242
  169.164    0.352    0.341   89.809   20.834
  169.468    0.324    0.342   91.677   18.598
  169.773    0.262    0.347   99.147   16.564
  170.078    0.275    0.355  104.749   15.750
  170.383    0.312    0.361  105.995   14.732
  170.688    0.239    0.356  102.884   14.324
  170.992    0.207    0.345   98.528   14.525
  171.297    0.205    0.362  101.019   14.321
  171.602    0.258    0.374  113.467   13.710
  171.907    0.285    0.374  117.825   12.896
  172.212    0.275    0.374  122.183   11.878
  172.516    0.263    0.371  122.806   10.861
  172.821    0.252    0.358  121.562    9.843
  173.126    0.258    0.348  119.074    8.216
  173.431    0.278    0.345  119.074    8.621
  173.736    0.289    0.346  113.474    9.433
  174.040    0.298    0.348  109.740   11.057
  174.345    0.305    0.355  110.986   12.681
  174.650    0.306    0.356  115.966   14.304
  174.955    0.315    0.357  118.457   14.710
  175.260    0.330    0.358  115.346   15.318
  175.564    0.338    0.355  108.500   15.723
  175.869    0.335    0.343  106.012   15.925
  176.174    0.325    0.295   95.432   16.736
  176.479    0.332    0.291   78.006   17.547
  176.783    0.345    0.296   61.202   17.750
  177.088    0.326    0.305   70.539   17.138
  177.393    0.288    0.316  102.282   15.917
  177.698    0.259    0.343  110.996   14.290
  178.003    0.263    0.346  117.844   12.663
  178.307    0.249    0.346  126.558   11.646
  178.612    0.237    0.347  131.538   10.221
  178.917    0.237    0.342  135.896    9.407
  179.222    0.242    0.343  135.896    8.999
  179.527    0.247    0.355  125.939    8.591
  179.831    0.254    0.367  116.604    9.403
  180.136    0.268    0.377  122.829    9.808
  180.441    0.276    0.393  120.340    9.400
  180.746    0.234    0.419  119.096    8.382
  181.051    0.179    0.439  136.524    6.552
  181.355    0.201    0.450  142.127    5.128
  181.660    0.212    0.454  147.729    4.314
  181.965    0.211    0.454  146.485    3.906
  182.270    0.196    0.448  139.017    3.904
  182.575    0.208    0.429  136.529    4.106
  182.879    0.239    0.443  130.928    4.714
  183.184    0.253    0.452  127.195    4.713
  183.489    0.258    0.452  128.441    4.914
  183.794    0.257    0.434  127.197    5.523
  184.099    0.258    0.399  124.708    6.740
  184.403    0.253    0.374  128.444    8.365
  184.708    0.250    0.383  134.046    9.176
  185.013    0.245    0.402  139.026    9.174
  185.318    0.245    0.418  137.160    8.766
  185.623    0.258    0.421  132.181    8.765
  185.927    0.275    0.414  125.336    9.373
  186.232    0.294    0.404  121.603    9.981
  186.537    0.302    0.369  117.247   10.996
  186.842    0.299    0.367  111.024   11.604
  187.146    0.314    0.367  112.892   12.618
  187.451    0.329    0.366  116.627   12.821
  187.756    0.325    0.362  116.006   12.819
  188.061    0.315    0.358  112.895   12.004
  188.366    0.270    0.351  107.294   11.800
  188.670    0.236    0.341  102.938   12.611
  188.975    0.244    0.307   96.715   13.423
  189.280    0.306    0.306   85.513   15.047
  189.585    0.351    0.319   83.025   15.859
  189.890    0.364    0.321   83.025   17.686
  190.194    0.369    0.333   83.649   18.294
  190.499    0.366    0.336   91.741   18.495
  190.804    0.367    0.343  100.455   18.291
  191.109    0.369    0.346   99.211   18.086
  191.414    0.369    0.345   99.212   17.678
  191.718    0.367    0.360  105.437   17.880
  192.023    0.361    0.352   99.214   17.675
  192.328    0.360    0.338   93.614   17.674
  192.633    0.348    0.351   98.594   17.063
  192.938    0.322    0.369   99.217   15.232
  193.242    0.317    0.373   90.504   13.198
  193.547    0.321    0.361   88.016   12.995
  193.852    0.326    0.340   89.884   13.196
  194.157    0.331    0.333   89.885   13.601
  194.462    0.341    0.340   89.263   14.818
  194.766    0.346    0.347   90.509   15.427
  195.071    0.345    0.357   94.867   15.425
  195.376    0.321    0.367  100.469   13.798
  195.681    0.300    0.364  110.428   11.968
  195.986    0.285    0.345  113.541   10.950
  196.290    0.289    0.337  105.451   10.339
  196.595    0.301    0.322  103.585   10.338
  196.900    0.320    0.309  101.719   11.148
  197.205    0.327    0.314  101.097   11.147
  197.510    0.324    0.330  100.475   11.349
  197.814    0.325    0.368  101.099   10.941
  198.119    0.316    0.376  101.100    9.924
  198.424    0.316    0.381  104.835    9.109
  198.729    0.326    0.386  107.326    9.921
  199.033    0.327    0.369  105.459   10.529
  199.338    0.317    0.345   97.369   11.950
  199.643    0.306    0.231   89.901   13.371
  199.948    0.208    0.229   83.678   14.182
  200.253    0.250    0.276   74.343   14.790
  200.557    0.343    0.329   88.037   15.805
  200.862    0.374    0.324   97.374   17.022
  201.167    0.379    0.320  104.221   17.224
  201.472    0.381    0.317  107.956   17.427
  201.777    0.368    0.322   93.020   17.221
  202.081    0.337    0.325   85.552   17.017
