~VERSION INFORMATION
 VERS.                 2.0:   CWLS LOG ASCII STANDARD -VERSION 2.0
 WRAP.                  NO:   ONE LINE PER DEPTH STEP
~WELL INFORMATION BLOCK
#MNEM.UNIT           DATA                    DESCRIPTION OF MNEMONIC
#---------    -------------------            -------------------------------
# Generated from Intellog Unique Number	CW_76_78/WELL/2579
WELL.         10-23-078-23W4                 : Well_name    - WELL
LOC .         00/10-23-078-23W4/0            : Location     - LOCATION
UWI .         00/10-23-078-23W4/0            : Uwi          - UNIQUE WELL ID
ENTR.         MAX                            : Entered      - ENTERED BY
SRVC.         SCHLUMBERGER                   : Scn          - SERVICE COMPANY
STRT.M        207.264                        : top_depth    - START DEPTH
STOP.M        493.764                        : bot_depth    - STOP DEPTH
STEP.M        0.25                           : increment    - STEP LENGTH
 NULL. -999.2500:NULL Value
~CURVE INFORMATION BLOCK
#MNEM UNIT       ERCB CURVE CODE    CURVE DESCRIPTION
#-----------   ------------------   ----------------------------------
DEPT.M        00 001 00 00         : DEPTH        - DEPTH
ILD .OHMM     00 120 00 00         : RESD         - DEEP RESISTIVITY (DIL)
NPHI.V/V      00 330 00 00         : PHIN         - NEUTRON POROSITY (SANDSTONE)
DPHI.V/V      00 890 00 00         : PHID         - DENSITY POROSITY (SANDSTONE)
CALI.MM       00 280 01 00         : CAL          - CALIPER
GR  .API      00 310 00 00         : GR           - GAMMA RAY
~PARAMETER INFORMATION
#MNEM.UNIT           DATA             DESCRIPTION OF MNEMONIC
#---------         -----------     ------------------------------
GL  .M        566.623              : gl           - GROUND LEVEL ELEVATION
EREF.M        570.159              : kb           - ELEVATION OF DEPTH REFERENCE
DATM.M        566.623              : datum        - DATUM ELEVATION
TDD .M        495.91               : tdd          - TOTAL DEPTH DRILLER
RUN .         ONE                  : Run          - RUN NUMBER
ENG .         BILL                 : Engineer     - RECORDING ENGINEER
WIT .         JIM                  : Witness      - WITNESSED BY
MUD .         GEL                  : Mud_type     - MUD TYPE
MATR.         SANDSTONE            : Logunit      - NEUTRON MATRIX
TMAX.C        21.6667              : BHT          - MAXIMUM RECORDED TEMPERATURE
BHTD.M        495.91               : BHTDEP       - MAXIMUM RECORDED TEMPERATURE
RMT .C        14.4444              : MDTP         - TEMPERATURE OF MUD
MUDD.KG/M     9000                 : MWT          - MUD DENSITY
NEUT.         1                    : NEUTRON      - NEUTRON TYPE
RESI.         0                    : RESIST       - RESISTIVITY TYPE
RM  .OHMM     6                    : RM           - RESISTIVITY OF MUD
RMC .OHMM     4.35                 : RMC          - RESISTIVITY OF MUD CAKE
RMF .OHMM     7.02                 : RMF          - RESISTIVITY OF MUD FILTRATE
SUFT.C        -6.66667             : SUFT         - SURFACE TEMPERATURE
~A  DEPTH     RESD     PHIN     PHID      CAL       GR
# ...
  280.264    7.660    0.501    0.278  199.754   77.084
  280.514    6.267    0.533    0.282  196.223   84.707
  280.764    4.854    0.559    0.255  196.179   91.154
  281.014    4.511    0.615    0.221  197.136   98.777
  281.264    4.041    0.653    0.194  199.083  104.339
  281.514    3.688    0.623    0.183  200.538  108.142
  281.764    3.685    0.584    0.194  200.005  113.119
  282.014    3.750    0.566    0.199  200.459  116.034
  282.264    3.782    0.604    0.188  200.918  114.243
  282.514    3.745    0.624    0.190  200.868  111.276
  282.764    3.608    0.613    0.163  200.829  109.785
  283.014    3.509    0.623    0.188  200.800  109.464
  283.264    3.507    0.635    0.251  201.253  107.676
  283.514    3.601    0.614    0.256  201.712  105.300
  283.764    3.870    0.587    0.251  201.672  102.042
  284.014    4.899    0.538    0.248  201.623   97.895
  284.264    5.981    0.486    0.266  202.580   96.696
  284.514    6.727    0.453    0.261  205.529   95.793
  284.764    7.775    0.446    0.262  209.971   97.531
  285.014    7.559    0.438    0.261  209.937   98.685
  285.264    7.025    0.454    0.234  208.398   98.364
  285.514    6.069    0.473    0.218  207.358   97.462
  285.764    5.102    0.466    0.211  207.314   98.906
  286.014    4.962    0.479    0.201  205.785   98.289
  286.264    5.049    0.508    0.205  204.252   97.089
  286.514    5.998    0.556    0.232  202.215   95.307
  286.764    6.446    0.570    0.248  201.673   91.457
  287.014    6.992    0.545    0.264  201.634   81.729
  287.264    7.514    0.515    0.284  200.095   71.409
  287.514    8.075    0.502    0.314  195.579   63.148
  287.764    8.445    0.514    0.306  195.534   58.416
  288.014    9.158    0.558    0.300  196.989   56.628
  288.264    9.843    0.562    0.355  195.460   54.543
  288.514   10.484    0.567    0.377  192.926   51.579
  288.764   13.031    0.679    0.414  191.881   48.615
  289.014   14.134    0.696    0.385  191.846   46.530
  289.264   16.942    0.656    0.349  191.846   45.333
  289.514   19.230    0.518    0.343  191.748   43.545
  289.764   20.111    0.479    0.361  190.722   42.046
  290.014   20.465    0.481    0.365  189.697   43.787
  290.264   20.465    0.454    0.361  189.633   47.296
  290.514   20.246    0.446    0.356  188.612   52.566
  290.764   19.693    0.488    0.345  188.578   54.890
  291.014   18.975    0.512    0.344  188.533   56.335
  291.264   18.622    0.516    0.338  188.987   57.199
  291.514   18.440    0.534    0.334  188.947   58.350
  291.764   18.428    0.546    0.329  189.406   58.915
  292.014   18.428    0.524    0.323  190.358   56.833
  292.264   18.732    0.510    0.329  190.816   53.865
  292.514   19.246    0.511    0.332  190.777   49.725
  292.764   20.127    0.515    0.338  190.738   47.640
  293.014   20.858    0.501    0.342  190.693   48.205
  293.264   21.033    0.485    0.341  191.152   52.596
  293.514   21.017    0.496    0.339  191.615   54.629
  293.764   20.623    0.524    0.337  191.576   55.782
  294.014   20.426    0.538    0.336  191.527   54.288
  294.264   20.043    0.507    0.335  191.487   51.321
  294.514   19.847    0.492    0.335  191.946   53.353
  294.764   19.476    0.494    0.334  191.902   55.686
  295.014   19.465    0.492    0.333  191.902   56.545
  295.264   19.444    0.496    0.331  191.818   56.516
  295.514   19.437    0.498    0.327  192.784   55.901
  295.764   19.247    0.495    0.332  192.735   54.413
  296.014   19.060    0.499    0.338  192.701   51.734
  296.264   19.047    0.505    0.343  193.154   51.714
  296.514   19.047    0.499    0.343  193.613   52.573
  296.764   18.846    0.484    0.343  194.072   52.550
  297.014   18.665    0.466    0.338  194.032   51.938
  297.264   18.653    0.476    0.331  194.486   49.265
  297.514   18.982    0.477    0.330  194.945   45.710
  297.764   19.493    0.476    0.330  194.900   45.687
  298.014   20.200    0.473    0.335  194.363   48.313
  298.264   20.371    0.475    0.348  193.327   50.643
  298.514   20.173    0.481    0.348  193.283   48.558
  298.764   19.798    0.478    0.352  192.746   47.061
  299.014   19.798    0.475    0.358  192.706   47.041
  299.264   19.583    0.470    0.355  193.160   48.191
  299.514   19.576    0.460    0.348  193.623   49.050
  299.764   19.740    0.475    0.345  193.574   49.021
  300.014   19.909    0.477    0.341  193.530   48.409
  300.264   20.446    0.459    0.314  193.495   46.621
  300.514   22.173    0.429    0.287  193.461   44.539
  300.764   24.492    0.342    0.175  193.422   41.569
  301.014   33.649    0.215    0.040  194.368   40.076
  301.264   38.890    0.137    0.005  195.320   39.173
  301.514   48.782    0.147    0.011  196.780   38.267
  301.764   48.312    0.193    0.024  196.735   39.420
  302.014   36.089    0.274    0.036  196.203   42.044
  302.264   24.836    0.328    0.142  195.660   45.550
  302.514   22.662    0.387    0.207  195.128   49.644
  302.764   20.489    0.509    0.271  194.088   53.147
  303.014   19.567    0.509    0.321  193.550   53.421
  303.264   18.512    0.496    0.345  194.009   52.513
  303.514   18.168    0.493    0.341  193.955   52.483
  303.764   17.827    0.486    0.331  193.910   54.519
  304.014   17.654    0.486    0.328  193.910   55.672
  304.264   17.481    0.489    0.323  193.343   55.946
  304.514   17.310    0.488    0.316  193.299   56.805
  304.764   16.988    0.491    0.318  192.757   57.370
  305.014   16.970    0.503    0.315  192.727   58.226
  305.264   16.660    0.476    0.321  192.180   58.497
  305.514   16.348    0.452    0.332  192.140   59.059
  305.764   16.042    0.470    0.347  192.096   59.624
  306.014   15.742    0.477    0.353  192.067   59.595
  306.264   15.167    0.502    0.344  191.519   60.166
  306.514   14.486    0.504    0.337  191.983   61.613
  306.764   12.977    0.506    0.342  192.441   63.645
  307.014   12.059    0.499    0.335  191.894   65.384
  307.264   11.203    0.506    0.327  191.845   66.540
  307.514   10.601    0.514    0.327  191.845   66.222
  307.764   10.601    0.510    0.340  191.781   65.317
  308.014   10.396    0.509    0.341  191.732   62.938
  308.264   10.203    0.522    0.337  191.692   61.444
  308.514   10.190    0.521    0.326  192.156   61.421
  308.764   10.188    0.515    0.319  192.609   62.277
  309.014   10.181    0.514    0.314  193.068   63.133
  309.264   10.174    0.555    0.305  194.020   64.580
  309.514   10.261    0.554    0.308  194.473   66.025
  309.764   10.441    0.540    0.332  195.425   64.819
  310.014   10.722    0.556    0.340  197.378   64.805
  310.264   10.714    0.558    0.337  199.330   67.131
  310.514   10.140    0.561    0.338  199.301   69.461
  310.764    8.447    0.575    0.333  198.759   72.084
  311.014    7.233    0.560    0.319  199.715   75.002
  311.264    5.654    0.557    0.305  202.659   79.682
  311.514    4.710    0.556    0.272  206.106   85.543
  311.764    4.793    0.550    0.258  212.042   86.400
  312.014    4.793    0.525    0.270  212.496   87.253
  312.264    4.919    0.493    0.268  205.987   88.412
  312.514    5.532    0.468    0.261  207.437   90.741
  312.764    6.693    0.453    0.259  207.891   90.424
  313.014    6.998    0.508    0.287  208.843   83.633
  313.264    7.386    0.621    0.340  212.797   78.022
  313.514    7.381    0.668    0.377  206.777   78.290
  313.764    7.375    0.722    0.402  202.753   83.264
  314.014    7.237    0.710    0.338  205.199   88.243
  314.264    7.102    0.688    0.256  211.629   94.102
  314.514    6.907    0.650    0.224  209.094   96.428
  314.764    6.716    0.556    0.215  207.571   95.820
  315.014    6.531    0.563    0.212  208.527   95.497
  315.264    6.468    0.552    0.224  209.977   95.476
  315.514    6.522    0.548    0.220  210.431   95.450
  315.764    6.518    0.555    0.213  209.898   95.427
  316.014    6.573    0.561    0.206  207.359   95.107
  316.264    6.628    0.566    0.211  202.837   95.086
  316.514    6.628    0.565    0.214  200.811   96.239
