~VERSION INFORMATION
 VERS.                 2.0:   CWLS LOG ASCII STANDARD -VERSION 2.0
 WRAP.                  NO:   ONE LINE PER DEPTH STEP
~WELL INFORMATION BLOCK
#MNEM.UNIT           DATA                    DESCRIPTION OF MNEMONIC
#---------    -------------------            -------------------------------
# Generated from Intellog Unique Number	CS_67_68/WELL/2199
WELL.         10-30-067-18W4                 : Well_name    - WELL
LOC .         00/10-30-067-18W4/0            : Location     - LOCATION
UWI .         00/10-30-067-18W4/0            : Uwi          - UNIQUE WELL ID
ENTR.         JHS                            : Entered      - ENTERED BY
SRVC.         SCHLUMBERGER                   : Scn          - SERVICE COMPANY
STRT.M        350.52                         : top_depth    - START DEPTH
STOP.M        554.52                         : bot_depth    - STOP DEPTH
STEP.M        0.25                           : increment    - STEP LENGTH
 NULL. -999.2500:NULL Value
~CURVE INFORMATION BLOCK
#MNEM UNIT       ERCB CURVE CODE    CURVE DESCRIPTION
#-----------   ------------------   ----------------------------------
DEPT.M        00 001 00 00         : DEPTH        - DEPTH
CALI.MM       00 280 01 00         : CAL          - CALIPER
GR  .API      00 310 00 00         : GR           - GAMMA RAY
DPHI.V/V      00 890 00 00         : PHID         - DENSITY POROSITY (SANDSTONE)
NPHI.V/V      00 330 00 00         : PHIN         - NEUTRON POROSITY (SANDSTONE)
ILD .OHMM     00 120 00 00         : RESD         - DEEP RESISTIVITY (DIL)
~PARAMETER INFORMATION
#MNEM.UNIT           DATA             DESCRIPTION OF MNEMONIC
#---------         -----------     ------------------------------
GL  .M        578                  : gl           - GROUND LEVEL ELEVATION
EREF.M        578                  : kb           - ELEVATION OF DEPTH REFERENCE
DATM.M        578                  : datum        - DATUM ELEVATION
TDD .M        556                  : tdd          - TOTAL DEPTH DRILLER
RUN .         ONE                  : Run          - RUN NUMBER
ENG .         BILL                 : Engineer     - RECORDING ENGINEER
WIT .         JIM                  : Witness      - WITNESSED BY
MUD .         GEL                  : Mud_type     - MUD TYPE
MATR.         SANDSTONE            : Logunit      - NEUTRON MATRIX
TMAX.C        22.7778              : BHT          - MAXIMUM RECORDED TEMPERATURE
BHTD.M        558.698              : BHTDEP       - MAXIMUM RECORDED TEMPERATURE
BTZC.MM       0                    : BITZC        - BIT SIZE CONSTANT
MATR.         1                    : LOGUNIT      - NEUTRON MATRIX
RMT .C        25                   : MDTP         - TEMPERATURE OF MUD
NEUT.         1                    : NEUTRON      - NEUTRON TYPE
RESI.         0                    : RESIST       - RESISTIVITY TYPE
RMC .OHMM     0.25                 : RMC          - RESISTIVITY OF MUD CAKE
RMF .OHMM     0.6                  : RMF          - RESISTIVITY OF MUD FILTRATE
SUFT.C        13                   : SUFT         - SURFACE TEMPERATURE
~A  DEPTH      CAL       GR     PHID     PHIN     RESD
# ...
  533.020  155.137   72.046    0.085    0.357    3.934
  533.270  155.009   78.757    0.076    0.369    3.918
  533.520  155.534   84.572    0.094    0.377    3.859
  533.770  156.379   90.345    0.113    0.386    3.696
  534.020  158.040   94.305    0.131    0.400    3.493
  534.270  159.951   96.454    0.150    0.426    3.290
  534.520  161.543   96.583    0.151    0.461    3.145
  534.770  162.827   97.554    0.135    0.493    2.999
  535.020  164.811  100.585    0.106    0.536    2.936
  535.270  166.543  102.903    0.123    0.571    2.963
  535.520  167.271  100.436    0.163    0.591    3.058
  535.770  167.884  103.886    0.159    0.609    3.158
  536.020  167.804  112.108    0.134    0.556    3.220
  536.270  166.241  119.684    0.140    0.502    3.221
  536.520  164.422  128.384    0.157    0.484    3.175
  536.770  161.504  136.958    0.151    0.467    3.103
  537.020  159.894  107.971    0.138    0.453    3.085
  537.270  159.808   96.005    0.147    0.438    3.065
  537.520  162.635   92.603    0.147    0.422    3.083
  537.770  164.923   95.038    0.151    0.468    3.102
  538.020  166.692   96.740    0.164    0.476    3.125
  538.270  167.683   92.573    0.136    0.468    3.208
  538.520  168.221   87.313    0.122    0.492    3.299
  538.770  167.776   86.900    0.138    0.489    3.414
  539.020  164.321   92.048    0.136    0.480    3.495
  539.270  162.694   96.335    0.155    0.473    3.520
  539.520  167.203   88.072    0.135    0.469    3.532
  539.770  170.861   81.081    0.119    0.461    3.427
  540.020  172.824   78.147    0.133    0.474    3.359
  540.270  173.840   79.653    0.147    0.481    3.317
  540.520  170.709   79.669    0.144    0.483    3.292
  540.770  167.428   73.123    0.163    0.463    3.303
  541.020  164.349   69.851    0.155    0.433    3.331
  541.270  162.994   67.787    0.128    0.418    3.353
  541.520  164.146   65.704    0.109    0.405    3.357
  541.770  167.887   71.532    0.107    0.383    3.357
  542.020  168.264   76.840    0.119    0.362    3.357
  542.270  164.706   81.403    0.124    0.342    3.357
  542.520  164.054   84.840    0.142    0.328    3.342
  542.770  172.424   76.301    0.121    0.346    3.287
  543.020  176.651   78.197    0.116    0.382    3.176
  543.270  167.398   73.184    0.148    0.406    2.922
  543.520  162.909   64.760    0.188    0.430    2.835
  543.770  159.939   58.022    0.200    0.432    2.786
  544.020  158.249   62.051    0.220    0.398    2.838
  544.270  156.736   72.458    0.245    0.376    2.998
  544.520  156.670  106.210    0.248    0.370    3.146
  544.770  156.742  121.698    0.220    0.377    3.300
  545.020  156.559  126.509    0.190    0.384    3.436
  545.270  156.508  129.891    0.105    0.407    3.572
  545.520  156.113  120.004    0.087    0.427    3.643
  545.770  155.966  109.634    0.128    0.447    3.687
  546.020  155.229   97.526    0.193    0.431    3.609
  546.270  153.804   84.150    0.207    0.379    3.490
  546.520  152.800   82.466    0.222    0.362    3.316
  546.770  151.129   75.723    0.221    0.363    2.951
  547.020  148.880   67.702    0.208    0.376    2.742
  547.270  147.092   56.754    0.213    0.365    2.538
  547.520  146.151   63.069    0.228    0.340    2.511
  547.770  145.036   84.989    0.236    0.324    2.706
  548.020  144.355  105.054    0.243    0.313    3.008
  548.270  144.530  113.903    0.232    0.305    2.811
  548.520  145.912  118.897    0.215    0.335    3.040
  548.770  148.137  116.103    0.203    0.361    3.267
  549.020  152.732  118.842    0.156    0.385    3.399
  549.270  153.999  131.118    0.135    0.382    3.544
  549.520  153.488  141.598    0.142    0.378    3.623
  549.770  159.989  145.041    0.179    0.424    3.776
  550.020  164.892  133.549    0.180    0.433    3.930
  550.270  162.457  115.210    0.151    0.407    4.051
  550.520  157.569   98.433    0.156    0.382    4.151
  550.770  153.499   83.674    0.184    0.365    4.263
  551.020  149.936   70.195    0.167    0.377    4.349
  551.270  148.069    9.098    0.152    0.384    4.390
  551.520  147.236   12.270    0.145    0.369    4.311
  551.770  146.980   21.544    0.156    0.348    4.163
  552.020  147.138   86.311    0.152    0.356    3.962
  552.270  147.306   93.280    0.158    0.351    3.800
  552.520  147.297   97.806    0.158    0.355    3.747
  552.770  147.772   97.312    0.126    0.384    3.805
  553.020  148.581   96.958    0.124    0.406    3.924
  553.270  149.659   96.319    0.151    0.419    4.120
  553.520  151.774   96.004    0.164    0.384    4.413
  553.770  152.600   95.639    0.174    0.282    4.693
  554.020  150.231   95.354    0.155    0.224    4.982
  554.270  146.137   95.524    0.126    0.202    5.215
  554.520  142.690   95.684    0.097    0.177    5.393
