~VERSION INFORMATION
 VERS.                 2.0:   CWLS LOG ASCII STANDARD -VERSION 2.0
 WRAP.                  NO:   ONE LINE PER DEPTH STEP
~WELL INFORMATION BLOCK
#MNEM.UNIT           DATA                    DESCRIPTION OF MNEMONIC
#---------    -------------------            -------------------------------
# Generated from Intellog Unique Number	CW_82_90/WELL/1031
WELL.         13-22-083-22W4                 : Well_name    - WELL
LOC .         13-22-083-22W4                 : Location     - LOCATION
UWI .         00/13-22-083-22W4/0            : Uwi          - UNIQUE WELL ID
ENTR.         JAYE                           : Entered      - ENTERED BY
SRVC.         SCHLUMBERGER                   : Scn          - SERVICE COMPANY
DATE.         16 FEB 86                      : Date         - LOG DATE
STRT.M        210                            : top_depth    - START DEPTH
STOP.M        441                            : bot_depth    - STOP DEPTH
STEP.M        0.25                           : increment    - STEP LENGTH
 NULL. -999.2500:NULL Value
~CURVE INFORMATION BLOCK
#MNEM UNIT       ERCB CURVE CODE    CURVE DESCRIPTION
#-----------   ------------------   ----------------------------------
DEPT.M        00 001 00 00         : DEPTH        - DEPTH
CALI.MM       00 280 01 00         : CAL          - CALIPER
GR  .API      00 310 00 00         : GR           - GAMMA RAY
NPHI.V/V      00 330 00 00         : PHIN         - NEUTRON POROSITY (SANDSTONE)
DPHI.V/V      00 890 00 00         : PHID         - DENSITY POROSITY (SANDSTONE)
ILD .OHMM     00 120 00 00         : RESD         - DEEP RESISTIVITY (DIL)
~PARAMETER INFORMATION
#MNEM.UNIT           DATA             DESCRIPTION OF MNEMONIC
#---------         -----------     ------------------------------
GL  .M        607.4                : gl           - GROUND LEVEL ELEVATION
EREF.M        611                  : kb           - ELEVATION OF DEPTH REFERENCE
DATM.M        607.4                : datum        - DATUM ELEVATION
TDD .M        442                  : tdd          - TOTAL DEPTH DRILLER
RUN .         ONE                  : Run          - RUN NUMBER
ENG .         NAGY                 : Engineer     - RECORDING ENGINEER
WIT .         KOSS                 : Witness      - WITNESSED BY
BASE.         S.L.                 : Branch       - HOME BASE OF LOGGING UNIT
MUD .         GEL CHEM             : Mud_type     - MUD TYPE
MATR.         SANDSTONE            : Logunit      - NEUTRON MATRIX
TMAX.C        20                   : BHT          - MAXIMUM RECORDED TEMPERATURE
BHTD.M        442                  : BHTDEP       - MAXIMUM RECORDED TEMPERATURE
RMT .C        12                   : MDTP         - TEMPERATURE OF MUD
MUDD.KG/M     1125                 : MWT          - MUD DENSITY
NEUT.         1                    : NEUTRON      - NEUTRON TYPE
RESI.         0                    : RESIST       - RESISTIVITY TYPE
RM  .OHMM     5.87                 : RM           - RESISTIVITY OF MUD
RMC .OHMM     0                    : RMC          - RESISTIVITY OF MUD CAKE
RMF .OHMM     5.23                 : RMF          - RESISTIVITY OF MUD FILTRATE
SUFT.C        0                    : SUFT         - SURFACE TEMPERATURE
~A  DEPTH      CAL       GR     PHIN     PHID     RESD
  210.000  252.359   88.082    0.600    0.296    2.589
  210.250  252.859   86.758    0.570    0.290    2.615
  210.500  252.736   88.997    0.560    0.290    2.651
  210.750  251.885   92.547    0.561    0.293    2.708
  211.000  250.720   92.035    0.552    0.289    2.724
  211.250  249.657   91.899    0.540    0.284    2.824
  211.500  249.538   92.822    0.532    0.274    2.994
  211.750  249.310   93.126    0.521    0.265    3.092
  212.000  248.982   92.740    0.512    0.262    3.117
  212.250  248.541   91.855    0.499    0.261    3.125
  212.500  248.731   90.282    0.495    0.266    3.209
  212.750  248.923   88.458    0.496    0.273    3.271
  213.000  249.113   86.073    0.539    0.281    3.322
  213.250  249.409   83.626    0.554    0.283    3.343
  213.500  249.493   81.866    0.564    0.273    3.327
  213.750  249.579   84.354    0.541    0.260    3.316
  214.000  249.563   88.154    0.516    0.263    3.269
  214.250  249.439   92.887    0.546    0.270    3.211
  214.500  249.004   94.314    0.547    0.274    3.165
  214.750  248.151   93.742    0.526    0.277    3.120
  215.000  248.233   90.921    0.539    0.277    3.093
  215.250  248.636   87.349    0.512    0.273    3.072
  215.500  250.384   81.901    0.480    0.266    3.102
  215.750  251.410   70.959    0.429    0.261    3.985
  216.000  251.699   63.451    0.414    0.257    5.443
  216.250  250.953   57.942    0.398    0.245    8.841
  216.500  249.895   51.497    0.406    0.246   14.415
  216.750  248.210   41.054    0.417    0.329   20.590
  217.000  245.899   40.541    0.427    0.353   29.522
  217.250  242.968   43.031    0.415    0.356   36.598
  217.500  238.367   46.078    0.403    0.351   39.980
  217.750  235.329   49.190    0.409    0.346   40.981
  218.000  233.122   50.742    0.418    0.346   41.775
  218.250  231.960   50.856    0.426    0.349   42.986
  218.500  231.316   50.531    0.416    0.342   44.987
  218.750  231.192   49.458    0.419    0.340   46.546
  219.000  231.904   46.638    0.447    0.344   48.337
  219.250  232.513   46.751    0.459    0.346   51.241
  219.500  233.221   47.241    0.451    0.349   57.237
  219.750  234.557   47.416    0.438    0.350   61.236
  220.000  236.307   49.215    0.432    0.351   66.261
  220.250  238.576   50.329    0.430    0.352   72.244
  220.500  240.228   50.191    0.428    0.351   76.151
  220.750  242.395   49.057    0.430    0.350   82.255
  221.000  246.021   46.986    0.427    0.347   88.676
  221.250  251.417   47.474    0.417    0.338   94.703
  221.500  256.915   48.587    0.403    0.321  103.046
  221.750  261.269   47.702    0.387    0.310  116.168
  222.000  262.606   46.379    0.381    0.309  128.545
  222.250  260.712   45.742    0.396    0.310  143.298
  222.500  255.905   45.606    0.403    0.317  159.179
  222.750  250.888   46.095    0.400    0.327  164.680
  223.000  245.349   47.397    0.403    0.340  169.136
  223.250  243.249   48.884    0.423    0.350  170.505
  223.500  243.749   47.811    0.448    0.357  167.142
  223.750  244.876   49.924    0.476    0.362  158.459
  224.000  247.149   52.287    0.506    0.362  144.443
  224.250  249.944   52.463    0.503    0.357  131.411
  224.500  252.316   50.078    0.491    0.354  104.164
  224.750  254.172   48.441    0.485    0.355   70.475
  225.000  256.030   47.993    0.491    0.357   67.805
  225.250  256.845   48.420    0.462    0.365   68.738
  225.500  256.826   47.910    0.461    0.361   74.382
  225.750  255.559   47.523    0.479    0.357   78.119
  226.000  254.393   47.324    0.482    0.362   82.508
  226.250  254.790   45.939    0.477    0.372   91.142
  226.500  255.504   43.553    0.474    0.374   98.076
  226.750  256.835   42.542    0.474    0.374  107.522
  227.000  257.443   43.656    0.472    0.373  117.637
  227.250  258.048   45.083    0.471    0.371  137.125
  227.500  258.239   45.133    0.467    0.365  162.268
  227.750  258.425   44.059    0.475    0.372  179.570
  228.000  258.303   43.547    0.479    0.371  185.101
  228.250  257.868   44.037    0.469    0.366  184.864
  228.500  257.850   44.902    0.458    0.359  178.196
  228.750  257.311   46.577    0.468    0.353  175.025
  229.000  256.463   47.814    0.488    0.350  168.403
  229.250  255.297   48.241    0.485    0.349  155.829
  229.500  254.340   48.416    0.468    0.355  147.994
  229.750  253.385   48.282    0.445    0.361  142.919
  230.000  252.222   47.707    0.445    0.364  138.038
  230.250  251.368   46.885    0.464    0.363  135.313
  230.500  251.246   45.499    0.469    0.356  129.467
  230.750  252.062   46.175    0.482    0.355  120.679
  231.000  252.773   47.039    0.497    0.360  109.806
  231.250  252.649   46.965    0.501    0.362   98.984
  231.500  251.694   46.578    0.486    0.362   89.897
  231.750  251.156   46.443    0.483    0.365   80.882
  232.000  248.430   46.493    0.473    0.369   72.638
  232.250  245.494   46.420    0.470    0.371   65.844
  232.500  243.290   46.346    0.476    0.363   58.367
  232.750  240.667   46.647    0.485    0.344   50.218
  233.000  239.087   46.887    0.471    0.282   43.131
  233.250  238.862   46.876    0.427    0.209   39.315
  233.500  238.740   46.364    0.404    0.271   35.308
  233.750  240.491   45.666    0.440    0.330   31.768
  234.000  245.572   45.155    0.464    0.372   28.584
  234.250  249.091   45.206    0.459    0.369   25.668
  234.500  250.114   46.196    0.440    0.360   22.126
  234.750  249.889   50.870    0.430    0.355   18.651
  235.000  248.934   60.417    0.444    0.359   16.259
  235.250  248.081   59.342    0.471    0.347   14.146
  235.500  247.126   56.146    0.455    0.332   11.552
  235.750  245.962   59.570    0.450    0.299    9.505
  236.000  245.738   72.241    0.453    0.272    7.204
  236.250  246.340   82.974    0.459    0.271    4.920
  236.500  246.842   97.207    0.479    0.279    4.116
  236.750  247.137  101.007    0.522    0.280    3.902
  237.000  247.329  100.183    0.542    0.280    3.861
  237.250  247.205   95.049    0.556    0.284    3.827
  237.500  247.292   93.601    0.549    0.292    3.830
  237.750  246.961   94.152    0.527    0.301    3.904
  238.000  246.939   93.703    0.528    0.293    4.055
  238.250  247.548   92.817    0.534    0.278    4.164
  238.500  249.085   90.806    0.543    0.275    4.414
  238.750  250.110   90.734    0.532    0.277    4.706
  239.000  250.715   91.036    0.523    0.297    5.036
  239.250  250.909   88.587    0.525    0.323    5.388
  239.500  251.307   82.829    0.550    0.336    5.907
  239.750  251.497   76.759    0.555    0.340    6.647
  240.000  250.124   65.315    0.549    0.338    7.895
  240.250  246.775   60.369    0.533    0.333    9.697
  240.500  244.986   57.109    0.517    0.341   14.539
  240.750  245.591   55.723    0.467    0.343   19.346
  241.000  246.614   54.089    0.453    0.339   19.759
  241.250  248.054   55.701    0.474    0.333   18.731
  241.500  250.114   58.000    0.489    0.327   17.396
  241.750  250.514   59.301    0.455    0.328   16.646
  242.000  250.079   58.791    0.453    0.342   20.596
  242.250  250.267   56.219    0.458    0.355   28.824
  242.500  250.146   57.206    0.464    0.360   34.880
  242.750  249.087   57.821    0.463    0.360   41.429
  243.000  247.506   55.623    0.465    0.359   48.295
  243.250  245.094   50.926    0.459    0.353   56.724
  243.500  242.471   51.414    0.464    0.351   64.793
  243.750  238.704   54.340    0.483    0.351   72.100
  244.000  236.704   55.141    0.487    0.358   79.779
  244.250  235.957   53.943    0.455    0.360   87.303
  244.500  235.942   53.806    0.457    0.356   92.196
  244.750  236.444   56.295    0.492    0.352   97.194
  245.000  237.464   57.658    0.495    0.352  101.697
  245.250  238.906   57.210    0.497    0.355  104.445
  245.500  243.053   59.072    0.498    0.356  105.684
  245.750  248.968   60.873    0.503    0.356  105.753
  246.000  253.531   59.736    0.493    0.356  103.088
  246.250  253.406   57.227    0.459    0.354   98.269
