~VERSION INFORMATION
 VERS.                 2.0:   CWLS LOG ASCII STANDARD -VERSION 2.0
 WRAP.                  NO:   ONE LINE PER DEPTH STEP
~WELL INFORMATION BLOCK
#MNEM.UNIT           DATA                    DESCRIPTION OF MNEMONIC
#---------    -------------------            -------------------------------
# Generated from Intellog Unique Number	CS_67_68/WELL/800
WELL.         INTER-CITY MANUFACTURING       : Well_name    - WELL
LOC .         00/10-03-068-13W4/0            : Location     - LOCATION
UWI .         00/10-03-068-13W4/0            : Uwi          - UNIQUE WELL ID
ENTR.         SP                             : Entered      - ENTERED BY
SRVC.         SCHLUMBERGER                   : Scn          - SERVICE COMPANY
STRT.M        289.56                         : top_depth    - START DEPTH
STOP.M        463.310                        : bot_depth    - STOP DEPTH
STEP.M        0.25                           : increment    - STEP LENGTH
 NULL. -999.2500:NULL Value
~CURVE INFORMATION BLOCK
#MNEM UNIT       ERCB CURVE CODE    CURVE DESCRIPTION
#-----------   ------------------   ----------------------------------
DEPT.M        00 001 00 00         : DEPTH        - DEPTH
GR  .API      00 310 00 00         : GR           - GAMMA RAY
DPHI.V/V      00 890 00 00         : PHID         - DENSITY POROSITY (SANDSTONE)
NPHI.V/V      00 330 00 00         : PHIN         - NEUTRON POROSITY (SANDSTONE)
ILD .OHMM     00 120 00 00         : RESD         - DEEP RESISTIVITY (DIL)
~PARAMETER INFORMATION
#MNEM.UNIT           DATA             DESCRIPTION OF MNEMONIC
#---------         -----------     ------------------------------
GL  .M        582.473              : gl           - GROUND LEVEL ELEVATION
EREF.M        585.216              : kb           - ELEVATION OF DEPTH REFERENCE
DATM.M        582.473              : datum        - DATUM ELEVATION
TDD .M        466.344              : tdd          - TOTAL DEPTH DRILLER
RUN .         ONE                  : Run          - RUN NUMBER
ENG .         BILL                 : Engineer     - RECORDING ENGINEER
WIT .         JIM                  : Witness      - WITNESSED BY
MUD .         GEL                  : Mud_type     - MUD TYPE
MATR.         SANDSTONE            : Logunit      - NEUTRON MATRIX
TMAX.C        13.8889              : BHT          - MAXIMUM RECORDED TEMPERATURE
BHTD.M        466.344              : BHTDEP       - MAXIMUM RECORDED TEMPERATURE
MATR.         1                    : LOGUNIT      - NEUTRON MATRIX
RMT .C        25                   : MDTP         - TEMPERATURE OF MUD
NEUT.         1                    : NEUTRON      - NEUTRON TYPE
RESI.         0                    : RESIST       - RESISTIVITY TYPE
RMC .OHMM     0.25                 : RMC          - RESISTIVITY OF MUD CAKE
RMF .OHMM     0.25                 : RMF          - RESISTIVITY OF MUD FILTRATE
SUFT.C        15                   : SUFT         - SURFACE TEMPERATURE
~A  DEPTH       GR     PHID     PHIN     RESD
# ...
  376.560   62.293    0.123    0.172    2.643
  376.810   58.938    0.013    0.161    3.031
  377.060   54.666   -0.004    0.150    3.539
  377.310   51.786   -0.002    0.141    4.390
  377.560   49.282   -0.004    0.133    6.133
  377.810   47.200   -0.011    0.138    8.793
  378.060   46.293   -0.019    0.149   11.853
  378.310   46.002   -0.011    0.158   16.128
  378.560   45.916   -0.002    0.162   18.406
  378.810   46.806    0.004    0.166   18.762
  379.060   46.738    0.001    0.169   16.694
  379.310   46.456    0.001    0.156   15.703
  379.560   49.972   -0.003    0.141   14.435
  379.810   51.524    0.003    0.131   13.535
  380.060   53.518    0.013    0.136   12.803
  380.310   55.758    0.020    0.147   11.933
  380.560   56.571    0.032    0.151   11.237
  380.810   53.539    0.021    0.153   10.578
  381.060   52.790    0.016    0.168    9.773
  381.310   57.983    0.042    0.199    8.958
  381.560   63.409    0.117    0.235    8.000
  381.810   69.851    0.184    0.271    7.108
  382.060   74.328    0.234    0.310    5.927
  382.310   78.845    0.262    0.347    4.737
  382.560   82.063    0.280    0.380    3.889
  382.810   83.220    0.275    0.401    3.187
  383.060   84.443    0.264    0.426    2.780
  383.310   85.541    0.261    0.448    2.523
  383.560   85.407    0.259    0.442    2.374
  383.810   83.768    0.247    0.438    2.382
  384.060   82.826    0.236    0.433    2.431
  384.310   81.359    0.224    0.435    2.524
  384.560   83.520    0.219    0.438    2.625
  384.810   83.396    0.226    0.425    2.738
  385.060   81.894    0.221    0.421    2.809
  385.310   81.378    0.234    0.419    2.891
  385.560   82.874    0.240    0.422    2.959
  385.810   85.613    0.249    0.432    3.015
  386.060   87.527    0.236    0.439    3.047
  386.310   87.886    0.225    0.428    3.051
  386.560   87.843    0.205    0.425    3.012
  386.810   88.666    0.187    0.441    2.972
  387.060   89.827    0.191    0.447    2.946
  387.310   91.035    0.192    0.443    2.942
  387.560   90.529    0.191    0.441    2.982
  387.810   90.076    0.190    0.430    3.043
  388.060   91.262    0.185    0.431    3.143
  388.310   91.433    0.184    0.423    3.342
  388.560   89.179    0.195    0.422    3.535
  388.810   85.722    0.189    0.418    3.670
  389.060   84.853    0.180    0.412    3.781
  389.310   85.275    0.185    0.409    3.876
  389.560   86.163    0.194    0.413    3.896
  389.810   88.723    0.201    0.406    3.887
  390.060   92.036    0.191    0.405    3.845
  390.310   95.098    0.185    0.415    3.809
  390.560   97.684    0.187    0.427    3.765
  390.810   99.820    0.196    0.438    3.720
  391.060  100.997    0.201    0.428    3.666
  391.310  101.216    0.207    0.424    3.597
  391.560  101.067    0.226    0.428    3.518
  391.810   98.986    0.239    0.436    3.427
  392.060   94.549    0.250    0.443    3.317
  392.310   90.464    0.237    0.448    3.267
  392.560   92.920    0.216    0.448    3.206
  392.810   93.681    0.229    0.461    3.296
  393.060   90.723    0.227    0.481    3.376
  393.310   91.512    0.219    0.480    3.381
  393.560   93.960    0.242    0.461    3.319
  393.810   95.726    0.231    0.456    3.155
  394.060   96.884    0.245    0.493    2.889
  394.310   96.951    0.252    0.518    2.615
  394.560   96.344    0.252    0.530    2.390
  394.810   95.337    0.235    0.501    2.218
  395.060   96.272    0.218    0.478    2.068
  395.310   97.528    0.203    0.461    1.951
  395.560   99.100    0.223    0.448    2.083
  395.810  100.230    0.217    0.450    2.225
  396.060  100.007    0.212    0.463    2.415
  396.310   99.766    0.207    0.458    2.609
  396.560  100.168    0.219    0.454    2.722
  396.810  100.528    0.231    0.459    2.789
  397.060   98.388    0.239    0.467    2.774
  397.310   93.724    0.262    0.465    2.708
  397.560   89.044    0.262    0.463    2.581
  397.810   85.943    0.231    0.453    2.527
  398.060   89.308    0.205    0.439    2.463
  398.310   89.722    0.224    0.447    2.439
  398.560   84.698    0.238    0.465    2.480
  398.810   81.959    0.255    0.481    2.593
  399.060   81.978    0.245    0.453    2.695
  399.310   82.613    0.228    0.444    2.759
  399.560   82.587    0.238    0.455    2.738
  399.810   80.794    0.261    0.462    2.602
  400.060   76.323    0.264    0.464    2.452
  400.310   72.476    0.272    0.467    2.354
  400.560   72.587    0.295    0.452    2.231
  400.810   72.614    0.282    0.446    2.136
  401.060   71.200    0.257    0.445    2.070
  401.310   67.596    0.271    0.454    1.967
  401.560   62.424    0.289    0.467    1.827
  401.810   58.044    0.277    0.480    1.671
  402.060   63.270    0.262    0.459    1.534
  402.310   67.071    0.254    0.447    1.448
  402.560   69.876    0.249    0.443    1.627
  402.810   69.115    0.167    0.423    2.168
  403.060   61.834    0.102    0.255    2.779
  403.310   55.866    0.059    0.213    4.006
  403.560   56.580    0.122    0.263    5.484
  403.810   60.058    0.208    0.439    6.658
  404.060   62.016    0.238    0.455    7.430
  404.310   63.547    0.278    0.466    6.655
  404.560   63.967    0.299    0.468    4.970
  404.810   63.502    0.310    0.459    3.689
  405.060   62.698    0.296    0.450    2.862
  405.310   62.744    0.302    0.442    2.413
  405.560   64.856    0.308    0.430    2.051
  405.810   66.326    0.301    0.423    1.871
  406.060   65.455    0.299    0.434    1.812
  406.310   63.758    0.292    0.427    1.827
  406.560   64.388    0.291    0.416    1.845
  406.810   65.451    0.283    0.418    1.850
  407.060   66.160    0.270    0.425    1.865
  407.310   66.737    0.270    0.426    1.875
  407.560   66.741    0.286    0.430    1.887
  407.810   66.179    0.302    0.436    1.907
  408.060   64.479    0.289    0.429    1.917
  408.310   62.203    0.279    0.417    1.922
  408.560   61.463    0.281    0.411    1.931
  408.810   61.411    0.275    0.405    1.925
  409.060   62.673    0.269    0.415    1.934
  409.310   63.944    0.285    0.429    1.950
  409.560   65.283    0.288    0.432    1.966
  409.810   66.817    0.274    0.438    1.997
  410.060   68.380    0.266    0.441    2.036
  410.310   69.862    0.282    0.442    2.071
  410.560   70.934    0.286    0.444    2.115
  410.810   70.466    0.261    0.425    2.155
  411.060   71.523    0.225    0.420    2.202
  411.310   73.930    0.184    0.427    2.232
  411.560   76.937    0.192    0.442    2.298
  411.810   78.705    0.259    0.450    2.356
  412.060   80.018    0.268    0.448    2.438
  412.310   81.236    0.283    0.458    2.491
  412.560   82.708    0.287    0.453    2.510
  412.810   84.999    0.284    0.440    2.522
  413.060   88.472    0.275    0.433    2.555
  413.310   92.547    0.279    0.435    2.639
  413.560   94.917    0.261    0.439    2.754
  413.810   98.439    0.235    0.443    2.833
  414.060  100.291    0.219    0.446    2.875
  414.310   99.408    0.207    0.443    2.712
  414.560   96.211    0.197    0.443    2.303
  414.810   95.389    0.204    0.434    1.946
  415.060   96.120    0.194    0.434    1.728
  415.310   97.221    0.194    0.445    1.525
  415.560   98.378    0.215    0.445    1.462
  415.810   99.341    0.220    0.431    1.469
  416.060  100.451    0.207    0.423    1.593
  416.310  102.200    0.199    0.427    1.865
  416.560  104.568    0.187    0.451    2.211
  416.810  105.999    0.199    0.486    2.574
  417.060  105.834    0.212    0.511    2.839
  417.310  104.389    0.219    0.525    2.969
  417.560  102.642    0.222    0.542    2.816
  417.810  101.536    0.230    0.522    2.595
  418.060  101.264    0.246    0.524    2.408
  418.310  103.016    0.248    0.530    2.241
  418.560  105.986    0.225    0.523    2.124
  418.810  107.633    0.223    0.524    2.020
  419.060  109.337    0.230    0.532    1.951
  419.310  109.878    0.253    0.546    1.888
  419.560  108.530    0.253    0.547    1.837
  419.810  107.812    0.232    0.540    1.826
