~VERSION INFORMATION
 VERS.                 2.0:   CWLS LOG ASCII STANDARD -VERSION 2.0
 WRAP.                  NO:   ONE LINE PER DEPTH STEP
~WELL INFORMATION BLOCK
#MNEM.UNIT           DATA                    DESCRIPTION OF MNEMONIC
#---------    -------------------            -------------------------------
# Generated from Intellog Unique Number	CW_76_78/WELL/2585
NULL.         -999.25                        : NULL_VALUE
WELL.         SOBC ET AL SANDY LAKE          : Well_name    - WELL              
LOC .         11-36-078-22W4                 : Location     - LOCATION          
UWI .         00/11-36-078-22W4/0            : Uwi          - UNIQUE WELL ID    
ENTR.         MAX                            : Entered      - ENTERED BY        
SRVC.         SCHLUMBERGER                   : Scn          - SERVICE COMPANY   
DATE.         02 MAR 74                      : Date         - LOG DATE
STRT.M        213.36                         : top_depth    - START DEPTH       
STOP.M        429.86                         : bot_depth    - STOP DEPTH        
STEP.M        0.25                           : increment    - STEP LENGTH       
~CURVE INFORMATION BLOCK
#MNEM UNIT       ERCB CURVE CODE    CURVE DESCRIPTION
#-----------   ------------------   ----------------------------------
DEPT.M        00 001 00 00         : DEPTH        - DEPTH                       
ILD .OHMM     00 120 00 00         : RESD         - DEEP RESISTIVITY (DIL)      
NPHI.V/V      00 330 00 00         : PHIN         - NEUTRON POROSITY (SANDSTONE)
DPHI.V/V      00 890 00 00         : PHID         - DENSITY POROSITY (SANDSTONE)
CALI.MM       00 280 01 00         : CAL          - CALIPER                     
GR  .API      00 310 00 00         : GR           - GAMMA RAY                   
~PARAMETER INFORMATION       
#MNEM.UNIT           DATA             DESCRIPTION OF MNEMONIC
#---------         -----------     ------------------------------
GL  .M        562.966              : gl           - GROUND LEVEL ELEVATION      
EREF.M        565.404              : kb           - ELEVATION OF DEPTH REFERENCE
DATM.M        562.966              : datum        - DATUM ELEVATION             
TDD .M        434.34               : tdd          - TOTAL DEPTH DRILLER         
RUN .         ONE                  : Run          - RUN NUMBER                  
ENG .         BILL                 : Engineer     - RECORDING ENGINEER          
WIT .         JIM                  : Witness      - WITNESSED BY                
MUD .         GEL                  : Mud_type     - MUD TYPE                    
MATR.         SANDSTONE            : Logunit      - NEUTRON MATRIX              
TMAX.C        75                   : BHT          - MAXIMUM RECORDED TEMPERATURE
BHTD.M        434.34               : BHTDEP       - MAXIMUM RECORDED TEMPERATURE
RMT .C        14.4444              : MDTP         - TEMPERATURE OF MUD          
MUDD.KG/M     9200                 : MWT          - MUD DENSITY                 
NEUT.         1                    : NEUTRON      - NEUTRON TYPE                
RESI.         0                    : RESIST       - RESISTIVITY TYPE            
RM  .OHMM     7                    : RM           - RESISTIVITY OF MUD          
RMC .OHMM     0                    : RMC          - RESISTIVITY OF MUD CAKE     
RMF .OHMM     8.51                 : RMF          - RESISTIVITY OF MUD FILTRATE 
SUFT.C        -20.5556             : SUFT         - SURFACE TEMPERATURE         
~A  DEPTH     RESD     PHIN     PHID      CAL       GR
  213.360    3.284    0.607    0.266  215.915   92.046
  213.610    3.341    0.604    0.262  215.851   94.952
  213.860    3.368    0.607    0.257  217.257   94.608
  214.110    3.395    0.613    0.247  218.672   91.320
  214.360    3.454    0.620    0.247  217.600   91.567
  214.610    3.546    0.624    0.258  214.021   91.523
  214.860    3.807    0.626    0.241  210.960   91.190
  215.110    4.722    0.630    0.232  208.389   90.546
  215.360    5.649    0.604    0.226  207.816   89.328
  215.610    7.070    0.489    0.214  208.732   80.431
  215.860    8.612    0.429    0.173  207.170   78.323
  216.110   10.027    0.386    0.146  206.079   85.358
  216.360    9.577    0.431    0.243  205.496   97.407
  216.610    8.435    0.509    0.237  205.441  101.776
  216.860    6.849    0.543    0.237  208.364  104.693
  217.110    6.601    0.581    0.232  208.281  108.183
  217.360    6.080    0.606    0.230  208.189  107.555
  217.610    5.028    0.593    0.236  208.134  104.858
  217.860    4.674    0.586    0.237  207.061   98.910
  218.110    4.305    0.597    0.250  205.480   97.687
  218.360    4.038    0.614    0.250  204.907   95.857
  218.610    3.858    0.609    0.265  205.823   94.350
  218.860    3.586    0.624    0.263  207.747   90.762
  219.110    3.128    0.628    0.278  208.682   87.758
  219.360    3.071    0.603    0.281  210.097   85.661
  219.610    2.933    0.610    0.295  210.023   85.312
  219.860    2.776    0.603    0.298  205.945   86.737
  220.110    2.824    0.603    0.320  206.861   86.994
  220.360    3.631    0.598    0.330  207.296   84.892
  220.610    4.384    0.563    0.336  206.714   79.239
  220.860    5.340    0.517    0.339  205.142   73.292
  221.110    6.504    0.490    0.346  204.550   64.100
  221.360    9.486    0.477    0.348  203.496   63.745
  221.610   12.760    0.490    0.345  200.426   65.782
  221.860   21.690    0.494    0.329  200.334   73.697
  222.110   20.532    0.477    0.307  201.768   75.128
  222.360   15.654    0.458    0.293  204.182   75.084
  222.610   12.943    0.467    0.286  207.096   76.226
  222.860   12.363    0.468    0.275  209.038   78.831
  223.110   11.698    0.498    0.291  208.956   77.903
  223.360   11.698    0.508    0.306  207.874   72.846
  223.610   11.676    0.520    0.299  205.303   71.617
  223.860   12.095    0.495    0.290  203.722   72.748
  224.110   14.602    0.492    0.289  204.647   71.825
  224.360   18.777    0.491    0.303  207.071   64.403
  224.610   27.883    0.481    0.332  208.504   56.980
  224.860   38.189    0.481    0.353  207.931   51.038
  225.110   47.793    0.471    0.345  202.836   48.035
  225.360   50.402    0.463    0.339  201.773   47.407
  225.610   48.134    0.456    0.338  201.200   47.068
  225.860   44.346    0.463    0.335  202.116   46.424
  226.110   38.014    0.488    0.333  204.030   46.976
  226.360   31.427    0.514    0.339  204.475   46.343
  226.610   25.754    0.531    0.343  203.883   45.414
  226.860   21.293    0.528    0.342  203.319   45.660
  227.110   19.620    0.515    0.340  203.236   47.386
  227.360   15.366    0.497    0.336  203.172   50.281
  227.610   11.201    0.471    0.320  203.089   52.603
  227.860   10.411    0.476    0.306  202.507   55.219
  228.110    9.855    0.492    0.309  202.415   55.766
  228.360    9.846    0.508    0.302  202.359   57.197
  228.610   14.363    0.500    0.292  204.265   57.437
  228.860   17.652    0.473    0.299  205.699   52.975
  229.110   21.502    0.455    0.327  205.625   48.797
  229.360   24.370    0.458    0.338  204.053   44.024
  229.610   28.124    0.453    0.348  202.472   43.975
  229.860   27.349    0.457    0.351  201.409   45.117
  230.110   19.226    0.467    0.352  201.317   47.433
  230.360   15.336    0.452    0.347  201.252   49.153
  230.610   18.851    0.428    0.287  201.669   50.000
  230.860   23.586    0.360    0.221  201.595   51.142
  231.110   23.359    0.274    0.164  202.012   49.613
  231.360   18.968    0.299    0.119  201.948   49.870
  231.610   13.699    0.452    0.167  202.364   51.301
  231.860   11.639    0.433    0.291  202.300   51.847
  232.110   10.626    0.473    0.281  202.707   59.767
  232.360    9.191    0.518    0.266  203.133   69.456
  232.610    9.019    0.531    0.253  203.133   67.632
  232.860    8.929    0.503    0.239  202.976   65.235
  233.110    9.165    0.465    0.260  202.912   60.472
  233.360    9.754    0.442    0.279  202.847   58.359
  233.610   10.662    0.439    0.260  202.755   66.284
  233.860   10.463    0.485    0.282  202.682   68.305
  234.110    9.726    0.520    0.292  202.608   65.602
  234.360    9.042    0.520    0.300  203.043   67.328
  234.610    8.557    0.517    0.299  203.450   72.888
  234.860    8.467    0.522    0.294  203.368   73.429
  235.110    8.541    0.522    0.289  203.312   70.141
  235.360    8.848    0.515    0.277  203.229   69.803
  235.610    9.759    0.508    0.284  203.147   69.459
  235.860   11.995    0.490    0.288  203.082   65.286
  236.110   14.743    0.516    0.315  203.009   59.639
  236.360   15.410    0.526    0.336  202.907   55.756
  236.610   16.399    0.513    0.336  202.852   54.533
  236.860   16.983    0.496    0.332  202.279   57.439
  237.110   15.505    0.522    0.325  201.206   58.575
  237.360   11.508    0.487    0.324  200.606   62.065
  237.610    8.853    0.448    0.294  201.041   74.999
  237.860    8.083    0.454    0.265  201.975   79.974
  238.110    7.650    0.511    0.249  203.391   85.234
  238.360    7.502    0.479    0.255  205.296   86.070
  238.610    7.500    0.455    0.250  206.739   84.558
  238.860    8.054    0.441    0.248  208.663   82.739
  239.110    9.548    0.434    0.245  209.080   84.170
  239.360   10.160    0.425    0.231  209.515   86.191
  239.610   12.264    0.453    0.232  211.430   86.743
  239.860   12.816    0.454    0.245  212.854   84.329
  240.110   13.397    0.424    0.253  211.773   80.752
  240.360   14.384    0.405    0.258  206.187   75.979
  240.610   15.585    0.389    0.254  204.125   77.115
  240.860   15.585    0.392    0.271  203.552   78.551
  241.110   16.265    0.409    0.284  203.487   78.213
  241.360   16.403    0.420    0.280  202.887   74.619
  241.610   16.243    0.411    0.283  202.831   71.921
  241.860   16.243    0.407    0.297  202.249   70.988
  242.110   15.638    0.425    0.301  202.166   72.719
  242.360   14.023    0.428    0.282  202.102   74.735
  242.610   12.917    0.424    0.278  202.019   74.992
  242.860   12.229    0.417    0.275  201.954   72.584
  243.110   12.217    0.410    0.264  202.362   68.700
  243.360   12.094    0.420    0.262  202.778   68.657
  243.610   11.977    0.425    0.275  203.223   70.083
  243.860   11.753    0.424    0.282  203.648   72.393
  244.110   11.325    0.420    0.269  203.565   74.425
  244.360   10.623    0.415    0.264  203.483   77.620
  244.610    9.875    0.444    0.248  203.418   78.762
  244.860    8.776    0.473    0.238  203.345   79.308
  245.110    6.631    0.521    0.261  203.743   80.740
  245.360    5.787    0.512    0.292  203.170   84.235
  245.610    4.961    0.532    0.277  202.116   92.734
  245.860    4.489    0.580    0.240  201.034  100.954
  246.110    4.249    0.585    0.182  200.951  105.040
  246.360    4.057    0.577    0.209  201.377  105.881
  246.610    3.981    0.577    0.210  202.302  105.843
  246.860    3.942    0.604    0.225  202.737  108.749
  247.110    3.868    0.618    0.228  202.654  109.874
  247.360    3.830    0.606    0.225  202.571  112.490
  247.610    3.657    0.607    0.218  202.488  115.686
  247.860    3.494    0.641    0.222  202.914  114.168
  248.110    3.367    0.662    0.229  203.349  112.650
  248.360    3.364    0.687    0.242  203.275  112.311
  248.610    4.097    0.676    0.247  203.202  114.917
  248.860    5.035    0.644    0.255  203.628  115.763
  249.110    6.134    0.585    0.251  204.544  112.760
  249.360    7.143    0.524    0.247  205.968  106.528
  249.610    7.600    0.487    0.258  208.382   97.631
