~VERSION INFORMATION
 VERS.                 2.0:   CWLS LOG ASCII STANDARD -VERSION 2.0
 WRAP.                  NO:   ONE LINE PER DEPTH STEP
~WELL INFORMATION BLOCK
#MNEM.UNIT           DATA                    DESCRIPTION OF MNEMONIC
#---------    -------------------            -------------------------------
# Generated from Intellog Unique Number	CW_82_90/WELL/3083
WELL.         UNION ET AL MCLEAN             : Well_name    - WELL
LOC .         00/14-22-087-19W4/0            : Location     - LOCATION
UWI .         00/14-22-087-19W4/0            : Uwi          - UNIQUE WELL ID
ENTR.         MAX                            : Entered      - ENTERED BY
SRVC.         SCHLUMBERGER                   : Scn          - SERVICE COMPANY
STRT.M        50                             : top_depth    - START DEPTH
STOP.M        237                            : bot_depth    - STOP DEPTH
STEP.M        0.25                           : increment    - STEP LENGTH
 NULL. -999.2500:NULL Value
~CURVE INFORMATION BLOCK
#MNEM UNIT       ERCB CURVE CODE    CURVE DESCRIPTION
#-----------   ------------------   ----------------------------------
DEPT.M        00 001 00 00         : DEPTH        - DEPTH
GR  .API      00 310 00 00         : GR           - GAMMA RAY
CALI.MM       00 280 01 00         : CAL          - CALIPER
DPHI.V/V      00 890 00 00         : PHID         - DENSITY POROSITY (SANDSTONE)
NPHI.V/V      00 330 00 00         : PHIN         - NEUTRON POROSITY (SANDSTONE)
ILD .OHMM     00 120 00 00         : RESD         - DEEP RESISTIVITY (DIL)
~PARAMETER INFORMATION
#MNEM.UNIT           DATA             DESCRIPTION OF MNEMONIC
#---------         -----------     ------------------------------
GL  .M        515                  : gl           - GROUND LEVEL ELEVATION
EREF.M        518.6                : kb           - ELEVATION OF DEPTH REFERENCE
DATM.M        515                  : datum        - DATUM ELEVATION
TDD .M        238                  : tdd          - TOTAL DEPTH DRILLER
RUN .         ONE                  : Run          - RUN NUMBER
ENG .         BILL                 : Engineer     - RECORDING ENGINEER
WIT .         JIM                  : Witness      - WITNESSED BY
MUD .         GEL                  : Mud_type     - MUD TYPE
MATR.         SANDSTONE            : Logunit      - NEUTRON MATRIX
TMAX.C        21.4                 : BHT          - MAXIMUM RECORDED TEMPERATURE
BHTD.M        238                  : BHTDEP       - MAXIMUM RECORDED TEMPERATURE
MATR.         1                    : LOGUNIT      - NEUTRON MATRIX
RMT .C        18.8                 : MDTP         - TEMPERATURE OF MUD
NEUT.         1                    : NEUTRON      - NEUTRON TYPE
RESI.         0                    : RESIST       - RESISTIVITY TYPE
RMC .OHMM     6.85                 : RMC          - RESISTIVITY OF MUD CAKE
RMF .OHMM     7.06                 : RMF          - RESISTIVITY OF MUD FILTRATE
SUFT.C        -15                  : SUFT         - SURFACE TEMPERATURE
~A  DEPTH       GR      CAL     PHID     PHIN     RESD
# ...
  159.500   65.656  299.554    0.255    0.441   14.082
  159.750   63.556  299.534    0.275    0.464   14.099
  160.000   65.632  300.508    0.290    0.478   14.118
  160.250   68.902  302.481    0.285    0.495   13.372
  160.500   73.069  305.448    0.268    0.456   11.132
  160.750   78.427  309.405    0.255    0.438   10.161
  161.000   85.874  310.877    0.239    0.451    9.626
  161.250   93.619  310.863    0.226    0.472    9.118
  161.500   99.276  311.340    0.226    0.504    8.246
  161.750   99.562  311.323    0.234    0.527    7.323
  162.000   97.763  311.305    0.233    0.521    6.683
  162.250   96.258  311.285    0.230    0.516    6.158
  162.500   95.354  309.775    0.227    0.543    6.281
  162.750   92.657  307.771    0.217    0.579    6.348
  163.000   87.280  306.754    0.212    0.564    6.014
  163.250   81.303  307.238    0.214    0.531    5.856
  163.500   75.027  304.237    0.207    0.524    6.083
  163.750   71.437  297.752    0.197    0.483    6.932
  164.000   70.231  296.742    0.203    0.420   10.232
  164.250   68.133  297.721    0.230    0.416   12.437
  164.500   66.632  303.169    0.270    0.428   10.545
  164.750   66.323  303.646    0.285    0.430   10.658
  165.000   68.102  302.636    0.274    0.420   12.485
  165.250   68.986  302.619    0.249    0.409   16.495
  165.500   67.186  303.098    0.223    0.409   16.666
  165.750   68.665  304.572    0.207    0.414   18.138
  166.000   77.605  306.542    0.265    0.418   19.915
  166.250   83.260  308.513    0.232    0.407   19.756
  166.500   87.724  308.493    0.216    0.405   13.418
  166.750   86.520  309.469    0.218    0.415   11.377
  167.000   85.016  309.449    0.209    0.418   11.819
  167.250   84.709  309.432    0.204    0.424   11.511
  167.500   85.591  309.411    0.228    0.432   11.314
  167.750   84.983  309.398    0.228    0.426   11.122
  168.000   84.079  309.877    0.225    0.420   11.449
  168.250   83.473  310.357    0.218    0.413   12.342
  168.500   82.566  311.331    0.211    0.414   12.588
  168.750   82.556  311.812    0.206    0.419   12.377
  169.000   83.737  312.789    0.201    0.419   11.722
  169.250   85.516  313.266    0.202    0.413   11.416
  169.500   85.207  312.254    0.212    0.407   11.536
  169.750   79.529  307.759    0.222    0.410   12.094
  170.000   75.939  305.258    0.229    0.416   13.533
  170.250   72.945  303.749    0.238    0.411   14.724
  170.500   71.442  303.234    0.258    0.396   14.472
  170.750   68.449  303.213    0.261    0.405   13.581
  171.000   64.859  303.193    0.269    0.409   14.643
  171.250   61.565  302.683    0.295    0.410   16.531
  171.500   61.852  302.663    0.319    0.431   17.824
  171.750   63.928  302.150    0.285    0.446   17.846
  172.000   62.727  302.130    0.233    0.439   20.520
  172.250   62.120  301.617    0.126    0.350   31.720
  172.500   63.899  301.597    0.107    0.273   42.694
  172.750   66.273  301.581    0.169    0.299   24.779
  173.000   67.457  301.564    0.202    0.327   17.789
  173.250   69.534  302.041    0.247    0.395   16.701
  173.500   70.117  302.023    0.316    0.398   17.353
  173.750   70.706  302.500    0.327    0.405   17.533
  174.000   75.766  302.480    0.302    0.415   16.608
  174.250   79.632  302.959    0.283    0.416   15.876
  174.500   81.411  302.946    0.267    0.432   14.493
  174.750   80.505  302.928    0.260    0.438   13.477
  175.000   72.038  297.371    0.291    0.418   13.494
  175.250   76.766  297.781    0.277    0.414   18.318
  175.500   76.115  297.693    0.271    0.447   13.978
  175.750   75.166  298.590    0.268    0.431   12.595
  176.000   77.192  299.000    0.264    0.418   13.283
  176.250   75.353  301.900    0.261    0.429   13.623
  176.500   78.295  303.804    0.253    0.441   13.844
  176.750   77.638  302.732    0.245    0.449   13.938
  177.000   75.487  302.135    0.242    0.452   12.443
  177.250   73.635  301.051    0.237    0.472   11.214
  177.500   71.803  301.450    0.232    0.460   11.821
  177.750   65.463  302.348    0.186    0.384   13.673
  178.000   65.709  302.780    0.143    0.349   17.185
  178.250   71.346  302.692    0.137    0.340   20.061
  178.500   73.086  304.087    0.176    0.367   20.765
  178.750   71.825  305.991    0.230    0.414   13.793
  179.000   76.865  308.404    0.203    0.468    9.686
  179.250   87.568  308.792    0.170    0.463    9.058
  179.500   90.205  308.715    0.239    0.483    5.486
  179.750   86.865  309.623    0.255    0.511    4.719
  180.000   85.020  309.038    0.240    0.477    4.797
  180.250   84.064  308.452    0.233    0.443    5.347
  180.500   82.817  308.375    0.231    0.430    8.158
  180.750   79.770  308.774    0.223    0.454   13.038
  181.000   77.333  310.169    0.216    0.456   13.866
  181.250   76.975  312.593    0.196    0.452   13.969
  181.500   80.216  312.008    0.191    0.440   14.191
  181.750   83.151  309.906    0.205    0.425   14.558
  182.000   83.390  309.818    0.211    0.405   14.789
  182.250   82.448  310.217    0.206    0.418   14.092
  182.500   79.102  310.140    0.175    0.429   13.797
  182.750   81.446  310.042    0.131    0.426   15.239
  183.000   86.174  310.474    0.142    0.433   15.057
  183.250   89.707  310.884    0.200    0.439   13.956
  183.500   89.050  310.796    0.214    0.436   12.345
  183.750   88.705  310.697    0.213    0.435   11.438
  184.000   88.652  310.112    0.207    0.446   11.198
  184.250   86.800  307.512    0.207    0.441   10.664
  184.500   84.357  306.450    0.208    0.422   10.940
  184.750   83.408  305.367    0.216    0.417   11.863
  185.000   83.356  304.272    0.222    0.421   13.220
  185.250   82.101  304.184    0.225    0.418   14.203
  185.500   79.366  304.107    0.219    0.436   14.562
  185.750   70.344  304.008    0.199    0.427   14.398
  186.000   59.529  304.430    0.154    0.380   13.838
  186.250   56.780  304.818    0.046    0.335   15.426
  186.500   56.130  305.250    0.012    0.297   25.106
  186.750   53.687  306.147    0.059    0.259   51.972
  187.000   50.042  305.550    0.053    0.284   49.967
  187.250   48.502  305.451    0.035    0.269   39.200
  187.500   52.334  305.375    0.033    0.246   46.158
  187.750   57.062  305.298    0.064    0.238   54.402
  188.000   56.113  305.708    0.086    0.257   62.906
  188.250   56.060  305.620    0.080    0.285   50.285
  188.500   58.683  304.536    0.066    0.303   42.866
  188.750   60.430  302.457    0.072    0.273   44.769
  189.000   58.285  301.351    0.177    0.266   37.836
  189.250   58.532  301.761    0.167    0.324   29.683
  189.500   62.071  303.167    0.129    0.299   28.794
  189.750   66.194  303.090    0.107    0.273   33.925
  190.000   73.624  303.003    0.140    0.272   35.116
  190.250   77.157  303.911    0.177    0.310   29.944
  190.500   83.671  306.800    0.200    0.360   22.425
  190.750   80.039  307.708    0.213    0.416   13.094
  191.000   69.224  307.620    0.200    0.443   10.659
  191.250   60.500  306.027    0.172    0.430   10.732
  191.500   56.258  304.933    0.132    0.382   15.775
  191.750   66.072  305.863    0.105    0.337   20.389
  192.000   74.690  308.276    0.197    0.349   34.125
  192.250   74.339  310.169    0.216    0.438   23.745
  192.500   70.402  309.572    0.194    0.443   14.249
  192.750   66.160  310.004    0.157    0.416   18.076
  193.000   68.497  311.388    0.125    0.387   23.356
  193.250   75.622  311.798    0.158    0.374   22.448
  193.500   76.167  311.224    0.162    0.400   17.444
  193.750   75.218  311.125    0.149    0.427   17.569
  194.000   74.567  312.033    0.168    0.430   18.524
  194.250   75.391  311.458    0.179    0.433   19.004
  194.500   76.553  311.370    0.190    0.424   18.958
  194.750   74.403  313.274    0.197    0.428   17.394
  195.000   75.240  314.182    0.192    0.443   15.108
  195.250   78.480  314.582    0.185    0.455   15.495
  195.500   80.805  314.981    0.196    0.461   15.320
  195.750   80.765  314.893    0.210    0.470   13.803
