~VERSION INFORMATION
 VERS.                 2.0:   CWLS LOG ASCII STANDARD -VERSION 2.0
 WRAP.                  NO:   ONE LINE PER DEPTH STEP
~WELL INFORMATION BLOCK
#MNEM.UNIT           DATA                    DESCRIPTION OF MNEMONIC
#---------    -------------------            -------------------------------
# Generated from Intellog Unique Number	CS_73_76/WELL/3247
WELL.         HOME HB DEVENISH               : Well_name    - WELL
LOC .         00/10-29-075-08W4/0            : Location     - LOCATION
UWI .         00/10-29-075-08W4/0            : Uwi          - UNIQUE WELL ID
ENTR.         SP                             : Entered      - ENTERED BY
SRVC.         SCHLUMBERGER                   : Scn          - SERVICE COMPANY
STRT.M        262.128                        : top_depth    - START DEPTH
STOP.M        490.378                        : bot_depth    - STOP DEPTH
STEP.M        0.25                           : increment    - STEP LENGTH
 NULL. -999.2500:NULL Value
~CURVE INFORMATION BLOCK
#MNEM UNIT       ERCB CURVE CODE    CURVE DESCRIPTION
#-----------   ------------------   ----------------------------------
DEPT.M        00 001 00 00         : DEPTH        - DEPTH
GR  .API      00 310 00 00         : GR           - GAMMA RAY
DPHI.V/V      00 890 00 00         : PHID         - DENSITY POROSITY (SANDSTONE)
NPHI.V/V      00 330 00 00         : PHIN         - NEUTRON POROSITY (SANDSTONE)
ILD .OHMM     00 120 00 00         : RESD         - DEEP RESISTIVITY (DIL)
~PARAMETER INFORMATION
#MNEM.UNIT           DATA             DESCRIPTION OF MNEMONIC
#---------         -----------     ------------------------------
GL  .M        662.33               : gl           - GROUND LEVEL ELEVATION
EREF.M        665.378              : kb           - ELEVATION OF DEPTH REFERENCE
DATM.M        662.33               : datum        - DATUM ELEVATION
TDD .M        498.348              : tdd          - TOTAL DEPTH DRILLER
RUN .         ONE                  : Run          - RUN NUMBER
ENG .         BILL                 : Engineer     - RECORDING ENGINEER
WIT .         JIM                  : Witness      - WITNESSED BY
MUD .         GEL                  : Mud_type     - MUD TYPE
MATR.         SANDSTONE            : Logunit      - NEUTRON MATRIX
TMAX.C        16.6667              : BHT          - MAXIMUM RECORDED TEMPERATURE
BHTD.M        498.348              : BHTDEP       - MAXIMUM RECORDED TEMPERATURE
MATR.         1                    : LOGUNIT      - NEUTRON MATRIX
RMT .C        25                   : MDTP         - TEMPERATURE OF MUD
NEUT.         1                    : NEUTRON      - NEUTRON TYPE
RESI.         0                    : RESIST       - RESISTIVITY TYPE
RMC .OHMM     0.25                 : RMC          - RESISTIVITY OF MUD CAKE
RMF .OHMM     0.25                 : RMF          - RESISTIVITY OF MUD FILTRATE
SUFT.C        15                   : SUFT         - SURFACE TEMPERATURE
~A  DEPTH       GR     PHID     PHIN     RESD
# ...
  349.128   55.452    0.356    0.459   11.810
  349.378   55.527    0.342    0.461    8.266
  349.628   55.579    0.331    0.462    6.202
  349.878   59.051    0.309    0.456    4.850
  350.128   65.278    0.279    0.450    4.119
  350.378   76.045    0.256    0.445    3.673
  350.628   85.882    0.244    0.494    3.842
  350.878   94.862    0.247    0.558    4.066
  351.128   97.984    0.236    0.574    4.493
  351.378   95.438    0.241    0.562    4.774
  351.628   92.851    0.260    0.545    5.426
  351.878   89.802    0.247    0.531    6.105
  352.128   86.514    0.236    0.535    6.644
  352.378   84.264    0.248    0.525    6.734
  352.628   86.299    0.249    0.510    6.976
  352.878   90.381    0.230    0.500    6.848
  353.128   93.894    0.216    0.494    6.720
  353.378   96.049    0.202    0.481    6.515
  353.628   95.923    0.214    0.472    6.491
  353.878   94.901    0.235    0.467    6.618
  354.128   92.815    0.223    0.470    6.745
  354.378   92.532    0.237    0.482    6.727
  354.628   92.527    0.236    0.491    6.297
  354.878   91.522    0.250    0.493    5.220
  355.128   91.436    0.264    0.483    4.278
  355.378   92.248    0.253    0.474    3.610
  355.628   97.802    0.239    0.505    3.357
  355.878  101.205    0.225    0.545    3.137
  356.128  105.531    0.236    0.559    3.138
  356.378  104.085    0.251    0.578    3.217
  356.628   99.485    0.241    0.567    3.454
  356.878   96.292    0.251    0.541    3.621
  357.128   94.116    0.272    0.524    3.733
  357.378   98.986    0.257    0.553    3.776
  357.628  103.582    0.258    0.564    3.803
  357.878  105.295    0.260    0.561    4.126
  358.128  100.017    0.251    0.571    4.839
  358.378   93.168    0.255    0.553    5.486
  358.628   87.295    0.255    0.528    6.038
  358.878   85.940    0.263    0.510    6.939
  359.128   85.736    0.278    0.525    7.714
  359.378   84.043    0.278    0.533    8.169
  359.628   85.866    0.268    0.520    8.570
  359.878   88.878    0.263    0.513    8.544
  360.128   87.634    0.267    0.503    8.285
  360.378   87.679    0.253    0.493    7.920
  360.628   90.483    0.241    0.510    7.368
  360.878   91.802    0.226    0.502    7.178
  361.128   91.110    0.207    0.498    7.177
  361.378   89.683    0.223    0.515    7.173
  361.628   87.678    0.260    0.526    7.292
  361.878   86.838    0.262    0.521    7.530
  362.128   89.124    0.253    0.528    7.597
  362.378   91.166    0.247    0.534    7.840
  362.628   91.296    0.255    0.534    8.031
  362.878   89.948    0.266    0.515    8.023
  363.128   90.829    0.249    0.505    7.911
  363.378   91.595    0.247    0.501    7.835
  363.628   88.225    0.243    0.501    7.740
  363.878   86.361    0.253    0.500    7.586
  364.128   88.330    0.247    0.498    7.568
  364.378   89.240    0.241    0.494    7.474
  364.628   90.755    0.237    0.503    7.329
  364.878   89.139    0.234    0.496    7.153
  365.128   87.144    0.229    0.503    7.534
  365.378   87.705    0.235    0.511    7.544
  365.628   90.737    0.233    0.512    7.326
  365.878   91.800    0.227    0.510    7.221
  366.128   91.769    0.215    0.513    7.078
  366.378   91.759    0.210    0.515    6.954
  366.628   92.445    0.218    0.518    6.839
  366.878   91.660    0.221    0.522    6.671
  367.128   92.287    0.227    0.523    6.482
  367.378   93.877    0.211    0.509    6.349
  367.628   95.604    0.209    0.495    6.337
  367.878   97.589    0.203    0.480    6.253
  368.128   98.871    0.193    0.492    6.123
  368.378  100.030    0.193    0.510    6.124
  368.628   99.496    0.192    0.524    6.038
  368.878   98.596    0.194    0.529    5.649
  369.128   97.623    0.216    0.530    4.372
  369.378   97.441    0.201    0.530    3.714
  369.628   98.320    0.190    0.539    3.265
  369.878   98.270    0.226    0.549    2.861
  370.128   98.118    0.271    0.531    2.652
  370.378  100.632    0.274    0.538    2.380
  370.628  102.942    0.276    0.569    2.299
  370.878  104.332    0.270    0.588    2.412
  371.128  103.271    0.280    0.603    2.654
  371.378   99.181    0.264    0.599    2.935
  371.628   96.262    0.239    0.587    3.422
  371.878   92.609    0.211    0.577    3.728
  372.128   89.640    0.199    0.569    4.286
  372.378   88.806    0.249    0.556    4.616
  372.628   90.527    0.253    0.535    5.066
  372.878   91.726    0.250    0.515    5.765
  373.128   91.743    0.274    0.503    6.134
  373.378   90.475    0.277    0.506    6.510
  373.628   90.175    0.272    0.495    6.984
  373.878   88.147    0.274    0.494    7.179
  374.128   84.176    0.285    0.488    7.405
  374.378   75.647    0.293    0.479    7.415
  374.628   65.774    0.300    0.474    7.423
  374.878   60.386    0.305    0.465    7.308
  375.128   56.880    0.314    0.464    7.290
  375.378   55.740    0.322    0.473    7.283
  375.628   55.825    0.310    0.476    7.155
  375.878   55.094    0.306    0.478    7.173
  376.128   55.153    0.309    0.482    7.036
  376.378   55.087    0.316    0.473    7.041
  376.628   55.804    0.321    0.460    7.041
  376.878   55.737    0.327    0.450    7.042
  377.128   55.736    0.331    0.457    7.044
  377.378   55.733    0.332    0.466    7.045
  377.628   55.732    0.339    0.479    7.056
  377.878   55.785    0.337    0.480    7.250
  378.128   55.081    0.330    0.470    7.272
  378.378   55.484    0.338    0.464    7.045
  378.628   58.340    0.332    0.458    7.055
  378.878   60.594    0.322    0.461    7.058
  379.128   63.905    0.310    0.482    7.060
  379.378   64.228    0.322    0.488    7.062
  379.628   64.676    0.319    0.492    7.064
  379.878   63.674    0.321    0.495    7.066
  380.128   62.591    0.326    0.492    7.068
  380.378   61.084    0.319    0.488    7.071
  380.628   60.701    0.322    0.480    7.072
  380.878   61.180    0.324    0.476    7.074
  381.128   62.559    0.328    0.473    7.077
  381.378   65.187    0.331    0.472    7.090
  381.628   67.784    0.332    0.481    6.945
  381.878   69.291    0.324    0.489    6.969
  382.128   70.450    0.311    0.487    6.815
  382.378   71.810    0.295    0.491    6.831
  382.628   72.330    0.286    0.493    6.702
  382.878   73.969    0.273    0.483    6.712
  383.128   75.894    0.252    0.470    6.715
  383.378   77.489    0.221    0.465    6.706
  383.628   79.150    0.213    0.486    6.870
  383.878   79.606    0.205    0.501    7.089
  384.128   77.402    0.178    0.492    7.149
  384.378   75.099    0.119    0.372    7.371
  384.628   70.794    0.108    0.330    7.379
  384.878   63.831    0.148    0.342    7.232
  385.128   62.189    0.200    0.396    7.099
  385.378   62.185    0.309    0.474    6.897
  385.628   62.048    0.330    0.498    6.733
  385.878   60.995    0.326    0.482    6.615
  386.128   60.675    0.333    0.478    6.618
  386.378   59.755    0.328    0.478    6.618
  386.628   59.756    0.322    0.483    6.620
  386.878   60.433    0.331    0.486    6.630
  387.128   60.358    0.338    0.481    6.475
  387.378   60.875    0.342    0.468    6.393
  387.628   60.719    0.344    0.463    6.255
  387.878   59.696    0.353    0.500    6.411
  388.128   59.153    0.362    0.522    6.827
  388.378   59.337    0.356    0.508    7.089
  388.628   60.369    0.348    0.493    7.543
  388.878   61.414    0.339    0.487    7.670
  389.128   61.685    0.326    0.491    7.846
  389.378   62.161    0.333    0.492    7.688
  389.628   61.473    0.332    0.484    7.777
  389.878   61.436    0.322    0.480    7.855
  390.128   60.410    0.319    0.474    7.968
  390.378   59.454    0.324    0.478    8.122
  390.628   58.561    0.318    0.478    8.282
  390.878   59.542    0.310    0.477    8.400
  391.128   60.980    0.315    0.470    8.427
  391.378   61.542    0.322    0.465    8.434
  391.628   61.176    0.318    0.461    8.437
  391.878   59.597    0.322    0.471    8.438
  392.128   59.708    0.309    0.474    8.442
  392.378   59.703    0.317    0.456    8.459
