~VERSION INFORMATION
 VERS.                 2.0:   CWLS LOG ASCII STANDARD -VERSION 2.0
 WRAP.                  NO:   ONE LINE PER DEPTH STEP
~WELL INFORMATION BLOCK
#MNEM.UNIT           DATA                    DESCRIPTION OF MNEMONIC
#---------    -------------------            -------------------------------
# Generated from Intellog Unique Number	CS_71_72/WELL/888
WELL.         MAYNARD ET AL TWEEDIE          : Well_name    - WELL
LOC .         00/11-06-072-12W4/0            : Location     - LOCATION
UWI .         00/11-06-072-12W4/0            : Uwi          - UNIQUE WELL ID
ENTR.         SP                             : Entered      - ENTERED BY
SRVC.         SCHLUMBERGER                   : Scn          - SERVICE COMPANY
STRT.M        290                            : top_depth    - START DEPTH
STOP.M        525                            : bot_depth    - STOP DEPTH
STEP.M        0.25                           : increment    - STEP LENGTH
 NULL. -999.2500:NULL Value
~CURVE INFORMATION BLOCK
#MNEM UNIT       ERCB CURVE CODE    CURVE DESCRIPTION
#-----------   ------------------   ----------------------------------
DEPT.M        00 001 00 00         : DEPTH        - DEPTH
ILD .OHMM     00 120 00 00         : RESD         - DEEP RESISTIVITY (DIL)
DPHI.V/V      00 890 00 00         : PHID         - DENSITY POROSITY (LIMESTONE)
NPHI.V/V      00 330 00 00         : PHIN         - NEUTRON POROSITY (LIMESTONE)
GR  .API      00 310 00 00         : GR           - GAMMA RAY
~PARAMETER INFORMATION
#MNEM.UNIT           DATA             DESCRIPTION OF MNEMONIC
#---------         -----------     ------------------------------
GL  .M        620.85               : gl           - GROUND LEVEL ELEVATION
EREF.M        624.2                : kb           - ELEVATION OF DEPTH REFERENCE
DATM.M        620.85               : datum        - DATUM ELEVATION
TDD .M        540                  : tdd          - TOTAL DEPTH DRILLER
RUN .         ONE                  : Run          - RUN NUMBER
ENG .         BILL                 : Engineer     - RECORDING ENGINEER
WIT .         JIM                  : Witness      - WITNESSED BY
MUD .         GEL                  : Mud_type     - MUD TYPE
MATR.         LIMESTONE            : Logunit      - NEUTRON MATRIX
TMAX.C        20                   : BHT          - MAXIMUM RECORDED TEMPERATURE
BHTD.M        540                  : BHTDEP       - MAXIMUM RECORDED TEMPERATURE
MATR.         1                    : LOGUNIT      - NEUTRON MATRIX
RMT .C        25                   : MDTP         - TEMPERATURE OF MUD
NEUT.         1                    : NEUTRON      - NEUTRON TYPE
RESI.         0                    : RESIST       - RESISTIVITY TYPE
RMC .OHMM     0.25                 : RMC          - RESISTIVITY OF MUD CAKE
RMF .OHMM     0.25                 : RMF          - RESISTIVITY OF MUD FILTRATE
SUFT.C        15                   : SUFT         - SURFACE TEMPERATURE
~A  DEPTH     RESD     PHID     PHIN       GR
# ...
  464.000   12.445    0.227    0.406   79.596
  464.250   13.014    0.211    0.392   82.037
  464.500   13.421    0.198    0.386   71.728
  464.750   13.585    0.182    0.376   71.133
  465.000   13.265    0.192    0.373   73.577
  465.250   12.943    0.206    0.381   76.013
  465.500   12.298    0.226    0.394   82.099
  465.750   11.814    0.241    0.407   86.366
  466.000   11.331    0.251    0.416   83.340
  466.250   10.766    0.257    0.410   82.135
  466.500   10.202    0.263    0.407   90.045
  466.750    9.557    0.267    0.420  101.594
  467.000    9.154    0.244    0.425  102.824
  467.250    8.509    0.226    0.415  101.621
  467.500    7.945    0.223    0.410  105.883
  467.750    7.461    0.223    0.421  110.149
  468.000    6.977    0.225    0.436  113.806
  468.250    6.575    0.219    0.449  115.636
  468.500    6.334    0.219    0.461  118.077
  468.750    6.175    0.222    0.473  121.735
  469.000    6.259    0.225    0.479  122.353
  469.250    6.342    0.227    0.472  116.902
  469.500    6.506    0.225    0.464  118.738
  469.750    6.670    0.217    0.463  119.964
  470.000    7.159    0.210    0.464  119.973
  470.250    7.323    0.205    0.461  118.163
  470.500    7.568    0.203    0.450  111.496
  470.750    7.894    0.202    0.438  103.613
  471.000    8.384    0.205    0.428   96.945
  471.250    8.547    0.207    0.412   96.350
  471.500    8.792    0.214    0.401   94.539
  471.750    9.038    0.219    0.397   89.088
  472.000    9.202    0.223    0.400   86.061
  472.250    9.448    0.240    0.409   83.649
  472.500    9.531    0.252    0.415   84.265
  472.750    9.614    0.250    0.416   84.279
  473.000    9.454    0.245    0.411   84.290
  473.250    9.538    0.237    0.406   84.301
  473.500    9.621    0.225    0.398   83.713
  473.750    9.949    0.219    0.387   83.112
  474.000   10.112    0.213    0.379   81.909
  474.250   10.520    0.210    0.381   83.747
  474.500   10.683    0.215    0.384   84.971
  474.750   11.010    0.224    0.384   85.590
  475.000   11.175    0.238    0.380   76.494
  475.250   11.258    0.243    0.380   75.901
  475.500   11.179    0.240    0.399   81.378
  475.750   10.939    0.238    0.403   83.209
  476.000   10.698    0.240    0.394   80.188
  476.250   10.376    0.240    0.384   79.592
  476.500   11.188    0.240    0.395   83.855
  476.750   13.134    0.255    0.392   75.363
  477.000   13.704    0.268    0.388   63.233
  477.250   13.787    0.276    0.394   62.636
  477.500   12.170    0.279    0.397   64.468
  477.750    9.905    0.284    0.401   65.698
  478.000    8.854    0.282    0.404   68.140
  478.250    7.724    0.282    0.406   71.795
  478.500    6.997    0.281    0.405   80.311
  478.750    6.351    0.270    0.407   90.649
  479.000    5.868    0.252    0.422   98.554
  479.250    5.304    0.198    0.443  107.676
  479.500    4.983    0.163    0.460  112.545
  479.750    4.742    0.135    0.477  116.811
  480.000    4.583    0.106    0.491  119.251
  480.250    4.504    0.101    0.501  122.910
  480.500    4.506    0.114    0.513  125.958
  480.750    4.589    0.158    0.527  127.180
  481.000    4.755    0.195    0.525  114.441
  481.250    4.837    0.230    0.472   98.055
  481.500    5.083    0.263    0.445   73.774
  481.750    5.247    0.292    0.423   63.462
  482.000    5.330    0.313    0.405   59.225
  482.250    5.252    0.324    0.401   61.665
  482.500    4.526    0.322    0.407   56.212
  482.750    3.880    0.321    0.411   55.617
  483.000    3.154    0.324    0.417   59.274
  483.250    2.913    0.314    0.421   64.756
  483.500    2.835    0.310    0.421   70.841
  483.750    2.837    0.305    0.419   72.671
  484.000    2.920    0.295    0.421   72.683
  484.250    3.085    0.279    0.422   71.481
  484.500    3.249    0.271    0.423   73.319
  484.750    3.495    0.261    0.422   74.542
  485.000    3.659    0.265    0.418   78.201
  485.250    3.824    0.257    0.411   80.036
  485.500    3.988    0.249    0.408   81.264
  485.750    4.152    0.245    0.406   81.270
  486.000    4.316    0.242    0.403   80.074
  486.250    4.643    0.233    0.410   82.510
  486.500    5.051    0.220    0.405   91.635
  486.750    5.376    0.207    0.417  100.755
  487.000    5.946    0.192    0.418  102.591
  487.250    6.597    0.188    0.414   97.136
  487.500    6.760    0.194    0.421   95.936
  487.750    6.924    0.191    0.431  100.808
  488.000    6.764    0.202    0.439  107.500
  488.250    6.363    0.209    0.447  110.544
  488.500    6.202    0.216    0.449  116.025
  488.750    5.962    0.208    0.449  116.643
  489.000    5.803    0.210    0.449  111.800
  489.250    5.805    0.204    0.444  111.205
  489.500    5.969    0.186    0.435  110.001
  489.750    6.458    0.186    0.428  107.584
  490.000    6.946    0.204    0.421  104.561
  490.250    8.243    0.214    0.414   98.497
  490.500    9.946    0.224    0.405   83.933
  490.750   11.082    0.235    0.401   66.941
  491.000   12.218    0.254    0.397   62.701
  491.250   13.436    0.262    0.410   65.148
  491.500   14.005    0.260    0.411   69.412
  491.750   14.088    0.270    0.396   68.812
  492.000   13.200    0.285    0.376   54.856
  492.250   11.097    0.295    0.358   42.119
  492.500    9.804    0.309    0.355   39.698
  492.750    8.673    0.303    0.359   45.180
  493.000    7.542    0.297    0.369   50.047
  493.250    6.896    0.290    0.383   60.991
  493.500    6.493    0.286    0.404   73.149
  493.750    6.173    0.290    0.416   81.056
  494.000    6.094    0.286    0.426   83.498
  494.250    5.934    0.281    0.432   83.511
  494.500    5.694    0.277    0.434   83.522
  494.750    5.453    0.271    0.423   82.320
  495.000    4.970    0.254    0.406   79.295
  495.250    4.810    0.234    0.392   81.136
  495.500    4.650    0.226    0.386   82.969
  495.750    4.491    0.233    0.389   84.801
  496.000    4.413    0.239    0.396   87.847
  496.250    4.334    0.245    0.400   90.288
  496.500    4.174    0.247    0.395   86.660
  496.750    3.772    0.264    0.393   76.952
  497.000    3.450    0.285    0.395   62.389
  497.250    3.129    0.300    0.406   62.404
  497.500    2.970    0.308    0.410   64.240
  497.750    2.972    0.301    0.403   66.073
  498.000    2.974    0.283    0.400   66.690
  498.250    3.138    0.274    0.396   65.487
  498.500    3.303    0.271    0.402   69.143
  498.750    3.710    0.260    0.418   75.840
  499.000    4.362    0.248    0.415   80.709
  499.250    4.606    0.236    0.408   85.579
  499.500    5.257    0.223    0.397   89.233
  499.750    5.582    0.209    0.386   86.817
  500.000    6.750    0.195    0.373   89.523
  500.250    6.993    0.193    0.368   84.100
  500.500    7.399    0.195    0.364   84.719
  500.750    7.643    0.195    0.364   90.788
  501.000    7.810    0.184    0.365   96.251
  501.250    7.813    0.178    0.381   95.662
  501.500    7.816    0.168    0.380   91.445
  501.750    7.820    0.167    0.376   92.067
  502.000    7.664    0.162    0.394   95.720
  502.250    7.506    0.152    0.414   98.156
  502.500    7.030    0.158    0.421   99.985
  502.750    6.792    0.163    0.423   97.583
  503.000    6.555    0.162    0.424  103.053
  503.250    6.157    0.160    0.443  106.692
  503.500    5.839    0.160    0.458  115.181
  503.750    5.204    0.166    0.473  120.644
  504.000    5.046    0.171    0.486  124.296
  504.250    4.888    0.173    0.502  125.514
  504.500    4.811    0.174    0.523  126.749
  504.750    4.898    0.172    0.515  126.759
  505.000    5.062    0.166    0.488  115.891
  505.250    5.306    0.161    0.469  105.024
  505.500    5.712    0.155    0.440   99.599
  505.750    5.956    0.178    0.425   95.379
  506.000    6.363    0.185    0.410   91.770
  506.250    6.526    0.179    0.401   92.402
  506.500    6.770    0.190    0.399   93.024
  506.750    6.855    0.194    0.392   93.644
  507.000    6.700    0.188    0.384   93.658
  507.250    6.544    0.183    0.379   93.066
