~VERSION INFORMATION
 VERS.                 2.0:   CWLS LOG ASCII STANDARD -VERSION 2.0
 WRAP.                  NO:   ONE LINE PER DEPTH STEP
~WELL INFORMATION BLOCK
#MNEM.UNIT           DATA                    DESCRIPTION OF MNEMONIC
#---------    -------------------            -------------------------------
# Generated from Intellog Unique Number	CS_73_76/WELL/820
WELL.         BRASCAN RESOURCES LTD          : Well_name    - WELL
LOC .         00/10-17-073-17W4/0            : Location     - LOCATION
UWI .         00/10-17-073-17W4/0            : Uwi          - UNIQUE WELL ID
ENTR.         SP                             : Entered      - ENTERED BY
SRVC.         SCHLUMBERGER                   : Scn          - SERVICE COMPANY
STRT.M        249.936                        : top_depth    - START DEPTH
STOP.M        419.186                        : bot_depth    - STOP DEPTH
STEP.M        0.25                           : increment    - STEP LENGTH
 NULL. -999.2500:NULL Value
~CURVE INFORMATION BLOCK
#MNEM UNIT       ERCB CURVE CODE    CURVE DESCRIPTION
#-----------   ------------------   ----------------------------------
DEPT.M        00 001 00 00         : DEPTH        - DEPTH
GR  .API      00 310 00 00         : GR           - GAMMA RAY
DPHI.V/V      00 890 00 00         : PHID         - DENSITY POROSITY (SANDSTONE)
NPHI.V/V      00 330 00 00         : PHIN         - NEUTRON POROSITY (SANDSTONE)
ILD .OHMM     00 120 00 00         : RESD         - DEEP RESISTIVITY (DIL)
~PARAMETER INFORMATION
#MNEM.UNIT           DATA             DESCRIPTION OF MNEMONIC
#---------         -----------     ------------------------------
GL  .M        579.272              : gl           - GROUND LEVEL ELEVATION
EREF.M        582.473              : kb           - ELEVATION OF DEPTH REFERENCE
DATM.M        579.272              : datum        - DATUM ELEVATION
TDD .M        499.872              : tdd          - TOTAL DEPTH DRILLER
RUN .         ONE                  : Run          - RUN NUMBER
ENG .         BILL                 : Engineer     - RECORDING ENGINEER
WIT .         JIM                  : Witness      - WITNESSED BY
MUD .         GEL                  : Mud_type     - MUD TYPE
MATR.         SANDSTONE            : Logunit      - NEUTRON MATRIX
TMAX.C        17.7778              : BHT          - MAXIMUM RECORDED TEMPERATURE
BHTD.M        499.872              : BHTDEP       - MAXIMUM RECORDED TEMPERATURE
MATR.         1                    : LOGUNIT      - NEUTRON MATRIX
RMT .C        25                   : MDTP         - TEMPERATURE OF MUD
NEUT.         1                    : NEUTRON      - NEUTRON TYPE
RESI.         0                    : RESIST       - RESISTIVITY TYPE
RMC .OHMM     0.25                 : RMC          - RESISTIVITY OF MUD CAKE
RMF .OHMM     0.25                 : RMF          - RESISTIVITY OF MUD FILTRATE
SUFT.C        15                   : SUFT         - SURFACE TEMPERATURE
~A  DEPTH       GR     PHID     PHIN     RESD
# ...
  336.936   65.187    0.318    0.440    5.030
  337.186   64.018    0.318    0.409    5.348
  337.436   62.038    0.310    0.370    5.694
  337.686   60.062    0.317    0.334    6.459
  337.936   58.974    0.320    0.314    6.935
  338.186   58.662    0.307    0.299    7.452
  338.436   57.069    0.275    0.284    7.779
  338.686   56.173    0.242    0.277    8.022
  338.936   55.217    0.185    0.290    8.022
  339.186   54.237    0.165    0.310    7.784
  339.436   54.185    0.143    0.300    7.797
  339.686   55.227    0.145    0.289    8.166
  339.936   57.852    0.163    0.277    8.409
  340.186   60.467    0.186    0.315    8.385
  340.436   63.705    0.220    0.376    7.060
  340.686   63.091    0.284    0.463    6.224
  340.936   63.936    0.334    0.491    5.645
  341.186   67.057    0.336    0.488    5.068
  341.436   68.108    0.320    0.463    4.756
  341.686   68.099    0.313    0.464    4.659
  341.936   69.869    0.308    0.470    4.594
  342.186   69.161    0.315    0.484    4.675
  342.436   68.216    0.317    0.489    4.662
  342.686   66.541    0.321    0.481    4.806
  342.936   64.948    0.329    0.483    4.955
  343.186   65.613    0.330    0.483    5.028
  343.436   66.575    0.331    0.484    5.027
  343.686   65.898    0.344    0.497    5.024
  343.936   66.479    0.346    0.475    4.863
  344.186   66.738    0.337    0.460    4.828
  344.436   68.500    0.346    0.466    4.680
  344.686   69.013    0.344    0.486    4.694
  344.936   69.700    0.342    0.504    4.593
  345.186   70.311    0.336    0.518    4.604
  345.436   69.350    0.332    0.539    4.604
  345.686   68.357    0.328    0.528    4.589
  345.936   65.758    0.328    0.525    4.524
  346.186   64.683    0.333    0.515    4.483
  346.436   64.346    0.327    0.521    4.450
  346.686   62.816    0.324    0.517    4.457
  346.936   61.853    0.334    0.507    4.363
  347.186   61.627    0.341    0.505    4.373
  347.436   63.196    0.328    0.494    4.384
  347.686   63.477    0.325    0.476    4.290
  347.936   62.881    0.335    0.518    4.301
  348.186   62.179    0.330    0.537    4.304
  348.436   61.181    0.320    0.525    4.324
  348.686   60.598    0.315    0.520    4.461
  348.936   61.220    0.322    0.513    4.749
  349.186   61.906    0.316    0.498    5.105
  349.436   61.879    0.298    0.475    5.819
  349.686   60.369    0.253    0.440    7.700
  349.936   58.783    0.188    0.382   10.482
  350.186   55.703    0.131    0.261   14.415
  350.436   53.428    0.101    0.215   19.546
  350.686   51.821    0.047    0.158   27.202
  350.936   52.543    0.018    0.152   32.235
  351.186   55.124    0.033    0.157   28.922
  351.436   57.918    0.046    0.172   19.436
  351.686   61.461    0.076    0.211   13.261
  351.936   66.027    0.124    0.304   10.423
  352.186   70.425    0.178    0.386    8.468
  352.436   72.353    0.255    0.414    6.917
  352.686   70.243    0.317    0.349    5.949
  352.936   67.891    0.306    0.427    5.539
  353.186   66.196    0.297    0.425    5.263
  353.436   65.307    0.292    0.426    5.011
  353.686   66.234    0.296    0.423    4.935
  353.936   68.161    0.304    0.420    4.907
  354.186   71.480    0.323    0.415    4.855
  354.436   73.012    0.307    0.424    4.866
  354.686   71.832    0.313    0.435    4.762
  354.936   70.885    0.324    0.440    4.773
  355.186   74.916    0.330    0.448    4.721
  355.436   77.148    0.334    0.474    4.677
  355.686   77.606    0.347    0.509    4.606
  355.936   77.887    0.341    0.510    4.618
  356.186   78.919    0.335    0.482    4.523
  356.436   80.378    0.325    0.472    4.532
  356.686   81.984    0.319    0.484    4.533
  356.936   81.900    0.316    0.488    4.535
  357.186   80.936    0.325    0.497    4.538
  357.436   80.207    0.331    0.492    4.540
  357.686   82.620    0.337    0.483    4.542
  357.936   82.343    0.331    0.487    4.541
  358.186   80.810    0.321    0.501    4.525
  358.436   80.395    0.313    0.532    4.464
  358.686   78.434    0.307    0.520    4.467
  358.936   77.286    0.315    0.521    4.469
  359.186   76.300    0.295    0.527    4.478
  359.436   76.464    0.282    0.507    4.384
  359.686   78.211    0.280    0.498    4.393
  359.936   81.160    0.280    0.492    4.404
  360.186   83.201    0.283    0.490    4.312
  360.436   83.536    0.288    0.485    4.322
  360.686   85.245    0.279    0.494    4.259
  360.936   88.074    0.270    0.528    4.161
  361.186   91.379    0.268    0.576    3.488
  361.436   95.047    0.252    0.595    3.052
  361.686   99.229    0.237    0.576    2.640
  361.936   99.460    0.222    0.543    2.431
  362.186   99.202    0.231    0.535    2.239
  362.436  102.128    0.232    0.530    2.172
  362.686  104.731    0.222    0.520    2.315
  362.936  103.046    0.227    0.524    2.457
  363.186   98.054    0.231    0.531    2.669
  363.436   97.065    0.243    0.520    2.923
  363.686   97.481    0.252    0.506    3.232
  363.936   98.929    0.240    0.499    3.558
  364.186  100.881    0.224    0.501    3.775
  364.436  102.462    0.209    0.504    4.002
  364.686   99.720    0.205    0.490    4.049
  364.936   97.726    0.218    0.472    4.050
  365.186   96.527    0.233    0.453    4.051
  365.436   96.621    0.241    0.456    4.053
  365.686   96.437    0.219    0.463    4.061
  365.936   96.191    0.223    0.473    4.080
  366.186   96.218    0.233    0.480    4.298
  366.436   96.283    0.243    0.473    4.292
  366.686   95.646    0.236    0.491    4.291
  366.936   94.715    0.223    0.502    4.350
  367.186   93.963    0.215    0.511    4.371
  367.436   96.334    0.234    0.484    4.378
  367.686   98.801    0.226    0.482    4.291
  367.936   99.395    0.213    0.486    4.288
  368.186   98.923    0.218    0.477    4.152
  368.436   97.980    0.236    0.469    4.110
  368.686   97.078    0.229    0.457    4.070
  368.936   97.188    0.221    0.474    3.945
  369.186   96.064    0.216    0.479    3.823
  369.436   94.073    0.236    0.478    3.786
  369.686   91.115    0.243    0.489    3.657
  369.936   89.254    0.258    0.505    3.565
  370.186   84.702    0.247    0.518    3.533
  370.436   82.013    0.241    0.495    3.521
  370.686   76.694    0.246    0.486    3.682
  370.936   71.349    0.255    0.475    3.667
  371.186   65.412    0.259    0.462    3.805
  371.436   61.497    0.213    0.432    4.129
  371.686   55.947    0.140    0.322    4.592
  371.936   57.396    0.085    0.240    5.540
  372.186   61.288    0.194    0.215    6.668
  372.436   62.299    0.260    0.262    7.182
  372.686   62.760    0.340    0.492    7.322
  372.936   62.359    0.355    0.453    7.083
  373.186   62.227    0.362    0.457    6.265
  373.436   62.577    0.356    0.472    4.998
  373.686   63.669    0.341    0.484    4.121
  373.936   64.679    0.328    0.502    3.726
  374.186   65.673    0.326    0.474    3.609
  374.436   66.775    0.331    0.443    3.497
  374.686   66.439    0.333    0.423    3.428
  374.936   66.746    0.336    0.438    3.792
  375.186   65.243    0.338    0.446    3.768
  375.436   64.168    0.343    0.442    3.692
  375.686   63.895    0.353    0.452    3.701
  375.936   62.859    0.342    0.461    3.703
  376.186   61.343    0.318    0.445    3.705
  376.436   57.963    0.304    0.436    3.706
  376.686   53.208    0.281    0.405    3.696
  376.936   49.559    0.237    0.368    3.893
  377.186   46.228    0.183    0.287    4.200
  377.436   48.720    0.069    0.203    4.777
  377.686   55.706    0.117    0.217    5.505
  377.936   59.810    0.166    0.385    6.711
  378.186   64.123    0.200    0.461    7.585
  378.436   66.136    0.228    0.488    8.099
  378.686   68.139    0.268    0.489    6.575
  378.936   69.373    0.319    0.471    5.621
  379.186   69.729    0.315    0.457    4.534
  379.436   69.345    0.314    0.469    4.042
  379.686   68.038    0.317    0.439    3.673
  379.936   65.642    0.321    0.412    3.531
  380.186   65.047    0.306    0.387    3.682
