~VERSION INFORMATION
 VERS.                 2.0:   CWLS LOG ASCII STANDARD -VERSION 2.0
 WRAP.                  NO:   ONE LINE PER DEPTH STEP
~WELL INFORMATION BLOCK
#MNEM.UNIT           DATA                    DESCRIPTION OF MNEMONIC
#---------    -------------------            -------------------------------
# Generated from Intellog Unique Number	CW_76_78/WELL/2587
WELL.         SCURRY ET AL MISTAHAE          : Well_name    - WELL
LOC .         00/13-06-078-01W5/0            : Location     - LOCATION
UWI .         00/13-06-078-01W5/0            : Uwi          - UNIQUE WELL ID
ENTR.         MAX                            : Entered      - ENTERED BY
SRVC.         WESTERN ATLAS                  : Scn          - SERVICE COMPANY
STRT.M        330                            : top_depth    - START DEPTH
STOP.M        585                            : bot_depth    - STOP DEPTH
STEP.M        0.25                           : increment    - STEP LENGTH
 NULL. -999.2500:NULL Value
~CURVE INFORMATION BLOCK
#MNEM UNIT       ERCB CURVE CODE    CURVE DESCRIPTION
#-----------   ------------------   ----------------------------------
DEPT.M        00 001 00 00         : DEPTH        - DEPTH
ILD .OHMM     00 120 00 00         : RESD         - DEEP RESISTIVITY (DIL)
NPHI.V/V      00 330 00 00         : PHIN         - NEUTRON POROSITY (SANDSTONE)
DPHI.V/V      00 890 00 00         : PHID         - DENSITY POROSITY (SANDSTONE)
CALI.MM       00 280 01 00         : CAL          - CALIPER
GR  .API      00 310 00 00         : GR           - GAMMA RAY
~PARAMETER INFORMATION
#MNEM.UNIT           DATA             DESCRIPTION OF MNEMONIC
#---------         -----------     ------------------------------
GL  .M        633.3                : gl           - GROUND LEVEL ELEVATION
EREF.M        637.67               : kb           - ELEVATION OF DEPTH REFERENCE
DATM.M        633.3                : datum        - DATUM ELEVATION
TDD .M        611                  : tdd          - TOTAL DEPTH DRILLER
RUN .         ONE                  : Run          - RUN NUMBER
ENG .         BILL                 : Engineer     - RECORDING ENGINEER
WIT .         JIM                  : Witness      - WITNESSED BY
MUD .         GEL                  : Mud_type     - MUD TYPE
MATR.         SANDSTONE            : Logunit      - NEUTRON MATRIX
TMAX.C        29                   : BHT          - MAXIMUM RECORDED TEMPERATURE
BHTD.M        611                  : BHTDEP       - MAXIMUM RECORDED TEMPERATURE
RMT .C        17                   : MDTP         - TEMPERATURE OF MUD
MUDD.KG/M     1220                 : MWT          - MUD DENSITY
NEUT.         1                    : NEUTRON      - NEUTRON TYPE
RESI.         0                    : RESIST       - RESISTIVITY TYPE
RM  .OHMM     3.7                  : RM           - RESISTIVITY OF MUD
RMC .OHMM     2                    : RMC          - RESISTIVITY OF MUD CAKE
RMF .OHMM     4                    : RMF          - RESISTIVITY OF MUD FILTRATE
SUFT.C        -10                  : SUFT         - SURFACE TEMPERATURE
~A  DEPTH     RESD     PHIN     PHID      CAL       GR
# ...
  476.000    9.428    0.359    0.174  202.011   84.105
  476.250    9.596    0.357    0.168  198.578   81.753
  476.500    9.945    0.352    0.162  195.635   81.445
  476.750   10.400    0.345    0.164  194.635   79.677
  477.000   10.976    0.348    0.179  197.534   77.033
  477.250   11.583    0.357    0.197  202.871   75.264
  477.500   12.671    0.365    0.223  205.282   74.079
  477.750   14.242    0.365    0.242  204.279   74.361
  478.000   15.581    0.364    0.240  203.284   78.728
  478.250   15.718    0.364    0.236  204.238   77.838
  478.500   15.573    0.373    0.220  204.699   77.531
  478.750   15.290    0.374    0.178  204.675   81.901
  479.000   14.742    0.365    0.156  205.139   87.145
  479.250   14.345    0.353    0.162  205.599   84.503
  479.500   13.833    0.360    0.218  205.089   78.934
  479.750   13.581    0.373    0.234  203.601   80.964
  480.000   14.075    0.377    0.234  202.607   82.119
  480.250   14.989    0.373    0.234  201.122   80.938
  480.500   16.105    0.373    0.236  199.635   78.873
  480.750   16.246    0.377    0.238  201.557   80.033
  481.000   15.951    0.379    0.242  208.355   82.936
  481.250   14.571    0.377    0.247  206.867   84.677
  481.500   12.839    0.375    0.241  201.973   85.247
  481.750   11.729    0.371    0.217  201.460   83.188
  482.000   11.209    0.364    0.196  205.339   81.130
  482.250   11.512    0.351    0.191  210.183   79.942
  482.500   12.482    0.351    0.204  210.156   81.100
  482.750   12.477    0.359    0.207  210.136   83.131
  483.000   11.606    0.371    0.211  210.112   83.117
  483.250   10.320    0.379    0.222  210.576   83.394
  483.500    9.685    0.381    0.231  210.547   86.008
  483.750    9.339    0.377    0.228  210.039   89.793
  484.000    8.925    0.376    0.217  208.554   93.579
  484.250    8.377    0.379    0.208  207.070   93.856
  484.500    8.077    0.379    0.204  205.582   90.919
  484.750    7.931    0.379    0.218  205.559   87.103
  485.000    7.929    0.372    0.216  206.022   88.846
  485.250    7.998    0.370    0.202  205.999   89.997
  485.500    8.068    0.372    0.190  206.460   88.816
  485.750    8.065    0.374    0.174  207.900   86.756
  486.000    7.919    0.374    0.179  210.309   86.742
  486.250    7.636    0.374    0.190  212.231   88.481
  486.500    7.430    0.374    0.189  213.184   89.927
  486.750    7.295    0.375    0.188  213.158   91.374
  487.000    7.162    0.382    0.191  213.622   92.823
  487.250    7.032    0.379    0.189  213.592   94.852
  487.500    7.030    0.373    0.187  213.085   96.007
  487.750    7.026    0.370    0.188  210.139   94.823
  488.000    7.218    0.365    0.187  205.735   92.765
  488.250    7.481    0.351    0.184  202.787   92.749
  488.500    8.334    0.339    0.177  203.247   89.814
  488.750    9.035    0.333    0.166  204.688   87.460
  489.000    9.449    0.322    0.154  207.097   87.154
  489.250    9.532    0.322    0.142  209.508   87.723
  489.500    8.946    0.340    0.148  211.923   89.170
  489.750    7.468    0.347    0.181  213.839   90.909
  490.000    6.761    0.357    0.187  215.280   93.525
  490.250    6.519    0.370    0.194  217.204   95.849
  490.500    6.459    0.381    0.199  218.158   99.340
  490.750    6.459    0.381    0.198  218.132  104.588
  491.000    6.397    0.371    0.204  217.134  104.573
  491.250    6.570    0.364    0.205  215.159   93.745
  491.500    6.933    0.362    0.191  214.162   88.175
  491.750    7.382    0.361    0.183  214.141   88.163
  492.000    8.603    0.365    0.174  213.628   85.228
  492.250   11.070    0.383    0.173  210.679   81.414
  492.500   13.495    0.383    0.204  206.275   83.153
  492.750   16.901    0.364    0.245  203.817   84.016
  493.000   21.167    0.359    0.293  202.326   79.618
  493.250   24.225    0.358    0.289  201.822   73.173
  493.500   27.227    0.366    0.276  202.279   70.235
  493.750   27.468    0.376    0.264  202.746   70.221
  494.000   26.487    0.378    0.266  203.210   72.839
  494.250   23.979    0.379    0.263  203.670   76.622
  494.500   21.128    0.382    0.239  204.137   74.269
  494.750   19.128    0.388    0.212  208.007   72.211
  495.000   17.631    0.386    0.208  210.903   74.534
  495.250   16.698    0.377    0.231  210.389   78.904
  495.500   16.395    0.364    0.236  208.907   81.516
  495.750   16.390    0.356    0.202  206.939   83.551
  496.000   16.093    0.347    0.174  204.961   85.289
  496.250   15.241    0.340    0.147  205.915   87.320
  496.500   14.564    0.327    0.130  208.327   89.058
  496.750   14.558    0.322    0.130  210.251   89.630
  497.000   14.555    0.332    0.153  211.686   86.692
  497.250   14.550    0.343    0.193  210.199   83.460
  497.500   14.415    0.344    0.177  208.711   84.032
  497.750   13.530    0.346    0.176  208.204   87.817
  498.000   12.030    0.347    0.195  207.690   91.603
  498.250   10.600    0.351    0.201  207.672   90.713
  498.500    9.340    0.357    0.195  208.133   85.143
  498.750    8.688    0.363    0.184  208.597   83.373
  499.000    8.081    0.369    0.174  209.547   83.655
  499.250    7.863    0.375    0.174  210.495   85.394
  499.500    7.863    0.385    0.181  210.959   86.257
  499.750    7.511    0.391    0.183  211.903   89.163
  500.000    7.376    0.393    0.181  212.857   91.487
  500.250    7.376    0.393    0.186  214.298   91.473
  500.500    7.239    0.389    0.197  214.274   86.491
  500.750    7.108    0.381    0.201  213.274   83.844
  501.000    7.040    0.381    0.208  207.893   84.708
  501.250    6.977    0.380    0.195  200.077   86.445
  501.500    6.975    0.377    0.196  196.157   87.310
  501.750    6.972    0.373    0.186  194.669   87.588
  502.000    6.970    0.374    0.175  194.156   87.574
  502.250    6.968    0.377    0.171  194.130   88.435
  502.500    7.029    0.379    0.177  194.593   89.588
  502.750    7.090    0.377    0.180  195.550   89.868
  503.000    7.151    0.373    0.185  196.984   88.977
  503.250    7.280    0.373    0.192  199.880   88.085
  503.500    7.478    0.375    0.194  206.675   88.361
  503.750    7.963    0.375    0.194  208.597   88.933
  504.000    8.790    0.368    0.190  209.554   86.287
  504.250    9.703    0.364    0.180  212.452   81.307
  504.500    9.877    0.362    0.169  215.838   80.416
  504.750    9.697    0.364    0.166  217.273   83.323
  505.000    9.184    0.365    0.167  216.757   86.231
  505.250    8.856    0.363    0.173  216.252   87.676
  505.500    8.617    0.364    0.178  216.226   87.662
  505.750    8.617    0.370    0.182  216.202   87.646
  506.000    8.612    0.377    0.188  216.660   87.340
  506.250    8.846    0.388    0.194  216.155   86.743
  506.500    9.251    0.386    0.193  215.639   85.853
  506.750   10.212    0.378    0.189  215.618   84.960
  507.000   13.746    0.368    0.202  212.673   83.485
  507.250   17.215    0.355    0.221  206.802   73.827
  507.500   23.385    0.338    0.223  204.346   68.553
  507.750   26.049    0.301    0.147  205.294   66.490
  508.000   25.345    0.282    0.099  209.167   68.816
  508.250   23.575    0.288    0.146  210.604   76.103
  508.500   20.587    0.314    0.186  209.604   79.306
  508.750   18.638    0.334    0.210  206.661   79.876
  509.000   17.971    0.350    0.206  204.687   79.572
  509.250   17.962    0.356    0.209  204.663   78.969
  509.500   17.960    0.358    0.209  207.078   76.619
  509.750   19.125    0.330    0.189  210.948   64.624
  510.000   25.284    0.293    0.102  211.411   54.674
  510.250   25.969    0.219    0.065  214.797   52.613
  510.500   24.155    0.214    0.042  215.261   59.318
  510.750   20.904    0.229    0.028  214.263   62.227
  511.000   17.450    0.254    0.112  211.799   68.059
  511.250   15.941    0.288    0.146  210.311   75.053
  511.500   12.950    0.345    0.186  210.294   77.090
  511.750   11.107    0.357    0.193  212.218   79.706
  512.000   10.711    0.358    0.190  215.601   79.105
  512.250   10.711    0.357    0.186  214.601   78.797
