~VERSION INFORMATION
 VERS.                 2.0:   CWLS LOG ASCII STANDARD -VERSION 2.0
 WRAP.                  NO:   ONE LINE PER DEPTH STEP
~WELL INFORMATION BLOCK
#MNEM.UNIT           DATA                    DESCRIPTION OF MNEMONIC
#---------    -------------------            -------------------------------
# Generated from Intellog Unique Number	CS_67_68/WELL/849
WELL.         PENNANT-PUMA OILS LTD          : Well_name    - WELL
LOC .         00/11-31-068-15W4/0            : Location     - LOCATION
UWI .         00/11-31-068-15W4/0            : Uwi          - UNIQUE WELL ID
ENTR.         SP                             : Entered      - ENTERED BY
SRVC.         SCHLUMBERGER                   : Scn          - SERVICE COMPANY
STRT.M        268.224                        : top_depth    - START DEPTH
STOP.M        441.724                        : bot_depth    - STOP DEPTH
STEP.M        0.25                           : increment    - STEP LENGTH
 NULL. -999.2500:NULL Value
~CURVE INFORMATION BLOCK
#MNEM UNIT       ERCB CURVE CODE    CURVE DESCRIPTION
#-----------   ------------------   ----------------------------------
DEPT.M        00 001 00 00         : DEPTH        - DEPTH
GR  .API      00 310 00 00         : GR           - GAMMA RAY
DPHI.V/V      00 890 00 00         : PHID         - DENSITY POROSITY (SANDSTONE)
NPHI.V/V      00 330 00 00         : PHIN         - NEUTRON POROSITY (SANDSTONE)
ILD .OHMM     00 120 00 00         : RESD         - DEEP RESISTIVITY (DIL)
~PARAMETER INFORMATION
#MNEM.UNIT           DATA             DESCRIPTION OF MNEMONIC
#---------         -----------     ------------------------------
GL  .M        546.506              : gl           - GROUND LEVEL ELEVATION
EREF.M        549.554              : kb           - ELEVATION OF DEPTH REFERENCE
DATM.M        546.506              : datum        - DATUM ELEVATION
TDD .M        441.35               : tdd          - TOTAL DEPTH DRILLER
RUN .         ONE                  : Run          - RUN NUMBER
ENG .         BILL                 : Engineer     - RECORDING ENGINEER
WIT .         JIM                  : Witness      - WITNESSED BY
MUD .         GEL                  : Mud_type     - MUD TYPE
MATR.         SANDSTONE            : Logunit      - NEUTRON MATRIX
TMAX.C        20.5556              : BHT          - MAXIMUM RECORDED TEMPERATURE
BHTD.M        441.35               : BHTDEP       - MAXIMUM RECORDED TEMPERATURE
MATR.         1                    : LOGUNIT      - NEUTRON MATRIX
RMT .C        25                   : MDTP         - TEMPERATURE OF MUD
NEUT.         1                    : NEUTRON      - NEUTRON TYPE
RESI.         0                    : RESIST       - RESISTIVITY TYPE
RMC .OHMM     0.25                 : RMC          - RESISTIVITY OF MUD CAKE
RMF .OHMM     0.25                 : RMF          - RESISTIVITY OF MUD FILTRATE
SUFT.C        15                   : SUFT         - SURFACE TEMPERATURE
~A  DEPTH       GR     PHID     PHIN     RESD
# ...
  398.724  105.812    0.225    0.440    4.240
  398.974  102.696    0.217    0.431    4.505
  399.224   99.124    0.199    0.426    4.804
  399.474   96.123    0.188    0.422    5.156
  399.724   94.213    0.220    0.432    5.424
  399.974   92.967    0.209    0.436    5.486
  400.224   93.921    0.165    0.403    5.175
  400.474   97.790    0.143    0.379    4.531
  400.724  101.382    0.136    0.387    4.195
  400.974  103.926    0.162    0.440    4.025
  401.224  104.205    0.181    0.461    3.905
  401.474  102.827    0.193    0.473    3.909
  401.724  101.299    0.176    0.481    3.986
  401.974  100.197    0.153    0.467    4.042
  402.224   97.508    0.133    0.452    4.102
  402.474   94.875    0.116    0.440    4.146
  402.724  100.057    0.154    0.364    4.168
  402.974  104.056    0.182    0.416    4.141
  403.224  107.130    0.176    0.436    4.082
  403.474  107.518    0.170    0.439    3.992
  403.724  106.767    0.163    0.424    3.886
  403.974  108.174    0.168    0.425    3.771
  404.224  111.481    0.205    0.432    3.739
  404.474  112.717    0.220    0.434    3.771
  404.724  114.130    0.202    0.435    3.816
  404.974  115.193    0.188    0.435    3.885
  405.224  114.524    0.185    0.435    3.955
  405.474  113.267    0.198    0.435    4.027
  405.724  112.481    0.182    0.433    4.101
  405.974  114.067    0.188    0.442    4.152
  406.224  114.656    0.201    0.452    4.176
  406.474  114.808    0.203    0.461    4.189
  406.724  112.819    0.186    0.465    4.197
  406.974  110.669    0.188    0.455    4.198
  407.224  111.764    0.209    0.446    4.208
  407.474  113.480    0.194    0.437    4.214
  407.724  115.047    0.191    0.427    4.225
  407.974  116.122    0.211    0.420    4.250
  408.224  117.557    0.212    0.415    4.284
  408.474  118.580    0.213    0.409    4.296
  408.724  117.494    0.198    0.423    4.318
  408.974  116.306    0.188    0.436    4.322
  409.224  118.809    0.175    0.448    4.304
  409.474  120.165    0.181    0.447    4.066
  409.724  118.013    0.188    0.440    3.368
  409.974  114.437    0.180    0.445    2.922
  410.224  113.313    0.191    0.436    2.496
  410.474  114.075    0.189    0.467    2.276
  410.724  114.918    0.201    0.492    2.100
  410.974  116.147    0.209    0.523    1.997
  411.224  117.253    0.229    0.530    2.024
  411.474  118.466    0.231    0.520    2.129
  411.724  118.350    0.206    0.513    2.282
  411.974  117.429    0.185    0.502    2.523
  412.224  114.513    0.169    0.461    2.765
  412.474  110.609    0.154    0.424    3.177
  412.724  105.565    0.140    0.398    3.645
  412.974  101.703    0.126    0.397    4.228
  413.224   99.495    0.055    0.410    4.795
  413.474   88.825    0.005    0.378    5.412
  413.724   81.895   -0.011    0.321    5.868
  413.974   75.112    0.011    0.250    6.374
  414.224   66.847    0.041    0.224    6.813
  414.474   73.126    0.066    0.251    6.785
  414.724   80.375    0.089    0.305    6.120
  414.974   86.367    0.102    0.365    5.502
  415.224   93.774    0.114    0.394    5.045
  415.474  106.149    0.123    0.408    4.585
  415.724  112.494    0.126    0.422    4.322
  415.974  114.041    0.168    0.427    4.145
  416.224  115.893    0.182    0.418    3.991
  416.474  117.306    0.166    0.411    3.879
  416.724  120.179    0.185    0.408    4.004
  416.974  121.312    0.193    0.410    3.973
  417.224  120.348    0.189    0.435    3.892
  417.474  119.566    0.185    0.451    3.737
  417.724  120.716    0.178    0.467    3.490
  417.974  123.879    0.165    0.486    3.324
  418.224  126.710    0.159    0.490    3.204
  418.474  129.401    0.151    0.490    3.078
  418.724  129.198    0.147    0.502    3.067
  418.974  127.383    0.156    0.505    3.058
  419.224  124.872    0.144    0.499    3.078
  419.474  124.098    0.132    0.485    3.077
  419.724  124.855    0.119    0.477    3.066
  419.974  126.004    0.024    0.467    3.035
  420.224  124.691   -0.010    0.457    2.988
  420.474  124.009    0.038    0.452    2.928
  420.724  127.583    0.170    0.457    2.874
  420.974  130.242    0.185    0.475    2.813
  421.224  130.846    0.173    0.492    2.757
  421.474  131.330    0.163    0.506    2.703
  421.724  130.539    0.158    0.494    2.673
  421.974  129.409    0.162    0.482    2.657
  422.224  127.383    0.167    0.480    2.848
  422.474  122.426    0.183    0.458    3.001
  422.724  116.436    0.180    0.435    3.168
  422.974  119.729    0.164    0.421    3.316
  423.224  126.528    0.152    0.397    2.917
  423.474  133.113    0.152    0.429    2.688
  423.724  131.013    0.134    0.495    2.568
  423.974  131.528    0.118    0.490    2.577
  424.224  135.854    0.124    0.515    2.653
  424.474  137.466    0.165    0.500    2.749
  424.724  135.625    0.180    0.484    3.061
  424.974  123.174    0.179    0.477    3.422
  425.224  114.940    0.178    0.456    3.900
  425.474  103.523    0.183    0.414    4.339
  425.724   94.559    0.165    0.391    4.705
  425.974   99.766    0.139    0.385    5.010
  426.224  106.570    0.122    0.396    5.068
  426.474  108.237    0.161    0.404    5.042
  426.724   99.413    0.163    0.392    4.990
  426.974   90.491    0.165    0.368    5.176
  427.224   84.428    0.180    0.358    5.706
  427.474   80.309    0.189    0.350    6.417
  427.724   77.718    0.199    0.340    7.246
  427.974   75.987    0.185    0.332    8.202
  428.224   75.761    0.161    0.322    8.913
  428.474   80.742    0.116    0.318    9.084
  428.724   87.948    0.111    0.337    7.388
  428.974   94.912    0.132    0.404    6.071
  429.224  101.971    0.157    0.442    5.081
  429.474  105.369    0.183    0.459    4.393
  429.724  105.889    0.193    0.453    4.069
  429.974  106.787    0.194    0.430    4.184
  430.224  107.959    0.194    0.376    4.559
  430.474  105.950    0.210    0.341    5.262
  430.724   91.922    0.259    0.296    6.139
  430.974   80.731    0.281    0.235    7.112
  431.224   73.363    0.297    0.213    8.003
  431.474   70.123    0.314    0.225    8.742
  431.724   77.384    0.293    0.293    9.012
  431.974   86.508    0.265    0.332    8.201
  432.224   93.638    0.247    0.353    7.343
  432.474  102.932    0.231    0.371    6.721
  432.724  112.571    0.224    0.388    6.296
  432.974  118.216    0.216    0.398    6.054
  433.224  122.130    0.209    0.406    5.843
  433.474  125.870    0.204    0.409    5.783
  433.724  128.174    0.211    0.400    5.800
  433.974  129.910    0.202    0.384    5.762
  434.224  130.543    0.180    0.371    5.642
  434.474  104.617    0.164    0.362    5.476
  434.724   71.769    0.171    0.359    5.290
  434.974   38.764    0.175    0.368    5.087
  435.224   36.717    0.179    0.386    4.911
  435.474   38.507    0.189    0.392    4.743
  435.724   39.463    0.163    0.399    4.654
  435.974   66.030    0.160    0.404    4.658
  436.224  114.646    0.158    0.403    4.683
  436.474  121.071    0.149    0.399    4.831
  436.724  122.679    0.142    0.395    4.974
  436.974  123.160    0.144    0.398    5.175
  437.224  123.444    0.151    0.432    5.359
  437.474  123.463    0.167    0.452    5.500
  437.724  122.934    0.183    0.476    5.670
  437.974  122.569    0.168    0.481    5.827
  438.224  122.293    0.152    0.481    6.049
  438.474  122.328    0.140    0.480    6.452
  438.724  122.333    0.122    0.480    6.835
  438.974  122.401    0.150    0.480    7.273
  439.224  122.365    0.163    0.480    7.705
  439.474  122.540    0.223    0.481    8.032
  439.724  122.659    0.270    0.482    8.328
  439.974  122.812    0.329    0.484    8.491
  440.224  122.888    0.361    0.486    8.521
  440.474  122.883    0.369    0.488    8.552
  440.724  122.913    0.326    0.490    8.553
  440.974  122.699    0.302    0.491    8.530
  441.224  122.623    0.303    0.492    8.506
  441.474  122.467    0.347    0.496    8.457
  441.724  122.209    0.387    0.386    8.442
