~VERSION INFORMATION
 VERS.                 2.0:   CWLS LOG ASCII STANDARD -VERSION 2.0
 WRAP.                  NO:   ONE LINE PER DEPTH STEP
~WELL INFORMATION BLOCK
#MNEM.UNIT           DATA                    DESCRIPTION OF MNEMONIC
#---------    -------------------            -------------------------------
# Generated from Intellog Unique Number	CS_67_68/WELL/810
WELL.         INTER-CITY MANFACTURING        : Well_name    - WELL
LOC .         00/10-27-068-13W4/0            : Location     - LOCATION
UWI .         00/10-27-068-13W4/0            : Uwi          - UNIQUE WELL ID
ENTR.         SP                             : Entered      - ENTERED BY
SRVC.         SCHLUMBERGER                   : Scn          - SERVICE COMPANY
STRT.M        289.56                         : top_depth    - START DEPTH
STOP.M        469.060                        : bot_depth    - STOP DEPTH
STEP.M        0.25                           : increment    - STEP LENGTH
 NULL. -999.2500:NULL Value
~CURVE INFORMATION BLOCK
#MNEM UNIT       ERCB CURVE CODE    CURVE DESCRIPTION
#-----------   ------------------   ----------------------------------
DEPT.M        00 001 00 00         : DEPTH        - DEPTH
GR  .API      00 310 00 00         : GR           - GAMMA RAY
DPHI.V/V      00 890 00 00         : PHID         - DENSITY POROSITY (SANDSTONE)
NPHI.V/V      00 330 00 00         : PHIN         - NEUTRON POROSITY (SANDSTONE)
ILD .OHMM     00 120 00 00         : RESD         - DEEP RESISTIVITY (DIL)
~PARAMETER INFORMATION
#MNEM.UNIT           DATA             DESCRIPTION OF MNEMONIC
#---------         -----------     ------------------------------
GL  .M        585.911              : gl           - GROUND LEVEL ELEVATION
EREF.M        589.188              : kb           - ELEVATION OF DEPTH REFERENCE
DATM.M        585.835              : datum        - DATUM ELEVATION
TDD .M        474.269              : tdd          - TOTAL DEPTH DRILLER
RUN .         ONE                  : Run          - RUN NUMBER
ENG .         BILL                 : Engineer     - RECORDING ENGINEER
WIT .         JIM                  : Witness      - WITNESSED BY
MUD .         GEL                  : Mud_type     - MUD TYPE
MATR.         SANDSTONE            : Logunit      - NEUTRON MATRIX
TMAX.C        18.8889              : BHT          - MAXIMUM RECORDED TEMPERATURE
BHTD.M        474.269              : BHTDEP       - MAXIMUM RECORDED TEMPERATURE
MATR.         1                    : LOGUNIT      - NEUTRON MATRIX
RMT .C        25                   : MDTP         - TEMPERATURE OF MUD
NEUT.         1                    : NEUTRON      - NEUTRON TYPE
RESI.         0                    : RESIST       - RESISTIVITY TYPE
RMC .OHMM     0.25                 : RMC          - RESISTIVITY OF MUD CAKE
RMF .OHMM     0.25                 : RMF          - RESISTIVITY OF MUD FILTRATE
SUFT.C        15                   : SUFT         - SURFACE TEMPERATURE
~A  DEPTH       GR     PHID     PHIN     RESD
# ...
  333.060   88.454    0.296    0.473    2.858
  333.310   91.447    0.273    0.469    3.037
  333.560   93.376    0.252    0.469    3.154
  333.810   94.946    0.242    0.479    3.213
  334.060   95.797    0.237    0.486    3.197
  334.310   94.954    0.232    0.486    3.209
  334.560   93.719    0.238    0.484    3.198
  334.810   94.307    0.259    0.483    3.097
  335.060   96.147    0.247    0.483    2.979
  335.310   96.120    0.251    0.487    2.939
  335.560   95.874    0.263    0.489    2.985
  335.810   95.393    0.270    0.487    3.067
  336.060   94.025    0.271    0.483    3.190
  336.310   93.086    0.265    0.477    3.269
  336.560   95.061    0.259    0.476    3.322
  336.810   97.128    0.256    0.483    3.383
  337.060   98.887    0.248    0.485    3.209
  337.310  102.244    0.237    0.479    3.268
  337.560  108.369    0.253    0.472    3.331
  337.810  110.861    0.288    0.466    3.395
  338.060  107.516    0.284    0.465    3.471
  338.310  108.602    0.262    0.472    3.564
  338.560  109.307    0.241    0.480    3.607
  338.810   96.815    0.231    0.485    3.660
  339.060   88.955    0.246    0.485    3.710
  339.310   81.010    0.250    0.475    3.762
  339.560   79.033    0.242    0.467    3.771
  339.810   80.689    0.242    0.473    3.723
  340.060   89.901    0.245    0.488    3.556
  340.310   97.778    0.238    0.500    3.476
  340.560  105.786    0.258    0.512    3.418
  340.810  103.647    0.278    0.502    3.339
  341.060   99.907    0.272    0.473    3.295
  341.310  100.482    0.264    0.450    3.272
  341.560   99.165    0.256    0.438    3.238
  341.810   97.743    0.241    0.447    3.205
  342.060   91.829    0.227    0.453    3.148
  342.310   89.948    0.282    0.458    3.123
  342.560   90.936    0.266    0.456    3.130
  342.810   96.650    0.256    0.455    3.214
  343.060  100.595    0.251    0.457    3.364
  343.310   99.479    0.251    0.447    3.524
  343.560   92.823    0.249    0.424    3.698
  343.810   90.476    0.233    0.411    3.842
  344.060   93.742    0.219    0.405    3.971
  344.310   94.723    0.197    0.404    4.119
  344.560   95.451    0.215    0.412    4.257
  344.810   92.308    0.235    0.416    4.351
  345.060   81.338    0.246    0.420    4.425
  345.310   75.529    0.241    0.418    4.470
  345.560   70.250    0.222    0.408    4.480
  345.810   76.953    0.205    0.399    4.458
  346.060   82.697    0.203    0.418    4.404
  346.310   86.423    0.215    0.433    4.338
  346.560   92.067    0.222    0.446    4.197
  346.810   97.398    0.198    0.457    3.970
  347.060   99.144    0.180    0.467    3.646
  347.310   95.308    0.204    0.473    3.240
  347.560   89.874    0.224    0.476    2.961
  347.810   82.798    0.239    0.468    2.685
  348.060   80.360    0.253    0.459    2.494
  348.310   81.025    0.267    0.451    2.391
  348.560   80.783    0.267    0.445    2.373
  348.810   79.456    0.253    0.440    2.397
  349.060   76.748    0.255    0.435    2.440
  349.310   72.916    0.268    0.434    2.431
  349.560   69.970    0.278    0.440    2.403
  349.810   69.893    0.291    0.448    2.326
  350.060   72.704    0.301    0.457    2.235
  350.310   72.366    0.314    0.449    2.156
  350.560   70.356    0.303    0.442    2.070
  350.810   71.951    0.293    0.438    2.011
  351.060   76.178    0.305    0.434    2.249
  351.310   79.003    0.312    0.428    2.383
  351.560   81.049    0.305    0.423    2.556
  351.810   83.138    0.292    0.417    2.681
  352.060   82.883    0.281    0.413    2.787
  352.310   74.326    0.270    0.414    2.783
  352.560   62.205    0.258    0.417    2.698
  352.810   54.587    0.293    0.422    2.576
  353.060   58.656    0.313    0.424    2.381
  353.310   78.817    0.306    0.411    2.250
  353.560   89.031    0.295    0.403    2.118
  353.810   84.804    0.295    0.407    2.021
  354.060   76.668    0.291    0.414    1.979
  354.310   79.177    0.286    0.422    1.999
  354.560   81.189    0.274    0.431    2.070
  354.810   79.520    0.252    0.428    2.213
  355.060   77.544    0.239    0.423    2.394
  355.310   77.189    0.227    0.420    2.584
  355.560   79.094    0.218    0.421    2.741
  355.810   78.849    0.232    0.426    2.890
  356.060   77.448    0.247    0.432    2.871
  356.310   79.184    0.258    0.424    2.732
  356.560   81.997    0.270    0.417    2.644
  356.810   88.646    0.265    0.414    2.676
  357.060   94.134    0.258    0.417    2.830
  357.310   99.210    0.260    0.426    2.935
  357.560   93.202    0.244    0.437    3.023
  357.810   87.141    0.250    0.435    3.028
  358.060   84.284    0.274    0.436    2.934
  358.310   82.557    0.294    0.442    2.822
  358.560   82.374    0.308    0.456    2.698
  358.810   85.003    0.287    0.464    2.594
  359.060   89.717    0.276    0.467    2.583
  359.310   93.667    0.274    0.468    2.607
  359.560   97.307    0.269    0.469    2.692
  359.810  102.507    0.268    0.470    2.768
  360.060  108.080    0.258    0.475    2.813
  360.310  114.094    0.243    0.487    2.799
  360.560  118.430    0.230    0.503    2.710
  360.810  111.652    0.222    0.521    2.593
  361.060  105.798    0.233    0.536    2.532
  361.310  100.194    0.249    0.531    2.630
  361.560   97.503    0.249    0.492    2.789
  361.810   93.743    0.259    0.464    2.879
  362.060   86.313    0.278    0.458    2.839
  362.310   74.936    0.294    0.468    2.762
  362.560   66.835    0.306    0.472    2.712
  362.810   70.626    0.311    0.467    2.715
  363.060   75.064    0.302    0.461    2.725
  363.310   80.071    0.297    0.459    2.723
  363.560   84.517    0.308    0.468    2.726
  363.810   88.312    0.313    0.472    2.719
  364.060   91.921    0.291    0.458    2.739
  364.310   94.421    0.275    0.453    2.751
  364.560   87.578    0.285    0.449    2.771
  364.810   84.098    0.301    0.448    2.828
  365.060   82.600    0.304    0.444    2.897
  365.310   87.325    0.283    0.440    3.010
  365.560   89.988    0.266    0.437    3.144
  365.810   89.462    0.253    0.435    3.246
  366.060   88.320    0.240    0.437    3.306
  366.310   90.404    0.234    0.446    3.330
  366.560   94.573    0.231    0.454    3.344
  366.810   97.875    0.227    0.451    3.292
  367.060  102.561    0.222    0.451    3.141
  367.310   97.422    0.219    0.475    2.925
  367.560   86.556    0.235    0.502    2.641
  367.810   81.224    0.263    0.524    2.402
  368.060   78.179    0.287    0.498    2.158
  368.310   76.371    0.296    0.471    2.026
  368.560   74.795    0.302    0.454    2.037
  368.810   75.534    0.313    0.446    2.122
  369.060   77.842    0.320    0.458    2.188
  369.310   79.730    0.299    0.471    2.300
  369.560   80.688    0.284    0.480    2.425
  369.810   78.431    0.266    0.492    2.628
  370.060   80.903    0.246    0.481    2.949
  370.310   83.551    0.224    0.448    3.469
  370.560   81.574    0.180    0.422    3.809
  370.810   82.509    0.121    0.388    3.993
  371.060   85.769    0.137    0.310    3.751
  371.310   86.800    0.182    0.346    3.488
  371.560   85.656    0.234    0.371    3.052
  371.810   87.079    0.283    0.416    2.783
  372.060   89.689    0.269    0.450    2.632
  372.310   91.349    0.252    0.465    2.645
  372.560   88.636    0.244    0.471    2.625
  372.810   86.583    0.271    0.470    2.592
  373.060   89.051    0.287    0.465    2.506
  373.310   91.509    0.298    0.460    2.326
  373.560   90.243    0.302    0.470    2.218
  373.810   87.461    0.306    0.477    2.282
  374.060   83.769    0.308    0.478    2.641
  374.310   79.488    0.300    0.475    3.246
  374.560   76.350    0.290    0.469    4.755
  374.810   72.867    0.272    0.419    6.334
  375.060   66.323    0.241    0.295    7.459
  375.310   60.531    0.116    0.249    8.051
  375.560   62.293    0.056    0.218    7.898
  375.810   68.182    0.084    0.216    6.462
  376.060   74.129    0.112    0.276    4.822
  376.310   80.356    0.163    0.335    3.912
