~VERSION INFORMATION
 VERS.                 2.0:   CWLS LOG ASCII STANDARD -VERSION 2.0
 WRAP.                  NO:   ONE LINE PER DEPTH STEP
~WELL INFORMATION BLOCK
#MNEM.UNIT           DATA                    DESCRIPTION OF MNEMONIC
#---------    -------------------            -------------------------------
# Generated from Intellog Unique Number	CW_70_72/WELL/3028
NULL.         -999.25                        : NULL_VALUE
WELL.         SULPETRO ET AL MITSUE 11-10    : Well_name    - WELL              
LOC .         11-10-070-05W5                 : Location     - LOCATION          
UWI .         00/11-10-070-05W5/0            : Uwi          - UNIQUE WELL ID    
ENTR.         JAYE                           : Entered      - ENTERED BY        
SRVC.         SCHLUMBERGER                   : Scn          - SERVICE COMPANY   
DATE.         4 FEB 79                       : Date         - LOG DATE          
STRT.M        680                            : top_depth    - START DEPTH       
STOP.M        905                            : bot_depth    - STOP DEPTH        
STEP.M        0.25                           : increment    - STEP LENGTH       
~CURVE INFORMATION BLOCK
#MNEM UNIT       ERCB CURVE CODE    CURVE DESCRIPTION
#-----------   ------------------   ----------------------------------
DEPT.M        00 001 00 00         : DEPTH        - DEPTH                       
CALI.MM       00 280 01 00         : CAL          - CALIPER                     
ILD .OHMM     00 120 00 00         : RESD         - DEEP RESISTIVITY (DIL)      
GR  .API      00 310 00 00         : GR           - GAMMA RAY                   
NPHI.V/V      00 330 00 00         : PHIN         - NEUTRON POROSITY (SANDSTONE)
DPHI.V/V      00 890 00 00         : PHID         - DENSITY POROSITY (SANDSTONE)
~PARAMETER INFORMATION       
#MNEM.UNIT           DATA             DESCRIPTION OF MNEMONIC
#---------         -----------     ------------------------------
GL  .M        785.2                : gl           - GROUND LEVEL ELEVATION      
EREF.M        788.2                : kb           - ELEVATION OF DEPTH REFERENCE
DATM.M        785.2                : datum        - DATUM ELEVATION             
TDD .M        931                  : tdd          - TOTAL DEPTH DRILLER         
RUN .         ONE                  : Run          - RUN NUMBER                  
ENG .         RIVOLLIER            : Engineer     - RECORDING ENGINEER          
WIT .         TRUNK                : Witness      - WITNESSED BY                
BASE.         EDM                  : Branch       - HOME BASE OF LOGGING UNIT   
MUD .         GEL                  : Mud_type     - MUD TYPE                    
MATR.         SANDSTONE            : Logunit      - NEUTRON MATRIX              
TMAX.C        0                    : BHT          - MAXIMUM RECORDED TEMPERATURE
BHTD.M        931                  : BHTDEP       - MAXIMUM RECORDED TEMPERATURE
RMT .C        11                   : MDTP         - TEMPERATURE OF MUD          
MUDD.KG/M     1102                 : MWT          - MUD DENSITY                 
NEUT.         1                    : NEUTRON      - NEUTRON TYPE                
RESI.         0                    : RESIST       - RESISTIVITY TYPE            
RM  .OHMM     5.96                 : RM           - RESISTIVITY OF MUD          
RMC .OHMM     0.25                 : RMC          - RESISTIVITY OF MUD CAKE     
RMF .OHMM     7.48                 : RMF          - RESISTIVITY OF MUD FILTRATE 
SUFT.C        0                    : SUFT         - SURFACE TEMPERATURE         
~A  DEPTH      CAL     RESD       GR     PHIN     PHID
# ...
  716.500  201.791    3.086   97.550    0.539    0.285
  716.750  195.355    3.273   95.340    0.472    0.234
  717.000  189.531    3.414   92.513    0.462    0.222
  717.250  184.323    3.548   90.242    0.459    0.215
  717.500  178.504    3.612   89.945    0.446    0.207
  717.750  176.987    3.562   92.671    0.436    0.201
  718.000  175.981    3.479   95.337    0.426    0.206
  718.250  175.281    3.380   95.658    0.426    0.219
  718.500  174.892    3.283   93.262    0.438    0.222
  718.750  175.214    3.214   94.632    0.466    0.230
  719.000  175.439    3.121   91.805    0.490    0.238
  719.250  175.764    3.043   88.115    0.500    0.228
  719.500  176.399    2.940   87.510    0.492    0.213
  719.750  177.647    2.787   91.408    0.454    0.206
  720.000  178.893    2.667   94.629    0.408    0.195
  720.250  184.652    2.581   95.690    0.435    0.196
  720.500  190.098    2.555   92.802    0.464    0.194
  720.750  193.191    2.591   91.147    0.480    0.188
  721.000  188.906    2.668   87.580    0.466    0.175
  721.250  183.083    2.736   84.198    0.475    0.200
  721.500  179.106    2.765   77.484    0.459    0.149
  721.750  177.690    2.747   76.200    0.424    0.130
  722.000  170.023    2.663   87.442    0.407    0.174
  722.250  177.318    2.544   92.452    0.442    0.200
  722.500  184.304    2.411   95.858    0.468    0.201
  722.750  186.886    2.312   99.017    0.460    0.218
  723.000  188.034    2.242  101.373    0.474    0.225
  723.250  188.972    2.194  103.606    0.474    0.229
  723.500  190.118    2.147  104.913    0.474    0.200
  723.750  190.954    2.113  105.852    0.475    0.210
  724.000  191.487    2.112  106.665    0.488    0.223
  724.250  191.709    2.118  105.196    0.509    0.240
  724.500  191.727    2.156  100.888    0.527    0.243
  724.750  191.543    2.244   94.606    0.542    0.219
  725.000  191.457    2.376   87.707    0.464    0.218
  725.250  191.270    2.583   82.844    0.424    0.226
  725.500  191.085    2.710   80.881    0.414    0.207
  725.750  190.387    2.810   79.722    0.420    0.200
  726.000  190.301    2.850   78.375    0.427    0.246
  726.250  190.324    2.853   82.829    0.439    0.268
  726.500  190.955    2.835   83.891    0.442    0.224
  726.750  191.178    2.790   82.051    0.422    0.198
  727.000  190.683    2.740   78.422    0.428    0.189
  727.250  188.858    2.652   74.917    0.421    0.213
  727.500  186.621    2.529   70.856    0.388    0.210
  727.750  183.156    2.375   71.731    0.376    0.199
  728.000  180.306    2.189   73.904    0.375    0.199
  728.250  177.763    2.041   72.929    0.407    0.266
  728.500  169.794    1.910   71.520    0.408    0.245
  728.750  156.487    1.803   71.100    0.395    0.244
  729.000  155.378    1.716   73.704    0.383    0.258
  729.250  155.503    1.639   72.172    0.396    0.272
  729.500  155.416    1.589   68.112    0.404    0.262
  729.750  155.949    1.556   64.915    0.410    0.269
  730.000  156.171    1.540   62.212    0.414    0.278
  730.250  156.603    1.535   59.570    0.411    0.283
  730.500  156.725    1.517   60.816    0.410    0.255
  730.750  157.155    1.510   63.728    0.417    0.261
  731.000  157.275    1.514   66.703    0.424    0.271
  731.250  157.905    1.496   67.639    0.413    0.266
  731.500  158.637    1.483   65.368    0.420    0.259
  731.750  158.656    1.378   60.320    0.413    0.252
  732.000  158.060    1.235   56.259    0.401    0.265
  732.250  157.671    1.144   52.445    0.393    0.277
  732.500  157.381    1.085   50.421    0.401    0.302
  732.750  156.891    1.062   50.988    0.395    0.311
  733.000  156.598    1.057   51.369    0.399    0.303
  733.250  156.206    1.086   50.332    0.410    0.310
  733.500  155.511    1.169   49.111    0.408    0.302
  733.750  155.528    1.259   47.765    0.395    0.288
  734.000  155.339    1.351   46.480    0.409    0.266
  734.250  155.566    1.505   46.678    0.420    0.251
  734.500  155.480    1.730   54.711    0.416    0.244
  734.750  155.703    2.058   58.487    0.408    0.231
  735.000  155.721    2.314   58.622    0.421    0.221
  735.250  155.739    2.562   61.657    0.403    0.241
  735.500  155.860    2.678   65.124    0.393    0.231
  735.750  155.981    2.752   66.247    0.382    0.229
  736.000  155.795    2.806   66.506    0.401    0.248
  736.250  155.815    2.862   69.233    0.386    0.247
  736.500  155.731    2.952   73.688    0.381    0.235
  736.750  155.852    3.161   75.982    0.384    0.227
  737.000  156.792    3.560   77.968    0.399    0.204
  737.250  159.269    4.147   80.016    0.421    0.227
  737.500  164.412    4.832   72.315    0.447    0.311
  737.750  167.401    5.683   59.245    0.571    0.389
  738.000  166.397    6.142   45.681    0.629    0.553
  738.250  164.263    5.382   39.276    0.716    0.657
  738.500  162.028    4.612   48.667    0.713    0.658
  738.750  160.200    4.110   56.392    0.485    0.561
  739.000  158.681    3.860   60.046    0.403    0.283
  739.250  157.982    3.792   61.847    0.338    0.284
  739.500  157.285    3.817   63.401    0.317    0.285
  739.750  156.689    3.944   64.895    0.312    0.276
  740.000  156.709    4.023   65.954    0.339    0.271
  740.250  156.728    4.118   65.780    0.357    0.273
  740.500  157.052    4.153   63.633    0.369    0.278
  740.750  157.376    4.065   68.272    0.360    0.284
  741.000  157.499    3.825   74.886    0.354    0.278
  741.250  157.928    3.546   80.020    0.359    0.273
  741.500  158.048    3.287   83.303    0.372    0.269
  741.750  158.270    3.122   84.856    0.366    0.256
  742.000  158.186    3.033   87.336    0.356    0.248
  742.250  158.001    3.058   90.619    0.350    0.246
  742.500  157.917    3.154   92.605    0.355    0.255
  742.750  158.141    3.321   92.863    0.367    0.256
  743.000  159.289    3.438   91.641    0.395    0.241
  743.250  160.943    3.481   92.023    0.404    0.243
  743.500  163.628    3.490   94.010    0.408    0.241
  743.750  166.924    3.474   96.551    0.434    0.220
  744.000  170.016    3.446   95.267    0.451    0.197
  744.250  170.549    3.417   86.949    0.450    0.225
  744.500  167.287    3.363   79.494    0.428    0.258
  744.750  162.900    3.279   76.174    0.414    0.256
  745.000  162.098    3.209   77.729    0.435    0.269
  745.250  162.938    3.159   81.380    0.436    0.271
  745.500  164.799    3.103   87.132    0.432    0.261
  745.750  167.481    3.071   90.043    0.433    0.248
  746.000  171.292    3.040   91.659    0.438    0.209
  746.250  175.204    3.009   93.645    0.445    0.199
  746.500  178.093    2.945   96.187    0.455    0.182
  746.750  179.443    2.850   93.793    0.466    0.211
  747.000  179.870    2.712   90.102    0.477    0.195
  747.250  178.151    2.426   90.855    0.469    0.212
  747.500  176.321    2.075   95.493    0.452    0.172
  747.750  172.958    1.873   91.681    0.439    0.208
  748.000  170.827    1.717   90.210    0.424    0.184
  748.250  171.868    1.822   90.099    0.411    0.162
  748.500  174.551    2.118   89.247    0.427    0.170
  748.750  177.131    2.363   89.382    0.452    0.182
  749.000  179.097    2.498   91.307    0.456    0.182
  749.250  179.422    2.650   94.589    0.449    0.195
  749.500  179.647    2.743   93.551    0.442    0.179
  749.750  179.871    2.798   96.834    0.438    0.178
  750.000  180.709    2.880   98.327    0.449    0.187
  750.250  181.854    2.999   95.192    0.470    0.201
  750.500  182.794    3.205   89.341    0.467    0.218
  750.750  181.276    3.387   83.183    0.443    0.242
  751.000  168.178    3.507   78.258    0.427    0.270
  751.250  162.049    3.638   77.529    0.419    0.261
  751.500  161.043    3.669   78.096    0.427    0.252
  751.750  161.064    3.604   76.503    0.437    0.260
  752.000  161.593    3.541   76.332    0.445    0.278
  752.250  162.226    3.414   78.626    0.450    0.263
  752.500  163.579    3.279   81.290    0.450    0.257
  752.750  165.338    3.023   84.511    0.454    0.244
