~VERSION INFORMATION
 VERS.                 2.0:   CWLS LOG ASCII STANDARD -VERSION 2.0
 WRAP.                  NO:   ONE LINE PER DEPTH STEP
~WELL INFORMATION BLOCK
#MNEM.UNIT           DATA                    DESCRIPTION OF MNEMONIC
#---------    -------------------            -------------------------------
# Generated from Intellog Unique Number	CS_67_68/WELL/833
WELL.         ET AL TWEEDIE                  : Well_name    - WELL
LOC .         00/11-12-068-13W4/0            : Location     - LOCATION
UWI .         00/11-12-068-13W4/0            : Uwi          - UNIQUE WELL ID
ENTR.         SP                             : Entered      - ENTERED BY
SRVC.         SCHLUMBERGER                   : Scn          - SERVICE COMPANY
STRT.M        289.56                         : top_depth    - START DEPTH
STOP.M        466.060                        : bot_depth    - STOP DEPTH
STEP.M        0.25                           : increment    - STEP LENGTH
 NULL. -999.2500:NULL Value
~CURVE INFORMATION BLOCK
#MNEM UNIT       ERCB CURVE CODE    CURVE DESCRIPTION
#-----------   ------------------   ----------------------------------
DEPT.M        00 001 00 00         : DEPTH        - DEPTH
GR  .API      00 310 00 00         : GR           - GAMMA RAY
DPHI.V/V      00 890 00 00         : PHID         - DENSITY POROSITY (SANDSTONE)
NPHI.V/V      00 330 00 00         : PHIN         - NEUTRON POROSITY (SANDSTONE)
ILD .OHMM     00 120 00 00         : RESD         - DEEP RESISTIVITY (DIL)
~PARAMETER INFORMATION
#MNEM.UNIT           DATA             DESCRIPTION OF MNEMONIC
#---------         -----------     ------------------------------
GL  .M        590.398              : gl           - GROUND LEVEL ELEVATION
EREF.M        593.141              : kb           - ELEVATION OF DEPTH REFERENCE
DATM.M        590.398              : datum        - DATUM ELEVATION
TDD .M        467.868              : tdd          - TOTAL DEPTH DRILLER
RUN .         ONE                  : Run          - RUN NUMBER
ENG .         BILL                 : Engineer     - RECORDING ENGINEER
WIT .         JIM                  : Witness      - WITNESSED BY
MUD .         GEL                  : Mud_type     - MUD TYPE
MATR.         SANDSTONE            : Logunit      - NEUTRON MATRIX
TMAX.C        18.3333              : BHT          - MAXIMUM RECORDED TEMPERATURE
BHTD.M        467.868              : BHTDEP       - MAXIMUM RECORDED TEMPERATURE
MATR.         1                    : LOGUNIT      - NEUTRON MATRIX
RMT .C        25                   : MDTP         - TEMPERATURE OF MUD
NEUT.         1                    : NEUTRON      - NEUTRON TYPE
RESI.         0                    : RESIST       - RESISTIVITY TYPE
RMC .OHMM     0.25                 : RMC          - RESISTIVITY OF MUD CAKE
RMF .OHMM     0.25                 : RMF          - RESISTIVITY OF MUD FILTRATE
SUFT.C        15                   : SUFT         - SURFACE TEMPERATURE
~A  DEPTH       GR     PHID     PHIN     RESD
  289.560  108.061    0.238    0.603    2.396
  289.810  109.172    0.227    0.600    2.366
  290.060  114.711    0.217    0.588    2.335
  290.310  117.995    0.220    0.574    2.334
  290.560  116.703    0.234    0.566    2.351
  290.810  115.679    0.227    0.562    2.374
  291.060  115.771    0.220    0.573    2.401
  291.310  117.254    0.220    0.590    2.429
  291.560  120.366    0.226    0.596    2.476
  291.810  121.478    0.238    0.587    2.515
  292.060  122.035    0.233    0.600    2.556
  292.310  121.281    0.226    0.580    2.609
  292.560  119.953    0.216    0.572    2.692
  292.810  118.494    0.212    0.570    2.786
  293.060  120.084    0.225    0.567    2.880
  293.310  122.183    0.227    0.569    3.027
  293.560  121.898    0.246    0.548    3.140
  293.810  121.493    0.248    0.524    3.247
  294.060  122.112    0.227    0.520    3.309
  294.310  123.290    0.206    0.538    3.286
  294.560  122.108    0.198    0.550    3.142
  294.810  121.129    0.207    0.558    3.025
  295.060  119.529    0.217    0.579    2.919
  295.310  118.317    0.213    0.587    2.782
  295.560  118.515    0.234    0.595    2.639
  295.810  119.687    0.244    0.597    2.521
  296.060  119.170    0.255    0.587    2.448
  296.310  117.872    0.237    0.590    2.434
  296.560  117.905    0.240    0.585    2.480
  296.810  120.753    0.260    0.586    2.582
  297.060  122.576    0.273    0.595    2.700
  297.310  123.172    0.265    0.582    2.802
  297.560  122.901    0.242    0.594    2.832
  297.810  121.007    0.227    0.578    2.833
  298.060  118.279    0.260    0.548    2.774
  298.310  115.262    0.272    0.527    2.708
  298.560  112.531    0.270    0.531    2.618
  298.810  109.058    0.268    0.527    2.529
  299.060  110.465    0.266    0.530    2.406
  299.310  112.907    0.267    0.563    2.363
  299.560  111.394    0.308    0.584    2.396
  299.810  108.105    0.338    0.590    2.502
  300.060  107.102    0.366    0.560    2.717
  300.310  107.088    0.318    0.510    2.964
  300.560  113.082    0.235    0.483    3.228
  300.810  116.762    0.230    0.452    3.562
  301.060  119.686    0.252    0.444    3.802
  301.310  121.057    0.269    0.447    3.966
  301.560  118.217    0.278    0.450    4.040
  301.810  118.887    0.261    0.472    4.005
  302.060  121.998    0.270    0.497    3.957
  302.310  120.376    0.276    0.520    3.848
  302.560  118.963    0.294    0.515    3.794
  302.810  117.944    0.283    0.499    3.786
  303.060  111.952    0.263    0.505    3.842
  303.310  106.879    0.247    0.478    4.101
  303.560  100.317    0.305    0.381    4.553
  303.810   88.927    0.360    0.333    5.176
  304.060   64.101    0.390    0.276    6.198
  304.310   47.842    0.407    0.201    7.976
  304.560   48.149    0.399    0.209   11.213
  304.810   50.317    0.399    0.233   13.338
  305.060   53.967    0.406    0.243   14.311
  305.310   54.249    0.411    0.249   14.068
  305.560   54.793    0.416    0.232   13.700
  305.810   59.968    0.417    0.216   11.398
  306.060   66.855    0.397    0.245    9.168
  306.310   74.367    0.376    0.282    7.430
  306.560   78.665    0.348    0.345    6.558
  306.810   82.915    0.316    0.392    5.447
  307.060   84.564    0.286    0.428    4.053
  307.310   85.751    0.283    0.488    3.305
  307.560   84.082    0.293    0.475    2.937
  307.810   82.752    0.300    0.463    2.603
  308.060   86.460    0.297    0.463    2.422
  308.310   89.322    0.292    0.470    2.433
  308.560   93.787    0.283    0.473    2.495
  308.810   98.242    0.274    0.480    2.581
  309.060  104.433    0.267    0.484    2.941
  309.310  108.714    0.265    0.474    3.281
  309.560  111.401    0.262    0.471    3.591
  309.810  110.454    0.259    0.463    3.832
  310.060  109.516    0.266    0.462    3.808
  310.310  111.622    0.270    0.498    3.539
  310.560  114.925    0.266    0.534    2.945
  310.810  117.410    0.305    0.620    2.438
  311.060  118.891    0.283    0.617    2.209
  311.310  123.508    0.353    0.605    2.068
  311.560  126.349    0.382    0.598    2.011
  311.810  125.471    0.375    0.610    2.072
  312.060  115.565    0.362    0.618    2.228
  312.310  106.164    0.334    0.576    2.423
  312.560   98.339    0.298    0.490    2.608
  312.810   93.564    0.308    0.482    2.623
  313.060   93.671    0.315    0.480    2.588
  313.310   96.176    0.311    0.464    2.545
  313.560   92.377    0.309    0.468    2.544
  313.810   87.019    0.306    0.494    2.604
  314.060   84.691    0.302    0.503    2.669
  314.310   91.035    0.296    0.512    2.761
  314.560   97.095    0.279    0.518    2.888
  314.810  103.542    0.267    0.523    3.042
  315.060  107.745    0.270    0.521    3.217
  315.310  110.231    0.261    0.518    3.384
  315.560  113.128    0.251    0.523    3.537
  315.810  116.038    0.236    0.526    3.623
  316.060  117.915    0.246    0.516    3.666
  316.310  116.693    0.249    0.505    3.650
  316.560  117.437    0.248    0.510    3.641
  316.810  118.988    0.233    0.544    3.649
  317.060  120.191    0.236    0.563    3.330
  317.310  120.973    0.249    0.566    3.215
  317.560  123.481    0.272    0.576    3.095
  317.810  126.276    0.293    0.591    3.010
  318.060  129.345    0.300    0.570    3.041
  318.310  131.448    0.268    0.538    3.111
  318.560  131.369    0.272    0.488    3.175
  318.810  129.148    0.252    0.484    2.953
  319.060  121.510    0.269    0.472    2.616
  319.310  107.874    0.307    0.464    2.260
  319.560   98.912    0.330    0.455    2.117
  319.810   93.706    0.333    0.463    2.009
  320.060   94.718    0.329    0.466    1.957
  320.310   98.013    0.313    0.459    1.969
  320.560  103.092    0.291    0.456    2.130
  320.810  106.172    0.279    0.477    2.242
  321.060  108.376    0.283    0.486    2.343
  321.310  103.001    0.299    0.489    2.496
  321.560   99.549    0.297    0.492    2.533
  321.810  100.960    0.292    0.467    2.592
  322.060  104.855    0.291    0.488    2.617
  322.310  109.817    0.292    0.509    2.634
  322.560  115.779    0.290    0.528    2.551
  322.810  124.139    0.303    0.544    2.452
  323.060  131.117    0.302    0.530    2.386
  323.310  135.662    0.308    0.523    2.419
  323.560  139.625    0.321    0.527    2.465
  323.810  138.245    0.325    0.506    2.537
  324.060  138.757    0.321    0.489    2.599
  324.310  142.044    0.317    0.496    2.649
  324.560  146.563    0.322    0.506    2.671
  324.810  172.834    0.313    0.508    2.690
  325.060  187.792    0.315    0.522    2.701
  325.310  201.658    0.328    0.521    2.716
  325.560  209.521    0.318    0.514    2.719
  325.810  198.297    0.303    0.501    2.724
  326.060  194.588    0.291    0.495    2.736
  326.310  194.317    0.289    0.500    2.785
  326.560  195.105    0.301    0.496    2.798
  326.810  196.568    0.299    0.496    2.859
  327.060  196.042    0.299    0.503    2.949
  327.310  195.221    0.294    0.503    3.093
  327.560  194.405    0.281    0.497    3.238
  327.810  193.285    0.264    0.487    3.299
  328.060  193.028    0.257    0.548    3.229
  328.310  193.212    0.305    0.570    3.022
  328.560  193.991    0.338    0.548    2.707
  328.810  195.564    0.322    0.545    2.615
  329.060  197.364    0.306    0.566    2.591
  329.310  199.420    0.296    0.568    2.618
  329.560  201.452    0.291    0.561    2.653
  329.810  203.357    0.288    0.564    2.663
  330.060  198.592    0.289    0.553    2.643
  330.310  194.416    0.282    0.557    2.606
  330.560  191.166    0.274    0.558    2.536
  330.810  177.998    0.270    0.554    2.434
  331.060  156.808    0.272    0.549    2.257
  331.310  152.847    0.279    0.538    2.153
  331.560  150.831    0.311    0.543    2.062
  331.810  150.631    0.313    0.552    2.057
  332.060  149.325    0.313    0.567    2.082
  332.310  142.739    0.326    0.550    2.167
  332.560  118.348    0.306    0.539    2.237
  332.810  109.247    0.295    0.518    2.318
