~VERSION INFORMATION
 VERS.                 2.0:   CWLS LOG ASCII STANDARD -VERSION 2.0
 WRAP.                  NO:   ONE LINE PER DEPTH STEP
~WELL INFORMATION BLOCK
#MNEM.UNIT           DATA                    DESCRIPTION OF MNEMONIC
#---------    -------------------            -------------------------------
# Generated from Intellog Unique Number	CS_71_72/WELL/2059
WELL.         GEPC WANDER                    : Well_name    - WELL
LOC .         00/11-29-071-13W4/0            : Location     - LOCATION
UWI .         00/11-29-071-13W4/0            : Uwi          - UNIQUE WELL ID
ENTR.         T                              : Entered      - ENTERED BY
SRVC.         SCHLUMBERGER                   : Scn          - SERVICE COMPANY
DATE.         01/15/92                       : Date         - LOG DATE
STRT.M        335.28                         : top_depth    - START DEPTH
STOP.M        563.78                         : bot_depth    - STOP DEPTH
STEP.M        0.25                           : increment    - STEP LENGTH
 NULL. -999.2500:NULL Value
~CURVE INFORMATION BLOCK
#MNEM UNIT       ERCB CURVE CODE    CURVE DESCRIPTION
#-----------   ------------------   ----------------------------------
DEPT.M        00 001 00 00         : DEPTH        - DEPTH
GR  .API      00 310 00 00         : GR           - GAMMA RAY
NPHI.V/V      00 330 00 00         : PHIN         - NEUTRON POROSITY (SANDSTONE)
ILD .OHMM     00 120 00 00         : RESD         - DEEP RESISTIVITY (DIL)
~PARAMETER INFORMATION
#MNEM.UNIT           DATA             DESCRIPTION OF MNEMONIC
#---------         -----------     ------------------------------
GL  .M        657.758              : gl           - GROUND LEVEL ELEVATION
EREF.M        661.721              : kb           - ELEVATION OF DEPTH REFERENCE
DATM.M        661.721              : datum        - DATUM ELEVATION
TDD .M        566.928              : tdd          - TOTAL DEPTH DRILLER
RUN .         ONE                  : Run          - RUN NUMBER
ENG .         BILL                 : Engineer     - RECORDING ENGINEER
WIT .         JIM                  : Witness      - WITNESSED BY
MUD .         GEL                  : Mud_type     - MUD TYPE
MATR.         SANDSTONE            : Logunit      - NEUTRON MATRIX
TMAX.C        10.5556              : BHT          - MAXIMUM RECORDED TEMPERATURE
BHTD.M        566.928              : BHTDEP       - MAXIMUM RECORDED TEMPERATURE
RMT .C        8.33333              : MDTP         - TEMPERATURE OF MUD
MUDD.KG/M     9800                 : MWT          - MUD DENSITY
NEUT.         1                    : NEUTRON      - NEUTRON TYPE
RESI.         0                    : RESIST       - RESISTIVITY TYPE
RM  .OHMM     4.4                  : RM           - RESISTIVITY OF MUD
RMC .OHMM     5.08                 : RMC          - RESISTIVITY OF MUD CAKE
RMF .OHMM     4.4                  : RMF          - RESISTIVITY OF MUD FILTRATE
SUFT.C        4                    : SUFT         - SURFACE TEMPERATURE
~A  DEPTH       GR     PHIN     RESD
  335.280  110.527    0.474    3.687
  335.530  112.342    0.479    3.687
  335.780  114.153    0.487    3.687
  336.030  114.766    0.503    3.616
  336.280  115.975    0.508    3.617
  336.530  118.991    0.485    3.412
  336.780  121.405    0.467    3.347
  337.030  114.203    0.477    3.220
  337.280  117.216    0.491    3.220
  337.530  122.035    0.504    3.220
  337.780  129.259    0.516    3.348
  338.030  134.679    0.504    3.348
  338.280  134.089    0.483    3.414
  338.530  131.694    0.483    3.414
  338.780  126.892    0.486    3.481
  339.030  121.493    0.486    3.482
  339.280  116.094    0.485    3.482
  339.530  111.892    0.482    3.350
  339.780  107.696    0.480    3.285
  340.030  115.523    0.482    3.160
  340.280  114.326    0.496    3.161
  340.530  111.331    0.498    3.161
  340.780  108.332    0.469    3.223
  341.030  101.729    0.456    3.351
  341.280   89.714    0.413    3.552
  341.530   71.084    0.396    3.766
  341.780   61.477    0.417    4.663
  342.030   68.102    0.397    6.121
  342.280   68.710    0.375    6.746
  342.530   53.089    0.412    6.747
  342.780   47.687    0.433    6.490
  343.030   44.693    0.428    6.243
  343.280   42.899    0.421    6.006
  343.530   42.906    0.412    5.891
  343.780   40.511    0.394    5.891
  344.030   40.520    0.392    5.778
  344.280   43.536    0.386    6.008
  344.530   51.361    0.384    6.246
  344.780   78.424    0.387    6.247
  345.030  107.291    0.423    6.127
  345.280  113.312    0.420    6.009
  345.530  113.322    0.412    5.894
  345.780  113.334    0.426    6.371
  346.030  115.748    0.450    6.754
  346.280  119.963    0.452    6.887
  346.530  127.189    0.436    6.755
  346.780  129.604    0.424    6.625
  347.030  129.613    0.415    6.498
  347.280  129.623    0.426    6.374
  347.530  129.632    0.441    6.251
  347.780  130.245    0.454    6.131
  348.030  129.050    0.457    5.898
  348.280  123.648    0.432    5.565
  348.530  117.646    0.423    5.353
  348.780  112.245    0.450    5.050
  349.030  104.439    0.450    5.566
  349.280   98.436    0.457    6.502
  349.530   98.448    0.455    7.450
  349.780   99.657    0.439    7.597
  350.030   98.464    0.424    7.746
  350.280   92.464    0.392    8.373
  350.530   88.864    0.374    9.050
  350.780   90.677    0.408    9.228
  351.030   90.085    0.413    9.052
  351.280   87.690    0.402    8.707
  351.530   78.682    0.426    8.215
  351.780   72.679    0.440    9.053
  352.030   74.495    0.458    9.978
  352.280   75.103    0.466   10.374
  352.530   75.115    0.460   10.175
  352.780   75.728    0.447    9.599
  353.030   76.336    0.458    8.544
  353.280   76.944    0.463    7.754
  353.530   76.954    0.469    7.459
  353.780   73.356    0.465    7.459
  354.030   69.157    0.455    7.908
  354.280   65.562    0.448    8.383
  354.530   67.974    0.447    8.716
  354.780   72.194    0.443    8.887
  355.030   74.606    0.450    8.549
  355.280   73.413    0.465    8.224
  355.530   71.618    0.463    7.759
  355.780   74.033    0.463    7.041
  356.030   77.652    0.464    6.773
  356.280   80.667    0.471    7.180
  356.530   81.879    0.481    7.612
  356.780   78.281    0.492    7.322
  357.030   72.880    0.511    7.044
  357.280   71.689    0.526    6.645
  357.530   72.901    0.524    6.646
  357.780   74.113    0.513    7.045
  358.030   75.926    0.495    7.184
  358.280   78.939    0.485    6.910
  358.530   83.159    0.477    6.778
  358.780   83.772    0.484    6.395
  359.030   83.777    0.492    6.395
  359.280   83.787    0.485    7.048
  359.530   84.400    0.482    7.187
  359.780   85.010    0.482    7.187
  360.030   86.225    0.480    7.329
  360.280   86.831    0.474    7.620
  360.530   89.249    0.467    7.620
  360.780   90.459    0.472    7.621
  361.030   91.067    0.477    7.622
  361.280   93.484    0.480    7.924
  361.530   95.898    0.484    8.400
  361.780   98.310    0.490    8.401
  362.030  101.325    0.482    8.081
  362.280  105.548    0.450    7.774
  362.530  109.165    0.456    8.083
  362.780  112.781    0.471    8.242
  363.030  116.999    0.479    7.194
  363.280  120.012    0.484    5.925
  363.530  127.840    0.480    5.072
  363.780  132.057    0.479    4.514
  364.030  133.870    0.479    4.097
  364.280  135.686    0.479    3.865
  364.530  136.893    0.479    3.865
  364.780  137.508    0.472    4.516
  365.030  136.311    0.459    5.275
  365.280  135.118    0.432    6.044
  365.530  132.727    0.417    6.163
  365.780  130.931    0.438    6.045
  366.030  128.538    0.419    6.045
  366.280  127.340    0.396    6.285
  366.530  125.546    0.406    6.794
  366.780  122.549    0.423    7.634
  367.030  118.350    0.433    7.937
  367.280  110.547    0.443    8.252
  367.530  108.149    0.457    8.253
  367.780  105.754    0.461    8.416
  368.030  102.757    0.454    8.921
  368.280   95.552    0.464    9.643
  368.530   98.568    0.475    9.644
  368.780  110.601    0.470    8.583
  369.030  129.854    0.462    7.207
  369.280  126.855    0.465    6.291
  369.530  122.658    0.469    6.291
  369.780  117.257    0.456    7.350
  370.030  113.056    0.441    8.421
  370.280  107.053    0.423    8.755
  370.530  111.872    0.413    8.756
  370.780  118.495    0.413    8.756
  371.030  121.510    0.412    8.423
  371.280  127.532    0.407    8.262
  371.530  130.547    0.407    7.948
  371.780  132.964    0.417    7.645
  372.030  136.583    0.428    7.354
  372.280  138.391    0.430    6.674
  372.530  142.609    0.433    6.057
  372.780  147.428    0.447    5.391
  373.030  146.235    0.488    5.086
  373.280  131.820    0.499    4.989
  373.530  121.003    0.486    5.498
  373.780  118.007    0.473    6.677
  374.030  110.802    0.465    7.650
  374.280  111.415    0.459    7.504
  374.530  116.232    0.459    7.504
  374.780  118.646    0.447    7.802
  375.030  115.048    0.439    7.803
  375.280  113.254    0.450    7.081
  375.530  118.075    0.462    6.812
  375.780  119.889    0.475    5.946
  376.030  119.898    0.475    5.090
  376.280  117.503    0.465    4.358
  376.530  112.703    0.450    4.032
  376.780  106.099    0.436    5.293
  377.030   98.894    0.436    7.365
  377.280   92.891    0.446    8.945
  377.530   87.492    0.457    9.300
  377.780   85.097    0.471   10.250
  378.030   84.505    0.471   10.866
  378.280   83.312    0.475   11.297
  378.530   83.322    0.478   10.252
  378.780   83.334    0.484    7.811
  379.030   82.737    0.483    6.818
  379.280   79.741    0.473    6.559
  379.530   77.345    0.457    7.662
  379.780   74.349    0.449    8.610
  380.030   70.150    0.462    8.445
  380.280   70.159    0.471    8.612
  380.530   72.574    0.471    8.954
  380.780   73.788    0.468    9.130
  381.030   72.595    0.468    9.310
  381.280   72.001    0.468    9.493
  381.530   75.617    0.462    9.680
  381.780   79.234    0.442    9.871
  382.030   80.448    0.427    9.871
  382.280   81.057    0.426    9.682
  382.530   79.265    0.436    9.873
  382.780   76.870    0.440   10.067
  383.030   75.677    0.445   10.467
  383.280   76.888    0.455   10.467
  383.530   79.303    0.461   10.468
  383.780   85.322    0.461   10.268
  384.030   89.540    0.453    9.501
  384.280   92.555    0.456    8.456
  384.530   96.174    0.458    7.100
  384.780   99.189    0.455    5.847
  385.030  101.604    0.440    5.410
  385.280  104.621    0.437    5.516
  385.530  106.437    0.440    5.736
  385.780  107.644    0.450    5.848
  386.030  109.457    0.452    5.849
  386.280  113.076    0.452    5.626
  386.530  113.684    0.458    5.518
  386.780  111.890    0.461    5.106
  387.030  111.298    0.460    5.413
  387.280  111.911    0.463    6.324
  387.530  109.514    0.460    7.533
  387.780  107.720    0.450    7.246
  388.030  105.327    0.445    6.576
  388.280  104.134    0.442    7.247
  388.530  103.542    0.445    7.390
  388.780  104.751    0.455    6.838
  389.030  108.368    0.459    6.086
  389.280  113.187    0.472    5.523
