~VERSION INFORMATION
 VERS.                 2.0:   CWLS LOG ASCII STANDARD -VERSION 2.0
 WRAP.                  NO:   ONE LINE PER DEPTH STEP
~WELL INFORMATION BLOCK
#MNEM.UNIT           DATA                    DESCRIPTION OF MNEMONIC
#---------    -------------------            -------------------------------
# Generated from Intellog Unique Number	CS_67_68/WELL/2190
WELL.         10-03-067-08W4                 : Well_name    - WELL
LOC .         00/10-03-067-08W4/0            : Location     - LOCATION
UWI .         00/10-03-067-08W4/0            : Uwi          - UNIQUE WELL ID
ENTR.         SP                             : Entered      - ENTERED BY
SRVC.         SCHLUMBERGER                   : Scn          - SERVICE COMPANY
STRT.M        305                            : top_depth    - START DEPTH
STOP.M        545                            : bot_depth    - STOP DEPTH
STEP.M        0.25                           : increment    - STEP LENGTH
 NULL. -999.2500:NULL Value
~CURVE INFORMATION BLOCK
#MNEM UNIT       ERCB CURVE CODE    CURVE DESCRIPTION
#-----------   ------------------   ----------------------------------
DEPT.M        00 001 00 00         : DEPTH        - DEPTH
ILD .OHMM     00 120 00 00         : RESD         - DEEP RESISTIVITY (DIL)
DPHI.V/V      00 890 00 00         : PHID         - DENSITY POROSITY (LIMESTONE)
NPHI.V/V      00 330 00 00         : PHIN         - NEUTRON POROSITY (LIMESTONE)
GR  .API      00 310 00 00         : GR           - GAMMA RAY
CALI.MM       00 280 01 00         : CAL          - CALIPER
~PARAMETER INFORMATION
#MNEM.UNIT           DATA             DESCRIPTION OF MNEMONIC
#---------         -----------     ------------------------------
GL  .M        609.7                : gl           - GROUND LEVEL ELEVATION
EREF.M        613.4                : kb           - ELEVATION OF DEPTH REFERENCE
DATM.M        613.4                : datum        - DATUM ELEVATION
TDD .M        550                  : tdd          - TOTAL DEPTH DRILLER
RUN .         ONE                  : Run          - RUN NUMBER
ENG .         BILL                 : Engineer     - RECORDING ENGINEER
WIT .         JIM                  : Witness      - WITNESSED BY
MUD .         GEL                  : Mud_type     - MUD TYPE
MATR.         LIMESTONE            : Logunit      - NEUTRON MATRIX
TMAX.C        25                   : BHT          - MAXIMUM RECORDED TEMPERATURE
BHTD.M        554.5                : BHTDEP       - MAXIMUM RECORDED TEMPERATURE
MATR.         1                    : LOGUNIT      - NEUTRON MATRIX
RMT .C        25                   : MDTP         - TEMPERATURE OF MUD
NEUT.         1                    : NEUTRON      - NEUTRON TYPE
RESI.         0                    : RESIST       - RESISTIVITY TYPE
RMC .OHMM     0.25                 : RMC          - RESISTIVITY OF MUD CAKE
RMF .OHMM     0.25                 : RMF          - RESISTIVITY OF MUD FILTRATE
SUFT.C        15                   : SUFT         - SURFACE TEMPERATURE
~A  DEPTH     RESD     PHID     PHIN       GR      CAL
# ...
  378.000    5.749    0.234    0.378   73.045  161.167
  378.250    5.567    0.235    0.395   71.740  159.941
  378.500    5.330    0.253    0.407   69.679  158.918
  378.750    5.035    0.277    0.415   67.242  157.686
  379.000    4.838    0.295    0.419   66.252  156.562
  379.250    4.650    0.280    0.410   61.803  155.964
  379.500    4.536    0.270    0.404   56.408  155.674
  379.750    4.468    0.288    0.397   52.398  154.969
  380.000    4.400    0.303    0.400   55.437  154.373
  380.250    4.384    0.307    0.405   57.781  154.081
  380.500    4.400    0.298    0.408   56.980  154.320
  380.750    4.433    0.295    0.423   57.060  155.188
  381.000    4.441    0.296    0.433   59.280  156.688
  381.250    4.449    0.300    0.416   59.547  157.659
  381.500    4.466    0.306    0.404   58.935  158.103
  381.750    4.500    0.305    0.405   59.456  158.657
  382.000    4.491    0.299    0.428   61.299  159.422
  382.250    4.474    0.289    0.440   62.951  160.187
  382.500    4.474    0.278    0.440   63.722  160.838
  382.750    4.440    0.280    0.436   63.235  161.288
  383.000    4.356    0.282    0.422   61.994  161.735
  383.250    4.194    0.280    0.410   65.598  162.182
  383.500    4.015    0.328    0.431   69.957  162.209
  383.750    3.708    0.382    0.468   74.190  163.496
  384.000    3.418    0.413    0.529   76.030  173.489
  384.250    3.121    0.435    0.586   75.610  185.155
  384.500    3.033    0.449    0.592   73.926  198.921
  384.750    3.222    0.354    0.531   68.344  180.809
  385.000    3.404    0.321    0.489   64.269  167.098
  385.250    3.596    0.305    0.464   63.975  162.093
  385.500    3.699    0.311    0.450   64.996  159.607
  385.750    3.835    0.310    0.442   67.844  158.270
  386.000    3.990    0.297    0.434   71.889  157.458
  386.250    4.255    0.284    0.424   74.863  158.013
  386.500    4.461    0.269    0.422   76.895  159.300
  386.750    4.642    0.260    0.416   77.098  160.690
  387.000    4.867    0.256    0.412   78.247  161.976
  387.250    5.074    0.246    0.419   81.035  162.845
  387.500    5.141    0.250    0.423   84.072  163.397
  387.750    5.006    0.266    0.449   81.131  162.905
  388.000    4.793    0.283    0.465   73.661  160.519
  388.250    4.528    0.305    0.446   64.868  156.982
  388.500    4.335    0.320    0.430   67.092  155.645
  388.750    4.157    0.314    0.414   70.188  156.407
  389.000    4.110    0.300    0.418   73.224  157.384
  389.250    4.737    0.295    0.475   76.828  158.039
  389.500    5.812    0.280    0.504   77.915  159.016
  389.750    7.267    0.202    0.390   63.649  159.774
  390.000    9.383    0.035    0.350   47.622  160.954
  390.250   11.274    0.015    0.315   48.333  162.346
  390.500   12.630    0.024    0.267   54.891  163.632
  390.750   13.042    0.112    0.214   64.095  164.820
  391.000   11.597    0.187    0.281   72.794  165.156
  391.250    9.505    0.222    0.393   78.662  165.081
  391.500    7.060    0.231    0.454   83.713  164.899
  391.750    5.478    0.235    0.476   84.235  163.145
  392.000    4.672    0.241    0.460   83.370  161.078
  392.250    4.515    0.253    0.461   83.011  159.012
  392.500    4.532    0.270    0.454   81.579  158.195
  392.750    4.592    0.281    0.440   78.640  157.490
  393.000    4.627    0.268    0.430   76.894  156.997
  393.250    4.706    0.268    0.418   76.281  157.022
  393.500    4.706    0.273    0.415   77.558  157.262
  393.750    4.715    0.264    0.440   78.958  157.288
  394.000    4.732    0.255    0.442   80.740  157.945
  394.250    4.759    0.246    0.438   82.014  158.185
  394.500    4.786    0.247    0.447   83.540  159.051
  394.750    4.795    0.252    0.438   84.375  160.443
  395.000    4.813    0.253    0.428   83.448  161.520
  395.250    4.840    0.242    0.422   82.206  162.601
  395.500    4.830    0.231    0.436   82.287  163.568
  395.750    4.785    0.203    0.454   83.817  164.751
  396.000    4.677    0.204    0.460   85.468  166.666
  396.250    4.589    0.202    0.456   87.751  171.519
  396.500    4.452    0.228    0.475   88.773  174.799
  396.750    4.049    0.301    0.498   88.160  181.538
  397.000    2.847    0.340    0.520   86.858  195.199
  397.250    1.881    0.362    0.512   86.245  214.523
  397.500    1.315    0.335    0.502   86.576  227.870
  397.750    1.107    0.312    0.489   87.158  207.449
  398.000    1.134    0.295    0.465   88.122  185.770
  398.250    1.345    0.236    0.452   90.464  170.594
  398.500    1.512    0.230    0.459   91.802  169.886
  398.750    1.756    0.258    0.474   89.806  171.068
  399.000    2.138    0.280    0.493   89.635  169.945
  399.250    2.455    0.299    0.505   90.093  168.398
  399.500    3.012    0.262    0.500   90.172  167.588
  399.750    3.531    0.244    0.492   91.387  166.989
  400.000    3.933    0.242    0.478   92.094  166.703
  400.250    4.210    0.243    0.462   91.544  166.314
  400.500    4.406    0.230    0.455   90.870  166.237
  400.750    4.628    0.218    0.470   90.635  166.787
  401.000    4.788    0.222    0.472   90.463  168.283
  401.250    4.852    0.273    0.480   90.481  170.198
  401.500    4.916    0.320    0.495   90.624  170.227
  401.750    4.916    0.294    0.476   90.327  169.314
  402.000    4.897    0.242    0.452   90.091  169.025
  402.250    4.742    0.229    0.439   91.240  169.891
  402.500    4.446    0.260    0.445   92.641  182.296
  402.750    4.321    0.339    0.512   90.519  207.387
  403.000    4.184    0.393    0.557   86.005  218.218
  403.250    4.129    0.429    0.558   83.253  185.210
  403.500    3.968    0.338    0.521   84.154  165.209
  403.750    3.842    0.348    0.482   86.056  189.044
  404.000    3.762    0.378    0.505   87.772  198.194
  404.250    3.762    0.412    0.524   89.051  195.706
  404.500    3.783    0.346    0.510   89.190  202.027
  404.750    3.776    0.303    0.523   86.755  218.523
  405.000    3.754    0.338    0.537   83.814  228.928
  405.250    3.740    0.384    0.529   79.929  232.419
  405.500    3.705    0.428    0.483   79.947  189.346
  405.750    3.676    0.339    0.461   81.788  163.895
  406.000    3.649    0.304    0.471   83.566  157.004
  406.250    3.628    0.319    0.485   87.424  153.256
  406.500    3.600    0.323    0.486   90.397  152.336
  406.750    3.552    0.326    0.463   92.867  153.103
  407.000    3.499    0.332    0.443   91.437  153.546
  407.250    3.440    0.340    0.451   86.232  154.206
  407.500    3.407    0.333    0.457   79.893  154.443
  407.750    3.400    0.323    0.457   75.380  154.262
  408.000    3.387    0.311    0.455   70.869  154.290
  408.250    3.381    0.308    0.447   67.234  154.535
  408.500    3.330    0.323    0.448   62.910  154.661
  408.750    3.286    0.333    0.456   61.543  154.900
  409.000    3.200    0.341    0.464   62.377  155.031
  409.250    3.116    0.337    0.449   60.886  154.956
  409.500    3.040    0.330    0.441   58.888  154.776
  409.750    3.040    0.329    0.445   57.775  154.803
  410.000    3.057    0.332    0.458   58.230  155.146
  410.250    3.045    0.333    0.472   61.204  155.802
  410.500    3.039    0.331    0.466   64.560  156.256
  410.750    3.016    0.325    0.452   66.398  156.592
  411.000    3.004    0.321    0.443   66.792  157.043
  411.250    3.033    0.327    0.452   61.967  157.385
  411.500    3.265    0.231    0.393   59.905  157.941
  411.750    3.623    0.192    0.349   57.027  158.175
  412.000    3.975    0.164    0.340   54.401  158.623
  412.250    4.152    0.140    0.330   53.664  159.389
  412.500    4.074    0.144    0.306   55.631  159.519
  412.750    3.784    0.254    0.393   59.487  159.127
  413.000    3.377    0.321    0.435   61.770  157.793
  413.250    3.095    0.339    0.457   60.277  156.877
  413.500    2.924    0.343    0.468   57.650  156.177
  413.750    2.826    0.348    0.458   56.031  155.888
  414.000    2.842    0.337    0.450   54.414  155.494
  414.250    2.858    0.327    0.435   54.051  155.315
