~VERSION INFORMATION
 VERS.                 2.0:   CWLS LOG ASCII STANDARD -VERSION 2.0
 WRAP.                  NO:   ONE LINE PER DEPTH STEP
~WELL INFORMATION BLOCK
#MNEM.UNIT           DATA                    DESCRIPTION OF MNEMONIC
#---------    -------------------            -------------------------------
# Generated from Intellog Unique Number	CW_76_78/WELL/1030
WELL.         PCP MARTIN HILLS 11-33         : Well_name    - WELL
LOC .         00/11-33-076-04W5/0            : Location     - LOCATION
UWI .         00/11-33-076-04W5/0            : Uwi          - UNIQUE WELL ID
ENTR.         JAYE                           : Entered      - ENTERED BY
SRVC.         SCHLUMBERGER                   : Scn          - SERVICE COMPANY
DATE.         11 FEB 74                      : Date         - LOG DATE
STRT.M        426.72                         : top_depth    - START DEPTH
STOP.M        670.47                         : bot_depth    - STOP DEPTH
STEP.M        0.25                           : increment    - STEP LENGTH
 NULL. -999.2500:NULL Value
~CURVE INFORMATION BLOCK
#MNEM UNIT       ERCB CURVE CODE    CURVE DESCRIPTION
#-----------   ------------------   ----------------------------------
DEPT.M        00 001 00 00         : DEPTH        - DEPTH
ILD .OHMM     00 120 00 00         : RESD         - DEEP RESISTIVITY (DIL)
NPHI.V/V      00 330 00 00         : PHIN         - NEUTRON POROSITY (SANDSTONE)
DPHI.V/V      00 890 00 00         : PHID         - DENSITY POROSITY (SANDSTONE)
GR  .API      00 310 00 00         : GR           - GAMMA RAY
CALI.MM       00 280 01 00         : CAL          - CALIPER
~PARAMETER INFORMATION
#MNEM.UNIT           DATA             DESCRIPTION OF MNEMONIC
#---------         -----------     ------------------------------
GL  .M        741.578              : gl           - GROUND LEVEL ELEVATION
EREF.M        745.541              : kb           - ELEVATION OF DEPTH REFERENCE
DATM.M        741.578              : datum        - DATUM ELEVATION
TDD .M        684.276              : tdd          - TOTAL DEPTH DRILLER
RUN .         ONE                  : Run          - RUN NUMBER
MATR.         SANDSTONE            : Logunit      - NEUTRON MATRIX
TMAX.C        26.6667              : BHT          - MAXIMUM RECORDED TEMPERATURE
BHTD.M        684.276              : BHTDEP       - MAXIMUM RECORDED TEMPERATURE
RMT .C        16.6667              : MDTP         - TEMPERATURE OF MUD
MUDD.KG/M     0                    : MWT          - MUD DENSITY
NEUT.         1                    : NEUTRON      - NEUTRON TYPE
RESI.         0                    : RESIST       - RESISTIVITY TYPE
RM  .OHMM     5.95                 : RM           - RESISTIVITY OF MUD
RMC .OHMM     0                    : RMC          - RESISTIVITY OF MUD CAKE
RMF .OHMM     4.61                 : RMF          - RESISTIVITY OF MUD FILTRATE
SUFT.C        -17.7778             : SUFT         - SURFACE TEMPERATURE
~A  DEPTH     RESD     PHIN     PHID       GR      CAL
# ...
  609.220    5.184    0.413    0.204   76.880  207.108
  609.470    5.273    0.415    0.205   75.233  206.954
  609.720    5.383    0.413    0.194   78.620  207.220
  609.970    5.476    0.406    0.178   82.878  207.583
  610.220    5.478    0.395    0.163   84.837  209.112
  610.470    5.421    0.414    0.150   84.498  211.692
  610.720    5.384    0.428    0.182   84.529  215.534
  610.970    5.357    0.435    0.197   85.682  219.694
  611.220    5.321    0.441    0.184   85.837  225.850
  611.470    5.265    0.438    0.162   85.249  215.807
  611.720    5.220    0.429    0.150   84.476  211.027
  611.970    5.251    0.432    0.173   85.377  209.395
  612.220    5.302    0.430    0.183   86.467  209.137
  612.470    5.364    0.426    0.174   87.370  209.519
  612.720    5.466    0.419    0.165   84.916  209.671
  612.970    5.590    0.413    0.181   84.763  210.148
  613.220    5.666    0.413    0.181   86.036  210.214
  613.470    5.690    0.440    0.155   85.324  210.153
  613.720    5.744    0.425    0.116   83.120  209.789
  613.970    5.908    0.410    0.136   80.047  208.374
  614.220    6.064    0.402    0.140   79.213  206.946
  614.470    6.317    0.400    0.156   78.499  205.111
  614.720    6.629    0.411    0.194   76.976  204.325
  614.970    7.020    0.424    0.174   74.648  203.746
  615.220    7.600    0.430    0.161   70.518  203.275
  615.470    8.167    0.424    0.174   64.710  202.597
  615.720    8.649    0.409    0.191   62.508  201.924
  615.970    9.450    0.390    0.224   63.347  201.759
  616.220   10.081    0.400    0.241   64.808  202.143
  616.470   10.893    0.405    0.231   67.947  202.605
  616.720   10.241    0.397    0.198   73.201  203.619
  616.970    9.417    0.395    0.174   78.637  203.877
  617.220    8.410    0.404    0.177   79.166  203.937
  617.470    8.156    0.402    0.168   78.082  203.884
  617.720    8.829    0.316    0.101   65.377  203.946
  617.970   10.305    0.198    0.061   48.635  203.996
  618.220   11.764    0.172    0.007   46.183  204.275
  618.470   13.115    0.258   -0.014   49.324  204.327
  618.720   13.966    0.337    0.068   53.145  204.591
  618.970   13.520    0.357    0.117   53.053  204.960
  619.220   13.016    0.333    0.130   48.363  205.327
  619.470   12.348    0.283    0.090   51.379  205.591
  619.720   11.356    0.274    0.063   57.749  206.174
  619.970   10.655    0.327    0.119   61.761  206.547
  620.220    9.889    0.362    0.184   59.617  206.814
  620.470    9.127    0.341    0.171   56.358  206.867
  620.720    8.286    0.329    0.125   57.820  206.920
  620.970    7.620    0.368    0.185   59.341  206.863
  621.220    7.163    0.378    0.206   60.436  206.710
  621.470    6.883    0.383    0.173   60.840  206.457
  621.720    7.144    0.383    0.164   60.373  206.400
  621.970    8.492    0.329    0.147   57.114  206.147
  622.220   10.548    0.214    0.111   51.987  206.089
  622.470   12.770    0.185    0.063   46.492  205.933
  622.720   15.950    0.183    0.032   48.635  205.885
  622.970   18.143    0.200    0.049   51.468  206.059
  623.220   15.676    0.241    0.078   53.921  206.107
  623.470   13.033    0.323    0.141   57.307  206.374
  623.720   10.070    0.363    0.198   61.008  206.850
  623.970    7.737    0.403    0.208   63.088  207.211
  624.220    6.576    0.412    0.223   64.931  207.377
  624.470    6.114    0.427    0.209   65.765  207.115
  624.720    6.061    0.426    0.197   66.665  207.175
  624.970    6.199    0.430    0.212   67.136  207.334
  625.220    6.626    0.431    0.219   64.061  207.593
  625.470    7.147    0.408    0.207   64.963  207.757
  625.720    7.709    0.385    0.181   67.982  207.715
  625.970    7.869    0.373    0.158   70.557  207.768
  626.220    7.758    0.395    0.173   75.436  207.819
  626.470    7.538    0.403    0.178   79.320  208.089
  626.720    7.257    0.389    0.158   80.349  208.452
  626.970    6.847    0.398    0.158   77.275  208.939
  627.220    6.520    0.409    0.159   78.491  209.096
  627.470    6.277    0.419    0.169   79.578  209.791
  627.720    6.132    0.416    0.182   80.602  209.943
  627.970    6.035    0.409    0.178   82.127  209.995
  628.220    6.016    0.414    0.173   83.216  210.259
  628.470    6.063    0.427    0.172   82.191  210.527
  628.720    6.100    0.421    0.175   80.173  210.585
  628.970    6.092    0.413    0.163   80.271  210.749
  629.220    6.051    0.403    0.150   80.925  210.914
  629.470    6.009    0.390    0.166   82.633  210.744
  629.720    5.980    0.378    0.163   82.230  210.800
  629.970    5.950    0.390    0.158   81.269  210.869
  630.220    5.921    0.407    0.162   82.483  210.922
  630.470    5.912    0.419    0.151   82.763  210.975
  630.720    5.883    0.416    0.130   81.741  210.815
  630.970    5.887    0.408    0.159   79.601  210.572
  631.220    5.922    0.402    0.164   79.324  210.730
  631.470    5.947    0.399    0.165   79.230  210.788
  631.720    5.971    0.402    0.164   79.637  210.823
  631.970    5.996    0.415    0.139   79.980  210.774
  632.220    5.977    0.427    0.114   80.196  211.046
  632.470    5.947    0.430    0.130   80.853  211.209
  632.720    5.939    0.415    0.149   82.067  211.271
  632.970    5.942    0.394    0.169   82.970  211.308
  633.220    6.023    0.396    0.160   83.000  211.372
  633.470    6.148    0.400    0.136   82.351  211.549
  633.720    6.288    0.399    0.155   81.325  211.688
  633.970    6.443    0.380    0.146   80.115  211.746
  634.220    6.590    0.366    0.138   85.306  211.808
  634.470    6.803    0.372    0.140   89.625  211.852
  634.720    7.111    0.387    0.159   92.205  211.912
  634.970    7.713    0.380    0.194   89.440  210.700
  635.220    8.693    0.368    0.177   82.764  205.603
  635.470    9.943    0.365    0.174   78.944  203.453
  635.720   11.820    0.361    0.176   74.566  202.983
  635.970   13.845    0.342    0.169   68.324  202.404
  636.220   16.337    0.329    0.152   61.523  202.460
  636.470   18.823    0.327    0.131   58.573  202.312
  636.720   22.009    0.345    0.139   61.526  202.256
  636.970   24.222    0.354    0.186   67.337  202.206
  637.220   23.709    0.361    0.222   72.215  202.370
  637.470   22.993    0.373    0.197   75.478  202.547
  637.720   22.258    0.390    0.193   76.691  202.687
  637.970   21.468    0.378    0.184   71.632  203.176
  638.220   20.973    0.380    0.185   70.793  203.640
  638.470   20.491    0.381    0.182   72.815  204.437
  638.720   20.274    0.376    0.159   75.330  205.325
  638.970   19.698    0.368    0.160   75.551  206.438
  639.220   19.317    0.360    0.152   73.843  207.333
  639.470   19.186    0.348    0.147   73.814  208.443
  639.720   19.159    0.344    0.138   74.659  209.017
  639.970   18.994    0.346    0.132   76.117  209.718
  640.220   18.523    0.354    0.142   79.256  209.870
  640.470   17.930    0.360    0.150   81.214  210.134
  640.720   17.167    0.368    0.159   84.168  210.611
  640.970   16.346    0.370    0.172   88.487  210.871
  641.220   15.059    0.359    0.162   91.377  211.140
  641.470   13.773    0.357    0.156   91.098  211.207
  641.720   13.090    0.362    0.169   90.702  211.252
  641.970   12.534    0.370    0.155   90.792  211.421
  642.220   12.133    0.367    0.157   91.321  211.464
  642.470   11.896    0.357    0.149   91.791  211.523
  642.720   11.772    0.347    0.136   90.455  211.378
  642.970   11.671    0.340    0.114   88.376  211.537
  643.220   11.298    0.331    0.120   92.944  211.600
  643.470   10.659    0.329    0.111   97.266  211.757
  643.720    9.607    0.338    0.142   99.408  211.698
  643.970    8.485    0.350    0.147  100.622  211.334
  644.220    7.605    0.366    0.154  102.830  211.276
  644.470    6.644    0.385    0.138  106.526  211.122
  644.720    5.698    0.401    0.151  111.343  210.973
  644.970    5.136    0.416    0.143  109.513  209.656
  645.220    5.138    0.446    0.138  102.151  206.447
  645.470    5.372    0.426    0.140   95.227  204.305
