~VERSION INFORMATION
 VERS.                 2.0:   CWLS LOG ASCII STANDARD -VERSION 2.0
 WRAP.                  NO:   ONE LINE PER DEPTH STEP
~WELL INFORMATION BLOCK
#MNEM.UNIT           DATA                    DESCRIPTION OF MNEMONIC
#---------    -------------------            -------------------------------
# Generated from Intellog Unique Number	CS_73_76/WELL/3240
WELL.         10-25-075-15W4                 : Well_name    - WELL
LOC .         00/10-25-075-15W4/0            : Location     - LOCATION
UWI .         00/10-25-075-15W4/0            : Uwi          - UNIQUE WELL ID
ENTR.         SP                             : Entered      - ENTERED BY
SRVC.         SCHLUMBERGER                   : Scn          - SERVICE COMPANY
STRT.M        365                            : top_depth    - START DEPTH
STOP.M        570                            : bot_depth    - STOP DEPTH
STEP.M        0.25                           : increment    - STEP LENGTH
 NULL. -999.2500:NULL Value
~CURVE INFORMATION BLOCK
#MNEM UNIT       ERCB CURVE CODE    CURVE DESCRIPTION
#-----------   ------------------   ----------------------------------
DEPT.M        00 001 00 00         : DEPTH        - DEPTH
GR  .API      00 310 00 00         : GR           - GAMMA RAY
NPHI.V/V      00 330 00 00         : PHIN         - NEUTRON POROSITY (LIMESTONE)
DPHI.V/V      00 890 00 00         : PHID         - DENSITY POROSITY (LIMESTONE)
ILD .OHMM     00 120 00 00         : RESD         - DEEP RESISTIVITY (DIL)
~PARAMETER INFORMATION
#MNEM.UNIT           DATA             DESCRIPTION OF MNEMONIC
#---------         -----------     ------------------------------
GL  .M        741.17               : gl           - GROUND LEVEL ELEVATION
EREF.M        745.67               : kb           - ELEVATION OF DEPTH REFERENCE
DATM.M        741.17               : datum        - DATUM ELEVATION
TDD .M        574.4                : tdd          - TOTAL DEPTH DRILLER
RUN .         ONE                  : Run          - RUN NUMBER
ENG .         BILL                 : Engineer     - RECORDING ENGINEER
WIT .         JIM                  : Witness      - WITNESSED BY
MUD .         GEL                  : Mud_type     - MUD TYPE
MATR.         LIMESTONE            : Logunit      - NEUTRON MATRIX
TMAX.C        22                   : BHT          - MAXIMUM RECORDED TEMPERATURE
BHTD.M        574.4                : BHTDEP       - MAXIMUM RECORDED TEMPERATURE
MATR.         1                    : LOGUNIT      - NEUTRON MATRIX
RMT .C        25                   : MDTP         - TEMPERATURE OF MUD
NEUT.         1                    : NEUTRON      - NEUTRON TYPE
RESI.         0                    : RESIST       - RESISTIVITY TYPE
RMC .OHMM     0.25                 : RMC          - RESISTIVITY OF MUD CAKE
RMF .OHMM     0.25                 : RMF          - RESISTIVITY OF MUD FILTRATE
SUFT.C        15                   : SUFT         - SURFACE TEMPERATURE
~A  DEPTH       GR     PHIN     PHID     RESD
# ...
  408.500   94.621    0.353    0.273    5.718
  408.750   90.366    0.329    0.285    6.166
  409.000   87.329    0.340    0.296    6.403
  409.250   83.072    0.369    0.300    6.525
  409.500   76.374    0.389    0.291    6.525
  409.750   71.505    0.395    0.284    6.526
  410.000   78.839    0.389    0.257    6.285
  410.250   81.899    0.372    0.226    6.168
  410.500   83.125    0.359    0.217    6.054
  410.750   82.527    0.368    0.214    5.941
  411.000   84.369    0.393    0.201    5.831
  411.250   85.597    0.431    0.201    5.831
  411.500   83.779    0.383    0.206    6.170
  411.750   85.012    0.363    0.219    6.653
  412.000   87.460    0.360    0.232    7.449
  412.250   86.255    0.366    0.250    7.882
  412.500   81.388    0.364    0.271    8.661
  412.750   71.641    0.364    0.285    8.994
  413.000   56.410    0.372    0.306    9.698
  413.250   53.982    0.377    0.329   10.070
  413.500   52.165    0.371    0.361   10.656
  413.750   49.739    0.366    0.367   10.859
  414.000   47.308    0.382    0.364   11.067
  414.250   44.879    0.405    0.364   11.067
  414.500   44.895    0.401    0.357   11.068
  414.750   44.290    0.377    0.350   11.069
  415.000   41.254    0.364    0.345   11.070
  415.250   43.706    0.359    0.344   11.281
  415.500   45.543    0.370    0.344   11.281
  415.750   48.605    0.360    0.349   11.283
  416.000   49.834    0.343    0.363   11.283
  416.250   49.845    0.326    0.376   11.284
  416.500   51.686    0.332    0.387   11.285
  416.750   52.919    0.360    0.378   11.285
  417.000   51.102    0.368    0.367   11.286
  417.250   48.061    0.365    0.356   11.287
  417.500   45.024    0.354    0.351   11.288
  417.750   42.597    0.346    0.346   11.078
  418.000   38.951    0.341    0.356   11.079
  418.250   40.790    0.339    0.368   11.080
  418.500   44.462    0.349    0.382   11.080
  418.750   45.081    0.353    0.372   11.081
  419.000   45.090    0.345    0.364   11.082
  419.250   45.102    0.340    0.371   11.082
  419.500   46.947    0.340    0.383   10.877
  419.750   46.954    0.344    0.390   10.877
  420.000   48.183    0.349    0.369   10.676
  420.250   50.025    0.350    0.362   10.676
  420.500   49.426    0.360    0.384   10.677
  420.750   46.998    0.372    0.373   10.479
  421.000   50.061    0.388    0.349   10.479
  421.250   53.730    0.396    0.336   10.480
  421.500   54.957    0.395    0.349   10.480
  421.750   51.312    0.381    0.367   10.482
  422.000   49.492    0.371    0.367   10.482
  422.250   47.676    0.373    0.360   10.483
  422.500   46.467    0.367    0.365   10.484
  422.750   44.648    0.360    0.376   10.289
  423.000   46.488    0.352    0.369   10.485
  423.250   48.941    0.344    0.357   10.486
  423.500   49.562    0.339    0.342   10.486
  423.750   48.968    0.342    0.333   10.487
  424.000   48.973    0.352    0.334   10.488
  424.250   48.373    0.355    0.347   10.293
  424.500   45.947    0.351    0.360   10.294
  424.750   42.910    0.368    0.365   10.294
  425.000   42.308    0.388    0.363   10.295
  425.250   42.931    0.400    0.369   10.296
  425.500   43.550    0.407    0.371   10.105
  425.750   40.516    0.413    0.369   10.105
  426.000   38.694    0.404    0.366   10.106
  426.250   39.926    0.397    0.372   10.106
  426.500   42.376    0.390    0.370   10.107
  426.750   42.387    0.378    0.367   10.108
  427.000   42.401    0.365    0.365   10.108
  427.250   42.412    0.369    0.366    9.921
  427.500   43.033    0.375    0.370    9.922
  427.750   43.043    0.359    0.366    9.922
  428.000   43.663    0.362    0.366    9.923
  428.250   43.673    0.364    0.370    9.924
  428.500   44.906    0.358    0.362    9.739
  428.750   46.746    0.346    0.362    9.740
  429.000   48.584    0.332    0.371    9.741
  429.250   43.108    0.346    0.386    9.741
  429.500   42.514    0.362    0.387    9.742
  429.750   43.131    0.371    0.381    9.928
  430.000   44.973    0.376    0.370    9.928
  430.250   47.430    0.373    0.362    9.929
  430.500   49.267    0.353    0.358   10.118
  430.750   49.883    0.339    0.366   10.312
  431.000   51.722    0.342    0.368   10.508
  431.250   52.953    0.347    0.361   10.912
  431.500   52.354    0.338    0.351   10.912
  431.750   49.926    0.337    0.343   11.121
  432.000   48.721    0.337    0.336   11.121
  432.250   48.731    0.339    0.331   11.122
  432.500   51.183    0.342    0.337   10.916
  432.750   54.853    0.344    0.347   10.916
  433.000   57.908    0.349    0.350   10.917
  433.250   62.801    0.371    0.349   10.918
  433.500   60.373    0.386    0.343   10.918
  433.750   57.337    0.382    0.336   10.919
  434.000   56.126    0.376    0.328   10.920
  434.250   56.140    0.381    0.324   10.921
  434.500   57.368    0.371    0.326   10.922
  434.750   59.822    0.350    0.335   10.922
  435.000   61.048    0.345    0.341   10.923
  435.250   55.575    0.360    0.335   10.924
  435.500   53.752    0.371    0.327   10.925
  435.750   51.325    0.356    0.323   10.926
  436.000   48.292    0.344    0.322   10.926
  436.250   47.688    0.360    0.339   11.135
  436.500   50.139    0.376    0.349   11.136
  436.750   51.370    0.388    0.349   11.136
  437.000   50.772    0.393    0.344   10.929
  437.250   49.564    0.373    0.342   10.930
  437.500   47.137    0.374    0.339   10.930
  437.750   45.927    0.382    0.349   10.932
  438.000   44.718    0.388    0.356   10.728
  438.250   44.728    0.393    0.353   10.729
  438.500   49.013    0.383    0.343   10.730
  438.750   50.849    0.369    0.351   10.530
  439.000   53.300    0.361    0.355   10.531
  439.250   55.141    0.358    0.339   10.532
  439.500   53.323    0.351    0.329   10.533
  439.750   52.725    0.365    0.332   10.533
  440.000   52.737    0.387    0.341   11.146
  440.250   52.745    0.401    0.334   11.794
  440.500   52.758    0.356    0.292   12.480
  440.750   49.721    0.317    0.175   13.206
  441.000   45.463    0.284    0.152   13.207
  441.250   46.084    0.271    0.234   12.962
  441.500   47.315    0.300    0.313   12.022
  441.750   49.157    0.338    0.354   10.943
  442.000   49.774    0.371    0.376   10.540
  442.250   52.838    0.363    0.389   10.344
  442.500   54.064    0.349    0.388   10.345
  442.750   55.907    0.353    0.387   10.542
  443.000   57.135    0.369    0.386   10.743
  443.250   58.365    0.361    0.372   10.948
  443.500   57.164    0.347    0.361   11.157
  443.750   56.560    0.366    0.372   11.157
  444.000   56.574    0.383    0.382   10.950
  444.250   56.581    0.388    0.387   10.951
  444.500   55.375    0.371    0.390   10.952
  444.750   53.554    0.366    0.396   10.952
  445.000   51.740    0.376    0.396   10.749
  445.250   52.361    0.372    0.387   10.549
  445.500   52.980    0.370    0.373   10.354
  445.750   52.993    0.395    0.362   10.161
  446.000   49.953    0.406    0.362   10.162
  446.250   47.527    0.420    0.368    9.973
  446.500   51.196    0.400    0.356    9.973
  446.750   53.033    0.383    0.345    9.974
  447.000   55.484    0.378    0.341    9.789
  447.250   55.497    0.384    0.342    9.790
  447.500   54.288    0.388    0.337    9.790
  447.750   53.690    0.371    0.332    9.791
  448.000   54.314    0.360    0.338    9.792
  448.250   54.933    0.353    0.349    9.610
  448.500   55.551    0.360    0.353    9.610
  448.750   56.782    0.382    0.352    9.611
  449.000   58.623    0.402    0.348    9.612
  449.250   59.243    0.420    0.344    9.795
  449.500   58.647    0.434    0.338    9.796
  449.750   56.828    0.442    0.332    9.982
  450.000   55.621    0.405    0.323    9.983
  450.250   57.461    0.363    0.313    9.984
  450.500   59.303    0.354    0.315    9.985
  450.750   61.141    0.367    0.322    9.985
  451.000   62.984    0.384    0.331    9.986
  451.250   62.991    0.389    0.349    9.987
  451.500   62.393    0.395    0.356    9.987
  451.750   61.793    0.395    0.344    9.988
