~VERSION INFORMATION
 VERS.                 2.0:   CWLS LOG ASCII STANDARD -VERSION 2.0
 WRAP.                  NO:   ONE LINE PER DEPTH STEP
~WELL INFORMATION BLOCK
#MNEM.UNIT           DATA                    DESCRIPTION OF MNEMONIC
#---------    -------------------            -------------------------------
# Generated from Intellog Unique Number	CS_67_68/WELL/2191
WELL.         MANNVILLE et al ATMORE         : Well_name    - WELL
LOC .         00/10-06-067-15W4/0            : Location     - LOCATION
UWI .         00/10-06-067-15W4/0            : Uwi          - UNIQUE WELL ID
ENTR.         SP                             : Entered      - ENTERED BY
SRVC.         SCHLUMBERGER                   : Scn          - SERVICE COMPANY
STRT.M        345                            : top_depth    - START DEPTH
STOP.M        534                            : bot_depth    - STOP DEPTH
STEP.M        0.25                           : increment    - STEP LENGTH
 NULL. -999.2500:NULL Value
~CURVE INFORMATION BLOCK
#MNEM UNIT       ERCB CURVE CODE    CURVE DESCRIPTION
#-----------   ------------------   ----------------------------------
DEPT.M        00 001 00 00         : DEPTH        - DEPTH
ILD .OHMM     00 120 00 00         : RESD         - DEEP RESISTIVITY (DIL)
DPHI.V/V      00 890 00 00         : PHID         - DENSITY POROSITY (LIMESTONE)
NPHI.V/V      00 330 00 00         : PHIN         - NEUTRON POROSITY (LIMESTONE)
GR  .API      00 310 00 00         : GR           - GAMMA RAY
CALI.MM       00 280 01 00         : CAL          - CALIPER
~PARAMETER INFORMATION
#MNEM.UNIT           DATA             DESCRIPTION OF MNEMONIC
#---------         -----------     ------------------------------
GL  .M        588                  : gl           - GROUND LEVEL ELEVATION
EREF.M        592.1                : kb           - ELEVATION OF DEPTH REFERENCE
DATM.M        592.1                : datum        - DATUM ELEVATION
TDD .M        534.7                : tdd          - TOTAL DEPTH DRILLER
RUN .         ONE                  : Run          - RUN NUMBER
ENG .         BILL                 : Engineer     - RECORDING ENGINEER
WIT .         JIM                  : Witness      - WITNESSED BY
MUD .         GEL                  : Mud_type     - MUD TYPE
MATR.         LIMESTONE            : Logunit      - NEUTRON MATRIX
TMAX.C        27                   : BHT          - MAXIMUM RECORDED TEMPERATURE
BHTD.M        535                  : BHTDEP       - MAXIMUM RECORDED TEMPERATURE
MATR.         1                    : LOGUNIT      - NEUTRON MATRIX
RMT .C        25                   : MDTP         - TEMPERATURE OF MUD
NEUT.         1                    : NEUTRON      - NEUTRON TYPE
RESI.         0                    : RESIST       - RESISTIVITY TYPE
RMC .OHMM     0.25                 : RMC          - RESISTIVITY OF MUD CAKE
RMF .OHMM     0.25                 : RMF          - RESISTIVITY OF MUD FILTRATE
SUFT.C        15                   : SUFT         - SURFACE TEMPERATURE
~A  DEPTH     RESD     PHID     PHIN       GR      CAL
# ...
  491.000    3.475    0.165    0.390  100.967  164.740
  491.250    3.597    0.147    0.376   98.741  163.597
  491.500    3.639    0.131    0.365   94.853  162.038
  491.750    3.446    0.108    0.359   90.655  161.813
  492.000    3.233    0.085    0.390   87.999  162.414
  492.250    3.103    0.113    0.401   90.328  163.524
  492.500    2.922    0.128    0.411   97.394  163.403
  492.750    2.830    0.138    0.421  100.646  162.358
  493.000    2.773    0.153    0.434  103.775  161.726
  493.250    2.743    0.165    0.437  108.378  161.707
  493.500    2.749    0.175    0.431  111.508  162.306
  493.750    2.766    0.167    0.426  114.513  162.697
  494.000    2.757    0.146    0.440  118.072  162.474
  494.250    2.737    0.126    0.455  109.320  161.943
  494.500    2.707    0.146    0.454  106.910  161.514
  494.750    2.688    0.162    0.443  112.007  161.188
  495.000    2.679    0.171    0.431  115.751  161.275
  495.250    2.715    0.177    0.421  118.202  161.869
  495.500    2.800    0.175    0.417  118.868  162.568
  495.750    2.860    0.166    0.430  118.796  163.166
  496.000    2.899    0.162    0.442  119.278  163.663
  496.250    2.922    0.170    0.453  120.622  163.645
  496.500    2.934    0.176    0.462  122.149  163.217
  496.750    2.992    0.176    0.463  117.830  162.892
  497.000    3.026    0.170    0.455  113.694  163.078
  497.250    3.103    0.163    0.444  111.038  163.776
  497.500    3.163    0.171    0.432  116.998  164.583
  497.750    3.219    0.175    0.411  120.003  165.075
  498.000    3.238    0.171    0.399  115.865  165.366
  498.250    3.191    0.163    0.395  113.888  165.346
  498.500    3.005    0.158    0.406  110.861  165.326
  498.750    2.792    0.155    0.444  107.957  164.594
  499.000    2.610    0.158    0.477  105.668  163.241
  499.250    2.486    0.171    0.491  105.104  162.301
  499.500    2.426    0.181    0.490  105.769  160.847
  499.750    2.409    0.190    0.485  120.163  159.392
  500.000    2.401    0.185    0.480  125.322  158.759
  500.250    2.397    0.179    0.476  125.065  158.945
  500.500    2.412    0.175    0.469  121.976  159.339
  500.750    2.431    0.180    0.463  119.193  160.240
  501.000    2.530    0.186    0.459  117.522  160.739
  501.250    2.639    0.174    0.458  115.726  161.025
  501.500    2.831    0.122    0.463  114.178  161.010
  501.750    2.997    0.121    0.462  113.613  160.681
  502.000    3.258    0.151    0.460  120.064  160.563
  502.250    3.658    0.174    0.463  129.102  160.236
  502.500    4.153    0.193    0.467  128.045  159.910
  502.750    4.751    0.187    0.424  117.939  159.380
  503.000    5.529    0.167    0.354  107.589  157.722
  503.250    6.219    0.155    0.326   80.311  155.551
  503.500    6.812    0.162    0.311   69.468  155.429
  503.750    7.391    0.172    0.313   65.702  156.130
  504.000    7.975    0.180    0.316   63.722  156.829
  504.250    8.332    0.175    0.313   58.110  157.530
  504.500    8.591    0.171    0.308   54.898  158.949
  504.750    8.692    0.169    0.315   55.933  160.367
  505.000    8.598    0.175    0.324   57.339  161.578
  505.250    8.314    0.173    0.327   60.836  162.686
  505.500    7.993    0.164    0.324   64.087  162.979
  505.750    7.584    0.155    0.319   66.662  163.063
  506.000    7.305    0.148    0.312   69.728  162.327
  506.250    7.077    0.142    0.307   72.548  162.001
  506.500    6.870    0.142    0.302   74.939  161.984
  506.750    6.782    0.144    0.298   77.881  161.863
  507.000    6.707    0.142    0.311   80.088  162.050
  507.250    6.647    0.141    0.323   82.846  161.928
  507.500    7.633    0.139    0.335   85.358  161.707
  507.750    8.882    0.146    0.325   87.502  160.764
  508.000   11.043    0.206    0.318   89.277  159.105
  508.250   13.396    0.276    0.308   53.505  157.650
  508.500   16.189    0.327    0.285   45.986  156.917
  508.750   19.899    0.314    0.262   42.897  156.487
  509.000   21.633    0.286    0.280   39.747  156.468
  509.250   20.256    0.270    0.296   38.320  156.758
  509.500   15.262    0.266    0.313   36.587  157.561
  509.750   11.391    0.264    0.331   34.237  158.569
  510.000    8.846    0.262    0.345   48.506  159.473
  510.250    7.107    0.246    0.339   76.377  160.071
  510.500    6.182    0.224    0.328   86.891  160.158
  510.750    5.480    0.197    0.318   94.574  160.033
  511.000    5.141    0.184    0.320  100.595  159.912
  511.250    4.896    0.213    0.343  104.463  159.589
  511.500    4.734    0.231    0.363  106.913  159.776
  511.750    4.727    0.223    0.353  110.041  160.477
  512.000    4.783    0.190    0.337  114.645  161.997
  512.250    4.812    0.155    0.336  118.268  163.414
  512.500    4.769    0.139    0.342  122.196  164.014
  512.750    4.698    0.176    0.338  123.724  161.328
  513.000    4.604    0.204    0.334  104.387  157.616
  513.250    4.536    0.227    0.329   91.696  155.546
  513.500    4.462    0.238    0.323   85.838  154.401
  513.750    4.413    0.208    0.318   85.580  153.973
  514.000    4.308    0.175    0.315   91.601  155.083
  514.250    4.189    0.176    0.315   97.377  156.292
  514.500    4.042    0.194    0.319   95.210  157.509
  514.750    3.836    0.207    0.326   91.323  158.619
  515.000    3.639    0.201    0.331   88.297  158.807
  515.250    3.512    0.166    0.317   93.518  158.991
  515.500    3.258    0.144    0.308  100.216  159.180
  515.750    2.877    0.135    0.316  106.914  159.676
  516.000    2.618    0.183    0.327   76.436  160.785
  516.250    2.410    0.216    0.326   62.762  161.178
  516.500    2.339    0.248    0.315   55.610  160.545
  516.750    2.417    0.246    0.307   58.677  159.090
  517.000    2.516    0.249    0.301   64.267  157.740
  517.250    2.604    0.259    0.302   65.548  156.898
  517.500    2.669    0.270    0.297   61.599  156.575
  517.750    2.691    0.285    0.295   60.173  157.070
  518.000    2.707    0.261    0.306   71.239  157.975
  518.250    2.755    0.234    0.312   80.094  159.393
  518.500    2.878    0.190    0.311   93.500  160.706
  518.750    3.041    0.189    0.306   94.536  161.307
  519.000    3.294    0.207    0.299   72.983  161.391
  519.250    3.733    0.203    0.292   59.554  161.373
  519.500    4.198    0.173    0.286   55.419  161.150
  519.750    4.530    0.144    0.299   90.308  161.029
  520.000    4.851    0.146    0.328  107.592  161.009
  520.250    4.374    0.147    0.329  116.137  161.402
  520.500    3.409    0.152    0.327  114.895  161.282
  520.750    2.818    0.193    0.326  107.991  159.622
  521.000    2.517    0.246    0.317   93.947  157.552
  521.250    2.411    0.279    0.310   71.655  157.022
  521.500    2.547    0.283    0.299   42.284  157.005
  521.750    2.743    0.237    0.293   63.630  156.985
  522.000    2.971    0.193    0.305   82.085  157.070
  522.250    3.181    0.199    0.322   98.139  156.949
  522.500    3.249    0.217    0.336   99.235  156.415
  522.750    3.226    0.230    0.331   94.362  155.888
  523.000    3.270    0.222    0.323   89.921  155.358
  523.250    3.469    0.209    0.320   93.540  154.520
  523.500    3.673    0.192    0.319   99.131  153.988
  523.750    3.737    0.167    0.313  103.182  153.867
  524.000    3.655    0.200    0.317   92.646  153.849
  524.250    3.481    0.240    0.327   84.266  153.626
  524.500    3.303    0.269    0.316   75.637  153.194
  524.750    3.176    0.245    0.304   70.457  152.565
  525.000    3.094    0.214    0.298   75.493  152.034
  525.250    3.118    0.218    0.305   80.714  153.141
  525.500    3.234    0.232    0.310   85.319  153.844
  525.750    3.476    0.241    0.314   79.030  154.440
  526.000    3.815    0.213    0.310   84.190  154.936
  526.250    4.116    0.177    0.300   89.842  155.637
  526.500    4.449    0.147    0.289   96.725  156.952
  526.750    4.809    0.133    0.279  102.315  158.472
  527.000    5.121    0.126    0.280  104.705  159.685
  527.250    5.201    0.118    0.300  104.263  160.694
