~VERSION INFORMATION
 VERS.                 2.0:   CWLS LOG ASCII STANDARD -VERSION 2.0
 WRAP.                  NO:   ONE LINE PER DEPTH STEP
~WELL INFORMATION BLOCK
#MNEM.UNIT           DATA                    DESCRIPTION OF MNEMONIC
#---------    -------------------            -------------------------------
# Generated from Intellog Unique Number	CS_73_76/WELL/3270
WELL.         TOTAL PETROLEUM (N.A) LTD.     : Well_name    - WELL
LOC .         00/12-10-075-09W4/0            : Location     - LOCATION
UWI .         00/12-10-075-09W4/0            : Uwi          - UNIQUE WELL ID
ENTR.         SP                             : Entered      - ENTERED BY
SRVC.         SCHLUMBERGER                   : Scn          - SERVICE COMPANY
STRT.M        270                            : top_depth    - START DEPTH
STOP.M        490                            : bot_depth    - STOP DEPTH
STEP.M        0.25                           : increment    - STEP LENGTH
 NULL. -999.2500:NULL Value
~CURVE INFORMATION BLOCK
#MNEM UNIT       ERCB CURVE CODE    CURVE DESCRIPTION
#-----------   ------------------   ----------------------------------
DEPT.M        00 001 00 00         : DEPTH        - DEPTH
ILD .OHMM     00 120 00 00         : RESD         - DEEP RESISTIVITY (DIL)
GR  .API      00 310 00 00         : GR           - GAMMA RAY
NPHI.V/V      00 330 00 00         : PHIN         - NEUTRON POROSITY (LIMESTONE)
DPHI.V/V      00 890 00 00         : PHID         - DENSITY POROSITY (LIMESTONE)
~PARAMETER INFORMATION
#MNEM.UNIT           DATA             DESCRIPTION OF MNEMONIC
#---------         -----------     ------------------------------
GL  .M        659.92               : gl           - GROUND LEVEL ELEVATION
EREF.M        662.92               : kb           - ELEVATION OF DEPTH REFERENCE
DATM.M        659.92               : datum        - DATUM ELEVATION
TDD .M        502                  : tdd          - TOTAL DEPTH DRILLER
RUN .         ONE                  : Run          - RUN NUMBER
ENG .         BILL                 : Engineer     - RECORDING ENGINEER
WIT .         JIM                  : Witness      - WITNESSED BY
MUD .         GEL                  : Mud_type     - MUD TYPE
MATR.         LIMESTONE            : Logunit      - NEUTRON MATRIX
TMAX.C        22.5                 : BHT          - MAXIMUM RECORDED TEMPERATURE
BHTD.M        502                  : BHTDEP       - MAXIMUM RECORDED TEMPERATURE
MATR.         1                    : LOGUNIT      - NEUTRON MATRIX
RMT .C        25                   : MDTP         - TEMPERATURE OF MUD
NEUT.         1                    : NEUTRON      - NEUTRON TYPE
RESI.         0                    : RESIST       - RESISTIVITY TYPE
RMC .OHMM     0.25                 : RMC          - RESISTIVITY OF MUD CAKE
RMF .OHMM     0.25                 : RMF          - RESISTIVITY OF MUD FILTRATE
SUFT.C        15                   : SUFT         - SURFACE TEMPERATURE
~A  DEPTH     RESD       GR     PHIN     PHID
# ...
  444.000   12.359   92.775    0.393    0.234
  444.250   12.360   89.107    0.390    0.261
  444.500   11.685   81.153    0.408    0.268
  444.750   11.469   76.259    0.415    0.258
  445.000   11.470   81.162    0.425    0.272
  445.250   12.366   80.556    0.437    0.288
  445.500   13.083   79.947    0.437    0.283
  445.750   13.843   87.302    0.424    0.268
  446.000   14.924   90.366    0.413    0.267
  446.250   15.790   92.819    0.404    0.271
  446.500   16.395   95.272    0.402    0.258
  446.750   17.024   88.544    0.402    0.262
  447.000   16.399   79.976    0.398    0.280
  447.250   14.654   70.186    0.403    0.298
  447.500   14.383   66.517    0.392    0.299
  447.750   13.854   64.074    0.382    0.310
  448.000   14.118   61.629    0.377    0.309
  448.250   14.660   67.145    0.393    0.295
  448.500   17.360   74.495    0.402    0.282
  448.750   19.800   83.072    0.424    0.269
  449.000   20.177   89.198    0.443    0.287
  449.250   19.805   92.265    0.425    0.304
  449.500   19.806   80.637    0.414    0.317
  449.750   20.566   62.888    0.402    0.328
  450.000   23.901   48.199    0.406    0.339
  450.250   41.198   40.857    0.413    0.343
  450.500   76.550   38.413    0.403    0.339
  450.750  117.896   37.194    0.393    0.326
  451.000  144.950   37.810    0.400    0.332
  451.250  165.320   41.490    0.399    0.323
  451.500  181.610   45.167    0.406    0.314
  451.750  195.793   51.294    0.403    0.305
  452.000  199.520   63.545    0.414    0.320
  452.250  203.328   75.181    0.417    0.318
  452.500  199.571   84.982    0.416    0.317
  452.750  199.587   91.108    0.411    0.316
  453.000  195.901   97.849    0.422    0.315
  453.250  192.274  100.914    0.431    0.315
  453.500  181.772  122.959    0.411    0.327
  453.750  175.086  105.209    0.400    0.321
  454.000  162.442   88.684    0.422    0.318
  454.250  159.433   70.322    0.428    0.323
  454.500  147.916   73.389    0.414    0.326
  454.750  129.718   76.454    0.416    0.326
  455.000  105.530   69.725    0.432    0.321
  455.250   76.709   66.668    0.439    0.305
  455.500   66.017   74.022    0.431    0.300
  455.750   52.708   77.699    0.426    0.312
  456.000   42.083   81.376    0.423    0.313
  456.250   40.535   86.279    0.416    0.311
  456.500   38.320   88.733    0.407    0.310
  456.750   34.892   86.901    0.405    0.306
  457.000   33.608   85.069    0.418    0.299
  457.250   30.601   87.523    0.436    0.301
  457.500   28.391   91.814    0.441    0.313
  457.750   25.851   90.594    0.429    0.310
  458.000   23.983   82.029    0.412    0.294
  458.250   22.251   78.358    0.400    0.294
  458.500   20.643   80.201    0.399    0.273
  458.750   18.796   84.492    0.394    0.253
  459.000   17.438   88.171    0.378    0.240
  459.250   15.582   88.787    0.366    0.207
  459.500   13.665   86.955    0.386    0.186
  459.750   11.117   95.531    0.399    0.223
  460.000    9.215  105.945    0.413    0.220
  460.250    7.931  111.458    0.426    0.209
  460.500    7.358  120.034    0.413    0.220
  460.750    6.700  119.428    0.400    0.216
  461.000    6.576  118.819    0.368    0.207
  461.250    6.828  115.153    0.357    0.205
  461.500    7.501  110.870    0.368    0.210
  461.750    8.086   96.181    0.381    0.207
  462.000    9.223   94.350    0.393    0.223
  462.250    9.758   94.967    0.377    0.248
  462.500   11.130   84.564    0.381    0.273
  462.750   11.999   83.344    0.375    0.272
  463.000   12.936   86.410    0.352    0.278
  463.250   12.937   83.967    0.357    0.265
  463.500   12.462   79.686    0.364    0.256
  463.750   11.347   73.568    0.372    0.270
  464.000   10.527   70.511    0.372    0.281
  464.250    9.766   70.517    0.353    0.273
  464.500    9.061   75.421    0.338    0.261
  464.750    8.893   82.160    0.331    0.234
  465.000    8.567   89.511    0.324    0.205
  465.250    8.408   97.475    0.342    0.183
  465.500    8.731  102.989    0.402    0.186
  465.750    9.238  108.504    0.438    0.240
  466.000    9.959  109.121    0.438    0.279
  466.250   10.537   96.881    0.419    0.332
  466.500    9.776   80.968    0.402    0.281
  466.750    9.242   81.587    0.385    0.261
  467.000    8.737   89.551    0.384    0.230
  467.250    8.416   93.840    0.379    0.203
  467.500    8.260  101.804    0.358    0.191
  467.750    7.809   99.973    0.346    0.211
  468.000    7.810   96.303    0.344    0.219
  468.250    7.665   97.534    0.351    0.209
  468.500    7.666  101.212    0.362    0.199
  468.750    7.524  105.502    0.381    0.181
  469.000    7.385  114.078    0.385    0.170
  469.250    7.385  117.755    0.375    0.168
  469.500    7.249  117.760    0.371    0.184
  469.750    7.250  112.256    0.366    0.205
  470.000    7.251  107.362    0.358    0.205
  470.250    7.251  101.858    0.352    0.202
  470.500    7.252   99.413    0.349    0.195
  470.750    7.390   97.581    0.350    0.194
  471.000    7.391   98.199    0.347    0.199
  471.250    7.392   98.816    0.347    0.208
  471.500    7.676  101.271    0.354    0.200
  471.750    7.822  103.114    0.359    0.192
  472.000    8.122  103.729    0.360    0.193
  472.250    9.091  105.569    0.365    0.214
  472.500    9.619  107.411    0.369    0.231
  472.750   10.566  103.131    0.388    0.253
  473.000   13.744   95.788    0.423    0.279
  473.250   17.544   80.488    0.422    0.318
  473.500   26.024   62.738    0.412    0.328
  473.750   31.995   54.784    0.408    0.324
  474.000   33.855   55.401    0.415    0.319
  474.250   33.856   57.242    0.421    0.325
  474.500   33.230   53.574    0.425    0.322
  474.750   30.831   52.354    0.421    0.308
  475.000   29.145   50.522    0.410    0.298
  475.250   27.039   54.201    0.404    0.292
  475.500   23.713   57.266    0.394    0.291
  475.750   21.189   61.558    0.386    0.286
  476.000   19.658   65.235    0.424    0.276
  476.250   17.899   59.118    0.408    0.276
  476.500   16.607   53.002    0.382    0.291
  476.750   15.996   57.291    0.385    0.262
  477.000   14.028   71.991    0.372    0.236
  477.250   12.535   78.729    0.362    0.215
  477.500   11.630   84.245    0.366    0.203
  477.750   10.994   84.862    0.367    0.220
  478.000   10.393   84.867    0.387    0.242
  478.250   10.011   81.197    0.405    0.257
  478.500   10.202   69.570    0.423    0.252
  478.750   11.207   61.615    0.409    0.271
  479.000   13.024   54.274    0.402    0.287
  479.250   15.716   49.995    0.410    0.282
  479.500   17.591   48.774    0.415    0.285
  479.750   19.323   45.106    0.416    0.302
  480.000   20.445   42.661    0.405    0.309
  480.250   21.230   38.381    0.416    0.315
  480.500   21.634   35.324    0.421    0.318
  480.750   22.046   32.882    0.419    0.323
  481.000   22.049   33.498    0.421    0.328
  481.250   22.053   34.726    0.432    0.333
  481.500   21.643   35.344    0.426    0.338
  481.750   20.849   35.349    0.411    0.336
  482.000   20.082   32.907    0.400    0.324
  482.250   19.710   31.688    0.400    0.322
  482.500   17.614   30.468    0.404    0.319
  482.750   16.341   29.248    0.388    0.325
  483.000   14.602   29.250    0.378    0.325
  483.250   13.295   30.481    0.393    0.322
  483.500   12.105   31.097    0.400    0.329
  483.750   11.022   32.940    0.400    0.330
  484.000   10.226   34.168    0.408    0.330
  484.250    9.137   34.785    0.410    0.333
  484.500    7.295   36.014    0.397    0.346
  484.750    5.935   41.531    0.392    0.352
  485.000    5.506   49.493    0.373    0.329
  485.250    5.205   65.415    0.339    0.281
  485.500    5.206   78.278    0.318    0.215
  485.750    5.305   91.140    0.307    0.125
  486.000    5.613  100.327    0.302    0.106
  486.250    5.939  109.516    0.421    0.124
  486.500    6.052  114.419    0.405    0.136
  486.750    5.940  104.015    0.384    0.141
  487.000    6.053   95.450    0.377    0.135
  487.250    6.169   93.617    0.382    0.103
