~VERSION INFORMATION
 VERS.                 2.0:   CWLS LOG ASCII STANDARD -VERSION 2.0
 WRAP.                  NO:   ONE LINE PER DEPTH STEP
~WELL INFORMATION BLOCK
#MNEM.UNIT           DATA                    DESCRIPTION OF MNEMONIC
#---------    -------------------            -------------------------------
# Generated from Intellog Unique Number	CW_73_75/WELL/1037
WELL.         THOM-JEN CHERPETA 11-11        : Well_name    - WELL
LOC .         00/11-11-074-20W4/0            : Location     - LOCATION
UWI .         00/11-11-074-20W4/0            : Uwi          - UNIQUE WELL ID
ENTR.         JAYE                           : Entered      - ENTERED BY
SRVC.         COMPUTALOG                     : Scn          - SERVICE COMPANY
DATE.         5 MAR 85                       : Date         - LOG DATE
STRT.M        450                            : top_depth    - START DEPTH
STOP.M        675                            : bot_depth    - STOP DEPTH
STEP.M        0.25                           : increment    - STEP LENGTH
 NULL. -999.2500:NULL Value
~CURVE INFORMATION BLOCK
#MNEM UNIT       ERCB CURVE CODE    CURVE DESCRIPTION
#-----------   ------------------   ----------------------------------
DEPT.M        00 001 00 00         : DEPTH        - DEPTH
GR  .API      00 310 00 00         : GR           - GAMMA RAY
CALI.MM       00 280 01 00         : CAL          - CALIPER
NPHI.V/V      00 330 00 00         : PHIN         - NEUTRON POROSITY (SANDSTONE)
DPHI.V/V      00 890 00 00         : PHID         - DENSITY POROSITY (SANDSTONE)
ILD .OHMM     00 120 00 00         : RESD         - DEEP RESISTIVITY (DIL)
~PARAMETER INFORMATION
#MNEM.UNIT           DATA             DESCRIPTION OF MNEMONIC
#---------         -----------     ------------------------------
GL  .M        763.9                : gl           - GROUND LEVEL ELEVATION
EREF.M        767.6                : kb           - ELEVATION OF DEPTH REFERENCE
DATM.M        763.9                : datum        - DATUM ELEVATION
TDD .M        700                  : tdd          - TOTAL DEPTH DRILLER
RUN .         ONE                  : Run          - RUN NUMBER
ENG .         TEETZEL              : Engineer     - RECORDING ENGINEER
WIT .         GORMAN               : Witness      - WITNESSED BY
BASE.         EDMONTON             : Branch       - HOME BASE OF LOGGING UNIT
MUD .         GEL CHEM             : Mud_type     - MUD TYPE
MATR.         SANDSTONE            : Logunit      - NEUTRON MATRIX
TMAX.C        38                   : BHT          - MAXIMUM RECORDED TEMPERATURE
BHTD.M        698.7                : BHTDEP       - MAXIMUM RECORDED TEMPERATURE
RMT .C        38                   : MDTP         - TEMPERATURE OF MUD
MUDD.KG/M     1110                 : MWT          - MUD DENSITY
NEUT.         1                    : NEUTRON      - NEUTRON TYPE
RESI.         0                    : RESIST       - RESISTIVITY TYPE
RM  .OHMM     4.7                  : RM           - RESISTIVITY OF MUD
RMC .OHMM     0                    : RMC          - RESISTIVITY OF MUD CAKE
RMF .OHMM     3.7                  : RMF          - RESISTIVITY OF MUD FILTRATE
SUFT.C        0                    : SUFT         - SURFACE TEMPERATURE
~A  DEPTH       GR      CAL     PHIN     PHID     RESD
# ...
  523.000   39.630  154.937    0.386    0.333    7.248
  523.250   39.895  155.079    0.411    0.335    7.270
  523.500   39.594  154.476    0.398    0.336    7.290
  523.750   39.672  153.765    0.365    0.336    7.311
  524.000   39.946  152.537    0.386    0.329    7.319
  524.250   40.593  151.085    0.420    0.324    7.299
  524.500   40.991  150.282    0.416    0.327    7.292
  524.750   40.879  150.309    0.403    0.331    7.271
  525.000   40.897  151.280    0.387    0.336    7.238
  525.250   41.980  152.347    0.379    0.339    7.245
  525.500   42.501  152.910    0.382    0.339    7.280
  525.750   42.139  153.145    0.388    0.331    7.287
  526.000   42.407  152.954    0.393    0.330    7.322
  526.250   44.063  152.783    0.388    0.336    7.329
  526.500   45.340  151.971    0.379    0.340    7.363
  526.750   46.425  151.364    0.365    0.336    7.385
  527.000   46.065  152.971    0.366    0.331    7.407
  527.250   43.875  156.027    0.381    0.328    7.428
  527.500   43.260  157.111    0.392    0.324    7.477
  527.750   43.719  157.249    0.386    0.323    7.556
  528.000   46.572  156.645    0.368    0.325    7.607
  528.250   48.479  154.571    0.345    0.325    7.586
  528.500   48.367  153.024    0.368    0.322    7.565
  528.750   46.117  151.586    0.387    0.326    7.544
  529.000   44.178  150.350    0.388    0.318    7.509
  529.250   44.200  149.328    0.375    0.315    7.474
  529.500   46.668  148.727    0.375    0.314    7.481
  529.750   47.252  148.125    0.371    0.315    7.473
  530.000   45.631  147.736    0.368    0.313    7.467
  530.250   44.140  147.652    0.373    0.313    7.503
  530.500   45.036  148.940    0.369    0.319    7.525
  530.750   46.312  150.123    0.373    0.325    7.560
  531.000   47.652  151.728    0.391    0.329    7.598
  531.250   48.046  153.325    0.374    0.327    7.590
  531.500   45.730  154.399    0.392    0.320    7.583
  531.750   45.679  154.329    0.412    0.323    7.535
  532.000   46.836  153.938    0.420    0.331    7.513
  532.250   48.615  153.336    0.385    0.327    7.506
  532.500   47.877  154.309    0.369    0.322    7.484
  532.750   46.442  155.175    0.383    0.321    7.464
  533.000   47.720  154.464    0.401    0.328    7.459
  533.250   48.430  153.855    0.406    0.329    7.480
  533.500   49.389  154.092    0.400    0.326    7.573
  533.750   50.983  154.860    0.391    0.324    7.608
  534.000   52.189  155.934    0.384    0.326    7.617
  534.250   52.527  155.969    0.387    0.327    7.624
  534.500   53.298  155.053    0.391    0.328    7.704
  534.750   55.330  153.924    0.396    0.328    7.800
  535.000   56.795  153.638    0.394    0.331    8.003
  535.250   56.874  153.246    0.398    0.332    8.335
  535.500   58.147  153.690    0.413    0.320    8.748
  535.750   60.939  154.341    0.404    0.284    9.129
  536.000   64.293  154.164    0.396    0.236    9.313
  536.250   70.165  154.395    0.403    0.238    8.626
  536.500   78.683  154.004    0.414    0.255    7.959
  536.750   80.022  153.499    0.439    0.253    7.527
  537.000   78.651  154.169    0.449    0.249    7.132
  537.250   81.313  154.713    0.435    0.246    6.836
  537.500   81.766  154.961    0.409    0.247    6.651
  537.750   81.096  155.410    0.450    0.253    6.914
  538.000   78.783  153.127    0.422    0.229    7.536
  538.250   70.612  151.261    0.375    0.190    8.046
  538.500   60.679  151.457    0.296    0.101    7.902
  538.750   65.859  158.141    0.284    0.128    7.617
  539.000   71.921  164.992    0.348    0.168    7.313
  539.250   78.928  166.698    0.390    0.195    6.943
  539.500   86.944  167.452    0.437    0.198    6.298
  539.750   88.786  167.595    0.428    0.190    5.735
  540.000   94.344  167.725    0.426    0.177    5.497
  540.250   92.283  167.123    0.415    0.175    5.378
  540.500   89.964  165.995    0.395    0.186    5.353
  540.750   90.614  166.650    0.399    0.190    5.298
  541.000   90.873  168.041    0.404    0.193    5.184
  541.250   89.703  168.698    0.410    0.193    5.015
  541.500   86.885  169.047    0.455    0.194    4.593
  541.750   84.635  168.753    0.452    0.194    3.878
  542.000   84.525  168.050    0.422    0.191    3.471
  542.250   84.979  166.396    0.412    0.189    3.541
  542.500   86.131  165.687    0.404    0.189    3.702
  542.750   87.536  166.656    0.406    0.191    3.938
  543.000   89.882  168.162    0.430    0.202    4.187
  543.250   91.913  170.182    0.450    0.217    4.059
  543.500   91.867  170.625    0.463    0.241    3.427
  543.750   93.458  170.448    0.465    0.252    3.156
  544.000   96.119  169.943    0.443    0.260    3.094
  544.250   90.904  168.817    0.415    0.260    3.132
  544.500   86.895  166.326    0.396    0.246    3.226
  544.750   81.872  162.160    0.423    0.240    3.431
  545.000   76.158  164.497    0.444    0.278    3.676
  545.250   71.137  162.103    0.433    0.306    4.045
  545.500   68.380  156.155    0.429    0.313    4.392
  545.750   67.012  151.031    0.416    0.309    4.725
  546.000   67.912  148.650    0.401    0.304    4.940
  546.250   70.821  147.300    0.387    0.311    5.077
  546.500   72.792  148.065    0.402    0.307    5.102
  546.750   71.043  149.674    0.399    0.310    5.088
  547.000   67.152  151.805    0.369    0.315    5.102
  547.250   64.903  152.975    0.355    0.311    5.127
  547.500   63.350  152.800    0.391    0.309    5.161
  547.750   61.665  152.411    0.411    0.310    5.175
  548.000   60.042  151.913    0.404    0.310    5.161
  548.250   61.699  151.497    0.385    0.309    5.147
  548.500   63.416  151.330    0.406    0.307    5.123
  548.750   64.057  150.832    0.438    0.305    5.109
  549.000   61.493  150.546    0.448    0.302    5.075
  549.250   60.247  150.260    0.452    0.309    5.071
  549.500   60.201  150.503    0.445    0.318    5.047
  549.750   60.411  150.845    0.429    0.316    5.062
  550.000   59.606  151.503    0.397    0.313    5.086
  550.250   58.800  152.364    0.386    0.306    5.091
  550.500   59.577  152.923    0.375    0.293    5.086
  550.750   61.421  153.263    0.359    0.307    5.082
  551.000   65.027  152.868    0.371    0.303    5.068
  551.250   64.224  152.481    0.389    0.295    5.073
  551.500   63.928  151.348    0.393    0.288    5.088
  551.750   63.693  150.435    0.387    0.291    5.064
  552.000   62.008  150.042    0.386    0.301    5.002
  552.250   61.891  150.485    0.387    0.306    4.951
  552.500   63.174  151.353    0.377    0.308    4.984
  552.750   64.448  151.691    0.363    0.310    5.046
  553.000   63.712  150.986    0.360    0.313    5.266
  553.250   61.964  150.282    0.371    0.316    5.653
  553.500   60.847  149.782    0.352    0.318    6.535
  553.750   58.718  151.175    0.274    0.277    8.009
  554.000   53.260  156.140    0.209    0.163   11.208
  554.250   54.974  161.518    0.198    0.076   14.707
  554.500   56.377  158.191    0.266    0.165   15.523
  554.750   57.780  154.649    0.292    0.211   12.381
  555.000   59.120  153.096    0.345    0.258    9.454
  555.250   61.593  152.072    0.370    0.276    7.787
  555.500   62.361  151.675    0.397    0.286    6.414
  555.750   63.200  151.700    0.425    0.295    5.678
  556.000   66.869  151.848    0.435    0.306    5.239
  556.250   68.460  152.079    0.442    0.316    4.992
  556.500   63.877  152.316    0.415    0.326    4.857
  556.750   62.442  152.451    0.401    0.321    4.771
  557.000   63.087  151.956    0.407    0.318    4.695
  557.250   61.094  151.773    0.385    0.329    4.629
  557.500   59.032  151.695    0.379    0.330    4.581
  557.750   59.357  151.936    0.392    0.326    4.526
  558.000   60.198  152.062    0.381    0.323    4.444
  558.250   60.466  151.247    0.375    0.326    4.399
  558.500   58.594  149.805    0.367    0.320    4.370
  558.750   59.427  148.581    0.357    0.311    4.350
  559.000   61.399  147.759    0.392    0.312    4.355
  559.250   60.090  147.368    0.421    0.306    4.391
