~VERSION INFORMATION
 VERS.                 2.0:   CWLS LOG ASCII STANDARD -VERSION 2.0
 WRAP.                  NO:   ONE LINE PER DEPTH STEP
~WELL INFORMATION BLOCK
#MNEM.UNIT           DATA                    DESCRIPTION OF MNEMONIC
#---------    -------------------            -------------------------------
# Generated from Intellog Unique Number	CW_82_90/WELL/1030
WELL.         AMOCO BRINTNELL 13-16          : Well_name    - WELL
LOC .         00/13-16-084-23W4/0            : Location     - LOCATION
UWI .         00/13-16-084-23W4/0            : Uwi          - UNIQUE WELL ID
ENTR.         JAYE                           : Entered      - ENTERED BY
SRVC.         SCHLUMBERGER                   : Scn          - SERVICE COMPANY
DATE.         25 FEB 86                      : Date         - LOG DATE
STRT.M        190                            : top_depth    - START DEPTH
STOP.M        410                            : bot_depth    - STOP DEPTH
STEP.M        0.25                           : increment    - STEP LENGTH
 NULL. -999.2500:NULL Value
~CURVE INFORMATION BLOCK
#MNEM UNIT       ERCB CURVE CODE    CURVE DESCRIPTION
#-----------   ------------------   ----------------------------------
DEPT.M        00 001 00 00         : DEPTH        - DEPTH
CALI.MM       00 280 01 00         : CAL          - CALIPER
GR  .API      00 310 00 00         : GR           - GAMMA RAY
NPHI.V/V      00 330 00 00         : PHIN         - NEUTRON POROSITY (SANDSTONE)
DPHI.V/V      00 890 00 00         : PHID         - DENSITY POROSITY (SANDSTONE)
ILD .OHMM     00 120 00 00         : RESD         - DEEP RESISTIVITY (DIL)
~PARAMETER INFORMATION
#MNEM.UNIT           DATA             DESCRIPTION OF MNEMONIC
#---------         -----------     ------------------------------
GL  .M        584.4                : gl           - GROUND LEVEL ELEVATION
EREF.M        588                  : kb           - ELEVATION OF DEPTH REFERENCE
DATM.M        584.4                : datum        - DATUM ELEVATION
TDD .M        413                  : tdd          - TOTAL DEPTH DRILLER
RUN .         ONE                  : Run          - RUN NUMBER
ENG .         VERNER               : Engineer     - RECORDING ENGINEER
WIT .         KOSS                 : Witness      - WITNESSED BY
BASE.         S.L.                 : Branch       - HOME BASE OF LOGGING UNIT
MUD .         GEL CHEM             : Mud_type     - MUD TYPE
MATR.         SANDSTONE            : Logunit      - NEUTRON MATRIX
TMAX.C        20                   : BHT          - MAXIMUM RECORDED TEMPERATURE
BHTD.M        413                  : BHTDEP       - MAXIMUM RECORDED TEMPERATURE
RMT .C        18.3                 : MDTP         - TEMPERATURE OF MUD
MUDD.KG/M     1130                 : MWT          - MUD DENSITY
NEUT.         1                    : NEUTRON      - NEUTRON TYPE
RESI.         0                    : RESIST       - RESISTIVITY TYPE
RM  .OHMM     4.13                 : RM           - RESISTIVITY OF MUD
RMC .OHMM     0                    : RMC          - RESISTIVITY OF MUD CAKE
RMF .OHMM     4.22                 : RMF          - RESISTIVITY OF MUD FILTRATE
SUFT.C        0                    : SUFT         - SURFACE TEMPERATURE
~A  DEPTH      CAL       GR     PHIN     PHID     RESD
# ...
  226.500  238.492   70.794    0.467    0.225   11.694
  226.750  236.429   70.745    0.482    0.247   14.866
  227.000  236.875   69.948    0.487    0.261   18.445
  227.250  237.845   68.709    0.475    0.273   18.716
  227.500  238.291   65.215    0.461    0.285   18.490
  227.750  238.113   62.411    0.466    0.286   17.537
  228.000  237.826   61.424    0.488    0.282   16.054
  228.250  238.060   65.327    0.523    0.284   15.286
  228.500  238.923   68.353    0.512    0.294   16.034
  228.750  239.684   66.300    0.509    0.306   17.523
  229.000  240.341   57.664    0.505    0.320   19.044
  229.250  241.102   54.293    0.476    0.333   20.053
  229.500  241.440   52.869    0.446    0.344   20.379
  229.750  241.887   51.756    0.443    0.352   20.865
  230.000  241.913   49.702    0.435    0.349   21.968
  230.250  241.417   52.354    0.459    0.338   22.790
  230.500  240.506   52.432    0.498    0.332   23.291
  230.750  239.174   50.505    0.505    0.342   23.759
  231.000  238.682   51.150    0.494    0.350   24.006
  231.250  239.753   52.859    0.486    0.348   24.173
  231.500  242.184   52.752    0.458    0.344   23.979
  231.750  243.993   50.258    0.448    0.343   23.874
  232.000  244.750   49.273    0.457    0.346   23.858
  232.250  245.932   50.355    0.472    0.344   23.840
  232.500  246.063   51.624    0.468    0.345   23.132
  232.750  246.713   51.516    0.454    0.355   22.552
  233.000  246.851   51.031    0.452    0.362   20.264
  233.250  246.878   52.052    0.449    0.361   18.653
  233.500  246.697   53.010    0.461    0.354   19.065
  233.750  246.098   51.018    0.456    0.350   20.722
  234.000  245.285   48.841    0.441    0.356   21.734
  234.250  243.854   50.049    0.431    0.353   22.546
  234.500  243.351   50.754    0.433    0.354   22.871
  234.750  242.339   50.524    0.448    0.358   22.599
  235.000  241.324   51.352    0.459    0.357   22.007
  235.250  241.142   56.638    0.452    0.353   21.869
  235.500  241.273   54.646    0.457    0.356   21.814
  235.750  241.612   51.842    0.482    0.352   21.796
  236.000  242.160   51.859    0.458    0.350   21.704
  236.250  242.922   51.436    0.457    0.338   21.605
  236.500  243.368   49.508    0.458    0.325   21.430
  236.750  243.812   52.473    0.457    0.319   21.104
  237.000  244.361   55.690    0.469    0.295   20.813
  237.250  245.335   55.706    0.469    0.280   20.843
  237.500  245.572   51.457    0.450    0.339   20.598
  237.750  245.909   51.598    0.454    0.364   20.309
  238.000  246.249   54.437    0.474    0.359   20.145
  238.250  246.281   55.834    0.493    0.346   20.481
  238.500  246.201   57.733    0.478    0.347   20.699
  238.750  245.815   63.582    0.451    0.358   20.873
  239.000  245.428   65.358    0.469    0.361   20.897
  239.250  244.937   65.809    0.479    0.350   21.036
  239.500  244.436   65.011    0.468    0.326   20.947
  239.750  243.631   61.076    0.459    0.313   20.773
  240.000  243.023   58.334    0.464    0.326   20.415
  240.250  242.319   58.289    0.462    0.345   19.802
  240.500  241.928   59.246    0.455    0.352   19.315
  240.750  241.026   58.571    0.464    0.359   19.232
  241.000  240.740   57.145    0.470    0.358   19.361
  241.250  240.673   57.103    0.480    0.352   19.564
  241.500  240.787   57.495    0.479    0.351   19.662
  241.750  241.025   59.517    0.460    0.345   19.037
  242.000  241.025   56.986    0.461    0.342   18.395
  242.250  243.612   59.866    0.464    0.341   18.317
  242.500  244.248   61.887    0.443    0.332   18.822
  242.750  245.210   59.523    0.402    0.297   20.226
  243.000  246.178   56.591    0.378    0.249   26.592
  243.250  247.045   53.784    0.244    0.099   32.444
  243.500  247.499   48.783    0.215    0.071   40.185
  243.750  247.834   48.110    0.204    0.077   50.710
  244.000  247.834   47.814    0.188    0.078   58.715
  244.250  248.536   47.202    0.166    0.071   78.496
  244.500  248.759   47.786    0.145    0.065   87.417
  244.750  248.782   49.619    0.159    0.067   81.983
  245.000  249.016   52.772    0.185    0.075   66.246
  245.250  248.745   55.047    0.206    0.099   54.820
  245.500  248.650   54.813    0.232    0.115   44.536
  245.750  248.161   55.145    0.266    0.136   32.718
  246.000  247.772   56.038    0.314    0.159   25.845
  246.250  247.772   57.750    0.347    0.190   20.839
  246.500  246.578   59.770    0.408    0.240   17.153
  246.750  245.451   61.104    0.465    0.314   16.241
  247.000  244.325   61.873    0.510    0.341   16.047
  247.250  243.430   61.075    0.501    0.349   16.308
  247.500  243.437   53.189    0.466    0.354   16.669
  247.750  243.470   51.892    0.464    0.363   16.780
  248.000  243.470   54.603    0.483    0.369   16.863
  248.250  244.278   57.755    0.459    0.368   16.949
  248.500  244.285   58.148    0.457    0.362   17.064
  248.750  244.101   57.788    0.461    0.353   17.309
  249.000  244.101   58.745    0.447    0.337   17.457
  249.250  243.648   61.144    0.440    0.333   17.478
  249.500  243.347   62.355    0.432    0.345   17.500
  249.750  242.539   63.438    0.451    0.351   17.525
  250.000  241.416   64.394    0.469    0.349   17.509
  250.250  240.189   65.477    0.483    0.344   17.402
  250.500  240.125   65.682    0.471    0.341   17.386
  250.750  240.244   65.449    0.469    0.340   17.377
  251.000  240.484   65.276    0.474    0.334   17.526
  251.250  240.614   64.415    0.465    0.338   17.612
  251.500  240.641   68.945    0.447    0.338   17.670
  251.750  240.671   69.277    0.444    0.335   17.461
  252.000  240.597   69.859    0.447    0.333   17.191
  252.250  240.411   70.751    0.466    0.333   16.954
  252.500  240.338   72.525    0.474    0.329   16.787
  252.750  240.263   78.376    0.464    0.319   16.806
  253.000  240.287   78.954    0.473    0.324   17.174
  253.250  240.417   75.772    0.478    0.325   18.051
  253.500  240.553   70.588    0.439    0.322   18.587
  253.750  240.894   67.092    0.447    0.323   18.713
  254.000  241.132   63.219    0.473    0.338   18.736
  254.250  241.055   61.542    0.449    0.341   18.513
  254.500  240.974   61.181    0.440    0.319   18.160
  254.750  241.211   62.139    0.463    0.305   17.847
  255.000  241.134   64.289    0.476    0.326   17.704
  255.250  240.956   66.252    0.485    0.337   17.590
  255.500  240.774   66.704    0.467    0.348   17.614
  255.750  240.590   66.094    0.466    0.350   17.570
  256.000  239.994   66.739    0.479    0.346   17.553
  256.250  239.810   68.510    0.499    0.344   17.451
  256.500  239.531   69.218    0.493    0.344   17.343
  256.750  239.554   68.543    0.466    0.347   17.227
  257.000  239.684   67.433    0.460    0.346   17.055
  257.250  241.286   66.947    0.474    0.350   16.823
  257.500  242.356   64.894    0.456    0.354   16.472
  257.750  243.113   61.587    0.453    0.356   16.248
  258.000  243.769   60.035    0.473    0.344   16.296
  258.250  244.006   62.313    0.499    0.334   16.315
  258.500  244.136   66.655    0.476    0.338   16.183
  258.750  243.955   70.684    0.449    0.345   16.111
  259.000  243.879   69.323    0.433    0.348   15.922
  259.250  243.070   67.707    0.443    0.352   15.272
  259.500  241.011   66.846    0.518    0.356   14.379
  259.750  240.200   66.299    0.517    0.360   13.738
  260.000  240.228   65.313    0.499    0.359   13.079
  260.250  240.675   63.195    0.484    0.348   13.146
  260.500  241.013   59.576    0.474    0.333   13.535
  260.750  241.462   59.654    0.474    0.315   13.650
  261.000  242.012   64.250    0.463    0.326   13.797
  261.250  242.879   65.332    0.449    0.338   13.889
  261.500  243.425   66.857    0.451    0.339   13.374
  261.750  243.769   65.493    0.474    0.337   12.614
  262.000  244.003   63.751    0.474    0.344   11.917
  262.250  243.926   64.710    0.449    0.349   10.953
  262.500  244.792   71.499    0.433    0.343   10.407
  262.750  246.283   73.335    0.435    0.299    9.833
