~VERSION INFORMATION
 VERS.                 2.0:   CWLS LOG ASCII STANDARD -VERSION 2.0
 WRAP.                  NO:   ONE LINE PER DEPTH STEP
~WELL INFORMATION BLOCK
#MNEM.UNIT           DATA                    DESCRIPTION OF MNEMONIC
#---------    -------------------            -------------------------------
# Generated from Intellog Unique Number	CW_76_78/WELL/3588
WELL.         MARK RESOURCES INC.            : Well_name    - WELL
LOC .         00/14-03-077-19W4/0            : Location     - LOCATION
UWI .         00/14-03-077-19W4/0            : Uwi          - UNIQUE WELL ID
ENTR.         JOETTE                         : Entered      - ENTERED BY
SRVC.         SCHLUMBERGER                   : Scn          - SERVICE COMPANY
DATE.         08/26/92                       : Date         - LOG DATE
STRT.M        210                            : top_depth    - START DEPTH
STOP.M        455                            : bot_depth    - STOP DEPTH
STEP.M        0.25                           : increment    - STEP LENGTH
 NULL. -999.2500:NULL Value
~CURVE INFORMATION BLOCK
#MNEM UNIT       ERCB CURVE CODE    CURVE DESCRIPTION
#-----------   ------------------   ----------------------------------
DEPT.M        00 001 00 00         : DEPTH        - DEPTH
GR  .API      00 310 00 00         : GR           - GAMMA RAY
NPHI.V/V      00 330 00 00         : PHIN         - NEUTRON POROSITY (SANDSTONE)
DPHI.V/V      00 890 00 00         : PHID         - DENSITY POROSITY (SANDSTONE)
ILD .OHMM     00 120 00 00         : RESD         - DEEP RESISTIVITY (DIL)
~PARAMETER INFORMATION
#MNEM.UNIT           DATA             DESCRIPTION OF MNEMONIC
#---------         -----------     ------------------------------
GL  .M        561                  : gl           - GROUND LEVEL ELEVATION
EREF.M        564.3                : kb           - ELEVATION OF DEPTH REFERENCE
DATM.M        564.3                : datum        - DATUM ELEVATION
TDD .M        458                  : tdd          - TOTAL DEPTH DRILLER
RUN .         ONE                  : Run          - RUN NUMBER
ENG .         BILL                 : Engineer     - RECORDING ENGINEER
WIT .         JIM                  : Witness      - WITNESSED BY
MUD .         GEL                  : Mud_type     - MUD TYPE
MATR.         SANDSTONE            : Logunit      - NEUTRON MATRIX
TMAX.C        28                   : BHT          - MAXIMUM RECORDED TEMPERATURE
BHTD.M        458                  : BHTDEP       - MAXIMUM RECORDED TEMPERATURE
MATR.         1                    : LOGUNIT      - NEUTRON MATRIX
RMT .C        21                   : MDTP         - TEMPERATURE OF MUD
NEUT.         1                    : NEUTRON      - NEUTRON TYPE
RESI.         0                    : RESIST       - RESISTIVITY TYPE
RMC .OHMM     4.75                 : RMC          - RESISTIVITY OF MUD CAKE
RMF .OHMM     4.75                 : RMF          - RESISTIVITY OF MUD FILTRATE
SUFT.C        15                   : SUFT         - SURFACE TEMPERATURE
~A  DEPTH       GR     PHIN     PHID     RESD
# ...
  384.000   97.485    0.388    0.065   10.002
  384.250   92.178    0.225    0.016   10.974
  384.500   70.285    0.209   -0.015   12.262
  384.750   57.271    0.204   -0.016   13.450
  385.000   41.307    0.204   -0.015   15.027
  385.250   38.370    0.203   -0.009   20.189
  385.500   34.833    0.199    0.001   22.978
  385.750   30.119    0.189    0.014   26.639
  386.000   25.410    0.182    0.014   39.249
  386.250   25.434    0.181    0.003   39.989
  386.500   27.229    0.182    0.005   42.278
  386.750   31.991    0.194    0.021   44.705
  387.000   40.315    0.236    0.046   44.713
  387.250   40.943    0.280    0.058   38.598
  387.500   39.770    0.298    0.052   33.937
  387.750   37.425    0.306    0.050   29.844
  388.000   32.123    0.312    0.055   29.307
  388.250   28.593    0.329    0.109   29.865
  388.500   27.433    0.352    0.151   30.995
  388.750   26.864    0.325    0.173   33.381
  389.000   25.703    0.305    0.097   34.641
  389.250   23.950    0.227    0.006   38.709
  389.500   22.784    0.233   -0.002   45.706
  389.750   21.031    0.239    0.023   50.137
  390.000   22.239    0.251    0.029   57.062
  390.250   23.448    0.266    0.037   60.327
  390.500   27.026    0.241    0.043   55.035
  390.750   31.197    0.234    0.042   46.637
  391.000   35.367    0.210    0.037   40.260
  391.250   41.321    0.206    0.036   39.535
  391.500   46.676    0.207    0.040   41.034
  391.750   46.700    0.213    0.043   45.849
  392.000   43.170    0.221    0.048   63.923
  392.250   37.862    0.252    0.054   68.839
  392.500   31.963    0.254    0.056   75.511
  392.750   24.879    0.258    0.048  103.330
  393.000   20.762    0.263    0.044  109.262
  393.250   19.015    0.249    0.038  113.395
  393.500   19.033    0.253    0.032  115.555
  393.750   19.057    0.255    0.023  113.473
  394.000   19.667    0.228    0.020  113.513
  394.250   20.290    0.224    0.021  113.552
  394.500   19.129    0.260    0.020  113.581
  394.750   16.185    0.275    0.015  117.898
  395.000   14.432    0.287    0.014  120.133
  395.250   13.271    0.295    0.020  124.688
  395.500   14.480    0.302    0.055  122.453
  395.750   14.516    0.297    0.058  113.798
  396.000   14.534    0.289    0.063   98.219
  396.250   13.379    0.279    0.059   78.755
  396.500   13.391    0.273    0.054   77.343
  396.750   14.020    0.280    0.048   80.275
  397.000   15.216    0.287    0.046   83.326
  397.250   18.794    0.281    0.046   81.826
  397.500   28.895    0.273    0.046   73.283
  397.750   35.434    0.264    0.017   52.607
  398.000   37.242    0.247    0.019   48.885
  398.250   36.667    0.261    0.058   47.132
  398.500   35.506    0.279    0.084   48.029
  398.750   33.167    0.294    0.091   48.940
  399.000   29.637    0.303    0.084   51.740
  399.250   26.699    0.293    0.078   54.701
  399.500   26.125    0.284    0.055   56.770
  399.750   24.970    0.283    0.048   62.284
  400.000   24.994    0.283    0.042   63.454
  400.250   24.420    0.284    0.042   63.481
  400.500   24.444    0.293    0.023   62.338
  400.750   26.251    0.299    0.012   59.004
  401.000   27.459    0.304    0.018   54.834
  401.250   28.076    0.302    0.044   50.953
  401.500   26.915    0.300    0.050   48.229
  401.750   27.531    0.295    0.063   44.001
  402.000   30.523    0.284    0.071   40.888
  402.250   29.356    0.244    0.068   37.991
  402.500   28.788    0.236    0.048   33.406
  402.750   31.181    0.236    0.035   31.040
  403.000   35.944    0.243    0.037   30.488
  403.250   40.121    0.248    0.037   30.496
  403.500   36.591    0.257    0.030   31.077
  403.750   31.277    0.267    0.008   31.661
  404.000   25.384    0.284    0.001   33.475
  404.250   26.006    0.285    0.011   35.391
  404.500   27.203    0.257    0.019   36.730
  404.750   28.412    0.228    0.012   39.558
  405.000   26.658    0.228    0.007   42.599
  405.250   24.911    0.233    0.010   45.871
  405.500   24.935    0.244    0.010   50.318
  405.750   25.546    0.258    0.050   59.424
  406.000   24.983    0.269    0.062   72.808
  406.250   23.230    0.268    0.065   87.584
  406.500   21.477    0.257    0.042   94.319
  406.750   20.903    0.251    0.042   99.708
  407.000   20.927    0.257    0.142   87.667
  407.250   25.702    0.267    0.176   55.315
  407.500   29.872    0.351    0.223   36.889
  407.750   31.075    0.581    0.400   36.224
  408.000   33.474    0.319    0.159   39.017
  408.250   34.085    0.297    0.104   41.246
  408.500   34.701    0.288    0.061   46.086
  408.750   32.948    0.278    0.024   51.489
  409.000   28.825    0.274   -0.002   56.490
  409.250   28.257    0.283    0.004   54.455
  409.500   30.064    0.287    0.013   49.677
  409.750   33.044    0.280    0.019   42.880
  410.000   38.997    0.252    0.017   37.705
  410.250   27.761    0.249    0.022   39.138
  410.500   23.046    0.240    0.029   41.375
  410.750   28.993    0.246    0.001   42.943
  411.000   39.686    0.296   -0.016   40.643
  411.250   46.226    0.305   -0.016   36.400
  411.500   35.587    0.279    0.002   33.207
  411.750   29.095    0.269    0.042   32.617
  412.000   39.782    0.271    0.042   35.128
  412.250   54.022    0.326    0.095   36.457
  412.500   54.046    0.293    0.051   37.839
  412.750   46.962    0.283    0.043   35.816
  413.000   36.330    0.252    0.002   35.174
  413.250   36.359    0.237   -0.019   35.837
  413.500   35.779    0.230   -0.023   35.850
  413.750   33.434    0.223   -0.024   35.210
  414.000   31.088    0.213   -0.018   32.721
  414.250   32.297    0.221   -0.007   30.401
  414.500   35.283    0.278    0.022   26.730
  414.750   39.453    0.311    0.027   22.651
  415.000   49.553    0.325    0.036   19.555
  415.250   63.202    0.337    0.047   18.510
  415.500   77.442    0.346    0.067   18.175
  415.750   85.167    0.338    0.058   17.524
  416.000   84.598    0.323    0.050   17.530
  416.250   79.291    0.313    0.041   18.197
  416.500   66.876    0.306    0.040   18.538
  416.750   62.161    0.287    0.052   19.241
  417.000   63.369    0.292    0.061   20.723
  417.250   79.399    0.303    0.034   21.116
  417.500   82.379    0.333   -0.012   19.621
  417.750   77.664    0.286   -0.004   15.446
  418.000   66.427    0.286    0.020   13.582
  418.250   60.528    0.305    0.029   14.898
  418.500   46.927    0.298    0.026   17.271
  418.750   50.511    0.263    0.028   24.985
  419.000   46.975    0.295    0.022   25.452
  419.250   30.419    0.305    0.001   27.409
  419.500   32.220    0.277   -0.001   28.977
  419.750   28.690    0.266    0.007   30.641
  420.000   23.981    0.254    0.029   30.641
  420.250   25.776    0.285    0.032   36.199
  420.500   28.756    0.278    0.035   30.107
  420.750   31.742    0.235    0.040   32.425
  421.000   34.740    0.225    0.032   32.439
  421.250   34.758    0.243    0.011   31.855
  421.500   37.151    0.342    0.007   29.060
  421.750   57.315    0.371    0.034   23.301
  422.000   80.447    0.388    0.040   19.031
  422.250   86.395    0.387    0.028   16.733
  422.500   66.273    0.342    0.034   17.369
  422.750   44.379    0.302    0.043   18.704
  423.000   34.333    0.286    0.055   20.141
  423.250   28.434    0.281    0.063   22.927
  423.500   27.279    0.278    0.072   23.358
  423.750   28.482    0.282    0.079   23.366
  424.000   31.467    0.275    0.043   21.712
  424.250   29.122    0.268    0.040   19.090
  424.500   31.515    0.294    0.047   16.177
  424.750   35.686    0.373    0.060   13.709
  425.000   51.117    0.397    0.100   11.405
  425.250   67.135    0.404    0.206   10.028
  425.500   83.153    0.404    0.199    8.982
  425.750   90.877    0.397    0.181    8.659
  426.000   91.499    0.385    0.181    8.350
  426.250   89.160    0.368    0.190    8.199
  426.500   90.369    0.371    0.207    8.052
  426.750   89.794    0.382    0.205    7.907
  427.000   84.487    0.388    0.204    7.911
  427.250   83.338    0.378    0.207    7.769
