~VERSION INFORMATION
 VERS.                 2.0:   CWLS LOG ASCII STANDARD -VERSION 2.0
 WRAP.                  NO:   ONE LINE PER DEPTH STEP
~WELL INFORMATION BLOCK
#MNEM.UNIT           DATA                    DESCRIPTION OF MNEMONIC
#---------    -------------------            -------------------------------
# Generated from Intellog Unique Number	CS_73_76/WELL/3229
WELL.         DOME PETOLEUM LIMITED          : Well_name    - WELL
LOC .         00/10-04-075-07W4/0            : Location     - LOCATION
UWI .         00/10-04-075-07W4/0            : Uwi          - UNIQUE WELL ID
ENTR.         SP                             : Entered      - ENTERED BY
SRVC.         SCHLUMBERGER                   : Scn          - SERVICE COMPANY
STRT.M        265.176                        : top_depth    - START DEPTH
STOP.M        487.426                        : bot_depth    - STOP DEPTH
STEP.M        0.25                           : increment    - STEP LENGTH
 NULL. -999.2500:NULL Value
~CURVE INFORMATION BLOCK
#MNEM UNIT       ERCB CURVE CODE    CURVE DESCRIPTION
#-----------   ------------------   ----------------------------------
DEPT.M        00 001 00 00         : DEPTH        - DEPTH
GR  .API      00 310 00 00         : GR           - GAMMA RAY
DPHI.V/V      00 890 00 00         : PHID         - DENSITY POROSITY (SANDSTONE)
NPHI.V/V      00 330 00 00         : PHIN         - NEUTRON POROSITY (SANDSTONE)
ILD .OHMM     00 120 00 00         : RESD         - DEEP RESISTIVITY (DIL)
~PARAMETER INFORMATION
#MNEM.UNIT           DATA             DESCRIPTION OF MNEMONIC
#---------         -----------     ------------------------------
GL  .M        662.33               : gl           - GROUND LEVEL ELEVATION
EREF.M        665.074              : kb           - ELEVATION OF DEPTH REFERENCE
DATM.M        662.33               : datum        - DATUM ELEVATION
TDD .M        550.469              : tdd          - TOTAL DEPTH DRILLER
RUN .         ONE                  : Run          - RUN NUMBER
ENG .         BILL                 : Engineer     - RECORDING ENGINEER
WIT .         JIM                  : Witness      - WITNESSED BY
MUD .         GEL                  : Mud_type     - MUD TYPE
MATR.         SANDSTONE            : Logunit      - NEUTRON MATRIX
TMAX.C        60                   : BHT          - MAXIMUM RECORDED TEMPERATURE
BHTD.M        550.469              : BHTDEP       - MAXIMUM RECORDED TEMPERATURE
MATR.         1                    : LOGUNIT      - NEUTRON MATRIX
RMT .C        25                   : MDTP         - TEMPERATURE OF MUD
NEUT.         1                    : NEUTRON      - NEUTRON TYPE
RESI.         0                    : RESIST       - RESISTIVITY TYPE
RMC .OHMM     0.25                 : RMC          - RESISTIVITY OF MUD CAKE
RMF .OHMM     0.25                 : RMF          - RESISTIVITY OF MUD FILTRATE
SUFT.C        15                   : SUFT         - SURFACE TEMPERATURE
~A  DEPTH       GR     PHID     PHIN     RESD
# ...
  308.676  117.738    0.287    0.539   19.858
  308.926  121.199    0.284    0.542   21.135
  309.176  124.026    0.266    0.521   22.623
  309.426  121.317    0.268    0.484   23.314
  309.676  116.265    0.268    0.466   23.571
  309.926  114.800    0.264    0.444   23.561
  310.176  112.595    0.273    0.445   23.470
  310.426  116.016    0.273    0.448   23.137
  310.676  119.988    0.266    0.455   23.383
  310.926  119.162    0.261    0.460   23.586
  311.176  118.839    0.264    0.451   23.219
  311.426  116.712    0.255    0.464   22.223
  311.676  112.976    0.243    0.489   20.244
  311.926  110.004    0.223    0.508   19.136
  312.176  108.198    0.216    0.507   17.274
  312.426  109.624    0.233    0.508   16.211
  312.676  110.340    0.242    0.516   15.547
  312.926  111.973    0.232    0.497   16.520
  313.176  114.921    0.200    0.500   19.469
  313.426  113.560    0.238    0.508   23.317
  313.676   97.866    0.246    0.513   27.020
  313.926   91.319    0.281    0.498   32.084
  314.176   91.886    0.296    0.480   35.614
  314.426   88.538    0.289    0.465   34.114
  314.676   89.836    0.302    0.466   32.090
  314.926   94.981    0.291    0.480   31.441
  315.176   98.407    0.282    0.472   32.509
  315.426   90.744    0.273    0.463   33.143
  315.676   84.629    0.268    0.455   32.041
  315.926   84.672    0.285    0.467   30.702
  316.176   88.773    0.286    0.463   28.458
  316.426   93.850    0.271    0.454   27.201
  316.676   96.801    0.252    0.447   25.976
  316.926   95.497    0.251    0.446   25.199
  317.176   95.745    0.247    0.443   24.448
  317.426   95.350    0.257    0.448   23.396
  317.676   91.630    0.269    0.458   20.687
  317.926   98.041    0.264    0.448   19.139
  318.176  103.871    0.243    0.460   17.378
  318.426  105.840    0.235    0.482   16.790
  318.676  102.895    0.235    0.481   15.937
  318.926  102.367    0.238    0.471   15.626
  319.176  101.828    0.251    0.475   16.059
  319.426  102.318    0.245    0.488   16.559
  319.676  101.409    0.243    0.501   17.261
  319.926   97.468    0.247    0.488   17.842
  320.176   93.566    0.258    0.489   18.483
  320.426   89.838    0.274    0.487   18.560
  320.676   91.603    0.285    0.489   18.160
  320.926   93.574    0.279    0.491   17.082
  321.176   95.333    0.273    0.484   16.017
  321.426   97.021    0.267    0.480   15.051
  321.676   99.213    0.266    0.475   14.281
  321.926   97.491    0.253    0.474   14.500
  322.176   89.553    0.247    0.485   15.686
  322.426   82.560    0.246    0.490   16.850
  322.676   75.287    0.272    0.486   18.527
  322.926   68.480    0.304    0.476   19.939
  323.176   67.264    0.330    0.468   21.667
  323.426   64.206    0.334    0.477   22.352
  323.676   62.218    0.341    0.460   21.630
  323.926   63.798    0.338    0.467   21.176
  324.176   65.420    0.339    0.473   20.761
  324.426   66.357    0.337    0.462   20.464
  324.676   67.168    0.336    0.452   20.258
  324.926   67.117    0.340    0.447   20.020
  325.176   65.719    0.338    0.438   20.056
  325.426   63.848    0.322    0.436   19.612
  325.676   62.901    0.320    0.442   19.651
  325.926   61.849    0.332    0.451   19.425
  326.176   61.640    0.342    0.461   19.295
  326.426   62.264    0.335    0.468   19.312
  326.676   61.647    0.341    0.457   18.904
  326.926   60.949    0.340    0.453   18.948
  327.176   59.955    0.348    0.446   18.642
  327.426   60.371    0.346    0.453   18.590
  327.676   61.754    0.349    0.458   18.568
  327.926   63.841    0.346    0.459   18.228
  328.176   64.930    0.346    0.462   18.248
  328.426   65.940    0.335    0.469   18.252
  328.676   66.989    0.346    0.466   18.022
  328.926   67.112    0.348    0.448   17.924
  329.176   64.265    0.351    0.453   17.917
  329.426   62.845    0.349    0.463   17.954
  329.676   62.892    0.355    0.467   17.561
  329.926   62.947    0.360    0.479   17.573
  330.176   62.238    0.353    0.491   17.106
  330.426   62.300    0.346    0.475   16.616
  330.676   62.257    0.352    0.474   16.306
  330.926   63.180    0.356    0.483   16.323
  331.176   64.165    0.361    0.487   16.327
  331.426   64.816    0.360    0.492   16.328
  331.676   63.923    0.367    0.497   16.329
  331.926   62.920    0.376    0.505   16.331
  332.176   62.656    0.360    0.485   16.365
  332.426   60.893    0.346    0.469   16.001
  332.676   59.919    0.357    0.467   16.034
  332.926   59.861    0.354    0.461   16.033
  333.176   60.681    0.343    0.447   16.032
  333.426   62.713    0.330    0.444   16.060
  333.676   64.726    0.335    0.447   15.709
  333.926   65.962    0.338    0.449   15.740
  334.176   61.841    0.336    0.450   15.751
  334.426   61.151    0.343    0.451   15.855
  334.676   61.722    0.330    0.457   16.044
  334.926   61.833    0.330    0.466   16.775
  335.176   60.386    0.335    0.458   17.380
  335.426   59.984    0.315    0.410   17.942
  335.676   55.604    0.244    0.367   17.802
  335.926   53.339    0.192    0.358   16.816
  336.176   55.964    0.216    0.398   16.104
  336.426   59.675    0.289    0.446   15.255
  336.676   62.606    0.336    0.474   15.150
  336.926   65.219    0.334    0.473   14.857
  337.176   65.317    0.343    0.465   15.201
  337.426   61.524    0.347    0.461   15.168
  337.676   58.374    0.345    0.476   14.876
  337.926   58.979    0.356    0.486   14.832
  338.176   62.931    0.356    0.485   14.356
  338.426   64.567    0.344    0.476   14.188
  338.676   65.413    0.353    0.485   14.099
  338.926   65.898    0.361    0.488   14.092
  339.176   65.782    0.366    0.498   14.101
  339.426   62.663    0.361    0.496   14.136
  339.676   64.374    0.348    0.508   14.372
  339.926   66.793    0.339    0.489   14.366
  340.176   69.117    0.349    0.491   14.365
  340.426   70.101    0.348    0.488   14.366
  340.676   69.665    0.340    0.484   14.367
  340.926   66.538    0.332    0.486   14.369
  341.176   62.839    0.345    0.490   14.362
  341.426   61.860    0.352    0.498   14.295
  341.676   62.947    0.354    0.500   14.104
  341.926   64.368    0.357    0.499   14.135
  342.176   64.839    0.358    0.493   13.835
  342.426   66.454    0.350    0.496   13.616
  342.676   68.380    0.339    0.510   13.573
  342.926   71.058    0.340    0.519   13.872
  343.176   71.223    0.344    0.513   13.826
  343.426   67.114    0.343    0.480   14.147
  343.676   65.317    0.342    0.443   14.131
  343.926   62.830    0.349    0.465   14.401
  344.176   63.116    0.352    0.479   14.407
  344.426   66.627    0.347    0.478   14.118
  344.676   69.347    0.335    0.484   14.126
  344.926   70.662    0.341    0.499   14.126
  345.176   70.419    0.346    0.501   14.110
  345.426   66.736    0.355    0.489   14.413
  345.676   63.218    0.356    0.468   14.383
  345.926   61.651    0.355    0.474   14.624
  346.176   63.586    0.350    0.481   14.531
  346.426   65.548    0.340    0.485   14.405
  346.676   65.595    0.351    0.487   14.184
  346.926   65.844    0.359    0.499   14.138
  347.176   67.237    0.374    0.524   14.132
  347.426   64.455    0.366    0.530   14.133
  347.676   59.356    0.345    0.498   14.140
  347.926   58.674    0.353    0.490   14.127
  348.176   60.039    0.364    0.498   14.253
  348.426   60.052    0.381    0.510   14.088
  348.676   61.634    0.366    0.510   13.885
  348.926   63.420    0.352    0.505   13.586
  349.176   63.609    0.343    0.517   13.586
  349.426   63.306    0.353    0.529   13.366
  349.676   60.092    0.360    0.518   13.486
  349.926   60.012    0.359    0.494   13.639
  350.176   60.900    0.365    0.495   13.872
  350.426   64.727    0.356    0.507   13.505
  350.676   69.718    0.348    0.511   10.474
  350.926   76.859    0.344    0.477    7.935
  351.176   86.593    0.340    0.465    6.162
  351.426  101.356    0.313    0.467    5.088
  351.676  110.606    0.288    0.502    4.240
  351.926  115.105    0.259    0.545    3.547
