~VERSION INFORMATION
 VERS.                 2.0:   CWLS LOG ASCII STANDARD -VERSION 2.0
 WRAP.                  NO:   ONE LINE PER DEPTH STEP
~WELL INFORMATION BLOCK
#MNEM.UNIT           DATA                    DESCRIPTION OF MNEMONIC
#---------    -------------------            -------------------------------
# Generated from Intellog Unique Number	CS_77_79/WELL/950
WELL.         AMOCO LEISMER                  : Well_name    - WELL
LOC .         00/10-12-079-08W4/0            : Location     - LOCATION
UWI .         00/10-12-079-08W4/0            : Uwi          - UNIQUE WELL ID
ENTR.         JHS                            : Entered      - ENTERED BY
SRVC.         SCHLUMBERGER                   : Scn          - SERVICE COMPANY
STRT.M        125                            : top_depth    - START DEPTH
STOP.M        350                            : bot_depth    - STOP DEPTH
STEP.M        0.25                           : increment    - STEP LENGTH
 NULL. -999.2500:NULL Value
~CURVE INFORMATION BLOCK
#MNEM UNIT       ERCB CURVE CODE    CURVE DESCRIPTION
#-----------   ------------------   ----------------------------------
DEPT.M        00 001 00 00         : DEPTH        - DEPTH
DPHI.V/V      00 890 00 00         : PHID         - DENSITY POROSITY (LIMESTONE)
NPHI.V/V      00 330 00 00         : PHIN         - NEUTRON POROSITY (LIMESTONE)
GR  .API      00 310 00 00         : GR           - GAMMA RAY
ILD .OHMM     00 120 00 00         : RESD         - DEEP RESISTIVITY (DIL)
RHOB.KG/M3    00 350 00 00         : DENS         - BULK DENSITY
~PARAMETER INFORMATION
#MNEM.UNIT           DATA             DESCRIPTION OF MNEMONIC
#---------         -----------     ------------------------------
GL  .M        568.82               : gl           - GROUND LEVEL ELEVATION
EREF.M        573                  : kb           - ELEVATION OF DEPTH REFERENCE
DATM.M        573                  : datum        - DATUM ELEVATION
TDD .M        355                  : tdd          - TOTAL DEPTH DRILLER
RUN .         ONE                  : Run          - RUN NUMBER
ENG .         BILL                 : Engineer     - RECORDING ENGINEER
WIT .         JIM                  : Witness      - WITNESSED BY
MUD .         GEL                  : Mud_type     - MUD TYPE
MATR.         LIMESTONE            : Logunit      - NEUTRON MATRIX
TMAX.C        23.5                 : BHT          - MAXIMUM RECORDED TEMPERATURE
BHTD.M        355                  : BHTDEP       - MAXIMUM RECORDED TEMPERATURE
MATR.         1                    : LOGUNIT      - NEUTRON MATRIX
RMT .C        25                   : MDTP         - TEMPERATURE OF MUD
NEUT.         1                    : NEUTRON      - NEUTRON TYPE
RESI.         0                    : RESIST       - RESISTIVITY TYPE
RMC .OHMM     0.25                 : RMC          - RESISTIVITY OF MUD CAKE
RMF .OHMM     0.25                 : RMF          - RESISTIVITY OF MUD FILTRATE
SUFT.C        15                   : SUFT         - SURFACE TEMPERATURE
~A  DEPTH     PHID     PHIN       GR     RESD     DENS
# ...
  271.000    0.307    0.405   87.790    5.650 2185.420
  271.250    0.369    0.370   83.554    7.195 2079.760
  271.500    0.407    0.337   78.104    9.512 2013.480
  271.750    0.417    0.336   73.869   10.249 1996.960
  272.000    0.396    0.376   73.278   11.045 2032.250
  272.250    0.373    0.474   72.082   10.453 2071.680
  272.500    0.350    0.493   70.277    9.890 2111.110
  272.750    0.336    0.502   72.723    9.017 2136.040
  273.000    0.331    0.496   74.558    8.222 2144.390
  273.250    0.337    0.493   72.756    7.926 2134.070
  273.500    0.332    0.505   72.161    7.782 2142.420
  273.750    0.308    0.519   75.823    7.502 2183.930
  274.000    0.308    0.504   77.050    7.937 2183.980
  274.250    0.302    0.509   78.288    7.509 2194.410
  274.500    0.298    0.522   80.727    6.597 2200.660
  274.750    0.295    0.534   84.388    5.795 2204.870
  275.000    0.289    0.537   87.440    4.388 2215.280
  275.250    0.284    0.535   89.281    3.784 2223.640
  275.500    0.284    0.521   88.693    3.929 2223.670
  275.750    0.303    0.509   86.274    4.476 2192.640
  276.000    0.318    0.493   80.218    5.808 2165.740
  276.250    0.327    0.505   75.988    6.997 2151.310
  276.500    0.327    0.519   75.392    7.681 2151.340
  276.750    0.325    0.516   75.411    8.126 2153.470
  277.000    0.322    0.494   74.208    8.281 2159.740
  277.250    0.313    0.482   70.582    8.439 2174.300
  277.500    0.301    0.468   68.168    8.603 2195.100
  277.750    0.293    0.462   69.401    8.767 2209.650
  278.000    0.289    0.470   71.844    9.274 2215.910
  278.250    0.284    0.483   73.076    9.809 2224.250
  278.500    0.260    0.468   70.667    9.997 2265.760
  278.750    0.244    0.480   68.855    9.819 2292.760
  279.000    0.255    0.471   68.266    9.292 2274.160
  279.250    0.250    0.462   72.534    8.630 2282.500
  279.500    0.212    0.457   78.016    8.165 2346.810
  279.750    0.191    0.471   81.069    7.308 2384.170
  280.000    0.292    0.477   83.515    6.787 2210.120
  280.250    0.274    0.481   85.958    5.963 2241.280
  280.500    0.264    0.487   90.227    5.337 2257.910
  280.750    0.255    0.480   92.672    4.866 2274.540
  281.000    0.255    0.495   90.864    4.436 2274.590
  281.250    0.267    0.515   90.275    4.120 2253.910
  281.500    0.262    0.532   95.756    3.828 2262.260
  281.750    0.270    0.549   96.992    3.829 2247.810
  282.000    0.276    0.541   93.364    4.126 2237.490
  282.250    0.280    0.516   90.949    4.446 2231.330
  282.500    0.292    0.513   88.532    4.972 2210.650
  282.750    0.287    0.527   92.195    5.561 2219.010
  283.000    0.282    0.498   93.424    6.220 2227.350
  283.250    0.281    0.465   92.834    6.827 2229.480
  283.500    0.270    0.453   92.850    7.357 2248.180
  283.750    0.265    0.446   95.900    7.783 2256.510
  284.000    0.265    0.446   98.351    7.787 2256.580
  284.250    0.270    0.453   97.152    7.232 2248.340
  284.500    0.272    0.455   95.347    6.473 2244.240
  284.750    0.260    0.463   93.540    5.479 2265.030
  285.000    0.258    0.505   91.733    4.552 2269.240
  285.250    0.258    0.522   90.532    3.925 2269.270
  285.500    0.271    0.528   87.513    3.385 2246.520
  285.750    0.296    0.518   87.531    3.203 2203.040
  286.000    0.321    0.545   88.152    2.867 2161.640
  286.250    0.327    0.585   86.957    2.427 2151.350
  286.500    0.324    0.567   86.362    2.212 2155.530
  286.750    0.330    0.562   85.772    2.094 2145.230
  287.000    0.341    0.571   87.609    2.056 2126.620
  287.250    0.329    0.585   87.019    2.095 2147.400
  287.500    0.325    0.603   83.391    2.097 2153.670
  287.750    0.320    0.605   83.412    2.137 2162.020
  288.000    0.307    0.583   85.851    2.219 2184.890
  288.250    0.301    0.569   90.121    2.347 2195.290
  288.500    0.294    0.545   89.529    2.624 2207.780
  288.750    0.285    0.519   90.759    3.161 2222.340
  289.000    0.277    0.509   93.204    3.809 2236.910
  289.250    0.271    0.525   92.005    3.954 2247.310
  289.500    0.266    0.504   88.378    4.182 2255.650
  289.750    0.256    0.458   84.753    5.133 2272.290
  290.000    0.239    0.449   81.124    6.183 2301.360
  290.250    0.220    0.440   77.497    7.045 2334.580
  290.500    0.200    0.434   76.298    7.452 2367.810
  290.750    0.188    0.469   86.030    6.191 2388.570
  291.000    0.187    0.485   92.726    5.049 2390.710
  291.250    0.259    0.485   90.926    4.275 2266.400
  291.500    0.256    0.487   90.332    3.897 2272.670
  291.750    0.263    0.491   91.560    3.620 2260.280
  292.000    0.256    0.499   92.794    3.555 2272.780
  292.250    0.267    0.513   92.204    3.427 2254.170
  292.500    0.277    0.534   91.001    3.428 2235.570
  292.750    0.271    0.528   90.415    3.560 2245.980
  293.000    0.268    0.530   91.032    3.561 2252.250
  293.250    0.269    0.544   93.482    3.433 2250.230
  293.500    0.289    0.561   93.495    3.435 2215.050
  293.750    0.270    0.554   94.725    3.436 2248.270
  294.000    0.255    0.542   99.603    3.634 2273.190
  294.250    0.269    0.526   99.617    3.990 2250.470
  294.500    0.266    0.510   97.810    4.300 2254.640
  294.750    0.263    0.521   94.789    4.383 2260.930
  295.000    0.266    0.537   92.377    4.466 2254.770
  295.250    0.272    0.506   89.357    4.903 2244.440
  295.500    0.283    0.480   88.162    5.382 2225.840
  295.750    0.271    0.458   85.139    6.021 2246.620
  296.000    0.260    0.464   88.799    6.250 2265.320
  296.250    0.250    0.494   89.422    6.254 2281.960
  296.500    0.258    0.522   88.831    6.141 2269.570
  296.750    0.254    0.500   90.669    6.869 2275.840
  297.000    0.243    0.461   87.648    7.264 2294.550
  297.250    0.215    0.421   79.770    8.124 2342.270
  297.500    0.186    0.394   74.323    9.086 2392.080
  297.750    0.239    0.371   74.342    9.977 2300.930
  298.000    0.312    0.359   70.711   10.167 2176.630
  298.250    0.324    0.360   64.046   10.555 2155.950
  298.500    0.312    0.389   62.241   10.562 2176.720
  298.750    0.300    0.415   65.898   10.371 2197.500
  299.000    0.289    0.408   68.345    9.814 2216.230
  299.250    0.281    0.398   67.146    9.637 2228.720
  299.500    0.275    0.424   67.162    8.953 2239.120
  299.750    0.266    0.424   70.824    8.471    0.000
  300.000    0.266    0.417   73.875    7.868 2255.800
  300.250    0.272    0.411   75.715    7.174 2245.490
  300.500    0.343    0.417   74.516    7.044 2123.250
  300.750    0.349    0.424   69.065    6.918 2112.940
  301.000    0.356    0.417   63.615    7.052 2100.560
  301.250    0.336    0.398   58.166    7.322 2135.860
  301.500    0.324    0.399   54.541    7.743 2156.630
  301.750    0.325    0.400   51.520    9.157 2154.630
  302.000    0.331    0.389   48.498   10.432 2144.320
  302.250    0.336    0.391   47.305   12.566 2136.080
  302.500    0.334    0.408   47.318   15.711 2138.210
  302.750    0.337    0.426   46.725   21.156 2134.100
  303.000    0.349    0.442   50.993   31.261 2113.420
  303.250    0.359    0.445   54.655   40.566 2096.890
  303.500    0.338    0.432   58.921   42.113 2132.190
  303.750    0.323    0.422   63.795   43.737 2157.110
  304.000    0.327    0.425   67.457   42.156 2150.940
  304.250    0.337    0.448   66.260   37.037 2134.410
  304.500    0.323    0.440   65.667   33.141 2157.260
  304.750    0.316    0.424   67.501   27.033 2169.760
  305.000    0.333    0.407   70.559   24.194 2140.800
  305.250    0.336    0.398   72.392   21.655 2134.620
  305.500    0.319    0.408   73.627   21.261 2163.710
  305.750    0.312    0.420   73.647   19.753 2176.190
  306.000    0.312    0.419   73.049   19.394 2176.230
  306.250    0.306    0.436   73.672   17.687 2186.660
  306.500    0.296    0.433   77.333   17.368 2203.290
  306.750    0.305    0.430   81.600   16.431 2188.830
  307.000    0.288    0.445   87.082   14.435 2217.910
  307.250    0.273    0.427   94.991   12.218 2242.830
