~VERSION INFORMATION
 VERS.                 2.0:   CWLS LOG ASCII STANDARD -VERSION 2.0
 WRAP.                  NO:   ONE LINE PER DEPTH STEP
~WELL INFORMATION BLOCK
#MNEM.UNIT           DATA                    DESCRIPTION OF MNEMONIC
#---------    -------------------            -------------------------------
# Generated from Intellog Unique Number	CW_73_75/WELL/1041
WELL.         11-18-075-23W4                 : Well_name    - WELL
LOC .         00/11-18-075-23W4/0            : Location     - LOCATION
UWI .         00/11-18-075-23W4/0            : Uwi          - UNIQUE WELL ID
ENTR.         JAYE                           : Entered      - ENTERED BY
SRVC.         SCHLUMBERGER                   : Scn          - SERVICE COMPANY
DATE.         23 FEB 77                      : Date         - LOG DATE
STRT.M        408.432                        : top_depth    - START DEPTH
STOP.M        606.432                        : bot_depth    - STOP DEPTH
STEP.M        0.25                           : increment    - STEP LENGTH
 NULL. -999.2500:NULL Value
~CURVE INFORMATION BLOCK
#MNEM UNIT       ERCB CURVE CODE    CURVE DESCRIPTION
#-----------   ------------------   ----------------------------------
DEPT.M        00 001 00 00         : DEPTH        - DEPTH
ILD .OHMM     00 120 00 00         : RESD         - DEEP RESISTIVITY (DIL)
GR  .API      00 310 00 00         : GR           - GAMMA RAY
CALI.MM       00 280 01 00         : CAL          - CALIPER
NPHI.V/V      00 330 00 00         : PHIN         - NEUTRON POROSITY (SANDSTONE)
DPHI.V/V      00 890 00 00         : PHID         - DENSITY POROSITY (SANDSTONE)
~PARAMETER INFORMATION
#MNEM.UNIT           DATA             DESCRIPTION OF MNEMONIC
#---------         -----------     ------------------------------
GL  .M        694.213              : gl           - GROUND LEVEL ELEVATION
EREF.M        698.906              : kb           - ELEVATION OF DEPTH REFERENCE
DATM.M        694.213              : datum        - DATUM ELEVATION
TDD .M        605.942              : tdd          - TOTAL DEPTH DRILLER
RUN .         ONE                  : Run          - RUN NUMBER
ENG .         SEDGWICK             : Engineer     - RECORDING ENGINEER
WIT .         BRAUN                : Witness      - WITNESSED BY
BASE.         EDM                  : Branch       - HOME BASE OF LOGGING UNIT
MUD .         GEL                  : Mud_type     - MUD TYPE
MATR.         SANDSTONE            : Logunit      - NEUTRON MATRIX
TMAX.C        28.8889              : BHT          - MAXIMUM RECORDED TEMPERATURE
BHTD.M        605.942              : BHTDEP       - MAXIMUM RECORDED TEMPERATURE
RMT .C        15.5556              : MDTP         - TEMPERATURE OF MUD
MUDD.KG/M     1104                 : MWT          - MUD DENSITY
NEUT.         1                    : NEUTRON      - NEUTRON TYPE
RESI.         0                    : RESIST       - RESISTIVITY TYPE
RM  .OHMM     5.18                 : RM           - RESISTIVITY OF MUD
RMC .OHMM     3.16                 : RMC          - RESISTIVITY OF MUD CAKE
RMF .OHMM     5.47                 : RMF          - RESISTIVITY OF MUD FILTRATE
SUFT.C        -17.7778             : SUFT         - SURFACE TEMPERATURE
~A  DEPTH     RESD       GR      CAL     PHIN     PHID
  408.432    2.778  106.000  234.400    0.579    0.204
  408.682    2.751  106.446  234.354    0.592    0.200
  408.932    2.719  101.566  234.824    0.601    0.196
  409.182    2.707   95.634  235.513    0.602    0.194
  409.432    2.756   89.452  235.769    0.595    0.179
  409.682    2.873   84.886  235.818    0.584    0.164
  409.932    2.979   81.996  235.342    0.567    0.149
  410.182    2.695   86.437  231.817    0.544    0.134
  410.432    2.515   91.189  234.711    0.585    0.097
  410.682    2.326   89.794  237.181    0.601    0.073
  410.932    2.124   87.710  235.561    0.595    0.064
  411.182    1.990   84.947  234.138    0.572    0.040
  411.432    2.161   81.624  233.027    0.550    0.269
  411.682    2.563   78.361  231.079    0.526    0.260
  411.932    3.232   74.418  228.718    0.503    0.254
  412.182    3.891   70.969  227.084    0.478    0.273
  412.432    5.071   68.764  225.662    0.471    0.288
  412.682    6.807   68.109  224.765    0.475    0.303
  412.932    7.798   68.263  224.288    0.488    0.314
  413.182    8.343   69.038  224.976    0.483    0.315
  413.432    8.140   70.436  226.293    0.478    0.303
  413.682    7.869   72.703  227.501    0.486    0.278
  413.932    7.225   77.579  228.393    0.492    0.238
  414.182    6.743   81.523  229.077    0.497    0.222
  414.432    6.191   76.771  228.176    0.502    0.261
  414.682    5.920   72.330  225.495    0.493    0.285
  414.932    5.894   68.384  224.391    0.465    0.286
  415.182    6.156   67.669  224.344    0.441    0.275
  415.432    6.564   66.334  224.598    0.425    0.262
  415.682    7.009   64.316  224.026    0.422    0.258
  415.932    7.669   62.111  223.026    0.428    0.263
  416.182    8.022   61.455  221.819    0.455    0.289
  416.432    8.505   64.903  221.334    0.466    0.281
  416.682    8.739   70.339  220.864    0.472    0.267
  416.932    8.400   75.711  221.027    0.472    0.259
  417.182    7.530   83.010  221.291    0.460    0.245
  417.432    6.375   88.817  221.645    0.478    0.218
  417.682    5.486   95.123  224.646    0.501    0.227
  417.932    4.678  100.619  230.586    0.529    0.245
  418.182    3.961  102.513  239.789    0.560    0.262
  418.432    3.563  101.799  247.309    0.587    0.262
  418.682    3.217  101.085  239.792    0.592    0.243
  418.932    3.592   98.881  232.584    0.562    0.214
  419.182    4.199   96.800  240.839    0.538    0.209
  419.432    4.747   94.219  238.895    0.514    0.254
  419.682    5.570   89.159  229.899    0.490    0.262
  419.932    6.380   86.084  226.171    0.461    0.278
  420.182    7.122   85.615  224.327    0.453    0.301
  420.432    6.759   89.433  224.373    0.455    0.275
  420.682    6.486   91.018  227.271    0.469    0.212
  420.932    6.214   85.209  231.004    0.478    0.208
  421.182    6.407   78.220  234.212    0.484    0.228
  421.432    6.804   72.598  235.735    0.479    0.257
  421.682    7.280   65.361  235.471    0.451    0.334
  421.932    7.508   64.334  232.051    0.416    0.264
  422.182    7.476   63.683  224.528    0.449    0.242
  422.432    7.294   63.094  222.900    0.462    0.248
  422.682    6.896   62.689  222.215    0.467    0.284
  422.932    6.533   64.025  222.055    0.466    0.297
  423.182    6.303   66.975  222.537    0.462    0.281
  423.432    6.050   70.543  222.900    0.454    0.250
  423.682    5.870   73.873  223.473    0.462    0.250
  423.932    5.675   76.507  223.945    0.470    0.254
  424.182    5.588   82.379  223.995    0.467    0.237
  424.432    5.584   86.630  224.160    0.464    0.233
  424.682    5.654   88.590  224.203    0.469    0.254
  424.932    5.712   85.575  225.106    0.489    0.251
  425.182    5.857   81.195  225.780    0.492    0.226
  425.432    6.085   76.753  226.474    0.485    0.243
  425.682    6.498   72.621  226.839    0.468    0.273
  425.932    6.991   69.982  226.784    0.451    0.253
  426.182    7.317   69.514  226.727    0.452    0.239
  426.432    7.272   72.902  226.144    0.454    0.251
  426.682    7.081   77.035  225.792    0.451    0.263
  426.932    6.858   81.598  225.726    0.446    0.274
  427.182    6.607   87.838  225.571    0.462    0.280
  427.432    6.469   93.833  225.826    0.467    0.243
  427.682    6.335   99.020  226.615    0.453    0.219
  427.932    6.355  101.720  229.927    0.439    0.185
  428.182    6.504   98.210  234.501    0.453    0.197
  428.432    6.732   94.948  240.023    0.467    0.206
  428.682    7.177   93.674  234.923    0.460    0.167
  428.932    7.332   93.581  230.034    0.447    0.172
  429.182    7.287   98.520  230.302    0.433    0.176
  429.432    7.163  103.024  231.503    0.438    0.159
  429.682    6.963  105.229  233.449    0.455    0.148
  429.932    6.707  104.142  236.338    0.469    0.151
  430.182    6.507  100.882  238.605    0.468    0.124
  430.432    6.301   98.924  237.599    0.452    0.120
  430.682    6.126   99.014  234.814    0.454    0.123
  430.932    6.011  100.723  233.921    0.473    0.135
  431.182    5.887  103.734  234.919    0.485    0.154
  431.432    5.818  106.808  236.662    0.478    0.177
  431.682    5.707  108.393  237.967    0.469    0.156
  431.932    5.569  109.480  238.971    0.455    0.134
  432.182    5.504  113.983  239.648    0.441    0.147
  432.432    5.449  118.859  240.123    0.459    0.160
  432.682    5.406  115.784  240.596    0.475    0.168
  432.932    5.423  111.839  240.970    0.481    0.131
  433.182    5.459  106.028  241.433    0.477    0.138
  433.432    5.537  102.334  241.802    0.472    0.136
  433.682    5.710  107.520  242.271    0.466    0.122
  433.932    5.942  112.085  243.163    0.490    0.157
  434.182    6.311  104.972  243.742    0.513    0.184
  434.432    6.878   96.615  244.320    0.502    0.162
  434.682    8.434   86.831  244.897    0.468    0.199
  434.932   10.363   77.421  242.003    0.423    0.254
  435.182   12.944   68.195  230.379    0.384    0.287
  435.432   15.499   58.102  224.543    0.374    0.303
  435.682   16.250   56.272  222.598    0.389    0.296
  435.932   16.121   58.285  222.440    0.418    0.292
  436.182   15.355   58.317  223.018    0.442    0.285
  436.432   13.891   57.352  223.591    0.444    0.272
  436.682   12.848   53.719  223.861    0.440    0.268
  436.932   12.193   51.078  223.486    0.417    0.278
  437.182   12.008   50.929  223.011    0.424    0.288
  437.432   11.958   51.889  222.440    0.429    0.298
  437.682   11.816   54.589  222.170    0.428    0.303
  437.932   11.381   59.649  222.115    0.425    0.295
  438.182   10.488   66.576  222.382    0.420    0.299
  438.432    9.861   72.568  222.323    0.416    0.307
  438.682    8.938   79.059  222.800    0.409    0.281
  438.932    7.893   88.781  223.689    0.399    0.209
  439.182    7.167   98.689  232.788    0.421    0.120
  439.432    6.814  104.931  242.621    0.450    0.116
  439.682    7.158   99.557  243.095    0.477    0.130
  439.932    8.004   88.345  242.731    0.495    0.160
  440.182   10.092   79.120  240.568    0.516    0.202
  440.432   11.862   68.155  235.994    0.517    0.234
  440.682   12.905   62.657  233.730    0.491    0.273
  440.932   13.258   64.924  227.788    0.463    0.248
  441.182   12.239   71.849  226.050    0.465    0.218
  441.432   10.380   77.350  223.999    0.465    0.208
  441.682    8.983   82.475  223.107    0.446    0.196
  441.932    7.935   89.708  225.365    0.388    0.174
  442.182    7.139  100.362  231.099    0.410    0.131
  442.432    6.493  106.915  238.302    0.434    0.132
  442.682    5.874  106.448  241.509    0.454    0.142
  442.932    5.493  104.553  242.617    0.465    0.152
  443.182    5.572  101.666  241.722    0.474    0.143
  443.432    5.863   97.719  240.090    0.495    0.163
  443.682    6.226   93.774  236.773    0.491    0.170
  443.932    6.432   89.270  231.671    0.388    0.161
  444.182    6.370   91.288  225.940    0.373    0.145
  444.432    6.192   97.222  227.465    0.387    0.146
  444.682    5.965  100.234  232.038    0.409    0.170
