~VERSION INFORMATION
 VERS.                 2.0:   CWLS LOG ASCII STANDARD -VERSION 2.0
 WRAP.                  NO:   ONE LINE PER DEPTH STEP
~WELL INFORMATION BLOCK
#MNEM.UNIT           DATA                    DESCRIPTION OF MNEMONIC
#---------    -------------------            -------------------------------
# Generated from Intellog Unique Number	CW_79_81/WELL/2489
WELL.         13-26-080-22W4                 : Well_name    - WELL
LOC .         00/13-26-080-22W4/0            : Location     - LOCATION
UWI .         00/13-26-080-22W4/0            : Uwi          - UNIQUE WELL ID
ENTR.         MAX                            : Entered      - ENTERED BY
SRVC.         SCHLUMBERGER                   : Scn          - SERVICE COMPANY
STRT.M        185                            : top_depth    - START DEPTH
STOP.M        440                            : bot_depth    - STOP DEPTH
STEP.M        0.25                           : increment    - STEP LENGTH
 NULL. -999.2500:NULL Value
~CURVE INFORMATION BLOCK
#MNEM UNIT       ERCB CURVE CODE    CURVE DESCRIPTION
#-----------   ------------------   ----------------------------------
DEPT.M        00 001 00 00         : DEPTH        - DEPTH
ILD .OHMM     00 120 00 00         : RESD         - DEEP RESISTIVITY (DIL)
NPHI.V/V      00 330 00 00         : PHIN         - NEUTRON POROSITY (SANDSTONE)
DPHI.V/V      00 890 00 00         : PHID         - DENSITY POROSITY (SANDSTONE)
GR  .API      00 310 00 00         : GR           - GAMMA RAY
CALI.MM       00 280 01 00         : CAL          - CALIPER
~PARAMETER INFORMATION
#MNEM.UNIT           DATA             DESCRIPTION OF MNEMONIC
#---------         -----------     ------------------------------
GL  .M        595.95               : gl           - GROUND LEVEL ELEVATION
EREF.M        600.6                : kb           - ELEVATION OF DEPTH REFERENCE
DATM.M        595.95               : datum        - DATUM ELEVATION
TDD .M        449                  : tdd          - TOTAL DEPTH DRILLER
RUN .         ONE                  : Run          - RUN NUMBER
ENG .         BILL                 : Engineer     - RECORDING ENGINEER
WIT .         JIM                  : Witness      - WITNESSED BY
MUD .         GEL                  : Mud_type     - MUD TYPE
MATR.         SANDSTONE            : Logunit      - NEUTRON MATRIX
TMAX.C        36                   : BHT          - MAXIMUM RECORDED TEMPERATURE
BHTD.M        449                  : BHTDEP       - MAXIMUM RECORDED TEMPERATURE
MATR.         1                    : LOGUNIT      - NEUTRON MATRIX
RMT .C        17                   : MDTP         - TEMPERATURE OF MUD
NEUT.         1                    : NEUTRON      - NEUTRON TYPE
RESI.         0                    : RESIST       - RESISTIVITY TYPE
RMC .OHMM     4.46                 : RMC          - RESISTIVITY OF MUD CAKE
RMF .OHMM     4.55                 : RMF          - RESISTIVITY OF MUD FILTRATE
SUFT.C        -20                  : SUFT         - SURFACE TEMPERATURE
~A  DEPTH     RESD     PHIN     PHID       GR      CAL
# ...
  331.000    7.327    0.434    0.236   79.356  221.500
  331.250    7.142    0.448    0.244   77.686  222.105
  331.500    7.012    0.469    0.258   76.854  221.714
  331.750    7.025    0.483    0.263   77.816  221.407
  332.000    7.361    0.474    0.259   77.820  221.829
  332.250    7.865    0.478    0.259   75.673  221.039
  332.500    8.543    0.485    0.259   75.140  219.355
  332.750    8.979    0.479    0.255   76.578  217.969
  333.000    9.014    0.462    0.246   79.630  217.377
  333.250    8.893    0.464    0.240   82.924  217.385
  333.500    8.625    0.500    0.244   81.433  217.393
  333.750    8.312    0.492    0.237   77.852  217.400
  334.000    8.146    0.468    0.233   78.394  217.408
  334.250    8.148    0.455    0.236   77.083  218.212
  334.500    8.256    0.462    0.243   74.219  219.513
  334.750    8.319    0.482    0.246   77.172  219.505
  335.000    8.320    0.476    0.244   81.161  217.439
  335.250    8.199    0.450    0.230   83.317  217.047
  335.500    8.080    0.449    0.228   83.680  217.850
  335.750    8.022    0.461    0.232   83.326  219.451
  336.000    8.024    0.474    0.234   83.270  221.251
  336.250    8.000    0.470    0.230   85.218  222.456
  336.500    7.879    0.463    0.238   88.958  222.464
  336.750    7.593    0.469    0.252   87.768  222.072
  337.000    7.525    0.471    0.260   85.142  221.979
  337.250    7.775    0.466    0.264   82.038  221.389
  337.500    8.469    0.456    0.271   77.859  219.902
  337.750   10.239    0.446    0.288   69.707  217.272
  338.000   12.767    0.444    0.292   65.976  216.035
  338.250   14.454    0.453    0.292   65.980  216.042
  338.500   15.200    0.463    0.287   66.522  215.750
  338.750   15.317    0.472    0.277   66.168  215.757
  339.000   14.915    0.476    0.267   64.679  216.262
  339.250   13.698    0.460    0.268   63.309  216.902
  339.500   13.387    0.437    0.270   64.808  216.080
  339.750   13.489    0.433    0.263   68.159  216.485
  340.000   13.667    0.437    0.248   72.406  216.891
  340.250   13.720    0.440    0.245   76.475  217.097
  340.500   13.413    0.437    0.257   79.467  217.005
  340.750   12.419    0.436    0.265   81.266  216.532
  341.000   11.772    0.443    0.250   84.258  216.125
  341.250   11.175    0.461    0.240   86.653  216.132
  341.500   10.489    0.468    0.234   86.000  216.438
  341.750    9.929    0.461    0.224   86.602  216.644
  342.000    9.573    0.445    0.211   89.356  216.751
  342.250    9.434    0.449    0.204   90.856  217.491
  342.500    9.436    0.475    0.208   86.377  219.159
  342.750    9.507    0.470    0.210   85.426  220.760
  343.000    9.686    0.449    0.214   83.040  221.167
  343.250    9.869    0.435    0.219   80.294  220.775
  343.500   10.000    0.433    0.223   78.924  220.483
  343.750   10.092    0.433    0.228   81.122  221.770
  344.000   10.172    0.436    0.227   80.130  222.192
  344.250   10.479    0.430    0.219   77.982  220.606
  344.500   10.736    0.421    0.213   76.911  219.616
  344.750   10.939    0.424    0.211   77.513  219.225
  345.000   11.043    0.444    0.211   79.788  219.432
  345.250   10.895    0.479    0.212   83.688  220.403
  345.500   10.567    0.483    0.225   86.432  221.243
  345.750   10.031    0.471    0.229   83.329  221.249
  346.000    9.907    0.456    0.228   84.349  220.956
  346.250    9.909    0.446    0.229   85.788  220.764
  346.500    9.929    0.445    0.234   85.553  220.971
  346.750    9.990    0.448    0.230   82.968  221.860
  347.000    9.914    0.447    0.221   81.977  222.282
  347.250    9.626    0.445    0.211   82.937  222.290
  347.500    9.399    0.443    0.202   84.436  222.297
  347.750    9.194    0.453    0.199   85.755  222.503
  348.000    8.976    0.474    0.204   86.954  222.909
  348.250    8.634    0.491    0.214   89.222  223.400
  348.500    8.247    0.481    0.222   90.969  223.821
  348.750    7.888    0.461    0.225   90.495  224.227
  349.000    7.588    0.450    0.236   89.842  224.334
  349.250    7.452    0.449    0.246   89.727  223.745
  349.500    7.600    0.454    0.251   88.775  222.457
  349.750    8.471    0.453    0.254   82.126  220.539
  350.000    9.753    0.451    0.255   75.158  218.888
  350.250   11.361    0.443    0.255   73.011  218.496
  350.500   12.515    0.435    0.244   73.194  219.001
  350.750   12.907    0.451    0.235   72.721  219.605
  351.000   12.648    0.482    0.233   70.813  219.911
  351.250   12.038    0.479    0.233   68.755  219.838
  351.500   11.323    0.457    0.226   68.013  219.431
  351.750   11.325    0.445    0.213   65.628  219.040
  352.000   12.347    0.420    0.143   62.524  218.947
  352.250   13.810    0.373    0.075   58.583  219.950
  352.500   15.124    0.306    0.053   57.034  221.451
  352.750   15.695    0.255    0.126   65.844  221.376
  353.000   15.105    0.362    0.189   72.822  220.969
  353.250   12.697    0.387    0.210   73.543  220.579
  353.500   11.275    0.391    0.223   72.830  220.486
  353.750   10.368    0.401    0.231   72.356  220.892
  354.000    9.761    0.424    0.237   73.019  221.498
  354.250    9.237    0.447    0.242   75.037  221.589
  354.500    8.756    0.435    0.238   75.538  222.011
  354.750    8.501    0.422    0.227   74.108  222.416
  355.000    8.300    0.414    0.221   73.933  222.822
  355.250    8.180    0.418    0.226   76.209  223.029
  355.500    8.151    0.433    0.238   79.918  223.235
  355.750    8.251    0.456    0.232   79.844  223.959
  356.000    8.446    0.461    0.198   69.887  223.550
  356.250    8.765    0.395    0.098   61.765  221.566
  356.500    9.196    0.341    0.098   64.578  221.374
  356.750    9.479    0.353    0.125   71.755  222.177
  357.000    9.498    0.413    0.153   77.855  223.281
  357.250    9.332    0.428    0.197   78.825  224.086
  357.500    9.190    0.447    0.195   80.075  224.093
  357.750    9.056    0.447    0.201   82.470  222.905
  358.000    8.924    0.440    0.209   85.224  222.016
  358.250    8.828    0.440    0.212   85.706  221.426
  358.500    8.797    0.445    0.209   83.679  221.234
  358.750    8.877    0.432    0.204   81.542  221.807
  359.000    8.948    0.422    0.200   82.792  222.645
  359.250    9.083    0.424    0.195   83.752  223.051
  359.500    9.322    0.426    0.192   85.789  222.859
  359.750    9.604    0.431    0.198   87.826  221.870
  360.000    9.859    0.436    0.212   88.906  220.383
  360.250   10.008    0.440    0.221   87.745  219.113
  360.500   10.010    0.448    0.220   85.508  218.705
  360.750   10.087    0.448    0.217   85.752  218.715
  361.000   10.107    0.443    0.215   87.609  219.020
  361.250   10.221    0.437    0.206   89.884  219.823
  361.500   10.546    0.427    0.186   90.785  221.025
  361.750   11.282    0.404    0.157   87.423  222.148
  362.000   11.730    0.393    0.168   84.938  221.741
  362.250   11.559    0.408    0.183   89.723  220.551
  362.500   11.200    0.415    0.199   91.819  219.363
  362.750   10.918    0.423    0.214   90.748  218.773
  363.000   10.819    0.437    0.221   88.242  218.979
  363.250   10.919    0.453    0.207   88.397  219.951
  363.500   11.006    0.449    0.204   89.149  220.788
  363.750   11.171    0.439    0.206   87.958  219.600
  364.000   11.465    0.439    0.214   85.691  219.010
  364.250   11.640    0.445    0.218   85.456  219.416
  364.500   11.642    0.453    0.218   88.388  220.021
  364.750   11.662    0.460    0.218   92.907  218.587
  365.000   11.755    0.454    0.199   89.175  217.348
  365.250   11.844    0.442    0.199   87.028  216.957
  365.500   12.067    0.437    0.206   87.212  217.164
  365.750   12.205    0.436    0.215   88.651  217.370
  366.000   12.185    0.436    0.221   89.612  217.277
  366.250   12.060    0.431    0.220   87.705  216.969
  366.500   11.877    0.428    0.213   87.709  217.393
  366.750   11.704    0.433    0.211   89.625  218.196
  367.000   11.728    0.440    0.215   92.976  219.001
  367.250   11.817    0.449    0.219   94.415  219.606
