~VERSION INFORMATION
 VERS.                 2.0:   CWLS LOG ASCII STANDARD -VERSION 2.0
 WRAP.                  NO:   ONE LINE PER DEPTH STEP
~WELL INFORMATION BLOCK
#MNEM.UNIT           DATA                    DESCRIPTION OF MNEMONIC
#---------    -------------------            -------------------------------
# Generated from Intellog Unique Number	CS_67_68/WELL/2203
WELL.         11-04-067-03W4                 : Well_name    - WELL
LOC .         00/11-04-067-03W4/0            : Location     - LOCATION
UWI .         00/11-04-067-03W4/0            : Uwi          - UNIQUE WELL ID
ENTR.         SP                             : Entered      - ENTERED BY
SRVC.         SCHLUMBERGER                   : Scn          - SERVICE COMPANY
STRT.M        330                            : top_depth    - START DEPTH
STOP.M        555                            : bot_depth    - STOP DEPTH
STEP.M        0.25                           : increment    - STEP LENGTH
 NULL. -999.2500:NULL Value
~CURVE INFORMATION BLOCK
#MNEM UNIT       ERCB CURVE CODE    CURVE DESCRIPTION
#-----------   ------------------   ----------------------------------
DEPT.M        00 001 00 00         : DEPTH        - DEPTH
ILD .OHMM     00 120 00 00         : RESD         - DEEP RESISTIVITY (DIL)
DPHI.V/V      00 890 00 00         : PHID         - DENSITY POROSITY (LIMESTONE)
NPHI.V/V      00 330 00 00         : PHIN         - NEUTRON POROSITY (LIMESTONE)
GR  .API      00 310 00 00         : GR           - GAMMA RAY
CALI.MM       00 280 01 00         : CAL          - CALIPER
~PARAMETER INFORMATION
#MNEM.UNIT           DATA             DESCRIPTION OF MNEMONIC
#---------         -----------     ------------------------------
GL  .M        654.03               : gl           - GROUND LEVEL ELEVATION
EREF.M        657.79               : kb           - ELEVATION OF DEPTH REFERENCE
DATM.M        657.79               : datum        - DATUM ELEVATION
TDD .M        564                  : tdd          - TOTAL DEPTH DRILLER
RUN .         ONE                  : Run          - RUN NUMBER
ENG .         BILL                 : Engineer     - RECORDING ENGINEER
WIT .         JIM                  : Witness      - WITNESSED BY
MUD .         GEL                  : Mud_type     - MUD TYPE
MATR.         LIMESTONE            : Logunit      - NEUTRON MATRIX
TMAX.C        26                   : BHT          - MAXIMUM RECORDED TEMPERATURE
BHTD.M        564                  : BHTDEP       - MAXIMUM RECORDED TEMPERATURE
MATR.         1                    : LOGUNIT      - NEUTRON MATRIX
RMT .C        25                   : MDTP         - TEMPERATURE OF MUD
NEUT.         1                    : NEUTRON      - NEUTRON TYPE
RESI.         0                    : RESIST       - RESISTIVITY TYPE
RMC .OHMM     0.25                 : RMC          - RESISTIVITY OF MUD CAKE
RMF .OHMM     0.25                 : RMF          - RESISTIVITY OF MUD FILTRATE
SUFT.C        15                   : SUFT         - SURFACE TEMPERATURE
~A  DEPTH     RESD     PHID     PHIN       GR      CAL
# ...
  366.500    5.294    0.273    0.485   95.984  200.622
  366.750    5.453    0.273    0.476   87.617  201.939
  367.000    5.586    0.274    0.468   83.645  202.850
  367.250    5.711    0.280    0.427   87.305  203.354
  367.500    5.730    0.282    0.412   89.500  204.060
  367.750    5.728    0.272    0.424   91.388  204.869
  368.000    5.609    0.255    0.432   92.424  205.474
  368.250    5.451    0.245    0.433   94.557  205.876
  368.500    5.318    0.250    0.439   96.813  205.972
  368.750    5.306    0.271    0.449   96.993  206.577
  369.000    5.364    0.290    0.457  100.408  206.775
  369.250    5.402    0.294    0.465  102.603  207.075
  369.500    5.431    0.285    0.461  103.698  207.171
  369.750    5.449    0.278    0.452  103.206  207.369
  370.000    5.447    0.271    0.442   99.784  207.568
  370.250    5.475    0.271    0.432   97.156  207.664
  370.500    5.535    0.272    0.426  100.816  208.065
  370.750    5.564    0.268    0.426  102.828  208.059
  371.000    5.636    0.255    0.443  104.411  207.952
  371.250    5.784    0.241    0.466  103.004  207.540
  371.500    6.013    0.249    0.483   99.032  206.009
  371.750    6.443    0.292    0.498   93.535  204.884
  372.000    6.928    0.308    0.486   89.502  204.674
  372.250    7.258    0.304    0.475   86.202  204.668
  372.500    7.462    0.290    0.468   89.312  204.766
  372.750    7.572    0.277    0.467   91.690  204.863
  373.000    7.499    0.280    0.470   90.832  205.162
  373.250    7.247    0.274    0.487   87.777  205.157
  373.500    7.070    0.245    0.504   84.721  205.151
  373.750    7.228    0.204    0.519   83.191  205.145
  374.000    7.700    0.143    0.401   81.601  205.140
  374.250    7.962    0.150    0.369   83.185  205.135
  374.500    8.078    0.186    0.399   84.647  205.026
  374.750    7.941    0.211    0.425   83.911  205.124
  375.000    7.732    0.258    0.451   82.809  205.017
  375.250    7.501    0.263    0.471   82.439  205.113
  375.500    7.428    0.280    0.451   81.947  205.718
  375.750    7.425    0.261    0.436   80.784  206.527
  376.000    7.464    0.246    0.420   77.057  207.539
  376.250    7.617    0.265    0.456   73.024  208.246
  376.500    8.024    0.270    0.460   75.830  208.749
  376.750    8.809    0.258    0.444   80.466  208.948
  377.000    9.670    0.276    0.433   70.817  209.247
  377.250   10.459    0.292    0.440   64.465  209.546
  377.500   11.460    0.300    0.439   60.615  209.745
  377.750   12.844    0.307    0.452   59.513  209.840
  378.000   14.153    0.313    0.458   54.870  209.734
  378.250   14.550    0.323    0.448   54.378  209.932
  378.500   14.655    0.318    0.436   57.488  209.825
  378.750   14.540    0.299    0.439   58.889  209.819
  379.000   15.519    0.283    0.467   55.955  209.713
  379.250   16.319    0.296    0.475   53.449  209.401
  379.500   17.159    0.313    0.446   52.775  208.989
  379.750   17.741    0.329    0.423   61.745  208.170
  380.000   17.372    0.339    0.454   67.054  206.333
  380.250   16.172    0.342    0.476   73.461  205.004
  380.500   14.099    0.337    0.503   78.280  204.287
  380.750   11.706    0.342    0.485   82.368  203.773
  381.000   10.303    0.327    0.471   87.431  203.157
  381.250    8.619    0.319    0.469   90.420  202.744
  381.500    7.157    0.309    0.468   90.478  202.536
  381.750    6.216    0.311    0.465   85.040  202.429
  382.000    5.722    0.320    0.456   82.168  202.220
  382.250    5.346    0.324    0.450   77.830  202.213
  382.500    4.967    0.319    0.442   73.859  202.107
  382.750    4.703    0.328    0.426   71.047  201.999
  383.000    4.520    0.334    0.430   70.861  201.893
  383.250    4.501    0.340    0.445   69.332  201.684
  383.500    4.576    0.324    0.435   72.320  201.577
  383.750    4.731    0.310    0.415   77.383  201.571
  384.000    4.873    0.279    0.411   81.715  201.871
  384.250    5.048    0.261    0.419   84.947  202.069
  384.500    5.449    0.248    0.420   86.409  202.673
  384.750    5.904    0.243    0.426   88.237  203.178
  385.000    6.255    0.238    0.441   89.760  203.681
  385.250    6.614    0.247    0.439   90.307  204.082
  385.500    6.787    0.245    0.423   86.396  204.789
  385.750    6.874    0.246    0.414   88.591  205.393
  386.000    6.898    0.254    0.407   91.029  206.101
  386.250    6.641    0.240    0.448   88.645  207.011
  386.500    6.552    0.207    0.414   85.467  208.024
  386.750    6.513    0.192    0.401   84.976  209.341
  387.000    6.330    0.212    0.392   85.644  209.336
  387.250    6.164    0.223    0.410   81.856  207.499
  387.500    5.923    0.233    0.436   77.091  206.169
  387.750    5.747    0.241    0.453   77.148  205.961
  388.000    5.606    0.252    0.441   73.848  205.549
  388.250    5.490    0.262    0.450   73.967  205.137
  388.500    5.416    0.266    0.460   76.772  205.028
  388.750    5.323    0.269    0.444   79.821  205.125
  389.000    5.311    0.274    0.435   83.176  205.426
  389.250    5.270    0.279    0.427   85.615  206.336
  389.500    5.258    0.267    0.417   86.222  207.246
  389.750    5.285    0.256    0.412   82.006  207.952
  390.000    5.384    0.253    0.405   77.973  208.050
  390.250    5.545    0.266    0.434   75.406  208.044
  390.500    5.679    0.290    0.435   79.555  208.649
  390.750    5.763    0.308    0.422   85.107  209.560
  391.000    5.848    0.300    0.414   90.537  210.877
  391.250    5.890    0.260    0.415   94.014  211.991
  391.500    5.876    0.232    0.428   91.751  212.189
  391.750    5.809    0.257    0.442   87.535  207.604
  392.000    5.624    0.279    0.448   83.625  205.055
  392.250    5.477    0.296    0.443   79.470  204.134
  392.500    5.313    0.303    0.460   76.171  203.722
  392.750    5.212    0.304    0.471   73.970  203.817
  393.000    5.152    0.311    0.462   75.676  203.813
  393.250    5.102    0.314    0.460   81.961  203.706
  393.500    5.091    0.304    0.457   86.842  203.904
  393.750    5.060    0.304    0.453   89.769  203.695
  394.000    5.030    0.310    0.443   90.498  203.689
  394.250    4.990    0.288    0.438   95.684  203.989
  394.500    4.989    0.267    0.443  100.626  204.289
  394.750    5.081    0.264    0.470   99.890  204.182
  395.000    5.293    0.294    0.483   89.325  204.380
  395.250    5.909    0.325    0.483   81.447  204.679
  395.500    6.980    0.349    0.486   74.545  204.878
  395.750    8.802    0.364    0.511   67.948  204.974
  396.000   10.997    0.373    0.527   63.000  205.171
  396.250   12.581    0.369    0.517   65.438  204.963
  396.500   13.530    0.361    0.512   69.525  204.958
  396.750   13.962    0.362    0.511   72.880  205.054
  397.000   14.035    0.364    0.516   74.464  204.947
  397.250   13.822    0.361    0.520   76.231  205.145
  397.500   13.258    0.359    0.520   75.984  205.242
  397.750   12.909    0.358    0.522   73.355  205.948
  398.000   12.929    0.359    0.507   70.482  206.655
  398.250   12.972    0.348    0.495   68.953  206.853
  398.500   12.989    0.344    0.485   67.363  207.153
  398.750   12.911    0.346    0.476   67.115  207.249
  399.000   12.813    0.358    0.467   66.868  207.447
  399.250   12.430    0.367    0.487   66.681  207.137
  399.500   11.901    0.360    0.500   64.908  206.521
  399.750   11.373    0.349    0.487   65.820  205.702
  400.000   10.747    0.339    0.493   65.145  205.187
  400.250    9.565    0.329    0.506   67.523  205.181
  400.500    8.307    0.320    0.496   72.343  205.176
  400.750    7.175    0.315    0.486   76.125  205.170
  401.000    6.232    0.302    0.493   79.968  205.166
  401.250    5.484    0.288    0.519   85.153  205.262
  401.500    5.096    0.279    0.510   90.400  205.358
  401.750    4.708    0.283    0.491   94.548  205.250
  402.000    4.358    0.284    0.480   94.179  205.754
  402.250    3.988    0.290    0.488   90.818  206.054
  402.500    3.936    0.302    0.507   94.477  206.354
  402.750    3.747    0.310    0.520   99.175  206.959
