~VERSION INFORMATION
 VERS.                 2.0:   CWLS LOG ASCII STANDARD -VERSION 2.0
 WRAP.                  NO:   ONE LINE PER DEPTH STEP
~WELL INFORMATION BLOCK
#MNEM.UNIT           DATA                    DESCRIPTION OF MNEMONIC
#---------    -------------------            -------------------------------
# Generated from Intellog Unique Number	CW_73_75/WELL/2980
WELL.         PINNACLE ET AL MARTENH 15-24   : Well_name    - WELL
LOC .         00/15-24-074-02W5/0            : Location     - LOCATION
UWI .         00/15-24-074-02W5/0            : Uwi          - UNIQUE WELL ID
ENTR.         J                              : Entered      - ENTERED BY
SRVC.         SCHLUMBERGER                   : Scn          - SERVICE COMPANY
DATE.         20 JAN 89                      : Date         - LOG DATE
STRT.M        400                            : top_depth    - START DEPTH
STOP.M        615                            : bot_depth    - STOP DEPTH
STEP.M        0.25                           : increment    - STEP LENGTH
 NULL. -999.2500:NULL Value
~CURVE INFORMATION BLOCK
#MNEM UNIT       ERCB CURVE CODE    CURVE DESCRIPTION
#-----------   ------------------   ----------------------------------
DEPT.M        00 001 00 00         : DEPTH        - DEPTH
ILD .OHMM     00 120 00 00         : RESD         - DEEP RESISTIVITY (DIL)
CALI.MM       00 280 01 00         : CAL          - CALIPER
GR  .API      00 310 00 00         : GR           - GAMMA RAY
NPHI.V/V      00 330 00 00         : PHIN         - NEUTRON POROSITY (SANDSTONE)
DPHI.V/V      00 890 00 00         : PHID         - DENSITY POROSITY (SANDSTONE)
~PARAMETER INFORMATION
#MNEM.UNIT           DATA             DESCRIPTION OF MNEMONIC
#---------         -----------     ------------------------------
GL  .M        670.3                : gl           - GROUND LEVEL ELEVATION
EREF.M        673.7                : kb           - ELEVATION OF DEPTH REFERENCE
DATM.M        670.3                : datum        - DATUM ELEVATION
TDD .M        624.2                : tdd          - TOTAL DEPTH DRILLER
RUN .         ONE                  : Run          - RUN NUMBER
ENG .         ZACHYSTAL            : Engineer     - RECORDING ENGINEER
WIT .         COX                  : Witness      - WITNESSED BY
BASE.         SLAVE LAKE           : Branch       - HOME BASE OF LOGGING UNIT
MUD .         POLYMER              : Mud_type     - MUD TYPE
MATR.         SANDSTONE            : Logunit      - NEUTRON MATRIX
TMAX.C        36                   : BHT          - MAXIMUM RECORDED TEMPERATURE
BHTD.M        619.3                : BHTDEP       - MAXIMUM RECORDED TEMPERATURE
RMT .C        16                   : MDTP         - TEMPERATURE OF MUD
MUDD.KG/M     1045                 : MWT          - MUD DENSITY
NEUT.         1                    : NEUTRON      - NEUTRON TYPE
RESI.         0                    : RESIST       - RESISTIVITY TYPE
RM  .OHMM     7.4                  : RM           - RESISTIVITY OF MUD
RMC .OHMM     0.25                 : RMC          - RESISTIVITY OF MUD CAKE
RMF .OHMM     2.1                  : RMF          - RESISTIVITY OF MUD FILTRATE
SUFT.C        -17.7778             : SUFT         - SURFACE TEMPERATURE
~A  DEPTH     RESD      CAL       GR     PHIN     PHID
# ...
  509.500    5.379  197.771   55.229    0.399    0.298
  509.750    5.340  197.583   55.239    0.399    0.301
  510.000    5.302  197.194   53.605    0.406    0.302
  510.250    5.274  196.702   52.884    0.412    0.303
  510.500    5.246  196.109   52.467    0.409    0.302
  510.750    5.247  197.241   54.242    0.420    0.299
  511.000    5.277  200.098   52.547    0.412    0.285
  511.250    5.386  201.534   47.808    0.218    0.130
  511.500    5.682  202.361   42.704    0.202    0.015
  511.750    5.983  202.986   48.192    0.234    0.090
  512.000    6.140  202.599   58.064    0.374    0.143
  512.250    5.985  201.904   67.875    0.391    0.181
  512.500    5.603  200.802   69.711    0.401    0.196
  512.750    5.056  199.701   73.434    0.411    0.205
  513.000    4.571  198.093   75.330    0.418    0.207
  513.250    4.163  195.573   78.567    0.412    0.212
  513.500    3.729  194.472   86.064    0.417    0.223
  513.750    3.785  194.388   77.916    0.420    0.240
  514.000    3.971  194.200   68.550    0.410    0.273
  514.250    4.098  193.810   63.994    0.408    0.283
  514.500    4.260  193.826   63.821    0.420    0.280
  514.750    4.494  193.841   63.525    0.411    0.274
  515.000    4.620  195.582   62.926    0.408    0.262
  515.250    4.759  197.831   61.779    0.416    0.253
  515.500    4.902  199.367   60.693    0.420    0.260
  515.750    4.994  200.501   62.468    0.416    0.267
  516.000    5.041  201.126   66.130    0.403    0.268
  516.250    5.042  201.850   70.583    0.389    0.271
  516.500    5.015  201.663   67.793    0.404    0.273
  516.750    5.035  200.969   61.593    0.412    0.252
  517.000    5.101  200.479   56.123    0.371    0.195
  517.250    5.303  199.783   52.358    0.338    0.155
  517.500    5.553  199.598   53.889    0.368    0.196
  517.750    5.762  199.509   55.908    0.398    0.219
  518.000    5.968  199.018   56.466    0.396    0.229
  518.250    6.024  198.223   59.458    0.401    0.243
  518.500    6.081  197.833   64.216    0.394    0.261
  518.750    5.906  198.152   67.208    0.400    0.272
  519.000    5.757  197.362   67.339    0.411    0.258
  519.250    5.602  199.097   65.644    0.409    0.251
  519.500    5.371  200.431   64.680    0.398    0.249
  519.750    5.245  201.159   61.889    0.389    0.242
  520.000    5.198  201.275   61.412    0.382    0.240
  520.250    5.180  201.494   66.291    0.398    0.244
  520.500    5.191  201.814   69.528    0.407    0.246
  520.750    5.154  202.338   69.781    0.413    0.249
  521.000    5.079  202.759   66.563    0.407    0.253
  521.250    4.888  203.485   67.181    0.401    0.250
  521.500    4.739  203.604   71.026    0.406    0.238
  521.750    4.569  203.416   75.479    0.414    0.222
  522.000    4.445  203.025   78.108    0.404    0.214
  522.250    4.373  202.533   79.700    0.384    0.204
  522.500    4.366  202.347   81.840    0.372    0.181
  522.750    4.464  202.465   84.345    0.384    0.180
  523.000    4.762  202.480   87.277    0.368    0.174
  523.250    5.060  202.394   79.006    0.328    0.160
  523.500    5.329  201.902   75.607    0.345    0.170
  523.750    5.369  201.514   79.452    0.375    0.206
  524.000    5.119  201.021   76.722    0.409    0.227
  524.250    4.900  200.733   72.226    0.437    0.242
  524.500    4.663  200.444   69.740    0.420    0.229
  524.750    4.471  200.156   69.262    0.415    0.222
  525.000    4.382  199.562   69.454    0.428    0.226
  525.250    4.343  198.970   72.386    0.437    0.218
  525.500    4.360  198.479   75.135    0.442    0.211
  525.750    4.434  198.189   71.066    0.425    0.213
  526.000    4.567  198.205   68.518    0.411    0.196
  526.250    4.871  198.424   63.901    0.367    0.110
  526.500    5.572  198.541   58.918    0.251    0.074
  526.750    6.599  198.963   53.997    0.200    0.026
  527.000    7.874  199.384   54.067    0.217    0.055
  527.250    9.241  201.126   60.165    0.262    0.102
  527.500    8.958  202.257   66.688    0.384    0.192
  527.750    7.749  203.187   70.593    0.409    0.213
  528.000    6.332  203.608   69.689    0.397    0.232
  528.250    5.309  202.812   67.629    0.388    0.243
  528.500    4.678  201.915   72.084    0.386    0.247
  528.750    4.551  202.335   75.989    0.390    0.240
  529.000    4.628  203.975   74.294    0.402    0.208
  529.250    4.750  205.309   75.033    0.400    0.197
  529.500    4.883  206.441   75.773    0.399    0.210
  529.750    4.984  205.646   73.957    0.411    0.226
  530.000    5.004  203.228   71.409    0.394    0.236
  530.250    4.995  201.721   69.897    0.381    0.234
  530.500    5.005  200.622   71.306    0.392    0.207
  530.750    5.184  199.926   74.177    0.354    0.142
  531.000    5.429  199.436   74.979    0.331    0.103
  531.250    5.717  199.449   70.727    0.314    0.112
  531.500    5.889  199.770   68.057    0.337    0.151
  531.750    5.804  200.090   68.919    0.363    0.207
  532.000    5.668  200.715   68.502    0.381    0.221
  532.250    5.525  201.442   67.841    0.368    0.204
  532.500    5.807  202.168   68.703    0.355    0.176
  532.750    6.137  202.590   72.670    0.330    0.105
  533.000    6.369  202.604   69.271    0.305    0.125
  533.250    6.488  202.215   68.062    0.313    0.156
  533.500    6.442  202.129   69.777    0.371    0.188
  533.750    6.349  201.841   70.517    0.406    0.207
  534.000    6.234  201.653   69.004    0.364    0.189
  534.250    6.088  201.467   67.978    0.336    0.164
  534.500    5.913  201.177   69.268    0.356    0.174
  534.750    5.670  200.889   72.624    0.396    0.204
  535.000    5.446  200.803   77.687    0.418    0.217
  535.250    5.241  200.615   79.644    0.431    0.223
  535.500    5.090  200.631   77.341    0.417    0.227
  535.750    4.943  200.547   77.167    0.403    0.221
  536.000    4.872  200.664   80.160    0.414    0.212
  536.250    4.846  202.302   82.300    0.425    0.203
  536.500    4.874  204.550   83.588    0.424    0.205
  536.750    4.884  205.682   85.850    0.418    0.213
  537.000    4.903  205.902   83.242    0.421    0.200
  537.250    4.904  205.715   82.521    0.417    0.198
  537.500    4.905  205.832   83.200    0.413    0.208
  537.750    4.924  205.847   86.132    0.407    0.214
  538.000    4.952  205.762   86.445    0.400    0.203
  538.250    5.026  205.677   84.567    0.393    0.197
  538.500    5.196  205.490   82.447    0.390    0.203
  538.750    5.382  205.302   83.125    0.399    0.212
  539.000    5.616  205.215   85.632    0.403    0.212
  539.250    5.838  205.232   84.910    0.406    0.205
  539.500    5.991  205.247   84.493    0.394    0.195
  539.750    5.992  205.568   83.894    0.397    0.192
  540.000    6.004  205.887   82.990    0.406    0.192
  540.250    6.151  205.904   83.000    0.399    0.186
  540.500    6.489  205.615   85.749    0.381    0.176
  540.750    6.883  205.328   84.298    0.364    0.169
  541.000    7.355  204.835   82.541    0.353    0.161
  541.250    7.590  204.749   80.420    0.345    0.131
  541.500    7.224  204.866   77.446    0.309    0.106
  541.750    6.813  204.882   80.378    0.313    0.170
  542.000    6.239  204.898   87.388    0.371    0.199
  542.250    5.661  205.016   89.103    0.387    0.199
  542.500    5.261  205.031   89.112    0.398    0.193
  542.750    5.053  205.047   91.252    0.396    0.191
  543.000    4.953  205.063   90.653    0.389    0.190
  543.250    4.954  204.571   90.358    0.398    0.188
  543.500    5.029  203.876   90.855    0.396    0.189
  543.750    5.170  202.980   87.333    0.391    0.191
  544.000    5.286  202.590   82.594    0.389    0.195
  544.250    5.385  202.199   80.960    0.392    0.201
  544.500    5.416  201.707   82.674    0.390    0.203
  544.750    5.599  201.013   86.945    0.397    0.184
  545.000    5.973  200.217   86.711    0.410    0.159
  545.250    6.371  198.914   78.927    0.373    0.145
  545.500    6.845  197.002   66.701    0.334    0.187
  545.750    7.315  195.497   55.203    0.369    0.267
