~VERSION INFORMATION
 VERS.                 2.0:   CWLS LOG ASCII STANDARD -VERSION 2.0
 WRAP.                  NO:   ONE LINE PER DEPTH STEP
~WELL INFORMATION BLOCK
#MNEM.UNIT           DATA                    DESCRIPTION OF MNEMONIC
#---------    -------------------            -------------------------------
# Generated from Intellog Unique Number	CS_77_79/WELL/977
WELL.         UNEX ET AL CHARD               : Well_name    - WELL
LOC .         00/10-31-079-05W4/0            : Location     - LOCATION
UWI .         00/10-31-079-05W4/0            : Uwi          - UNIQUE WELL ID
ENTR.         JHS                            : Entered      - ENTERED BY
SRVC.         SCHLUMBERGER                   : Scn          - SERVICE COMPANY
STRT.M        105                            : top_depth    - START DEPTH
STOP.M        280                            : bot_depth    - STOP DEPTH
STEP.M        0.25                           : increment    - STEP LENGTH
 NULL. -999.2500:NULL Value
~CURVE INFORMATION BLOCK
#MNEM UNIT       ERCB CURVE CODE    CURVE DESCRIPTION
#-----------   ------------------   ----------------------------------
DEPT.M        00 001 00 00         : DEPTH        - DEPTH
DPHI.V/V      00 890 00 00         : PHID         - DENSITY POROSITY (LIMESTONE)
NPHI.V/V      00 330 00 00         : PHIN         - NEUTRON POROSITY (LIMESTONE)
GR  .API      00 310 00 00         : GR           - GAMMA RAY
ILD .OHMM     00 120 00 00         : RESD         - DEEP RESISTIVITY (DIL)
RHOB.KG/M3    00 350 00 00         : DENS         - BULK DENSITY
~PARAMETER INFORMATION
#MNEM.UNIT           DATA             DESCRIPTION OF MNEMONIC
#---------         -----------     ------------------------------
GL  .M        457.3                : gl           - GROUND LEVEL ELEVATION
EREF.M        460.8                : kb           - ELEVATION OF DEPTH REFERENCE
DATM.M        460.8                : datum        - DATUM ELEVATION
TDD .M        329                  : tdd          - TOTAL DEPTH DRILLER
RUN .         ONE                  : Run          - RUN NUMBER
ENG .         BILL                 : Engineer     - RECORDING ENGINEER
WIT .         JIM                  : Witness      - WITNESSED BY
MUD .         GEL                  : Mud_type     - MUD TYPE
MATR.         LIMESTONE            : Logunit      - NEUTRON MATRIX
TMAX.C        19                   : BHT          - MAXIMUM RECORDED TEMPERATURE
BHTD.M        329                  : BHTDEP       - MAXIMUM RECORDED TEMPERATURE
MATR.         1                    : LOGUNIT      - NEUTRON MATRIX
RMT .C        25                   : MDTP         - TEMPERATURE OF MUD
NEUT.         1                    : NEUTRON      - NEUTRON TYPE
RESI.         0                    : RESIST       - RESISTIVITY TYPE
RMC .OHMM     0.25                 : RMC          - RESISTIVITY OF MUD CAKE
RMF .OHMM     0.25                 : RMF          - RESISTIVITY OF MUD FILTRATE
SUFT.C        15                   : SUFT         - SURFACE TEMPERATURE
~A  DEPTH     PHID     PHIN       GR     RESD     DENS
# ...
  214.500    0.216    0.377   98.129    7.484 2341.410
  214.750    0.202    0.389  102.447    7.491 2364.410
  215.000    0.196    0.413   98.775    7.499 2374.900
  215.250    0.207    0.433   72.352    7.232 2356.170
  215.500    0.302    0.385   69.293    6.971 2193.560
  215.750    0.306    0.371   68.079    6.848 2187.370
  216.000    0.302    0.369   70.558    6.602 2193.670
  216.250    0.297    0.357   65.035    6.486 2202.070
  216.500    0.306    0.342   60.746    6.255 2187.530
  216.750    0.321    0.334   56.457    6.146 2160.470
  217.000    0.304    0.335   59.547    6.150 2189.730
  217.250    0.283    0.383   63.249    6.157 2225.220
  217.500    0.290    0.388   54.657    6.162 2214.860
  217.750    0.316    0.382   53.443    6.168 2169.030
  218.000    0.315    0.377   62.066    6.410 2171.170
  218.250    0.292    0.382   66.998    6.662 2210.840
  218.500    0.278    0.377   64.557    6.793 2233.820
  218.750    0.277    0.370   68.263    6.929 2235.970
  219.000    0.283    0.364   67.660    7.067 2225.600
  219.250    0.256    0.348   74.438    7.071 2271.530
  219.500    0.237    0.348   79.983    6.820 2304.950
  219.750    0.293    0.425   74.465    6.453 2209.070
  220.000    0.326    0.427   56.035    5.994 2152.820
  220.250    0.339    0.404   48.673    5.568 2129.940
  220.500    0.329    0.381   43.773    5.368 2146.680
  220.750    0.323    0.364   42.555    5.272 2157.160
  221.000    0.334    0.382   43.802    5.085 2138.440
  221.250    0.346    0.405   47.502    4.995 2117.650
  221.500    0.340    0.411   56.125    5.000 2128.130
  221.750    0.330    0.428   61.675    5.003 2144.860
  222.000    0.319    0.450   62.923    5.010 2163.680
  222.250    0.319    0.443   61.703    5.013 2163.730
  222.500    0.327    0.432   65.409    5.019 2151.280
  222.750    0.333    0.433   67.266    5.024 2140.910
  223.000    0.332    0.419   64.825    5.125 2143.050
  223.250    0.333    0.407   65.457    5.127 2141.010
  223.500    0.335    0.397   66.083    5.132 2136.890
  223.750    0.328    0.386   69.789    5.137 2149.460
  224.000    0.311    0.384   73.490    5.339 2178.710
  224.250    0.285    0.398   77.194    5.653 2222.560
  224.500    0.264    0.417   75.977    6.099 2258.050
  224.750    0.169    0.396   70.461    6.456 2420.760
  225.000    0.142    0.365   68.629    6.712 2466.690
  225.250    0.180    0.393   76.025    6.590 2402.100
  225.500    0.275    0.428   85.876    6.356 2239.500
  225.750    0.276    0.431   92.653    6.129 2237.480
  226.000    0.271    0.420   98.816    6.019 2245.860
  226.250    0.257    0.421  102.520    5.804 2270.940
  226.500    0.249    0.443  101.303    5.812 2283.510
  226.750    0.240    0.462  105.011    5.924 2300.240
  227.000    0.232    0.468  109.941    6.043 2312.810
  227.250    0.241    0.441  109.342    6.279 2298.270
  227.500    0.255    0.421   98.289    6.525 2273.300
  227.750    0.266    0.431   96.460    6.908 2254.580
  228.000    0.263    0.409  105.084    7.178 2260.890
  228.250    0.228    0.393  108.788    7.600 2319.340
  228.500    0.215    0.396  102.038    7.469 2342.330
  228.750    0.205    0.371   97.751    7.200 2359.060
  229.000    0.195    0.363   94.691    6.688 2375.810
  229.250    0.208    0.380   86.099    6.448 2355.000
  229.500    0.244    0.392   84.882    6.456 2292.490
  229.750    0.229    0.376   87.972    6.581 2317.560
  230.000    0.209    0.355   85.533    6.712 2353.070
  230.250    0.201    0.350   88.004    6.976 2365.650
  230.500    0.212    0.366   89.864    7.117 2346.920
  230.750    0.218    0.394   89.876    7.256 2336.550
  231.000    0.215    0.398   97.885    7.130 2342.860
  231.250    0.216    0.396   89.907    7.134 2340.830
  231.500    0.229    0.409   82.544    7.010 2317.940
  231.750    0.244    0.382   79.484    6.888 2292.970
  232.000    0.232    0.356   81.960    6.892 2313.880
  232.250    0.215    0.371   86.892    6.900 2343.130
  232.500    0.204    0.379   87.520    6.780 2361.950
  232.750    0.199    0.384   83.237    6.784 2370.340
  233.000    0.211    0.393   83.251    6.791 2349.540
  233.250    0.234    0.406   85.106    6.673 2309.980
  233.500    0.227    0.397   88.814    6.679 2322.540
  233.750    0.208    0.397   88.826    6.684 2353.880
  234.000    0.206    0.396   85.767    6.567 2358.100
  234.250    0.225    0.387   81.481    6.573 2324.780
  234.500    0.212    0.396   80.877    6.580 2347.790
  234.750    0.207    0.418   87.656    6.466 2356.180
  235.000    0.211    0.432   92.592    6.470 2349.990
  235.250    0.211    0.418   91.990    6.600 2350.020
  235.500    0.206    0.408   88.320    6.603 2358.430
  235.750    0.202    0.399   87.099    6.613 2364.740
  236.000    0.209    0.407   84.041    6.619 2352.290
  236.250    0.212    0.404   86.514    6.623 2348.170
  236.500    0.213    0.399   90.836    6.389 2346.140
  236.750    0.218    0.397   92.081    6.274 2337.850
  237.000    0.218    0.398   87.175    6.280 2337.890
  237.250    0.215    0.399   83.501    6.170 2342.120
  237.500    0.222    0.404   81.671    6.061 2329.660
  237.750    0.220    0.414   89.679    6.070 2333.880
  238.000    0.199    0.405   95.228    6.073 2369.390
  238.250    0.194    0.413  100.774    5.968 2377.780
  238.500    0.221    0.424   96.485    5.971 2331.960
  238.750    0.226    0.421   89.124    5.978 2323.670
  239.000    0.214    0.414   88.523    5.984 2344.570
  239.250    0.217    0.408   89.772    5.990 2338.370
  239.500    0.222    0.403   89.170    5.994 2330.090
  239.750    0.228    0.395   86.109    6.000 2319.710
  240.000    0.228    0.396   83.669    6.007 2319.780
  240.250    0.220    0.403   83.681    6.011 2334.410
  240.500    0.216    0.399   88.614    5.906 2340.730
  240.750    0.228    0.387   89.857    5.912 2319.920
  241.000    0.224    0.381   90.487    5.809 2326.240
  241.250    0.218    0.385   91.118    5.601 2336.730
  241.500    0.223    0.409   84.369    5.501 2328.430
  241.750    0.230    0.406   78.852    5.404 2315.960
  242.000    0.235    0.394   76.411    5.309 2307.680
  242.250    0.216    0.389   81.339    5.216 2341.110
  242.500    0.207    0.400   89.961    5.222 2355.750
  242.750    0.211    0.413   94.281    5.129 2349.570
  243.000    0.211    0.423   92.449    5.135 2349.600
  243.250    0.217    0.423   83.857    5.138 2339.230
  243.500    0.231    0.406   75.267    5.048 2314.250
  243.750    0.217    0.400   80.815    4.961 2339.340
  244.000    0.197    0.412   84.521    4.872 2372.750
  244.250    0.172    0.396   78.998    4.878 2416.600
  244.500    0.175    0.369   71.021    4.793 2410.390
  244.750    0.237    0.402   79.644    4.706 2304.090
  245.000    0.246    0.419   78.432    4.538 2289.570
  245.250    0.228    0.395   79.063    4.544 2320.890
  245.500    0.210    0.403   83.995    4.634 2350.140
  245.750    0.195    0.432   87.696    4.814 2377.300
  246.000    0.203    0.425   91.401    5.097 2362.760
  246.250    0.236    0.405   94.492    5.198 2306.500
  246.500    0.229    0.407   94.503    5.013 2319.070
  246.750    0.232    0.416   92.062    4.925 2312.870
  247.000    0.230    0.405   88.384    4.930 2317.090
  247.250    0.215    0.387   80.408    5.121 2342.170
  247.500    0.205    0.376   82.881    5.423 2358.920
  247.750    0.194    0.403   89.663    5.430 2377.730
  248.000    0.181    0.415   92.133    5.334 2400.720
  248.250    0.188    0.395   83.542    5.238 2388.260
  248.500    0.222    0.381   84.171    5.051 2329.930
  248.750    0.228    0.416   86.031    4.870 2319.550
  249.000    0.251    0.419   81.128    4.696 2279.980
  249.250    0.245    0.392   77.454    4.527 2290.470
  249.500    0.190    0.376   81.156    4.532 2384.360
  249.750    0.166    0.407   85.473    4.622 2426.120
  250.000    0.177    0.416   89.796    4.540 2407.400
  250.250    0.216    0.422   90.427    4.297 2340.730
  250.500    0.270    0.462   84.904    3.844 2249.020
  250.750    0.322    0.466   47.416    3.313 2159.410
