~VERSION INFORMATION
 VERS.                 2.0:   CWLS LOG ASCII STANDARD -VERSION 2.0
 WRAP.                  NO:   ONE LINE PER DEPTH STEP
~WELL INFORMATION BLOCK
#MNEM.UNIT           DATA                    DESCRIPTION OF MNEMONIC
#---------    -------------------            -------------------------------
# Generated from Intellog Unique Number	CS_73_76/WELL/3253
WELL.         HOME LIESMER                   : Well_name    - WELL
LOC .         00/10-34-075-07W4/0            : Location     - LOCATION
UWI .         00/10-34-075-07W4/0            : Uwi          - UNIQUE WELL ID
ENTR.         SP                             : Entered      - ENTERED BY
SRVC.         SCHLUMBERGER                   : Scn          - SERVICE COMPANY
STRT.M        222.504                        : top_depth    - START DEPTH
STOP.M        438.754                        : bot_depth    - STOP DEPTH
STEP.M        0.25                           : increment    - STEP LENGTH
 NULL. -999.2500:NULL Value
~CURVE INFORMATION BLOCK
#MNEM UNIT       ERCB CURVE CODE    CURVE DESCRIPTION
#-----------   ------------------   ----------------------------------
DEPT.M        00 001 00 00         : DEPTH        - DEPTH
GR  .API      00 310 00 00         : GR           - GAMMA RAY
DPHI.V/V      00 890 00 00         : PHID         - DENSITY POROSITY (SANDSTONE)
NPHI.V/V      00 330 00 00         : PHIN         - NEUTRON POROSITY (SANDSTONE)
ILD .OHMM     00 120 00 00         : RESD         - DEEP RESISTIVITY (DIL)
~PARAMETER INFORMATION
#MNEM.UNIT           DATA             DESCRIPTION OF MNEMONIC
#---------         -----------     ------------------------------
GL  .M        624.764              : gl           - GROUND LEVEL ELEVATION
EREF.M        628.025              : kb           - ELEVATION OF DEPTH REFERENCE
DATM.M        624.764              : datum        - DATUM ELEVATION
TDD .M        518.16               : tdd          - TOTAL DEPTH DRILLER
RUN .         ONE                  : Run          - RUN NUMBER
ENG .         BILL                 : Engineer     - RECORDING ENGINEER
WIT .         JIM                  : Witness      - WITNESSED BY
MUD .         GEL                  : Mud_type     - MUD TYPE
MATR.         SANDSTONE            : Logunit      - NEUTRON MATRIX
TMAX.C        20.5556              : BHT          - MAXIMUM RECORDED TEMPERATURE
BHTD.M        518.16               : BHTDEP       - MAXIMUM RECORDED TEMPERATURE
MATR.         1                    : LOGUNIT      - NEUTRON MATRIX
RMT .C        25                   : MDTP         - TEMPERATURE OF MUD
NEUT.         1                    : NEUTRON      - NEUTRON TYPE
RESI.         0                    : RESIST       - RESISTIVITY TYPE
RMC .OHMM     0.25                 : RMC          - RESISTIVITY OF MUD CAKE
RMF .OHMM     0.25                 : RMF          - RESISTIVITY OF MUD FILTRATE
SUFT.C        15                   : SUFT         - SURFACE TEMPERATURE
~A  DEPTH       GR     PHID     PHIN     RESD
  222.504  100.004    0.180    0.513    4.100
  222.754   95.084    0.154    0.495    4.099
  223.004   88.954    0.112    0.452    4.101
  223.254   83.454    0.053    0.391    4.027
  223.504   81.977    0.061    0.393    3.912
  223.754   90.804    0.218    0.436    3.710
  224.004   96.847    0.199    0.464    3.596
  224.254   97.802    0.213    0.483    3.715
  224.504   96.346    0.193    0.519    4.143
  224.754   93.109    0.195    0.523    4.835
  225.004   88.784    0.213    0.485    5.888
  225.254   84.937    0.226    0.456    8.189
  225.504   80.470    0.244    0.426   11.063
  225.754   81.793    0.234    0.412   14.753
  226.004   89.243    0.224    0.430   15.819
  226.254   92.612    0.216    0.432   15.187
  226.504   95.967    0.218    0.419   14.275
  226.754   97.900    0.205    0.424   13.421
  227.004   98.485    0.190    0.418   12.569
  227.254  101.711    0.176    0.408   12.675
  227.504   95.536    0.199    0.404   13.266
  227.754   88.056    0.220    0.410   13.721
  228.004   90.391    0.231    0.394   13.841
  228.254   94.382    0.240    0.401   13.895
  228.504   97.772    0.232    0.419   13.314
  228.754   93.044    0.216    0.433   12.838
  229.004   91.638    0.197    0.423   13.112
  229.254   85.610    0.185    0.400   14.317
  229.504   84.142    0.198    0.382   15.653
  229.754   79.994    0.229    0.375   17.335
  230.004   74.339    0.248    0.392   18.884
  230.254   69.914    0.241    0.406   20.666
  230.504   68.021    0.226    0.411   21.938
  230.754   69.427    0.216    0.403   20.177
  231.004   75.394    0.258    0.412   18.172
  231.254   81.626    0.230    0.403   16.400
  231.504   86.085    0.205    0.413   15.108
  231.754   87.423    0.205    0.417   15.932
  232.004   73.927    0.236    0.416   17.791
  232.254   63.275    0.275    0.427   18.846
  232.504   54.489    0.280    0.418   19.008
  232.754   58.748    0.268    0.422   15.901
  233.004   70.157    0.246    0.421   12.973
  233.254   80.180    0.214    0.419   10.994
  233.504   93.716    0.182    0.435    9.106
  233.754  101.594    0.203    0.448    7.922
  234.004  101.515    0.209    0.439    7.916
  234.254   96.134    0.226    0.439    9.201
  234.504   91.564    0.237    0.447   10.645
  234.754   83.534    0.264    0.454   13.352
  235.004   73.301    0.285    0.463   16.837
  235.254   61.740    0.277    0.432   19.270
  235.504   49.732    0.275    0.406   21.451
  235.754   45.123    0.286    0.411   23.393
  236.004   47.365    0.277    0.392   24.377
  236.254   49.885    0.267    0.390   24.248
  236.504   51.803    0.262    0.386   23.469
  236.754   51.818    0.272    0.395   22.735
  237.004   52.685    0.282    0.398   22.569
  237.254   57.354    0.292    0.387   21.919
  237.504   61.084    0.301    0.401   20.587
  237.754   65.797    0.288    0.403   19.350
  238.004   68.386    0.264    0.402   17.666
  238.254   72.585    0.243    0.410   16.401
  238.504   79.562    0.226    0.410   17.327
  238.754   84.241    0.235    0.387   18.541
  239.004   76.877    0.245    0.367   16.282
  239.254   76.901    0.230    0.346   13.565
  239.504   86.946    0.184    0.374   10.528
  239.754   98.012    0.150    0.398    8.224
  240.004  109.271    0.127    0.425    7.106
  240.254  116.167    0.142    0.450    6.249
  240.504  118.178    0.152    0.465    5.652
  240.754  120.064    0.116    0.469    5.239
  241.004  121.963    0.122    0.463    4.869
  241.254  118.235    0.145    0.469    4.617
  241.504  116.288    0.153    0.480    4.318
  241.754  118.972    0.142    0.500    3.999
  242.004  120.753    0.151    0.485    3.769
  242.254  119.218    0.168    0.508    3.615
  242.504  115.417    0.183    0.540    3.484
  242.754  110.948    0.207    0.540    3.645
  243.004  104.010    0.225    0.528    4.513
  243.254   93.830    0.245    0.521    6.033
  243.504   83.466    0.264    0.489    8.763
  243.754   73.750    0.243    0.402   11.317
  244.004   67.261    0.218    0.388   13.830
  244.254   73.961    0.219    0.392   14.465
  244.504   75.145    0.230    0.383   14.851
  244.754   74.489    0.212    0.391   14.535
  245.004   74.479    0.154    0.377   14.267
  245.254   75.448    0.130    0.368   13.912
  245.504   76.863    0.182    0.375   13.510
  245.754   78.695    0.212    0.385   12.721
  246.004   82.086    0.228    0.396   12.003
  246.254   84.556    0.239    0.412   11.290
  246.504   85.896    0.227    0.420   10.681
  246.754   87.959    0.225    0.410   10.130
  247.004   87.607    0.241    0.407    9.681
  247.254   87.238    0.229    0.404    9.204
  247.504   89.731    0.211    0.426    8.761
  247.754   91.976    0.201    0.432    8.561
  248.004   92.894    0.198    0.426    8.287
  248.254   93.912    0.198    0.436    8.137
  248.504   94.219    0.192    0.441    7.873
  248.754   95.123    0.187    0.434    7.801
  249.004   96.273    0.182    0.450    7.678
  249.254   96.939    0.179    0.451    7.723
  249.504   98.336    0.181    0.443    8.139
  249.754  100.026    0.183    0.436    8.634
  250.004   97.954    0.201    0.441    9.537
  250.254   96.390    0.240    0.447   10.798
  250.504   97.620    0.273    0.437   12.467
  250.754  101.623    0.274    0.430   13.924
  251.004  103.684    0.257    0.432   15.220
  251.254  102.743    0.247    0.442   16.044
  251.504  100.917    0.236    0.446   15.697
  251.754   99.523    0.231    0.437   14.982
  252.004   99.760    0.227    0.438   13.818
  252.254  101.575    0.224    0.440   12.723
  252.504  103.621    0.219    0.449   12.191
  252.754  103.428    0.213    0.459   12.035
  253.004   99.294    0.208    0.465   13.402
  253.254   94.696    0.209    0.451   14.733
  253.504   80.456    0.245    0.437   17.802
  253.754   54.451    0.267    0.409   20.859
  254.004   43.037    0.280    0.393   23.097
  254.254   41.698    0.277    0.381   25.328
  254.504   42.953    0.269    0.372   26.888
  254.754   45.300    0.282    0.388   27.104
  255.004   47.420    0.270    0.375   26.803
  255.254   51.173    0.232    0.366   26.396
  255.504   53.157    0.164    0.359   25.379
  255.754   56.683    0.135    0.373   24.415
  256.004   59.105    0.205    0.384   23.664
  256.254   61.072    0.278    0.391   22.934
  256.504   63.039    0.291    0.400   22.222
  256.754   64.337    0.291    0.404   21.199
  257.004   66.839    0.282    0.395   20.169
  257.254   69.039    0.272    0.384   18.824
  257.504   72.270    0.258    0.384   18.078
  257.754   75.151    0.246    0.391   16.989
  258.004   79.786    0.240    0.383   15.682
  258.254   83.706    0.234    0.384   14.129
  258.504   88.990    0.228    0.401   13.064
  258.754   93.807    0.212    0.404   11.314
  259.004  100.393    0.201    0.415    9.980
  259.254  107.785    0.191    0.430    9.008
  259.504  112.691    0.176    0.444    7.914
  259.754  116.040    0.177    0.440    7.430
  260.004  114.814    0.174    0.439    7.292
  260.254  111.074    0.178    0.433    7.880
  260.504  104.182    0.198    0.426    8.824
  260.754  101.178    0.212    0.416    9.771
  261.004   95.898    0.192    0.403   10.406
  261.254   95.534    0.181    0.401   10.448
  261.504  100.807    0.191    0.417    9.815
  261.754  109.444    0.194    0.436    8.964
  262.004  115.208    0.169    0.438    8.200
  262.254  120.534    0.145    0.439    7.613
  262.504  123.480    0.164    0.455    7.033
  262.754  119.175    0.175    0.471    6.838
  263.004  117.059    0.168    0.486    6.712
  263.254  110.934    0.159    0.498    6.934
  263.504  106.619    0.178    0.494    7.376
  263.754  103.725    0.195    0.485    7.690
  264.004  101.455    0.196    0.478    8.226
  264.254  105.349    0.180    0.465    8.693
  264.504  107.963    0.194    0.451    9.249
  264.754  110.635    0.208    0.442    9.603
  265.004  109.468    0.215    0.429   10.237
  265.254  106.039    0.225    0.434   10.679
  265.504  104.211    0.237    0.438   10.871
  265.754  103.187    0.234    0.425   11.065
