~VERSION INFORMATION
 VERS.                 2.0:   CWLS LOG ASCII STANDARD -VERSION 2.0
 WRAP.                  NO:   ONE LINE PER DEPTH STEP
~WELL INFORMATION BLOCK
#MNEM.UNIT           DATA                    DESCRIPTION OF MNEMONIC
#---------    -------------------            -------------------------------
# Generated from Intellog Unique Number	CC_80_83/WELL/2353
NULL.         -999.25                        : NULL_VALUE
WELL.         CHEVRON ALGAR                  : Well_name    - WELL
LOC .         10-14-081-17W4                 : Location     - LOCATION          
UWI .         00/10-14-081-17W400            : Uwi          - UNIQUE WELL ID    
ENTR.         DW                             : Entered      - ENTERED BY        
SRVC.         SCHLUMBERGER                   : Scn          - SERVICE COMPANY   
DATE.         04 FEB 75                      : Date         - LOG DATE
STRT.M        118.872                        : top_depth    - START DEPTH       
STOP.M        307.847                        : bot_depth    - STOP DEPTH        
STEP.M        0.305                          : increment    - STEP LENGTH       
~CURVE INFORMATION BLOCK
#MNEM UNIT       ERCB CURVE CODE    CURVE DESCRIPTION
#-----------   ------------------   ----------------------------------
DEPT.M        00 001 00 00         : DEPTH        - DEPTH                       
DPHI.V/V      00 890 00 00         : PHID         - DENSITY POROSITY (LIMESTONE)
NPHI.V/V      00 330 00 00         : PHIN         - NEUTRON POROSITY (LIMESTONE)
GR  .API      00 310 00 00         : GR           - GAMMA RAY                   
ILD .OHMM     00 120 00 00         : RESD         - DEEP RESISTIVITY (DIL)      
~PARAMETER INFORMATION       
#MNEM.UNIT           DATA             DESCRIPTION OF MNEMONIC
#---------         -----------     ------------------------------
GL  .M        540.106              : gl           - GROUND LEVEL ELEVATION      
EREF.M        543.763              : kb           - ELEVATION OF DEPTH REFERENCE
DATM.M        543.763              : datum        - DATUM ELEVATION             
TDD .M        310.896              : tdd          - TOTAL DEPTH DRILLER         
RUN .         ONE                  : Run          - RUN NUMBER                  
ENG .         BILL                 : Engineer     - RECORDING ENGINEER          
WIT .         JIM                  : Witness      - WITNESSED BY                
MUD .         GEL                  : Mud_type     - MUD TYPE                    
MATR.         LIMESTONE            : Logunit      - NEUTRON MATRIX              
TMAX.C        21.1111              : BHT          - MAXIMUM RECORDED TEMPERATURE
BHTD.M        310.896              : BHTDEP       - MAXIMUM RECORDED TEMPERATURE
MATR.         1                    : LOGUNIT      - NEUTRON MATRIX              
RMT .C        25                   : MDTP         - TEMPERATURE OF MUD          
NEUT.         1                    : NEUTRON      - NEUTRON TYPE                
RESI.         0                    : RESIST       - RESISTIVITY TYPE            
RMC .OHMM     0.25                 : RMC          - RESISTIVITY OF MUD CAKE     
RMF .OHMM     0.25                 : RMF          - RESISTIVITY OF MUD FILTRATE 
SUFT.C        15                   : SUFT         - SURFACE TEMPERATURE         
~A  DEPTH     PHID     PHIN       GR     RESD
  118.872    0.260    0.585   85.282    2.874
  119.177    0.233    0.561   85.887    2.874
  119.482    0.218    0.525   90.121    2.928
  119.786    0.229    0.537  101.613    3.095
  120.091    0.256    0.550  104.637    3.212
  120.396    0.259    0.513  105.242    3.273
  120.701    0.242    0.504  104.032    3.460
  121.006    0.240    0.533  101.008    3.525
  121.310    0.235    0.546   97.379    3.591
  121.615    0.215    0.566   96.169    3.796
  121.920    0.192    0.565   95.564    3.796
  122.225    0.229    0.517   93.145    3.797
  122.530    0.243    0.510   91.936    3.797
  122.834    0.230    0.512   92.540    3.797
  123.139    0.223    0.584   97.379    3.868
  123.444    0.247    0.600   97.984    3.941
  123.749    0.260    0.602   96.774    3.941
  124.054    0.242    0.595   95.564    3.869
  124.358    0.242    0.584   95.564    3.728
  124.663    0.227    0.503   98.589    3.729
  124.968    0.226    0.531  101.008    3.870
  125.273    0.243    0.547  102.218    4.016
  125.578    0.252    0.565  104.637    4.168
  125.882    0.258    0.558  101.613    3.943
  126.187    0.248    0.537   98.589    3.799
  126.492    0.238    0.538   97.379    3.594
  126.797    0.235    0.552   96.169    3.595
  127.102    0.232    0.566   93.750    3.800
  127.406    0.225    0.578   90.726    3.944
  127.711    0.254    0.560   87.097    3.801
  128.016    0.265    0.573   84.677    3.731
  128.321    0.290    0.541   81.653    3.801
  128.626    0.305    0.483   80.444    4.408
  128.930    0.275    0.460   76.814    5.208
  129.235    0.255    0.455   74.395    7.269
  129.540    0.287    0.477   68.347    9.248
  129.845    0.323    0.521   59.879   11.131
  130.150    0.344    0.412   44.758   12.909
  130.454    0.277    0.404   41.734   13.647
  130.759    0.301    0.448   41.734   15.252
  131.064    0.311    0.458   39.919   17.046
  131.369    0.316    0.428   39.919   18.701
  131.674    0.322    0.422   41.129   19.771
  131.978    0.323    0.448   43.548   20.901
  132.283    0.321    0.469   43.548   22.097
  132.588    0.325    0.449   43.548   22.511
  132.893    0.328    0.433   48.387   22.512
  133.198    0.333    0.432   50.806   21.695
  133.502    0.336    0.454   47.782   21.298
  133.807    0.328    0.472   44.153   20.149
  134.112    0.322    0.480   42.944   19.780
  134.417    0.334    0.487   44.153   19.781
  134.722    0.345    0.466   48.387   19.419
  135.026    0.341    0.444   55.040   17.703
  135.331    0.329    0.433   59.274   15.842
  135.636    0.300    0.481   62.298   14.712
  135.941    0.284    0.431   65.323   13.165
  136.245    0.271    0.423   69.556   11.353
  136.550    0.254    0.469   73.186   10.160
  136.855    0.237    0.513   75.000    8.136
  137.160    0.231    0.529  100.403    7.016
  137.465    0.252    0.540   99.798    5.414
  137.769    0.334    0.532   97.379    4.499
  138.074    0.371    0.550   94.355    3.808
  138.379    0.365    0.572   90.726    3.472
  138.684    0.340    0.596   82.863    3.346
  138.989    0.316    0.606   79.234    3.408
  139.293    0.287    0.596   75.605    3.537
  139.598    0.308    0.567   70.161    3.881
  139.903    0.313    0.518   64.113    4.585
  140.208    0.306    0.451   59.879    6.399
  140.513    0.294    0.471   58.669    8.449
  140.817    0.267    0.510   58.065    9.619
  141.122    0.219    0.507   60.484   12.013
  141.427    0.224    0.471   62.298   14.729
  141.732    0.264    0.465   67.137   15.571
  142.037    0.288    0.503   69.556   16.461
  142.341    0.299    0.487   72.581   16.462
  142.646    0.284    0.473   75.000   15.865
  142.951    0.278    0.484   75.605   15.289
  143.256    0.283    0.520   69.556   14.464
  143.561    0.292    0.497   65.323   14.735
  143.865    0.295    0.446   64.718   15.578
  144.170    0.296    0.440   64.718   16.166
  144.475    0.281    0.434   63.508   16.777
  144.780    0.249    0.423   60.484   17.092
  145.085    0.183    0.405   61.089   17.093
  145.389    0.284    0.425   64.718   16.472
  145.694    0.290    0.419   72.581   15.874
  145.999    0.250    0.419   83.468   15.298
  146.304    0.238    0.448   95.564   14.206
  146.609    0.230    0.478   96.774   12.251
  146.913    0.243    0.509   96.169    9.993
  147.218    0.294    0.455   93.750    7.856
  147.523    0.276    0.419   91.331    7.570
  147.828    0.243    0.414   90.121    8.153
  148.132    0.255    0.432   88.306    9.282
  148.437    0.284    0.440   86.492   10.568
  148.742    0.287    0.451   83.468   12.031
  149.047    0.266    0.446   82.863   13.697
  149.352    0.278    0.437   85.282   14.751
  149.656    0.305    0.433   85.282   15.309
  149.961    0.307    0.440   84.073   15.887
  150.266    0.296    0.456   81.653   16.186
  150.571    0.277    0.455   79.839   16.186
  150.876    0.261    0.460   82.863   15.890
  151.180    0.254    0.454   81.653   15.599
  151.485    0.225    0.425   79.839   14.757
  151.790    0.206    0.420   82.258   13.960
  152.095    0.188    0.434   85.282   12.493
  152.400    0.203    0.449   86.492   10.975
  152.704    0.207    0.462   88.306   10.576
  153.009    0.212    0.454   90.726   10.193
  153.314    0.210    0.435   91.331   10.006
  153.619    0.190    0.432   90.726   10.007
  153.924    0.207    0.449   91.331   10.007
  154.228    0.195    0.501   93.145    9.824
  154.533    0.162    0.524  103.427    8.791
  154.838    0.149    0.533  108.871    7.306
  155.143    0.183    0.543  108.266    6.071
  155.448    0.189    0.554  107.661    5.534
  155.752    0.233    0.530  111.290    5.045
  156.057    0.255    0.561  112.500    4.773
  156.362    0.254    0.548  113.105    4.685
  156.667    0.179    0.566  107.056    4.686
  156.972    0.172    0.550  104.637    4.686
  157.276    0.156    0.542  105.847    4.516
  157.581    0.208    0.556  104.637    4.194
  157.886    0.284    0.519  107.661    4.117
  158.191    0.265    0.472  105.242    4.434
  158.495    0.252    0.448   98.589    5.336
  158.800    0.219    0.455  101.008    7.873
  159.105    0.217    0.489  103.427   10.395
  159.410    0.229    0.509  104.637   11.405
  159.715    0.276    0.524  104.032   11.405
  160.019    0.272    0.525  101.008    9.835
  160.324    0.266    0.513   97.984    9.655
  160.629    0.266    0.463   94.960   10.020
  160.934    0.284    0.442   94.355   11.198
  161.239    0.281    0.443   96.774   12.286
  161.543    0.298    0.455   99.798   13.232
  161.848    0.302    0.449  101.008   13.479
  162.153    0.300    0.433   91.331   14.250
  162.458    0.293    0.433   82.258   14.789
  162.763    0.292    0.451   72.581   14.790
  163.067    0.295    0.468   63.508   14.791
  163.372    0.300    0.475   59.879   14.520
  163.677    0.301    0.480   61.089   13.993
  163.982    0.300    0.479   65.323   13.485
  164.287    0.294    0.469   66.532   13.486
  164.591    0.293    0.472   69.556   13.486
  164.896    0.298    0.468   69.556   13.488
  165.201    0.305    0.483   68.952   13.241
  165.506    0.306    0.491   66.532   13.242
  165.811    0.302    0.492   65.927   12.999
  166.115    0.292    0.451   67.137   12.527
  166.420    0.266    0.428   68.952   11.633
  166.725    0.207    0.422   73.186   10.605
  167.030    0.220    0.434   77.419    9.668
  167.335    0.250    0.469   78.024    9.146
  167.639    0.255    0.495   75.000    9.492
  167.944    0.246    0.490   71.371   10.806
  168.249    0.258    0.474   63.508   11.424
  168.554    0.283    0.460   60.484   11.856
  168.858    0.301    0.451   59.879   11.857
  169.163    0.305    0.443   60.484   11.857
  169.468    0.301    0.440   62.298   11.858
  169.773    0.298    0.472   64.113   11.428
  170.078    0.294    0.481   65.323   10.612
  170.382    0.288    0.489   66.532   10.040
  170.687    0.278    0.496   65.323   10.227
  170.992    0.284    0.489   61.694   11.014
  171.297    0.301    0.474   56.855   12.540
  171.602    0.311    0.442   55.040   13.257
