~VERSION INFORMATION
 VERS.                 2.0:   CWLS LOG ASCII STANDARD -VERSION 2.0
 WRAP.                  NO:   ONE LINE PER DEPTH STEP
~WELL INFORMATION BLOCK
#MNEM.UNIT           DATA                    DESCRIPTION OF MNEMONIC
#---------    -------------------            -------------------------------
# Generated from Intellog Unique Number	CS_67_68/WELL/842
WELL.         CANADA-CITIES SERVICE LTD      : Well_name    - WELL
LOC .         00/11-25-068-14W4/0            : Location     - LOCATION
UWI .         00/11-25-068-14W4/0            : Uwi          - UNIQUE WELL ID
ENTR.         SP                             : Entered      - ENTERED BY
SRVC.         SCHLUMBERGER                   : Scn          - SERVICE COMPANY
STRT.M        259.08                         : top_depth    - START DEPTH
STOP.M        456.830                        : bot_depth    - STOP DEPTH
STEP.M        0.25                           : increment    - STEP LENGTH
 NULL. -999.2500:NULL Value
~CURVE INFORMATION BLOCK
#MNEM UNIT       ERCB CURVE CODE    CURVE DESCRIPTION
#-----------   ------------------   ----------------------------------
DEPT.M        00 001 00 00         : DEPTH        - DEPTH
GR  .API      00 310 00 00         : GR           - GAMMA RAY
DPHI.V/V      00 890 00 00         : PHID         - DENSITY POROSITY (SANDSTONE)
NPHI.V/V      00 330 00 00         : PHIN         - NEUTRON POROSITY (SANDSTONE)
ILD .OHMM     00 120 00 00         : RESD         - DEEP RESISTIVITY (DIL)
~PARAMETER INFORMATION
#MNEM.UNIT           DATA             DESCRIPTION OF MNEMONIC
#---------         -----------     ------------------------------
GL  .M        552.907              : gl           - GROUND LEVEL ELEVATION
EREF.M        555.346              : kb           - ELEVATION OF DEPTH REFERENCE
DATM.M        552.907              : datum        - DATUM ELEVATION
TDD .M        458.114              : tdd          - TOTAL DEPTH DRILLER
RUN .         ONE                  : Run          - RUN NUMBER
ENG .         BILL                 : Engineer     - RECORDING ENGINEER
WIT .         JIM                  : Witness      - WITNESSED BY
MUD .         GEL                  : Mud_type     - MUD TYPE
MATR.         SANDSTONE            : Logunit      - NEUTRON MATRIX
TMAX.C        14.4444              : BHT          - MAXIMUM RECORDED TEMPERATURE
BHTD.M        458.114              : BHTDEP       - MAXIMUM RECORDED TEMPERATURE
MATR.         1                    : LOGUNIT      - NEUTRON MATRIX
RMT .C        25                   : MDTP         - TEMPERATURE OF MUD
NEUT.         1                    : NEUTRON      - NEUTRON TYPE
RESI.         0                    : RESIST       - RESISTIVITY TYPE
RMC .OHMM     0.25                 : RMC          - RESISTIVITY OF MUD CAKE
RMF .OHMM     0.25                 : RMF          - RESISTIVITY OF MUD FILTRATE
SUFT.C        15                   : SUFT         - SURFACE TEMPERATURE
~A  DEPTH       GR     PHID     PHIN     RESD
  259.080  105.463    0.251    0.580    2.999
  259.330  102.943    0.244    0.553    3.148
  259.580   99.702    0.203    0.539    3.290
  259.830   99.799    0.183    0.531    3.427
  260.080  101.998    0.190    0.514    3.468
  260.330  102.788    0.188    0.506    3.516
  260.580  101.959    0.183    0.514    3.559
  260.830   99.517    0.171    0.507    3.478
  261.080   96.626    0.165    0.481    3.339
  261.330   96.773    0.220    0.470    3.161
  261.580   98.198    0.214    0.499    2.946
  261.830   99.145    0.208    0.522    2.864
  262.080   98.596    0.238    0.538    2.811
  262.330   96.682    0.221    0.528    2.782
  262.580   95.056    0.242    0.551    2.741
  262.830   94.291    0.246    0.560    2.751
  263.080   94.728    0.234    0.543    2.824
  263.330   94.684    0.278    0.531    2.980
  263.580   94.098    0.310    0.537    3.091
  263.830   93.761    0.304    0.544    3.129
  264.080   90.657    0.236    0.507    3.126
  264.330   87.820    0.214    0.494    3.112
  264.580   89.960    0.204    0.484    2.988
  264.830   91.163    0.243    0.480    2.875
  265.080   88.694    0.272    0.481    2.941
  265.330   83.615    0.316    0.507    3.135
  265.580   79.311    0.322    0.547    3.368
  265.830   75.985    0.344    0.589    3.683
  266.080   73.042    0.139    0.485    4.040
  266.330   79.526    0.095    0.416    4.359
  266.580   84.376    0.072    0.389    4.602
  266.830   92.149    0.211    0.367    4.694
  267.080   96.803    0.215    0.399    4.706
  267.330  101.077    0.209    0.418    4.517
  267.580  102.992    0.204    0.432    4.434
  267.830  105.445    0.196    0.442    4.738
  268.080  100.847    0.195    0.458    5.509
  268.330   85.597    0.209    0.457    6.500
  268.580   60.184    0.211    0.444    7.704
  268.830   47.864    0.206    0.421    9.430
  269.080   41.506    0.257    0.290   11.504
  269.330   38.878    0.406    0.235   14.228
  269.580   38.002    0.416    0.193   17.211
  269.830   37.625    0.415    0.155   18.717
  270.080   37.861    0.411    0.151   15.037
  270.330   39.639    0.412    0.166    8.610
  270.580   42.491    0.402    0.189    6.295
  270.830   44.738    0.377    0.220    5.036
  271.080   47.152    0.365    0.246    4.201
  271.330   48.288    0.353    0.276    3.499
  271.580   49.202    0.341    0.313    3.000
  271.830   48.367    0.328    0.360    2.703
  272.080   45.513    0.317    0.343    2.429
  272.330   44.942    0.315    0.325    2.228
  272.580   46.306    0.346    0.334    2.101
  272.830   49.905    0.363    0.365    2.099
  273.080   55.487    0.331    0.393    2.257
  273.330   62.765    0.312    0.392    2.487
  273.580   70.441    0.302    0.393    2.729
  273.830   79.561    0.280    0.405    2.989
  274.080   83.349    0.245    0.411    3.132
  274.330   80.019    0.216    0.413    3.304
  274.580   76.996    0.203    0.422    3.304
  274.830   75.698    0.229    0.424    3.222
  275.080   75.940    0.247    0.417    3.127
  275.330   78.357    0.257    0.413    3.065
  275.580   81.743    0.262    0.430    3.200
  275.830   85.086    0.256    0.429    3.486
  276.080   87.610    0.242    0.429    3.734
  276.330   91.214    0.242    0.435    3.684
  276.580   94.581    0.258    0.441    3.197
  276.830   97.797    0.283    0.504    2.678
  277.080  100.466    0.373    0.597    2.397
  277.330  103.162    0.396    0.626    2.204
  277.580  105.248    0.360    0.632    2.122
  277.830  100.305    0.341    0.625    2.093
  278.080   89.728    0.308    0.612    2.107
  278.330   83.387    0.407    0.538    2.222
  278.580   77.963    0.372    0.488    2.377
  278.830   75.704    0.344    0.483    2.518
  279.080   78.110    0.332    0.475    2.679
  279.330   81.231    0.319    0.470    2.827
  279.580   84.269    0.303    0.479    2.932
  279.830   81.374    0.287    0.497    2.953
  280.080   75.409    0.280    0.506    2.967
  280.330   74.161    0.278    0.510    3.051
  280.580   74.999    0.266    0.490    3.126
  280.830   75.583    0.262    0.480    3.173
  281.080   77.357    0.253    0.476    3.209
  281.330   78.218    0.245    0.465    3.196
  281.580   78.192    0.236    0.464    3.160
  281.830   78.660    0.229    0.482    3.154
  282.080   80.098    0.253    0.470    3.216
  282.330   82.642    0.277    0.460    3.367
  282.580   81.401    0.270    0.468    3.549
  282.830   78.918    0.264    0.480    3.712
  283.080   79.898    0.257    0.482    3.836
  283.330   83.904    0.252    0.479    3.979
  283.580   86.869    0.246    0.495    4.059
  283.830   89.267    0.241    0.501    4.101
  284.080   91.555    0.232    0.504    4.117
  284.330   93.461    0.242    0.500    4.071
  284.580   98.720    0.208    0.500    3.941
  284.830  104.299    0.181    0.515    3.750
  285.080  109.757    0.163    0.526    3.589
  285.330  112.959    0.183    0.532    3.498
  285.580  113.867    0.197    0.521    3.483
  285.830  114.357    0.188    0.508    3.536
  286.080  116.606    0.173    0.491    3.706
  286.330  117.269    0.188    0.477    3.883
  286.580  117.665    0.233    0.465    3.987
  286.830  117.154    0.241    0.469    3.983
  287.080  108.441    0.245    0.473    3.805
  287.330   98.766    0.247    0.468    3.453
  287.580   93.518    0.256    0.459    3.183
  287.830   89.711    0.267    0.452    3.022
  288.080   87.435    0.271    0.449    2.955
  288.330   84.260    0.279    0.440    2.924
  288.580   82.443    0.292    0.438    2.926
  288.830   85.628    0.275    0.440    2.964
  289.080   87.260    0.269    0.446    3.026
  289.330   87.350    0.260    0.446    3.134
  289.580   87.530    0.258    0.441    3.254
  289.830   93.430    0.251    0.452    3.391
  290.080   97.506    0.230    0.466    3.414
  290.330  100.074    0.208    0.475    3.212
  290.580   94.600    0.240    0.474    2.814
  290.830   82.439    0.258    0.477    2.462
  291.080   75.260    0.283    0.491    2.252
  291.330   71.733    0.315    0.472    2.087
  291.580   77.641    0.330    0.451    2.030
  291.830   83.239    0.346    0.438    2.136
  292.080   88.234    0.326    0.431    2.402
  292.330   92.592    0.277    0.438    2.691
  292.580   94.750    0.226    0.444    3.007
  292.830   95.454    0.215    0.452    3.248
  293.080   99.012    0.220    0.449    3.355
  293.330  102.488    0.232    0.439    3.299
  293.580  104.602    0.235    0.452    3.159
  293.830  106.613    0.235    0.468    2.919
  294.080  103.347    0.250    0.477    2.790
  294.330   90.891    0.308    0.480    2.714
  294.580   91.272    0.329    0.485    2.692
  294.830   97.233    0.318    0.480    2.723
  295.080  105.943    0.309    0.462    2.811
  295.330  111.052    0.299    0.461    2.863
  295.580  112.795    0.295    0.486    2.925
  295.830  110.014    0.291    0.505    2.940
  296.080  106.840    0.297    0.506    2.949
  296.330  107.931    0.287    0.501    2.955
  296.580  106.408    0.277    0.493    2.948
  296.830  100.123    0.268    0.484    2.935
  297.080  100.605    0.287    0.481    2.888
  297.330  101.787    0.305    0.487    2.845
  297.580  103.192    0.308    0.496    2.777
  297.830  106.791    0.300    0.499    2.709
  298.080  114.039    0.297    0.497    2.639
  298.330  123.132    0.288    0.497    2.617
  298.580  132.914    0.272    0.490    2.639
  298.830  141.065    0.265    0.503    2.678
  299.080  146.705    0.256    0.513    2.735
  299.330  139.736    0.254    0.523    2.795
  299.580  107.681    0.248    0.514    2.834
  299.830   95.385    0.246    0.496    2.858
  300.080   87.891    0.269    0.487    2.883
  300.330   85.907    0.281    0.474    2.934
  300.580   83.656    0.280    0.461    3.011
  300.830   82.585    0.277    0.454    3.090
  301.080   84.485    0.278    0.451    3.214
  301.330   86.724    0.272    0.450    3.242
  301.580   86.989    0.262    0.448    3.254
  301.830   85.743    0.249    0.456    3.193
  302.080   81.580    0.234    0.469    3.038
  302.330   79.743    0.248    0.478    2.927
