~VERSION INFORMATION
 VERS.                 2.0:   CWLS LOG ASCII STANDARD -VERSION 2.0
 WRAP.                  NO:   ONE LINE PER DEPTH STEP
~WELL INFORMATION BLOCK
#MNEM.UNIT           DATA                    DESCRIPTION OF MNEMONIC
#---------    -------------------            -------------------------------
# Generated from Intellog Unique Number	CW_76_78/WELL/2820
WELL.         11-34-077-26W4                 : Well_name    - WELL
LOC .         00/11-34-077-26W4/0            : Location     - LOCATION
UWI .         00/11-34-077-26W4/0            : Uwi          - UNIQUE WELL ID
ENTR.         JJ                             : Entered      - ENTERED BY
SRVC.         SCHLUMBERGER                   : Scn          - SERVICE COMPANY
DATE.         18 FEB 68                      : Date         - LOG DATE
STRT.M        420.624                        : top_depth    - START DEPTH
STOP.M        548.624                        : bot_depth    - STOP DEPTH
STEP.M        0.25                           : increment    - STEP LENGTH
 NULL. -999.2500:NULL Value
~CURVE INFORMATION BLOCK
#MNEM UNIT       ERCB CURVE CODE    CURVE DESCRIPTION
#-----------   ------------------   ----------------------------------
DEPT.M        00 001 00 00         : DEPTH        - DEPTH
DELT.US/F     00 520 00 00         : DELT         - SONIC TRAVEL TIME
GR  .API      00 310 00 00         : GR           - GAMMA RAY
CALI.MM       00 280 01 00         : CAL          - CALIPER
ILD .OHMM     00 120 00 00         : RESD         - DEEP RESISTIVITY (DIL)
~PARAMETER INFORMATION
#MNEM.UNIT           DATA             DESCRIPTION OF MNEMONIC
#---------         -----------     ------------------------------
GL  .M        631.85               : gl           - GROUND LEVEL ELEVATION
EREF.M        636.118              : kb           - ELEVATION OF DEPTH REFERENCE
DATM.M        636.118              : datum        - DATUM ELEVATION
TDD .M        562.966              : tdd          - TOTAL DEPTH DRILLER
RUN .         ONE                  : Run          - RUN NUMBER
ENG .         MILLER               : Engineer     - RECORDING ENGINEER
WIT .         DONALD               : Witness      - WITNESSED BY
BASE.         S.L.                 : Branch       - HOME BASE OF LOGGING UNIT
MUD .         GEL-CAUS             : Mud_type     - MUD TYPE
MATR.         SANDSTONE            : Logunit      - NEUTRON MATRIX
TMAX.C        23.3333              : BHT          - MAXIMUM RECORDED TEMPERATURE
BHTD.M        561.746              : BHTDEP       - MAXIMUM RECORDED TEMPERATURE
RMT .C        5.55556              : MDTP         - TEMPERATURE OF MUD
MUDD.KG/M     1224                 : MWT          - MUD DENSITY
NEUT.         1                    : NEUTRON      - NEUTRON TYPE
RESI.         0                    : RESIST       - RESISTIVITY TYPE
RM  .OHMM     5.01                 : RM           - RESISTIVITY OF MUD
RMC .OHMM     4.32                 : RMC          - RESISTIVITY OF MUD CAKE
RMF .OHMM     4.44                 : RMF          - RESISTIVITY OF MUD FILTRATE
SUFT.C        5                    : SUFT         - SURFACE TEMPERATURE
~A  DEPTH     DELT       GR      CAL     RESD
  420.624  384.968   94.757  223.399    3.582
  420.874  377.818   93.208  223.515    3.489
  421.124  374.404   92.219  228.793    3.460
  421.374  378.668   91.479  229.121    3.457
  421.624  382.195   89.680  231.663    3.470
  421.874  388.126   88.443  237.677    3.531
  422.124  390.585   89.134  216.407    3.642
  422.374  386.973   87.522  208.517    3.754
  422.624  375.017   87.280  214.323    3.840
  422.874  367.466   90.024  220.971    3.868
  423.124  365.722   82.627  211.711    3.864
  423.374  379.794   83.879  216.674    3.723
  423.624  382.387   88.053  228.379    3.703
  423.874  381.512   92.043  232.393    3.780
  424.124  381.902   94.350  223.766    3.948
  424.374  388.301   88.073  212.504    4.157
  424.624  393.431   80.862  208.091    4.341
  424.874  378.271   77.446  208.205    4.451
  425.124  355.436   72.975  210.536    4.375
  425.374  341.813   73.167  212.126    4.274
  425.624  348.478   79.768  220.566    4.115
  425.874  361.748   83.881  213.728    3.981
  426.124  371.883   75.302  208.789    3.806
  426.374  381.552   80.349  219.124    3.663
  426.624  390.353   86.700  224.720    3.465
  426.874  373.858   87.080  224.310    3.330
  427.124  372.982   91.381  223.900    3.197
  427.374  379.180   97.421  225.278    3.160
  427.624  385.511   95.251  229.609    3.197
  427.874  384.367   99.923  244.791    3.284
  428.124  388.228   91.593  223.733    3.484
  428.374  389.753   84.071  208.467    3.790
  428.624  392.015   79.536  209.322    3.991
  428.874  385.532   82.094  209.757    3.947
  429.124  373.242   81.728  210.082    3.910
  429.374  382.908   79.991  209.779    3.874
  429.624  388.840   73.714  208.628    3.968
  429.874  396.238   73.845  208.218    4.226
  430.124  393.360   77.211  210.545    4.613
  430.374  374.864   75.849  211.192    4.651
  430.624  359.839   70.630  210.150    4.533
  430.874  344.746   75.365  209.421    4.709
  431.124  332.924   80.908  207.959    4.934
  431.374  346.530   75.814  207.019    5.012
  431.624  359.934   73.767  207.030    4.904
  431.874  365.799   77.879  207.570    4.720
  432.124  354.377   83.112  208.950    4.503
  432.374  348.562   76.088  210.857    4.206
  432.624  360.698   82.192  213.396    3.902
  432.874  359.487   92.277  214.039    3.865
  433.124  355.141   87.557  214.472    3.936
  433.374  366.544   92.539  224.596    4.054
  433.624  368.938   96.528  226.189    4.279
  433.874  367.127   90.376  218.825    4.504
  434.124  371.056   85.653  213.357    4.777
  434.374  372.515   85.784  216.741    5.239
  434.624  357.355   87.719  220.860    5.847
  434.874  348.136   87.104  222.029    6.365
  435.124  324.300   81.698  222.043    6.680
  435.374  311.744   79.215  223.210    6.440
  435.624  297.385   84.075  225.015    5.841
  435.874  292.638   86.694  219.652    5.217
  436.124  284.687   90.871  222.401    4.659
  436.374  304.365   92.680  219.463    4.215
  436.624  342.798   93.060  216.947    3.975
  436.874  359.275   89.522  220.539    3.939
  437.124  370.010   90.400  219.917    4.009
  437.374  371.536   92.519  212.347    4.119
  437.624  365.120   93.273  213.514    4.238
  437.874  369.382   92.657  218.053    4.227
  438.124  373.176   96.086  220.804    4.158
  438.374  365.492   98.021  216.285    4.089
  438.624  353.203  104.809  215.562    3.979
  438.874  350.658  103.073  218.836    3.869
  439.124  368.267  102.085  221.061    3.736
  439.374  375.600   99.789  221.600    3.642
  439.624  383.332   96.437  221.293    3.589
  439.874  376.249   93.269  221.095    3.651
  440.124  377.841   89.045  221.844    3.746
  440.374  378.900   93.345  222.172    3.898
  440.624  372.951   99.076  221.968    4.049
  440.874  368.803   97.091  220.719    4.012
  441.124  374.267   92.431  220.094    3.764
  441.374  380.998   96.171  221.793    3.719
  441.624  377.185   98.729  232.128    3.855
  441.874  377.509   96.620  236.984    3.802
  442.124  381.971   96.501  228.357    3.603
  442.374  383.364   90.411  229.105    3.583
  442.624  369.473   94.835  217.106    3.678
  442.874  363.124  101.375  213.745    3.887
  443.124  386.873   98.394  216.707    4.037
  443.374  394.071   89.380  220.935    4.189
  443.624  388.190   84.035  220.101    4.210
  443.874  372.030   86.966  219.585    4.215
  444.124  347.460   95.247  221.179    4.529
  444.374  335.504   96.748  223.505    4.257
  444.624  354.717   93.456  225.518    4.000
  444.874  372.527   93.277  224.374    3.882
  445.124  379.924   93.470  223.858    3.829
  445.374  380.517   91.983  222.920    3.746
  445.624  378.771   94.914  222.404    3.684
  445.874  376.894   94.236  222.096    3.607
  446.124  376.352   98.410  222.529    3.473
  446.374  376.741   93.876  218.431    3.420
  446.624  378.201   88.345  217.179    3.556
  446.874  379.994   92.955  218.033    3.944
  447.124  383.122   78.839  210.144    4.698
  447.374  384.447   73.121  207.208    5.886
  447.624  362.414   68.089  206.375    7.131
  447.874  305.476   76.183  210.388    8.269
  448.124  295.254   76.065  219.458    9.399
  448.374  298.983   68.109  218.100    9.470
  448.624  282.556   72.719  209.366    8.243
  448.874  250.712   81.498  208.744    7.260
  449.124  249.901   84.988  209.809    6.588
  449.374  277.856   87.857  212.668    5.898
  449.624  299.471   86.620  214.890    5.259
  449.874  334.234   86.876  218.166    4.766
  450.124  341.031   88.934  221.338    4.354
  450.374  348.498   88.319  224.194    4.710
  450.624  356.630   92.743  224.943    4.984
  450.874  359.091   96.732  225.482    5.225
  451.124  348.670   93.627  226.020    5.475
  451.374  345.391   90.025  226.452    5.610
  451.624  344.047   93.827  226.566    5.614
  451.874  339.631   94.580  225.736    5.447
  452.124  335.351   92.845  220.372    5.248
  452.374  333.674   95.651  221.860    5.008
  452.624  338.403   99.204  223.243    4.833
  452.874  350.539  100.081  223.567    4.601
  453.124  355.336   95.111  222.314    4.346
  453.374  355.661   89.020  220.218    4.251
  453.624  364.460   82.929  216.856    4.142
  453.874  369.725   80.261  212.340    4.113
  454.124  373.187   84.872  210.347    4.134
  454.374  376.848   91.971  210.151    4.253
  454.624  384.380   92.412  212.582    4.413
  454.874  387.908   96.027  217.861    4.532
  455.124  389.300   88.755  209.970    4.569
  455.374  383.551   83.784  215.039    4.476
  455.624  376.868   89.328  213.154    4.366
  455.874  378.460   92.383  217.168    4.183
  456.124  389.931   89.154  223.394    3.968
  456.374  391.390   93.764  213.608    3.728
  456.624  386.707  100.491  209.408    3.609
  456.874  378.958  106.097  211.313    3.557
  457.124  376.479  100.691  213.324    3.913
  457.374  401.765   92.796  213.759    4.448
  457.624  430.187   83.594  213.560    5.096
  457.874  451.067   70.037  213.256    5.729
  458.124  517.798   70.852  213.265    6.436
  458.374  495.765   77.268  212.538    6.938
  458.624  468.859   71.862  213.182    7.309
  458.874  514.900   69.131  215.510    7.698
  459.124  484.124   67.519  218.472    7.800
  459.374  415.639   65.846  218.377    7.225
  459.624  377.188   66.351  217.966    6.683
  459.874  350.883   68.908  218.083    6.174
  460.124  360.284   75.012  218.305    6.505
  460.374  382.299   77.817  218.948    6.860
  460.624  392.234   80.002  220.330    7.044
  460.874  397.496   78.765  222.027    6.960
  461.124  400.890   73.917  222.879    6.899
  461.374  402.817   66.209  223.104    7.417
  461.624  382.586   57.692  223.007    8.547
  461.874  289.008   59.316  223.334   11.546
  462.124  253.226   65.049  222.610   12.595
  462.374  239.134   65.676  222.411   13.480
  462.624  233.519   68.047  221.895   12.253
  462.874  241.050   70.231  222.114   11.361
  463.124  234.101   70.674  216.542   11.406
  463.374  224.081   75.284  213.603   10.178
  463.624  245.295   72.490  218.459    9.286
  463.874  261.971   69.199  225.003    8.466
