~VERSION INFORMATION
 VERS.                 2.0:   CWLS LOG ASCII STANDARD -VERSION 2.0
 WRAP.                  NO:   ONE LINE PER DEPTH STEP
~WELL INFORMATION BLOCK
#MNEM.UNIT           DATA                    DESCRIPTION OF MNEMONIC
#---------    -------------------            -------------------------------
# Generated from Intellog Unique Number	CW_79_81/WELL/2475
WELL.         GULF AMOCO HOOLE               : Well_name    - WELL
LOC .         00/10-26-081-25W4/0            : Location     - LOCATION
UWI .         00/10-26-081-25W4/0            : Uwi          - UNIQUE WELL ID
ENTR.         MAX                            : Entered      - ENTERED BY
SRVC.         SCHLUMBERGER                   : Scn          - SERVICE COMPANY
STRT.M        195.072                        : top_depth    - START DEPTH
STOP.M        457.072                        : bot_depth    - STOP DEPTH
STEP.M        0.25                           : increment    - STEP LENGTH
 NULL. -999.2500:NULL Value
~CURVE INFORMATION BLOCK
#MNEM UNIT       ERCB CURVE CODE    CURVE DESCRIPTION
#-----------   ------------------   ----------------------------------
DEPT.M        00 001 00 00         : DEPTH        - DEPTH
ILD .OHMM     00 120 00 00         : RESD         - DEEP RESISTIVITY (DIL)
NPHI.V/V      00 330 00 00         : PHIN         - NEUTRON POROSITY (SANDSTONE)
DPHI.V/V      00 890 00 00         : PHID         - DENSITY POROSITY (SANDSTONE)
GR  .API      00 310 00 00         : GR           - GAMMA RAY
CALI.MM       00 280 01 00         : CAL          - CALIPER
~PARAMETER INFORMATION
#MNEM.UNIT           DATA             DESCRIPTION OF MNEMONIC
#---------         -----------     ------------------------------
GL  .M        579.76               : gl           - GROUND LEVEL ELEVATION
EREF.M        583.021              : kb           - ELEVATION OF DEPTH REFERENCE
DATM.M        579.76               : datum        - DATUM ELEVATION
TDD .M        466.344              : tdd          - TOTAL DEPTH DRILLER
RUN .         ONE                  : Run          - RUN NUMBER
ENG .         BILL                 : Engineer     - RECORDING ENGINEER
WIT .         JIM                  : Witness      - WITNESSED BY
MUD .         GEL                  : Mud_type     - MUD TYPE
MATR.         SANDSTONE            : Logunit      - NEUTRON MATRIX
TMAX.C        27.2222              : BHT          - MAXIMUM RECORDED TEMPERATURE
BHTD.M        466.344              : BHTDEP       - MAXIMUM RECORDED TEMPERATURE
MATR.         1                    : LOGUNIT      - NEUTRON MATRIX
RMT .C        11.1111              : MDTP         - TEMPERATURE OF MUD
NEUT.         1                    : NEUTRON      - NEUTRON TYPE
RESI.         0                    : RESIST       - RESISTIVITY TYPE
RMC .OHMM     5.73                 : RMC          - RESISTIVITY OF MUD CAKE
RMF .OHMM     5.46                 : RMF          - RESISTIVITY OF MUD FILTRATE
SUFT.C        -20.5556             : SUFT         - SURFACE TEMPERATURE
~A  DEPTH     RESD     PHIN     PHID       GR      CAL
# ...
  341.072    7.677    0.493    0.271   77.612  157.603
  341.322    7.956    0.502    0.267   77.965  157.595
  341.572    8.282    0.504    0.264   78.260  157.588
  341.822    8.341    0.488    0.266   79.447  157.580
  342.072    8.340    0.477    0.266   80.037  158.076
  342.322    8.465    0.464    0.261   80.529  158.069
  342.572    8.536    0.452    0.257   82.055  158.061
  342.822    8.566    0.444    0.252   83.362  158.053
  343.072    8.550    0.444    0.245   83.774  158.046
  343.322    8.488    0.455    0.230   83.292  158.038
  343.572    8.335    0.470    0.233   81.201  158.029
  343.822    8.209    0.468    0.226   80.948  158.441
  344.072    8.051    0.460    0.223   82.683  158.518
  344.322    7.935    0.458    0.223   84.227  158.914
  344.572    7.863    0.466    0.228   84.759  159.713
  344.822    7.750    0.480    0.242   84.754  160.514
  345.072    7.749    0.485    0.236   85.046  161.008
  345.322    7.748    0.489    0.234   82.558  161.840
  345.572    7.747    0.493    0.228   80.269  162.305
  345.822    7.858    0.479    0.219   79.192  162.096
  346.072    8.074    0.455    0.211   79.903  161.079
  346.322    8.250    0.457    0.206   82.045  159.458
  346.572    8.324    0.480    0.233   85.615  161.970
  346.822    8.261    0.482    0.243   86.604  161.963
  347.072    8.114    0.473    0.239   88.765  161.954
  347.322    7.968    0.467    0.237   90.549  162.351
  347.572    7.839    0.471    0.243   91.200  163.353
  347.822    7.670    0.485    0.249   90.956  164.959
  348.072    7.532    0.459    0.238   90.056  166.463
  348.322    7.474    0.474    0.239   88.810  169.399
  348.572    7.584    0.480    0.236   87.842  169.678
  348.822    7.859    0.477    0.230   86.764  167.854
  349.072    8.296    0.463    0.223   85.389  164.920
  349.322    8.858    0.445    0.214   83.478  162.895
  349.572    9.521    0.412    0.211   80.494  162.379
  349.822   10.566    0.401    0.270   81.978  161.951
  350.072   11.513    0.399    0.292   78.517  161.557
  350.322   12.342    0.400    0.303   77.202  161.348
  350.572   12.586    0.406    0.305   80.058  161.340
  350.822   11.714    0.420    0.286   84.345  161.332
  351.072   10.415    0.453    0.246   89.703  161.827
  351.322    9.801    0.454    0.240   87.463  162.241
  351.572    9.634    0.451    0.228   83.793  162.621
  351.822    9.702    0.441    0.216   81.405  163.016
  352.072   10.001    0.430    0.205   80.685  163.310
  352.322   10.600    0.433    0.199   79.251  163.304
  352.572   11.601    0.443    0.187   74.179  162.789
  352.822   12.780    0.431    0.176   72.436  162.361
  353.072   13.757    0.408    0.169   73.694  161.664
  353.322   14.584    0.385    0.178   76.431  161.252
  353.572   15.043    0.379    0.201   79.466  161.244
  353.822   14.725    0.421    0.220   81.507  161.236
  354.072   13.765    0.459    0.212   81.005  161.229
  354.322   12.701    0.465    0.187   75.756  161.221
  354.572   12.392    0.439    0.139   69.075  161.516
  354.822   12.832    0.379    0.117   66.330  161.912
  355.072   13.781    0.330    0.141   69.008  162.106
  355.322   14.415    0.393    0.211   75.717  161.692
  355.572   14.523    0.423    0.234   80.679  161.684
  355.822   14.209    0.449    0.228   85.204  161.677
  356.072   13.902    0.459    0.219   85.259  161.366
  356.322   13.200    0.462    0.210   84.420  161.157
  356.572   12.218    0.468    0.207   84.356  161.151
  356.822   11.214    0.482    0.222   84.877  161.225
  357.072   10.483    0.489    0.232   85.120  161.638
  357.322   10.182    0.497    0.224   84.401  161.630
  357.572    9.944    0.502    0.221   84.218  161.926
  357.822    9.730    0.506    0.221   84.213  161.918
  358.072    9.556    0.502    0.222   84.567  161.406
  358.322    9.500    0.479    0.222   86.339  160.673
  358.572    9.571    0.463    0.223   88.073  161.085
  358.822    9.639    0.461    0.223   87.353  162.692
  359.072    9.708    0.463    0.218   86.812  163.392
  359.322    9.742    0.464    0.212   87.523  163.586
  359.572    9.741    0.464    0.209   88.889  163.579
  359.822    9.725    0.470    0.213   88.347  163.654
  360.072    9.652    0.484    0.218   86.852  164.066
  360.322    9.581    0.491    0.222   87.086  164.462
  360.572    9.459    0.487    0.229   87.142  164.555
  360.822    9.390    0.472    0.221   86.899  164.749
  361.072    9.356    0.457    0.204   86.179  165.549
  361.322    9.192    0.461    0.199   84.594  167.810
  361.572    9.054    0.474    0.194   83.845  169.064
  361.822    9.053    0.491    0.203   83.363  167.441
  362.072    9.299    0.486    0.209   81.094  165.215
  362.322    9.843    0.457    0.218   78.229  163.593
  362.572   10.748    0.419    0.238   76.615  162.979
  362.822   12.411    0.403    0.274   79.153  162.885
  363.072   14.347    0.392    0.287   81.135  162.455
  363.322   16.418    0.415    0.290   78.270  162.447
  363.572   16.846    0.435    0.280   74.689  162.139
  363.822   16.053    0.455    0.274   70.990  161.930
  364.072   14.683    0.466    0.277   68.005  161.922
  364.322   13.310    0.434    0.293   67.006  161.913
  364.572   14.468    0.399    0.308   67.995  161.905
  364.822   15.431    0.395    0.309   67.991  161.898
  365.072   16.983    0.389    0.311   65.483  161.890
  365.322   19.115    0.380    0.314   62.736  161.882
  365.572   21.930    0.373    0.305   61.063  161.875
  365.822   26.163    0.366    0.247   60.472  161.866
  366.072   28.222    0.335    0.159   58.729  161.859
  366.322   32.071    0.283    0.111   57.293  162.657
  366.572   37.043    0.246    0.073   57.826  162.852
  366.822   41.715    0.244    0.055   59.610  162.643
  367.072   43.333    0.276    0.063   62.108  162.332
  367.322   38.359    0.339    0.100   65.113  162.491
  367.572   32.592    0.418    0.144   65.853  163.325
  367.822   26.487    0.388    0.117   62.509  163.720
  368.072   22.612    0.329    0.087   61.492  163.510
  368.322   21.038    0.290    0.058   62.442  162.696
  368.572   20.922    0.288    0.047   65.358  161.780
  368.822   20.792    0.323    0.093   72.187  161.940
  369.072   20.175    0.372    0.157   80.129  162.772
  369.322   19.453    0.387    0.171   78.693  162.765
  369.572   18.552    0.380    0.175   78.868  162.757
  369.822   17.899    0.384    0.182   80.056  162.547
  370.072   17.514    0.406    0.192   81.303  162.236
  370.322   16.979    0.428    0.197   81.248  162.228
  370.572   16.230    0.426    0.196   80.994  162.220
  370.822   15.765    0.424    0.184   82.419  162.213
  371.072   15.229    0.418    0.184   84.025  162.205
  371.322   14.577    0.421    0.190   85.451  162.399
  371.572   13.885    0.433    0.197   86.460  162.694
  371.822   13.257    0.442    0.206   86.683  162.769
  372.072   13.057    0.443    0.205   85.436  163.182
  372.322   12.682    0.454    0.200   84.956  163.174
  372.572   12.251    0.459    0.201   85.368  163.166
  372.822   11.771    0.455    0.208   86.198  163.158
  373.072   11.314    0.448    0.215   87.504  163.151
  373.322   10.907    0.452    0.211   90.081  163.143
  373.572   10.505    0.451    0.199   91.070  163.134
  373.822   10.129    0.458    0.208   90.827  163.126
  374.072    9.714    0.466    0.208   90.763  163.119
  374.322    9.473    0.473    0.201   90.401  163.112
  374.572    9.455    0.475    0.188   89.920  163.104
  374.822    9.635    0.464    0.171   90.203  163.094
  375.072    9.855    0.456    0.169   90.446  163.086
  375.322    9.997    0.460    0.185   90.441  163.079
  375.572   10.032    0.464    0.206   91.152  163.375
  375.822    9.958    0.468    0.220   91.744  163.569
  376.072    9.815    0.469    0.221   92.276  163.460
  376.322    9.673    0.465    0.212   93.850  163.047
  376.572    9.672    0.471    0.206   94.590  163.038
  376.822    9.671    0.476    0.204   93.870  163.031
  377.072    9.775    0.477    0.197   92.793  163.024
  377.322    9.916    0.476    0.186   91.954  163.016
