~VERSION INFORMATION
 VERS.                 2.0:   CWLS LOG ASCII STANDARD -VERSION 2.0
 WRAP.                  NO:   ONE LINE PER DEPTH STEP
~WELL INFORMATION BLOCK
#MNEM.UNIT           DATA                    DESCRIPTION OF MNEMONIC
#---------    -------------------            -------------------------------
# Generated from Intellog Unique Number	CW_79_81/WELL/2464
WELL.         TEXEX WABASCA                  : Well_name    - WELL
LOC .         00/10-07-081-24W4/0            : Location     - LOCATION
UWI .         00/10-07-081-24W4/0            : Uwi          - UNIQUE WELL ID
ENTR.         MAX                            : Entered      - ENTERED BY
SRVC.         WESTERN ATLAS                  : Scn          - SERVICE COMPANY
STRT.M        243.84                         : top_depth    - START DEPTH
STOP.M        453.84                         : bot_depth    - STOP DEPTH
STEP.M        0.25                           : increment    - STEP LENGTH
 NULL. -999.2500:NULL Value
~CURVE INFORMATION BLOCK
#MNEM UNIT       ERCB CURVE CODE    CURVE DESCRIPTION
#-----------   ------------------   ----------------------------------
DEPT.M        00 001 00 00         : DEPTH        - DEPTH
ILD .OHMM     00 120 00 00         : RESD         - DEEP RESISTIVITY (DIL)
NPHI.V/V      00 330 00 00         : PHIN         - NEUTRON POROSITY (SANDSTONE)
DPHI.V/V      00 890 00 00         : PHID         - DENSITY POROSITY (SANDSTONE)
GR  .API      00 310 00 00         : GR           - GAMMA RAY
CALI.MM       00 280 01 00         : CAL          - CALIPER
~PARAMETER INFORMATION
#MNEM.UNIT           DATA             DESCRIPTION OF MNEMONIC
#---------         -----------     ------------------------------
GL  .M        600.761              : gl           - GROUND LEVEL ELEVATION
EREF.M        604.418              : kb           - ELEVATION OF DEPTH REFERENCE
DATM.M        600.761              : datum        - DATUM ELEVATION
TDD .M        457.2                : tdd          - TOTAL DEPTH DRILLER
RUN .         ONE                  : Run          - RUN NUMBER
ENG .         BILL                 : Engineer     - RECORDING ENGINEER
WIT .         JIM                  : Witness      - WITNESSED BY
MUD .         GEL                  : Mud_type     - MUD TYPE
MATR.         SANDSTONE            : Logunit      - NEUTRON MATRIX
TMAX.C        26.6667              : BHT          - MAXIMUM RECORDED TEMPERATURE
BHTD.M        457.2                : BHTDEP       - MAXIMUM RECORDED TEMPERATURE
MATR.         1                    : LOGUNIT      - NEUTRON MATRIX
RMT .C        18.3333              : MDTP         - TEMPERATURE OF MUD
NEUT.         1                    : NEUTRON      - NEUTRON TYPE
RESI.         0                    : RESIST       - RESISTIVITY TYPE
RMC .OHMM     11                   : RMC          - RESISTIVITY OF MUD CAKE
RMF .OHMM     11                   : RMF          - RESISTIVITY OF MUD FILTRATE
SUFT.C        -20.5556             : SUFT         - SURFACE TEMPERATURE
~A  DEPTH     RESD     PHIN     PHID       GR      CAL
# ...
  426.340    8.520    0.349    0.118   72.558  239.003
  426.590    8.832    0.350    0.116   72.967  238.888
  426.840    9.169    0.346    0.109   73.924  238.446
  427.090    9.502    0.344    0.102   72.507  239.217
  427.340    9.584    0.347    0.110   70.563  240.282
  427.590    9.402    0.352    0.120   67.974  241.642
  427.840    8.973    0.360    0.121   66.028  243.101
  428.090    8.288    0.373    0.102   67.657  244.343
  428.340    8.036    0.370    0.094   68.858  244.726
  428.590    8.030    0.358    0.089   71.183  244.703
  428.840    8.290    0.349    0.081   73.157  243.786
  429.090    8.655    0.339    0.071   69.397  242.571
  429.340    8.989    0.330    0.085   63.474  241.653
  429.590    9.194    0.329    0.175   69.170  241.785
  429.840    9.258    0.343    0.157   75.490  242.586
  430.090    9.456    0.342    0.139   76.413  241.765
  430.340    9.659    0.337    0.134   74.175  240.352
  430.590    9.937    0.333    0.134   69.947  238.940
  430.840   10.389    0.330    0.138   66.012  237.727
  431.090   11.384    0.326    0.162   66.245  236.337
  431.340   12.570    0.324    0.188   68.667  235.490
  431.590   14.294    0.315    0.213   70.525  234.669
  431.840   16.521    0.305    0.238   69.048  233.848
  432.090   20.041    0.289    0.263   58.032  233.227
  432.340   25.912    0.266    0.288   43.156  232.805
  432.590   36.240    0.246    0.309   41.579  232.380
  432.840   48.714    0.239    0.301   39.613  232.353
  433.090   50.477    0.238    0.296   39.130  231.933
  433.340   50.357    0.237    0.293   39.698  232.106
  433.590   49.227    0.240    0.287   40.736  231.090
  433.840   47.688    0.245    0.278   41.716  228.687
  434.090   45.081    0.250    0.259   42.410  226.607
  434.340   41.160    0.247    0.253   43.613  228.229
  434.590   34.922    0.257    0.250   44.299  230.979
  434.840   30.378    0.274    0.246   44.459  232.238
  435.090   27.258    0.288    0.237   44.794  232.607
  435.340   25.163    0.296    0.221   45.654  232.583
  435.590   23.316    0.300    0.190   47.676  232.799
  435.840   21.449    0.308    0.137   50.828  234.011
  436.090   19.183    0.303    0.149   60.643  236.761
  436.340   17.767    0.307    0.190   70.808  236.241
  436.590   17.008    0.312    0.215   68.101  234.627
  436.840   16.901    0.313    0.218   54.806  233.607
  437.090   17.829    0.300    0.228   48.410  234.454
  437.340   18.795    0.290    0.238   46.931  234.839
  437.590   19.902    0.282    0.251   45.277  232.830
  437.840   20.970    0.279    0.259   44.325  231.717
  438.090   21.272    0.281    0.260   43.374  231.892
  438.340   20.480    0.288    0.253   42.364  233.154
  438.590   17.995    0.302    0.242   41.635  234.707
  438.840   14.499    0.315    0.227   40.399  234.677
  439.090   13.361    0.330    0.215   40.151  234.255
  439.340   12.670    0.335    0.206   42.533  234.428
  439.590   12.347    0.338    0.194   45.209  234.601
  439.840   12.403    0.343    0.177   47.299  234.676
  440.090   13.140    0.354    0.151   49.385  235.124
  440.340   14.175    0.361    0.136   49.371  235.509
  440.590   14.797    0.368    0.125   48.889  235.880
  440.840   14.384    0.370    0.113   50.334  236.246
  441.090   13.243    0.368    0.117   53.478  236.615
  441.340   11.598    0.363    0.135   58.321  236.889
  441.590    9.510    0.362    0.153   66.017  236.940
  441.840    8.947    0.366    0.145   70.632  237.329
  442.090    8.811    0.369    0.155   59.149  237.303
  442.340    8.966    0.365    0.171   58.549  236.086
  442.590    9.487    0.355    0.180   62.045  234.672
  442.840   10.663    0.343    0.179   65.189  233.755
  443.090   13.788    0.329    0.170   65.140  233.889
  443.340   15.826    0.323    0.155   61.469  234.690
  443.590   19.294    0.323    0.145   59.112  234.657
  443.840   21.869    0.328    0.134   58.160  234.338
  444.090   23.782    0.330    0.122   57.910  234.116
  444.340   25.487    0.329    0.106   58.187  234.089
  444.590   27.008    0.325    0.087   59.244  234.143
  444.840   26.990    0.319    0.092   58.739  234.529
  445.090   24.502    0.320    0.116   54.978  234.500
  445.340   22.129    0.333    0.140   53.325  234.474
  445.590   20.045    0.348    0.173   55.533  234.250
  445.840   18.337    0.356    0.200   61.310  234.125
  446.090   16.695    0.350    0.178   67.388  234.886
  446.340   15.130    0.342    0.168   62.741  234.859
  446.590   11.268    0.355    0.164   63.425  234.040
  446.840    8.797    0.370    0.162   64.814  233.816
  447.090    7.048    0.376    0.161   67.022  233.790
  447.340    5.584    0.373    0.159   69.640  233.765
  447.590    4.237    0.367    0.158   71.384  233.654
  447.840    4.202    0.363    0.160   69.663  233.214
  448.090    4.354    0.358    0.166   67.542  232.790
  448.340    4.708    0.349    0.178   68.755  234.742
  448.590    5.329    0.346    0.204   72.366  236.699
  448.840    6.204    0.345    0.236   75.861  237.370
  449.090    7.149    0.325    0.248   75.335  236.378
  449.340    8.142    0.296    0.259   76.295  235.526
  449.590    9.258    0.302    0.269   74.174  234.710
  449.840    9.898    0.312    0.276   72.229  234.485
  450.090   10.002    0.320    0.284   71.278  234.855
  450.340    9.554    0.323    0.295   70.969  235.722
  450.590    8.380    0.325    0.303   69.925  236.959
  450.840    7.537    0.335    0.285   70.644  237.342
  451.090    6.894    0.334    0.248   71.561  238.114
  451.340    6.636    0.331    0.213   73.361  237.693
  451.590    6.560    0.324    0.194   77.442  236.477
  451.840    6.567    0.314    0.191   82.108  235.162
  452.090    6.640    0.304    0.180   82.070  235.067
  452.340    6.788    0.307    0.150   79.615  236.691
  452.590    6.685    0.307    0.128   79.366  237.854
  452.840    6.584    0.310    0.108   79.818  238.123
  453.090    6.579    0.315    0.105   81.089  237.701
  453.340    6.660    0.319    0.116   82.771  237.083
  453.590    6.713    0.323    0.124   83.873  237.052
  453.840    6.758    0.327    0.126   83.614  237.025
