~VERSION INFORMATION
 VERS.                 2.0:   CWLS LOG ASCII STANDARD -VERSION 2.0
 WRAP.                  NO:   ONE LINE PER DEPTH STEP
~WELL INFORMATION BLOCK
#MNEM.UNIT           DATA                    DESCRIPTION OF MNEMONIC
#---------    -------------------            -------------------------------
# Generated from Intellog Unique Number	CS_77_79/WELL/991
WELL.         HOME OIL COMPANY LIMITED       : Well_name    - WELL
LOC .         00/11-07-077-06W4/0            : Location     - LOCATION
UWI .         00/11-07-077-06W4/0            : Uwi          - UNIQUE WELL ID
ENTR.         SP                             : Entered      - ENTERED BY
SRVC.         SCHLUMBERGER                   : Scn          - SERVICE COMPANY
STRT.M        140.208                        : top_depth    - START DEPTH
STOP.M        368.458                        : bot_depth    - STOP DEPTH
STEP.M        0.25                           : increment    - STEP LENGTH
 NULL. -999.2500:NULL Value
~CURVE INFORMATION BLOCK
#MNEM UNIT       ERCB CURVE CODE    CURVE DESCRIPTION
#-----------   ------------------   ----------------------------------
DEPT.M        00 001 00 00         : DEPTH        - DEPTH
GR  .API      00 310 00 00         : GR           - GAMMA RAY
DPHI.V/V      00 890 00 00         : PHID         - DENSITY POROSITY (SANDSTONE)
NPHI.V/V      00 330 00 00         : PHIN         - NEUTRON POROSITY (SANDSTONE)
ILD .OHMM     00 120 00 00         : RESD         - DEEP RESISTIVITY (DIL)
~PARAMETER INFORMATION
#MNEM.UNIT           DATA             DESCRIPTION OF MNEMONIC
#---------         -----------     ------------------------------
GL  .M        561.96               : gl           - GROUND LEVEL ELEVATION
EREF.M        565.8                : kb           - ELEVATION OF DEPTH REFERENCE
DATM.M        561.96               : datum        - DATUM ELEVATION
TDD .M        372.466              : tdd          - TOTAL DEPTH DRILLER
RUN .         ONE                  : Run          - RUN NUMBER
ENG .         BILL                 : Engineer     - RECORDING ENGINEER
WIT .         JIM                  : Witness      - WITNESSED BY
MUD .         GEL                  : Mud_type     - MUD TYPE
MATR.         SANDSTONE            : Logunit      - NEUTRON MATRIX
TMAX.C        15.5556              : BHT          - MAXIMUM RECORDED TEMPERATURE
BHTD.M        372.466              : BHTDEP       - MAXIMUM RECORDED TEMPERATURE
MATR.         1                    : LOGUNIT      - NEUTRON MATRIX
RMT .C        25                   : MDTP         - TEMPERATURE OF MUD
NEUT.         1                    : NEUTRON      - NEUTRON TYPE
RESI.         0                    : RESIST       - RESISTIVITY TYPE
RMC .OHMM     0.25                 : RMC          - RESISTIVITY OF MUD CAKE
RMF .OHMM     0.25                 : RMF          - RESISTIVITY OF MUD FILTRATE
SUFT.C        15                   : SUFT         - SURFACE TEMPERATURE
~A  DEPTH       GR     PHID     PHIN     RESD
# ...
  314.208   99.917    0.187    0.384    8.101
  314.458  100.693    0.194    0.396    8.281
  314.708   96.672    0.204    0.402    8.144
  314.958   92.499    0.209    0.397    7.897
  315.208   89.463    0.215    0.402    7.636
  315.458   84.867    0.227    0.403    7.299
  315.708   86.252    0.233    0.378    7.084
  315.958   93.387    0.208    0.392    6.874
  316.208   95.143    0.176    0.408    6.663
  316.458   96.698    0.191    0.415    6.695
  316.708   96.627    0.205    0.421    6.907
  316.958   97.236    0.212    0.408    7.119
  317.208   96.136    0.211    0.374    7.343
  317.458   98.406    0.184    0.381    7.419
  317.708   97.727    0.160    0.409    7.180
  317.958   87.819    0.165    0.414    7.118
  318.208   82.849    0.170    0.421    7.018
  318.458   85.976    0.199    0.407    7.007
  318.708   92.028    0.217    0.408    7.182
  318.958   96.210    0.205    0.413    7.396
  319.208   96.254    0.186    0.398    7.562
  319.458   90.904    0.192    0.404    7.542
  319.708   88.085    0.204    0.414    7.308
  319.958   91.244    0.201    0.395    7.094
  320.208   92.345    0.179    0.409    6.886
  320.458   92.900    0.189    0.416    6.786
  320.708   94.044    0.205    0.427    6.940
  320.958   96.450    0.188    0.433    7.142
  321.208   97.413    0.189    0.420    7.506
  321.458   97.169    0.201    0.410    7.702
  321.708   96.385    0.182    0.401    7.689
  321.958   95.055    0.169    0.389    7.692
  322.208   90.764    0.166    0.382    7.706
  322.458   92.218    0.168    0.383    7.952
  322.708   89.787    0.173    0.382    8.195
  322.958   88.801    0.184    0.383    8.448
  323.208   91.556    0.195    0.389    8.587
  323.458   92.164    0.200    0.392    8.534
  323.708   89.741    0.195    0.402    8.264
  323.958   87.825    0.206    0.430    7.868
  324.208   88.419    0.197    0.431    7.675
  324.458   89.126    0.195    0.423    7.678
  324.708   91.655    0.188    0.429    8.164
  324.958   93.182    0.180    0.437    8.447
  325.208   86.550    0.192    0.431    8.874
  325.458   79.944    0.206    0.415    8.894
  325.708   77.371    0.222    0.387    8.903
  325.958   82.060    0.195    0.406    8.780
  326.208   83.564    0.199    0.420    8.594
  326.458   83.888    0.210    0.410    8.255
  326.708   87.788    0.207    0.390    8.169
  326.958   92.118    0.192    0.394    7.907
  327.208   93.295    0.187    0.404    7.820
  327.458   92.019    0.172    0.409    7.802
  327.708   89.401    0.168    0.403    7.972
  327.958   89.081    0.176    0.392    8.095
  328.208   88.732    0.182    0.404    8.289
  328.458   88.432    0.186    0.399    8.103
  328.708   89.947    0.178    0.388    7.993
  328.958   91.729    0.180    0.392    7.802
  329.208   93.428    0.187    0.394    7.803
  329.458   96.449    0.185    0.403    7.651
  329.708   98.712    0.189    0.419    7.832
  329.958  101.047    0.191    0.424    7.818
  330.208  101.235    0.183    0.416    7.960
  330.458  100.637    0.188    0.406    8.201
  330.708   93.414    0.181    0.397    8.704
  330.958   82.405    0.189    0.387    9.582
  331.208   77.001    0.176    0.378   10.567
  331.458   71.401    0.190    0.373   11.220
  331.708   67.942    0.213    0.382   12.075
  331.958   62.362    0.243    0.393   12.662
  332.208   60.341    0.247    0.403   13.460
  332.458   62.886    0.260    0.410   14.025
  332.708   61.903    0.265    0.413   13.539
  332.958   64.648    0.274    0.393   12.686
  333.208   70.869    0.274    0.365   12.534
  333.458   73.989    0.236    0.364   12.372
  333.708   68.470    0.216    0.379   12.369
  333.958   66.369    0.237    0.394   12.368
  334.208   66.893    0.257    0.400   12.372
  334.458   64.912    0.272    0.389   11.778
  334.708   62.861    0.265    0.391   10.985
  334.958   63.373    0.284    0.390   10.514
  335.208   67.975    0.264    0.379    9.973
  335.458   71.783    0.228    0.364    9.914
  335.708   75.276    0.212    0.338    9.906
  335.958   76.522    0.217    0.332    9.837
  336.208   77.543    0.222    0.357    9.727
  336.458   77.337    0.201    0.373    9.405
  336.708   76.391    0.204    0.378    9.290
  336.958   78.030    0.219    0.375    8.872
  337.208   81.163    0.229    0.372    8.775
  337.458   86.473    0.213    0.377    8.751
  337.708   88.641    0.199    0.378    8.857
  337.958   91.009    0.173    0.373    9.367
  338.208   91.824    0.172    0.397   10.137
  338.458   88.258    0.184    0.410   11.482
  338.708   74.742    0.204    0.418   12.958
  338.958   64.226    0.235    0.427   14.947
  339.208   55.414    0.311    0.407   16.686
  339.458   54.014    0.319    0.396   17.754
  339.708   56.507    0.299    0.390   16.877
  339.958   61.028    0.275    0.384   15.076
  340.208   63.949    0.257    0.386   13.336
  340.458   67.871    0.239    0.393   13.044
  340.708   65.632    0.242    0.392   13.017
  340.958   64.127    0.252    0.387   13.300
  341.208   63.779    0.260    0.397   13.502
  341.458   62.343    0.273    0.402   13.427
  341.708   62.528    0.295    0.397   13.023
  341.958   66.458    0.275    0.391   12.264
  342.208   70.865    0.249    0.386   11.420
  342.458   67.571    0.237    0.379   10.622
  342.708   67.401    0.259    0.371    9.680
  342.958   71.058    0.248    0.373    9.109
  343.208   75.447    0.228    0.383    9.020
  343.458   77.990    0.197    0.381    9.132
  343.708   79.668    0.196    0.385    9.231
  343.958   78.521    0.224    0.392    9.199
  344.208   77.331    0.243    0.387    9.087
  344.458   80.299    0.243    0.378    9.233
  344.708   83.470    0.229    0.366    9.319
  344.958   87.892    0.207    0.380   10.011
  345.208   86.992    0.215    0.390   10.279
  345.458   79.023    0.217    0.403   10.463
  345.708   76.991    0.250    0.414   10.118
  345.958   76.587    0.246    0.419    9.511
  346.208   74.853    0.244    0.399    8.492
  346.458   75.960    0.261    0.372    7.897
  346.708   87.244    0.252    0.397    7.361
  346.958   92.630    0.234    0.413    7.145
  347.208   95.388    0.210    0.419    6.946
  347.458   96.305    0.204    0.413    7.078
  347.708   95.355    0.192    0.421    7.086
  347.958   90.591    0.217    0.416    7.085
  348.208   90.567    0.220    0.406    7.197
  348.458   93.989    0.213    0.400    7.217
  348.708   96.911    0.213    0.395    7.220
  348.958   98.041    0.223    0.389    7.206
  349.208  103.148    0.227    0.398    7.373
  349.458  111.128    0.210    0.398    7.350
  349.708  116.203    0.212    0.397    7.633
  349.958  112.280    0.215    0.393    7.779
  350.208  115.038    0.216    0.386    7.897
  350.458  119.583    0.186    0.385    8.153
  350.708  120.071    0.181    0.395    8.206
  350.958  114.033    0.168    0.396    8.208
  351.208  100.804    0.202    0.398    8.208
  351.458   99.415    0.227    0.407    8.207
  351.708  102.444    0.241    0.414    8.203
  351.958  105.329    0.249    0.392    8.157
  352.208  105.287    0.248    0.372    7.901
  352.458   98.490    0.246    0.368    7.438
  352.708   91.991    0.220    0.375    7.052
  352.958   92.445    0.195    0.366    7.203
  353.208   82.074    0.198    0.388    7.744
  353.458   65.534    0.234    0.409    8.327
  353.708   51.029    0.288    0.435    9.274
  353.958   41.695    0.299    0.414   10.238
  354.208   38.770    0.341    0.416   11.274
  354.458   38.950    0.343    0.439   12.132
  354.708   39.558    0.337    0.432   10.303
  354.958   44.473    0.343    0.412    8.539
  355.208   53.820    0.349    0.407    6.881
  355.458   56.915    0.328    0.419    5.569
  355.708   58.502    0.311    0.422    5.172
  355.958   57.786    0.298    0.417    5.178
  356.208   49.812    0.294    0.401    5.199
  356.458   44.938    0.305    0.396    5.183
  356.708   43.771    0.318    0.402    4.838
  356.958   44.478    0.314    0.421    4.417
  357.208   39.825    0.332    0.423    3.964
  357.458   37.397    0.349    0.403    3.601
