~VERSION INFORMATION
 VERS.                 2.0:   CWLS LOG ASCII STANDARD -VERSION 2.0
 WRAP.                  NO:   ONE LINE PER DEPTH STEP
~WELL INFORMATION BLOCK
#MNEM.UNIT           DATA                    DESCRIPTION OF MNEMONIC
#---------    -------------------            -------------------------------
# Generated from Intellog Unique Number	CS_77_79/WELL/954
WELL.         MESA PORTAGE                   : Well_name    - WELL
LOC .         00/10-14-078-18W4/0            : Location     - LOCATION
UWI .         00/10-14-078-18W4/0            : Uwi          - UNIQUE WELL ID
ENTR.         JHS                            : Entered      - ENTERED BY
SRVC.         SCHLUMBERGER                   : Scn          - SERVICE COMPANY
STRT.M        179.832                        : top_depth    - START DEPTH
STOP.M        380.832                        : bot_depth    - STOP DEPTH
STEP.M        0.25                           : increment    - STEP LENGTH
 NULL. -999.2500:NULL Value
~CURVE INFORMATION BLOCK
#MNEM UNIT       ERCB CURVE CODE    CURVE DESCRIPTION
#-----------   ------------------   ----------------------------------
DEPT.M        00 001 00 00         : DEPTH        - DEPTH
GR  .API      00 310 00 00         : GR           - GAMMA RAY
DPHI.V/V      00 890 00 00         : PHID         - DENSITY POROSITY (SANDSTONE)
NPHI.V/V      00 330 00 00         : PHIN         - NEUTRON POROSITY (SANDSTONE)
ILD .OHMM     00 120 00 00         : RESD         - DEEP RESISTIVITY (DIL)
~PARAMETER INFORMATION
#MNEM.UNIT           DATA             DESCRIPTION OF MNEMONIC
#---------         -----------     ------------------------------
GL  .M        551.139              : gl           - GROUND LEVEL ELEVATION
EREF.M        554.553              : kb           - ELEVATION OF DEPTH REFERENCE
DATM.M        554.553              : datum        - DATUM ELEVATION
TDD .M        390.144              : tdd          - TOTAL DEPTH DRILLER
RUN .         ONE                  : Run          - RUN NUMBER
ENG .         BILL                 : Engineer     - RECORDING ENGINEER
WIT .         JIM                  : Witness      - WITNESSED BY
MUD .         GEL                  : Mud_type     - MUD TYPE
MATR.         SANDSTONE            : Logunit      - NEUTRON MATRIX
TMAX.C        60                   : BHT          - MAXIMUM RECORDED TEMPERATURE
BHTD.M        390.144              : BHTDEP       - MAXIMUM RECORDED TEMPERATURE
MATR.         1                    : LOGUNIT      - NEUTRON MATRIX
RMT .C        25                   : MDTP         - TEMPERATURE OF MUD
NEUT.         1                    : NEUTRON      - NEUTRON TYPE
RESI.         0                    : RESIST       - RESISTIVITY TYPE
RMC .OHMM     0.25                 : RMC          - RESISTIVITY OF MUD CAKE
RMF .OHMM     0.25                 : RMF          - RESISTIVITY OF MUD FILTRATE
SUFT.C        15                   : SUFT         - SURFACE TEMPERATURE
~A  DEPTH       GR     PHID     PHIN     RESD
  179.832   76.234    0.273    0.636   14.378
  180.082   73.083    0.273    0.638   14.392
  180.332   69.014    0.273    0.614   14.416
  180.582   68.265    0.272    0.616   14.415
  180.832   67.973    0.271    0.616   14.743
  181.082   66.851    0.270    0.616   14.738
  181.332   65.366    0.269    0.616   14.744
  181.582   63.485    0.270    0.616   14.652
  181.832   60.788    0.272    0.617   14.190
  182.082   58.747    0.277    0.616   13.319
  182.332   58.720    0.317    0.616   12.873
  182.582   60.454    0.301    0.617   13.032
  182.832   60.963    0.293    0.617   14.907
  183.082   58.777    0.288    0.617   20.488
  183.332   54.835    0.278    0.617   20.979
  183.582   58.458    0.278    0.617   14.503
  183.832   61.998    0.266    0.617   12.788
  184.082   62.895    0.258    0.617   13.723
  184.332   62.883    0.263    0.616   15.283
  184.582   57.872    0.279    0.615   16.191
  184.832   53.577    0.303    0.614   15.902
  185.082   55.949    0.299    0.614   15.809
  185.332   55.151    0.420    0.613   15.006
  185.582   42.849    0.432    0.614   15.227
  185.832   41.416    0.353    0.614   16.198
  186.082   43.393    0.323    0.614   16.564
  186.332   48.922    0.336    0.615   15.936
  186.582   55.909    0.347    0.615   14.718
  186.832   63.331    0.347    0.616   14.082
  187.082   73.229    0.327    0.616   13.358
  187.332   88.370    0.317    0.617   13.311
  187.582   98.216    0.289    0.616   13.117
  187.832  102.995    0.259    0.616   12.149
  188.082   97.967    0.258    0.618   11.246
  188.332   86.762    0.286    0.617   10.910
  188.582   73.949    0.319    0.619   10.959
  188.832   74.508    0.310    0.620   11.329
  189.082   79.252    0.280    0.620   11.612
  189.332   69.148    0.282    0.622   12.786
  189.582   59.680    0.279    0.622   14.182
  189.832   53.781    0.292    0.623   15.698
  190.082   51.124    0.299    0.623   17.081
  190.332   54.828    0.314    0.623   17.861
  190.582   61.454    0.312    0.623   17.919
  190.832   65.130    0.291    0.623   17.535
  191.082   65.629    0.250    0.623   16.739
  191.332   64.116    0.227    0.623   16.056
  191.582   66.046    0.241    0.623   15.750
  191.832   68.356    0.250    0.623   15.477
  192.082   67.581    0.268    0.623   15.583
  192.332   63.339    0.287    0.623   16.124
  192.582   59.060    0.307    0.622   16.570
  192.832   56.302    0.320    0.619   16.847
  193.082   56.630    0.315    0.616   17.119
  193.332   59.691    0.279    0.611   17.167
  193.582   63.305    0.261    0.594   16.772
  193.832   64.710    0.283    0.544   16.032
  194.082   65.436    0.271    0.510   14.519
  194.332   69.370    0.236    0.480   13.121
  194.582   76.019    0.198    0.461   11.387
  194.832   80.164    0.162    0.451   10.148
  195.082   86.470    0.185    0.481    8.569
  195.332   91.128    0.271    0.552    7.286
  195.582   91.677    0.294    0.589    6.889
  195.832   89.457    0.321    0.606    6.909
  196.082   86.000    0.333    0.612    7.446
  196.332   85.692    0.315    0.614    9.575
  196.582   83.999    0.333    0.616   12.050
  196.832   84.167    0.324    0.619   13.567
  197.082   86.873    0.257    0.619   14.483
  197.332   92.658    0.269    0.620   14.479
  197.582   94.595    0.256    0.620   13.966
  197.832   97.048    0.248    0.620   13.426
  198.082   97.130    0.230    0.619   13.207
  198.332   93.375    0.227    0.618   13.195
  198.582   85.771    0.274    0.616   13.770
  198.832   79.861    0.261    0.612   14.355
  199.082   72.215    0.255    0.599   15.809
  199.332   64.153    0.276    0.586   17.280
  199.582   47.600    0.285    0.576   17.948
  199.832   30.172    0.308    0.573   19.457
  200.082   31.396    0.319    0.566   20.066
  200.332   37.993    0.293    0.558   20.769
  200.582   41.539    0.280    0.546   20.889
  200.832   41.225    0.296    0.527   20.010
  201.082   36.597    0.298    0.492   18.101
  201.332   38.340    0.311    0.431   16.391
  201.582   47.337    0.320    0.439   15.135
  201.832   55.860    0.320    0.438   13.446
  202.082   62.669    0.237    0.457   12.497
  202.332   70.969    0.232    0.503   11.667
  202.582   74.707    0.254    0.554   11.101
  202.832   77.795    0.236    0.593   10.991
  203.082   83.633    0.226    0.612   11.008
  203.332   86.374    0.236    0.616   11.019
  203.582   86.395    0.228    0.617   11.037
  203.832   82.769    0.226    0.617   10.578
  204.082   75.995    0.255    0.617    9.616
  204.332   73.149    0.289    0.618    7.996
  204.582   93.637    0.252    0.618    6.551
  204.832  103.038    0.238    0.618    5.318
  205.082  109.058    0.224    0.619    4.509
  205.332  109.507    0.224    0.619    3.880
  205.582  106.661    0.243    0.619    3.614
  205.832  103.653    0.233    0.619    3.576
  206.082  102.981    0.200    0.619    3.553
  206.332  106.271    0.208    0.619    3.562
  206.582  109.927    0.170    0.620    3.498
  206.832  110.456    0.213    0.620    3.346
  207.082  113.790    0.219    0.621    3.194
  207.332  114.118    0.231    0.621    3.189
  207.582  114.764    0.225    0.623    3.262
  207.832  118.989    0.234    0.624    3.392
  208.082  120.773    0.241    0.624    3.891
  208.332  117.761    0.275    0.625    4.250
  208.582  108.487    0.301    0.626    5.207
  208.832  106.236    0.323    0.626    6.211
  209.082  106.207    0.307    0.627    7.724
  209.332  106.057    0.314    0.627    8.276
  209.582  108.078    0.339    0.629    8.068
  209.832  104.439    0.338    0.633    7.705
  210.082   98.692    0.321    0.638    7.188
  210.332  100.274    0.341    0.638    6.698
  210.582  102.488    0.334    0.578    6.487
  210.832  101.225    0.333    0.472    6.587
  211.082   98.820    0.284    0.373    6.892
  211.332   97.236    0.300    0.428    7.806
  211.582   91.719    0.356    0.540    8.777
  211.832   89.099    0.285    0.596   10.217
  212.082   89.525    0.272    0.608   11.897
  212.332   91.030    0.259    0.613   12.175
  212.582   92.589    0.272    0.615   11.570
  212.832   96.692    0.294    0.616   11.006
  213.082   97.231    0.272    0.612   10.262
  213.332   92.934    0.289    0.582   10.134
  213.582   93.927    0.317    0.550    9.926
  213.832   96.842    0.334    0.569    9.958
  214.082  102.204    0.359    0.528    9.974
  214.332  107.669    0.265    0.489   10.013
  214.582  112.613    0.268    0.477    9.623
  214.832  115.761    0.265    0.487    9.128
  215.082  117.842    0.260    0.507    8.522
  215.332  113.227    0.271    0.528    8.303
  215.582   94.321    0.330    0.544    8.545
  215.832   89.277    0.381    0.562    9.261
  216.082   83.207    0.390    0.525   10.335
  216.332   76.827    0.357    0.492   11.726
  216.582   68.892    0.302    0.479   12.987
  216.832   62.606    0.292    0.498   14.595
  217.082   61.207    0.279    0.537   14.723
  217.332   59.824    0.272    0.538   14.449
  217.582   58.908    0.289    0.517   13.823
  217.832   56.082    0.297    0.495   13.206
  218.082   54.946    0.312    0.502   12.503
  218.332   58.276    0.319    0.527   11.447
  218.582   63.075    0.321    0.500   10.641
  218.832   66.583    0.307    0.495   10.042
  219.082   66.311    0.318    0.502    9.806
  219.332   65.955    0.324    0.514   10.062
  219.582   64.423    0.333    0.507   10.528
  219.832   61.227    0.352    0.483   11.551
  220.082   58.627    0.357    0.476   12.682
  220.332   55.656    0.344    0.505   13.582
  220.582   53.796    0.353    0.553   13.634
  220.832   58.869    0.341    0.596   13.380
  221.082   61.558    0.354    0.605   13.036
  221.332   54.240    0.343    0.581   12.064
  221.582   54.518    0.344    0.540   11.159
  221.832   57.876    0.337    0.521   11.299
  222.082   62.437    0.307    0.517   11.079
  222.332   63.897    0.259    0.511   10.263
  222.582   61.339    0.224    0.453    9.098
  222.832   59.655    0.196    0.412    7.850
  223.082   64.277    0.189    0.490    6.868
