~VERSION INFORMATION
 VERS.                 2.0:   CWLS LOG ASCII STANDARD -VERSION 2.0
 WRAP.                  NO:   ONE LINE PER DEPTH STEP
~WELL INFORMATION BLOCK
#MNEM.UNIT           DATA                    DESCRIPTION OF MNEMONIC
#---------    -------------------            -------------------------------
# Generated from Intellog Unique Number	CS_67_68/WELL/2207
WELL.         BVX ATMORE                     : Well_name    - WELL
LOC .         00/11-12-067-16W4/0            : Location     - LOCATION
UWI .         00/11-12-067-16W4/0            : Uwi          - UNIQUE WELL ID
ENTR.         SP                             : Entered      - ENTERED BY
SRVC.         SCHLUMBERGER                   : Scn          - SERVICE COMPANY
STRT.M        374.904                        : top_depth    - START DEPTH
STOP.M        563.654                        : bot_depth    - STOP DEPTH
STEP.M        0.25                           : increment    - STEP LENGTH
 NULL. -999.2500:NULL Value
~CURVE INFORMATION BLOCK
#MNEM UNIT       ERCB CURVE CODE    CURVE DESCRIPTION
#-----------   ------------------   ----------------------------------
DEPT.M        00 001 00 00         : DEPTH        - DEPTH
CALI.MM       00 280 01 00         : CAL          - CALIPER
GR  .API      00 310 00 00         : GR           - GAMMA RAY
DPHI.V/V      00 890 00 00         : PHID         - DENSITY POROSITY (SANDSTONE)
NPHI.V/V      00 330 00 00         : PHIN         - NEUTRON POROSITY (SANDSTONE)
ILD .OHMM     00 120 00 00         : RESD         - DEEP RESISTIVITY (DIL)
~PARAMETER INFORMATION
#MNEM.UNIT           DATA             DESCRIPTION OF MNEMONIC
#---------         -----------     ------------------------------
GL  .M        612.953              : gl           - GROUND LEVEL ELEVATION
EREF.M        616.001              : kb           - ELEVATION OF DEPTH REFERENCE
DATM.M        616.001              : datum        - DATUM ELEVATION
TDD .M        567.233              : tdd          - TOTAL DEPTH DRILLER
RUN .         ONE                  : Run          - RUN NUMBER
ENG .         BILL                 : Engineer     - RECORDING ENGINEER
WIT .         JIM                  : Witness      - WITNESSED BY
MUD .         GEL                  : Mud_type     - MUD TYPE
MATR.         SANDSTONE            : Logunit      - NEUTRON MATRIX
TMAX.C        20                   : BHT          - MAXIMUM RECORDED TEMPERATURE
BHTD.M        567.538              : BHTDEP       - MAXIMUM RECORDED TEMPERATURE
MATR.         1                    : LOGUNIT      - NEUTRON MATRIX
RMT .C        25                   : MDTP         - TEMPERATURE OF MUD
NEUT.         1                    : NEUTRON      - NEUTRON TYPE
RESI.         0                    : RESIST       - RESISTIVITY TYPE
RMC .OHMM     0.25                 : RMC          - RESISTIVITY OF MUD CAKE
RMF .OHMM     0.25                 : RMF          - RESISTIVITY OF MUD FILTRATE
SUFT.C        15                   : SUFT         - SURFACE TEMPERATURE
~A  DEPTH      CAL       GR     PHID     PHIN     RESD
# ...
  447.904  162.967   86.633    0.269    0.432    2.320
  448.154  161.584   86.906    0.269    0.431    2.246
  448.404  160.618   88.790    0.269    0.427    2.202
  448.654  160.323   89.220    0.269    0.420    2.194
  448.904  160.256   88.475    0.277    0.407    2.213
  449.154  160.344   85.572    0.285    0.441    2.230
  449.404  160.335   84.839    0.294    0.455    2.268
  449.654  160.181   85.912    0.293    0.442    2.320
  449.904  159.780   87.988    0.283    0.450    2.362
  450.154  159.942   91.872    0.274    0.446    2.406
  450.404  160.539   98.302    0.260    0.422    2.462
  450.654  164.315  104.746    0.241    0.411    2.526
  450.904  168.244  109.176    0.219    0.439    2.575
  451.154  171.429  111.910    0.209    0.463    2.619
  451.404  172.906  109.636    0.233    0.485    2.652
  451.654  168.558  103.034    0.256    0.493    2.661
  451.904  163.889   99.006    0.267    0.474    2.697
  452.154  160.676   98.593    0.271    0.472    2.752
  452.404  159.715   99.373    0.261    0.475    2.823
  452.654  159.553   99.316    0.255    0.465    2.895
  452.904  159.443   98.256    0.256    0.464    2.941
  453.154  159.361   96.626    0.245    0.473    2.926
  453.404  159.240   95.153    0.236    0.485    2.864
  453.654  159.220   94.237    0.235    0.491    2.727
  453.904  159.125   90.874    0.247    0.500    2.591
  454.154  159.134   89.957    0.256    0.491    2.457
  454.404  159.309   90.766    0.261    0.468    2.343
  454.654  159.351   92.867    0.255    0.470    2.285
  454.904  159.429   92.550    0.267    0.459    2.276
  455.154  159.475   88.762    0.280    0.442    2.481
  455.404  159.656   87.956    0.277    0.428    2.647
  455.654  159.899   89.429    0.267    0.435    2.780
  455.904  160.201   91.366    0.260    0.422    2.858
  456.154  160.627   93.540    0.254    0.408    2.751
  456.404  160.833   96.512    0.278    0.400    2.597
  456.654  161.165   91.461    0.273    0.411    2.449
  456.904  161.324   84.622    0.286    0.421    2.431
  457.154  161.555   79.153    0.289    0.419    2.465
  457.404  161.688   74.799    0.285    0.406    2.510
  457.654  161.711   76.109    0.275    0.376    2.585
  457.904  161.569   83.294    0.245    0.373    2.649
  458.154  161.787   91.543    0.252    0.410    2.807
  458.404  161.874   97.768    0.276    0.438    2.928
  458.654  161.887  101.352    0.268    0.439    3.125
  458.904  161.889   99.059    0.257    0.398    3.251
  459.154  161.879   96.697    0.239    0.363    3.362
  459.404  162.047   97.663    0.229    0.397    3.355
  459.654  162.739   98.260    0.227    0.421    3.271
  459.904  163.583   94.740    0.237    0.441    3.078
  460.154  164.402   93.973    0.229    0.452    2.976
  460.404  164.791   93.113    0.221    0.470    2.931
  460.654  164.761   90.636    0.227    0.492    3.005
  460.904  164.207   89.316    0.230    0.492    3.089
  461.154  163.789   89.844    0.235    0.440    3.106
  461.404  163.930   92.439    0.232    0.402    3.161
  461.654  164.462   95.097    0.229    0.387    3.226
  461.904  164.834   97.326    0.223    0.392    3.365
  462.154  165.763  100.481    0.216    0.406    3.544
  462.404  166.206  101.174    0.208    0.431    3.734
  462.654  167.079  100.812    0.202    0.429    3.902
  462.904  167.432  100.118    0.197    0.429    4.100
  463.154  167.676   98.408    0.191    0.432    4.165
  463.404  168.118   96.932    0.184    0.429    4.138
  463.654  168.054   96.551    0.178    0.425    4.051
  463.904  168.070   99.015    0.174    0.428    3.957
  464.154  168.193  100.264    0.172    0.426    3.872
  464.404  168.259  101.556    0.175    0.429    3.775
  464.654  168.254  102.256    0.184    0.445    3.713
  464.904  168.378  103.180    0.192    0.465    3.638
  465.154  168.410  102.300    0.199    0.465    3.539
  465.404  168.584  101.867    0.195    0.445    3.425
  465.654  170.703  102.319    0.187    0.435    3.340
  465.904  169.161   98.692    0.181    0.433    3.306
  466.154  168.110   96.187    0.207    0.423    3.386
  466.404  167.416   99.606    0.198    0.420    3.524
  466.654  166.612  102.017    0.187    0.434    3.684
  466.904  166.692  102.774    0.195    0.433    3.774
  467.154  167.346  101.625    0.202    0.428    3.847
  467.404  167.230  100.772    0.205    0.450    3.959
  467.654  167.373  100.349    0.209    0.457    4.010
  467.904  167.719  100.422    0.200    0.457    4.092
  468.154  167.707  101.045    0.193    0.455    4.102
  468.404  167.803  103.132    0.197    0.440    4.091
  468.654  167.901  103.628    0.193    0.428    3.994
  468.904  167.786  102.544    0.189    0.413    3.914
  469.154  168.389  101.857    0.191    0.401    3.817
  469.404  168.805  101.158    0.191    0.406    3.702
  469.654  168.841  101.687    0.203    0.428    3.648
  469.904  168.508  104.319    0.195    0.439    3.587
  470.154  167.880  105.596    0.182    0.450    3.544
  470.404  168.415  106.849    0.179    0.439    3.528
  470.654  169.337  108.492    0.174    0.438    3.525
  470.904  170.427  110.274    0.168    0.435    3.545
  471.154  171.304  110.722    0.178    0.429    3.597
  471.404  171.503  107.651    0.184    0.424    3.598
  471.654  171.810  106.105    0.176    0.426    3.607
  471.904  171.230  106.121    0.181    0.426    3.616
  472.154  170.760  107.242    0.185    0.424    3.610
  472.404  170.708  108.131    0.183    0.419    3.598
  472.654  170.357  108.310    0.177    0.420    3.561
  472.904  170.357  106.150    0.172    0.422    3.518
  473.154  169.937  104.826    0.180    0.423    3.416
  473.404  169.957  105.766    0.189    0.426    3.278
  473.654  170.117  106.726    0.194    0.427    3.082
  473.904  170.902  107.445    0.196    0.431    2.958
  474.154  170.906  106.087    0.201    0.443    2.881
  474.404  168.533  103.909    0.209    0.451    2.892
  474.654  164.606   99.740    0.223    0.460    3.007
  474.904  162.007   95.950    0.243    0.452    3.087
  475.154  161.199   92.052    0.250    0.438    3.231
  475.404  161.752   94.261    0.232    0.439    3.288
  475.654  163.323   96.481    0.216    0.425    3.365
  475.904  164.844   99.956    0.209    0.429    3.430
  476.154  165.544  101.120    0.206    0.443    3.472
  476.404  165.579  101.799    0.214    0.434    3.487
  476.654  162.928  101.041    0.220    0.432    3.506
  476.904  161.854  100.822    0.220    0.430    3.483
  477.154  161.993  100.359    0.212    0.425    3.426
  477.404  162.787  103.136    0.209    0.415    3.352
  477.654  164.081  105.566    0.210    0.405    3.235
  477.904  165.151  107.090    0.211    0.394    3.000
  478.154  165.701  106.519    0.214    0.420    2.844
  478.404  165.261  102.244    0.227    0.434    2.733
  478.654  161.967   98.403    0.233    0.448    2.721
  478.904  158.478   95.449    0.232    0.462    2.760
  479.154  156.617   94.251    0.240    0.469    2.872
  479.404  156.082   92.948    0.247    0.480    3.003
  479.654  156.796   91.784    0.243    0.448    3.089
  479.904  157.939   90.275    0.226    0.409    3.054
  480.154  158.994   86.950    0.203    0.372    2.894
  480.404  160.262   82.856    0.192    0.349    3.033
  480.654  161.686   79.802    0.183    0.359    3.780
  480.904  162.538   78.083    0.214    0.438    5.749
  481.154  162.465   75.365    0.270    0.497    7.608
  481.404  162.067   69.188    0.319    0.438    8.751
  481.654  161.213   64.745    0.158    0.272    8.062
  481.904  161.235   59.667    0.117    0.235    6.032
  482.154  163.734   54.860    0.047    0.220    4.535
  482.404  164.779   57.144    0.037    0.212    3.583
  482.654  163.463   62.323    0.039    0.298    2.855
  482.904  162.088   65.592    0.161    0.352    2.422
  483.154  160.932   69.054    0.321    0.402    2.265
  483.404  160.548   70.087    0.337    0.458    2.192
  483.654  160.156   69.959    0.326    0.500    2.105
  483.904  160.919   69.923    0.320    0.543    2.049
  484.154  161.467   70.875    0.312    0.543    1.995
