~VERSION INFORMATION
 VERS.                 2.0:   CWLS LOG ASCII STANDARD -VERSION 2.0
 WRAP.                  NO:   ONE LINE PER DEPTH STEP
~WELL INFORMATION BLOCK
#MNEM.UNIT           DATA                    DESCRIPTION OF MNEMONIC
#---------    -------------------            -------------------------------
# Generated from Intellog Unique Number	CS_71_72/WELL/875
WELL.         PEX PHILLIPS AEC GRIST         : Well_name    - WELL
LOC .         00/10-31-071-07W4/0            : Location     - LOCATION
UWI .         00/10-31-071-07W4/0            : Uwi          - UNIQUE WELL ID
ENTR.         SP                             : Entered      - ENTERED BY
SRVC.         SCHLUMBERGER                   : Scn          - SERVICE COMPANY
STRT.M        300                            : top_depth    - START DEPTH
STOP.M        520                            : bot_depth    - STOP DEPTH
STEP.M        0.25                           : increment    - STEP LENGTH
 NULL. -999.2500:NULL Value
~CURVE INFORMATION BLOCK
#MNEM UNIT       ERCB CURVE CODE    CURVE DESCRIPTION
#-----------   ------------------   ----------------------------------
DEPT.M        00 001 00 00         : DEPTH        - DEPTH
ILD .OHMM     00 120 00 00         : RESD         - DEEP RESISTIVITY (DIL)
DPHI.V/V      00 890 00 00         : PHID         - DENSITY POROSITY (LIMESTONE)
NPHI.V/V      00 330 00 00         : PHIN         - NEUTRON POROSITY (LIMESTONE)
GR  .API      00 310 00 00         : GR           - GAMMA RAY
~PARAMETER INFORMATION
#MNEM.UNIT           DATA             DESCRIPTION OF MNEMONIC
#---------         -----------     ------------------------------
GL  .M        660.2                : gl           - GROUND LEVEL ELEVATION
EREF.M        664                  : kb           - ELEVATION OF DEPTH REFERENCE
DATM.M        660.2                : datum        - DATUM ELEVATION
TDD .M        532                  : tdd          - TOTAL DEPTH DRILLER
RUN .         ONE                  : Run          - RUN NUMBER
ENG .         BILL                 : Engineer     - RECORDING ENGINEER
WIT .         JIM                  : Witness      - WITNESSED BY
MUD .         GEL                  : Mud_type     - MUD TYPE
MATR.         LIMESTONE            : Logunit      - NEUTRON MATRIX
TMAX.C        22                   : BHT          - MAXIMUM RECORDED TEMPERATURE
BHTD.M        532                  : BHTDEP       - MAXIMUM RECORDED TEMPERATURE
MATR.         1                    : LOGUNIT      - NEUTRON MATRIX
RMT .C        25                   : MDTP         - TEMPERATURE OF MUD
NEUT.         1                    : NEUTRON      - NEUTRON TYPE
RESI.         0                    : RESIST       - RESISTIVITY TYPE
RMC .OHMM     0.25                 : RMC          - RESISTIVITY OF MUD CAKE
RMF .OHMM     0.25                 : RMF          - RESISTIVITY OF MUD FILTRATE
SUFT.C        15                   : SUFT         - SURFACE TEMPERATURE
~A  DEPTH     RESD     PHID     PHIN       GR
# ...
  430.500    2.614    0.337    0.543   83.661
  430.750    2.514    0.297    0.534   80.733
  431.000    2.427    0.289    0.529   82.359
  431.250    2.330    0.309    0.578   83.379
  431.500    2.296    0.325    0.611   82.758
  431.750    2.549    0.343    0.596   81.045
  432.000    2.855    0.364    0.590   79.697
  432.250    3.272    0.381    0.605   78.712
  432.500    3.598    0.388    0.546   79.366
  432.750    3.911    0.382    0.504   80.265
  433.000    4.149    0.350    0.507   81.406
  433.250    4.401    0.302    0.497   77.445
  433.500    4.695    0.261    0.484   75.126
  433.750    5.075    0.237    0.479   77.419
  434.000    5.496    0.202    0.489   79.348
  434.250    5.863    0.162    0.483   79.763
  434.500    6.196    0.122    0.460   79.202
  434.750    6.450    0.121    0.367   76.944
  435.000    6.405    0.151    0.397   73.287
  435.250    6.196    0.187    0.441   71.574
  435.500    5.971    0.207    0.474   76.479
  435.750    5.774    0.213    0.476   80.474
  436.000    5.585    0.223    0.480   80.826
  436.250    5.474    0.229    0.488   79.294
  436.500    5.426    0.232    0.482   79.340
  436.750    5.439    0.229    0.485   79.876
  437.000    5.515    0.229    0.480   77.799
  437.250    5.560    0.229    0.468   81.123
  437.500    5.564    0.232    0.460   83.055
  437.750    5.525    0.235    0.456   84.379
  438.000    5.435    0.234    0.459   83.453
  438.250    5.367    0.232    0.464   80.223
  438.500    5.350    0.224    0.464   80.149
  438.750    5.343    0.226    0.446   93.434
  439.000    5.327    0.217    0.436  104.534
  439.250    5.280    0.249    0.480  109.683
  439.500    5.243    0.363    0.510   95.035
  439.750    5.217    0.424    0.513   81.663
  440.000    5.200    0.281    0.466   73.635
  440.250    5.233    0.245    0.445   70.222
  440.500    5.266    0.236    0.435   75.553
  440.750    5.239    0.240    0.437   80.701
  441.000    5.173    0.260    0.452   83.481
  441.250    5.052    0.277    0.451   79.764
  441.500    4.933    0.257    0.404   77.565
  441.750    4.834    0.239    0.421   77.855
  442.000    4.738    0.269    0.442   76.082
  442.250    4.643    0.301    0.476   73.458
  442.500    4.357    0.286    0.486   75.384
  442.750    3.909    0.279    0.476   76.528
  443.000    3.428    0.319    0.474   78.034
  443.250    3.057    0.358    0.494   73.103
  443.500    2.784    0.380    0.511   72.240
  443.750    2.588    0.348    0.534   72.347
  444.000    2.471    0.323    0.548   72.092
  444.250    2.417    0.310    0.580   74.083
  444.500    2.483    0.294    0.592   77.956
  444.750    2.609    0.285    0.594   80.736
  445.000    2.815    0.281    0.585   82.485
  445.250    3.208    0.273    0.557   81.136
  445.500    3.615    0.255    0.528   77.538
  445.750    3.952    0.233    0.494   75.038
  446.000    4.137    0.215    0.471   73.445
  446.250    4.179    0.196    0.457   72.340
  446.500    4.142    0.234    0.464   72.205
  446.750    4.083    0.273    0.472   73.406
  447.000    4.009    0.304    0.481   74.970
  447.250    4.011    0.334    0.490   74.413
  447.500    4.191    0.368    0.465   72.335
  447.750    4.446    0.363    0.457   68.254
  448.000    4.734    0.355    0.498   59.983
  448.250    4.956    0.335    0.552   49.709
  448.500    5.140    0.182    0.262   43.927
  448.750    5.221    0.036    0.261   55.876
  449.000    5.205    0.199    0.322   66.915
  449.250    5.168    0.311    0.373   69.210
  449.500    5.142    0.327    0.426   64.217
  449.750    5.214    0.331    0.477   59.587
  450.000    5.358    0.322    0.472   57.692
  450.250    5.390    0.314    0.475   57.499
  450.500    5.435    0.310    0.450   57.668
  450.750    5.427    0.311    0.436   55.530
  451.000    5.339    0.321    0.430   53.573
  451.250    5.272    0.328    0.438   56.231
  451.500    5.256    0.329    0.451   58.283
  451.750    5.239    0.322    0.463   59.060
  452.000    5.213    0.313    0.461   56.073
  452.250    5.186    0.303    0.450   52.416
  452.500    5.141    0.294    0.455   54.285
  452.750    5.057    0.303    0.462   55.730
  453.000    4.966    0.310    0.462   57.113
  453.250    4.839    0.277    0.450   55.339
  453.500    4.698    0.254    0.471   56.053
  453.750    4.631    0.257    0.486   59.260
  454.000    4.678    0.281    0.473   59.855
  454.250    4.743    0.276    0.439   50.976
  454.500    4.817    0.251    0.426   50.782
  454.750    4.885    0.259    0.422   56.172
  455.000    4.915    0.277    0.423   59.135
  455.250    4.891    0.283    0.428   61.003
  455.500    4.875    0.276    0.434   61.538
  455.750    4.778    0.271    0.434   58.732
  456.000    4.502    0.266    0.395   60.418
  456.250    4.386    0.259    0.399   65.750
  456.500    4.124    0.282    0.443   70.898
  456.750    3.777    0.300    0.471   73.800
  457.000    3.491    0.310    0.489   75.912
  457.250    3.264    0.291    0.505   76.203
  457.500    3.430    0.282    0.534   68.479
  457.750    3.822    0.283    0.455   62.938
  458.000    4.258    0.270    0.421   62.076
  458.250    5.010    0.260    0.390   63.582
  458.500    5.676    0.245    0.398   65.874
  458.750    6.264    0.223    0.411   68.048
  459.000    6.772    0.211    0.420   66.761
  459.250    6.550    0.233    0.420   66.324
  459.500    6.136    0.262    0.408   67.647
  459.750    5.802    0.294    0.401   66.723
  460.000    5.404    0.328    0.415   64.767
  460.250    5.111    0.352    0.444   66.876
  460.500    4.869    0.314    0.446   70.082
  460.750    4.612    0.288    0.458   73.288
  461.000    4.264    0.330    0.497   73.823
  461.250    4.914    0.354    0.481   66.949
  461.500    5.632    0.301    0.430   63.170
  461.750    6.181    0.270    0.409   60.788
  462.000    6.744    0.258    0.396   59.136
  462.250    7.222    0.249    0.388   57.968
  462.500    7.675    0.243    0.389   58.080
  462.750    8.218    0.244    0.377   58.917
  463.000    8.969    0.233    0.381   60.300
  463.250    9.603    0.218    0.396   56.887
  463.500   10.323    0.187    0.409   49.768
  463.750   10.193    0.107    0.400   44.716
  464.000   10.651    0.082    0.381   46.099
  464.250   11.005    0.164    0.374   51.430
  464.500   11.115    0.199    0.390   58.644
  464.750   10.874    0.220    0.400   63.852
  465.000   10.340    0.233    0.414   58.859
  465.250    9.068    0.255    0.441   51.439
  465.500    7.375    0.283    0.454   48.512
  465.750    5.776    0.266    0.409   56.697
  466.000    4.340    0.267    0.431   68.827
  466.250    4.569    0.276    0.488   76.952
  466.500    5.207    0.272    0.524   81.432
  466.750    6.231    0.262    0.480   84.150
  467.000    7.951    0.260    0.432   83.228
  467.250   10.068    0.269    0.402   75.807
  467.500   12.654    0.274    0.388   69.600
  467.750   15.666    0.281    0.392   66.187
  468.000   16.839    0.275    0.387   65.687
  468.250   17.234    0.266    0.378   65.432
  468.500   14.582    0.256    0.370   65.598
  468.750   12.645    0.240    0.368   67.348
  469.000   10.420    0.231    0.400   72.133
  469.250    9.052    0.243    0.415   79.590
  469.500    9.109    0.253    0.407   84.921
  469.750    9.902    0.257    0.402   81.869
  470.000   10.825    0.262    0.401   80.582
  470.250   11.659    0.274    0.403   79.841
  470.500   12.320    0.282    0.402   80.315
  470.750   12.730    0.284    0.399   82.001
  471.000   12.833    0.199    0.397   83.324
  471.250   12.296    0.081    0.412   81.551
  471.500   11.432    0.072    0.429   76.984
  471.750   11.036    0.121    0.400   72.294
  472.000   11.532    0.208    0.373   69.245
  472.250   12.257    0.248    0.366   67.290
  472.500   12.904    0.257    0.383   65.271
  472.750   13.560    0.258    0.397   65.259
  473.000   14.062    0.256    0.395   66.705
  473.250   14.447    0.266    0.388   67.177
  473.500   14.510    0.281    0.397   66.678
  473.750   13.929    0.285    0.407   66.544
