~VERSION INFORMATION
 VERS.                 2.0:   CWLS LOG ASCII STANDARD -VERSION 2.0
 WRAP.                  NO:   ONE LINE PER DEPTH STEP
~WELL INFORMATION BLOCK
#MNEM.UNIT           DATA                    DESCRIPTION OF MNEMONIC
#---------    -------------------            -------------------------------
# Generated from Intellog Unique Number	CX_WELLS/WELL/3315
WELL.         PCL SURMONT                    : Well_name    - WELL
LOC .         00/11-24-084-06W4/0            : Location     - LOCATION
UWI .         00/11-24-084-06W4/0            : Uwi          - UNIQUE WELL ID
ENTR.         T                              : Entered      - ENTERED BY
SRVC.         SCHLUMBERGER                   : Scn          - SERVICE COMPANY
STRT.M        75                             : top_depth    - START DEPTH
STOP.M        260                            : bot_depth    - STOP DEPTH
STEP.M        0.25                           : increment    - STEP LENGTH
 NULL. -999.2500:NULL Value
~CURVE INFORMATION BLOCK
#MNEM UNIT       ERCB CURVE CODE    CURVE DESCRIPTION
#-----------   ------------------   ----------------------------------
DEPT.M        00 001 00 00         : DEPTH        - DEPTH
GR  .API      00 310 00 00         : GR           - GAMMA RAY
NPHI.V/V      00 330 00 00         : PHIN         - NEUTRON POROSITY (SANDSTONE)
DPHI.V/V      00 890 00 00         : PHID         - DENSITY POROSITY (SANDSTONE)
ILD .OHMM     00 120 00 00         : RESD         - DEEP RESISTIVITY (DIL)
~PARAMETER INFORMATION
#MNEM.UNIT           DATA             DESCRIPTION OF MNEMONIC
#---------         -----------     ------------------------------
GL  .M        465                  : gl           - GROUND LEVEL ELEVATION
EREF.M        469                  : kb           - ELEVATION OF DEPTH REFERENCE
DATM.M        469                  : datum        - DATUM ELEVATION
TDD .M        276                  : tdd          - TOTAL DEPTH DRILLER
RUN .         ONE                  : Run          - RUN NUMBER
ENG .         BILL                 : Engineer     - RECORDING ENGINEER
WIT .         JIM                  : Witness      - WITNESSED BY
MUD .         GEL                  : Mud_type     - MUD TYPE
MATR.         SANDSTONE            : Logunit      - NEUTRON MATRIX
TMAX.C        12                   : BHT          - MAXIMUM RECORDED TEMPERATURE
BHTD.M        276                  : BHTDEP       - MAXIMUM RECORDED TEMPERATURE
MATR.         1                    : LOGUNIT      - NEUTRON MATRIX
RMT .C        12                   : MDTP         - TEMPERATURE OF MUD
NEUT.         1                    : NEUTRON      - NEUTRON TYPE
RESI.         5                    : RESIST       - RESISTIVITY TYPE
RMC .OHMM     1.8                  : RMC          - RESISTIVITY OF MUD CAKE
RMF .OHMM     4.5                  : RMF          - RESISTIVITY OF MUD FILTRATE
SUFT.C        4                    : SUFT         - SURFACE TEMPERATURE
~A  DEPTH       GR     PHIN     PHID     RESD
   75.000   33.592    0.534    0.345   24.982
   75.250   34.924    0.404    0.351   25.091
   75.500   34.924    0.368    0.351   24.316
   75.750   37.535    0.370    0.354   23.951
   76.000   40.731    0.376    0.375   23.186
   76.250   42.684    0.381    0.392   22.059
   76.500   44.620    0.390    0.397   21.752
   76.750   45.312    0.393    0.359   20.672
   77.000   45.987    0.392    0.331   19.990
   77.250   47.923    0.394    0.315   18.977
   77.500   53.622    0.402    0.323   18.371
   77.750   54.315    0.403    0.331   17.498
   78.000   53.143    0.393    0.329   17.216
   78.250   51.350    0.400    0.323   16.976
   78.500   50.782    0.407    0.318   17.069
   78.750   53.357    0.413    0.318   17.144
   79.000   55.293    0.402    0.319   17.238
   79.250   53.500    0.397    0.321   17.314
   79.500   51.085    0.394    0.326   17.390
   79.750   48.653    0.399    0.335   17.447
   80.000   46.239    0.398    0.330   17.524
   80.250   45.067    0.377    0.327   17.948
   80.500   46.399    0.375    0.328   18.703
   80.750   47.074    0.372    0.329   19.853
   81.000   48.424    0.372    0.333   21.096
   81.250   48.459    0.378    0.333   22.393
   81.500   51.034    0.387    0.332   22.885
   81.750   49.259    0.378    0.322   23.010
   82.000   48.052    0.375    0.314   23.086
   82.250   48.141    0.384    0.312   23.645
   82.500   46.366    0.395    0.315   26.040
   82.750   46.419    0.383    0.321   29.212
   83.000   47.733    0.376    0.324   33.453
   83.250   47.201    0.372    0.328   35.470
   83.500   45.408    0.371    0.331   39.064
   83.750   44.254    0.370    0.334   42.283
   84.000   44.290    0.369    0.331   38.731
   84.250   44.361    0.369    0.328   36.098
   84.500   44.432    0.369    0.330   36.296
   84.750   45.125    0.367    0.329   37.133
   85.000   45.818    0.364    0.329   37.296
   85.250   45.267    0.368    0.325   36.105
   85.500   42.853    0.377    0.323   31.840
   85.750   41.060    0.382    0.329   28.633
   86.000   41.753    0.384    0.332   28.234
   86.250   42.445    0.374    0.330   27.392
   86.500   45.002    0.372    0.325   26.950
   86.750   50.081    0.375    0.321   24.713
   87.000   50.755    0.380    0.313   23.058
   87.250   46.477    0.389    0.308   21.490
   87.500   47.169    0.397    0.325   19.663
   87.750   50.969    0.391    0.350   18.347
   88.000   51.662    0.385    0.360   17.436
   88.250   47.383    0.386    0.339   17.858
   88.500   43.744    0.391    0.331   19.667
   88.750   41.933    0.390    0.333   21.660
   89.000   40.140    0.388    0.335   24.777
   89.250   40.211    0.388    0.332   26.760
   89.500   40.904    0.379    0.319   28.965
   89.750   45.325    0.370    0.311   27.025
   90.000   46.053    0.376    0.305   24.755
   90.250   44.243    0.382    0.305   23.097
   90.500   46.178    0.388    0.313   23.630
   90.750   47.510    0.381    0.317   26.053
   91.000   47.581    0.383    0.312   28.692
   91.250   50.138    0.389    0.310   31.565
   91.500   50.192    0.400    0.319   32.328
   91.750   49.642    0.415    0.329   31.330
   92.000   50.956    0.425    0.339   30.859
   92.250   51.045    0.417    0.339   30.995
   92.500   49.252    0.407    0.329   34.135
   92.750   46.216    0.382    0.324   39.091
   93.000   46.287    0.367    0.320   41.539
   93.250   46.998    0.362    0.312   43.193
   93.500   46.412    0.356    0.299   44.190
   93.750   45.862    0.341    0.234   47.831
   94.000   45.312    0.322    0.262   52.677
   94.250   42.294    0.328    0.339   69.828
   94.500   40.501    0.341    0.339   79.878
   94.750   42.436    0.357    0.340   81.900
   95.000   44.993    0.370    0.334   77.580
   95.250   45.082    0.389    0.326   62.464
   95.500   45.153    0.397    0.332   51.172
   95.750   43.982    0.384    0.338   45.227
   96.000   45.296    0.380    0.341   43.782
   96.250   45.385    0.376    0.342   44.022
   96.500   44.178    0.363    0.342   43.361
   96.750   41.763    0.348    0.338   43.503
   97.000   41.835    0.355    0.338   43.742
   97.250   43.149    0.366    0.342   44.752
   97.500   41.977    0.378    0.346   45.834
   97.750   43.291    0.378    0.351   45.985
   98.000   44.623    0.372    0.346   46.136
   98.250   44.694    0.372    0.344   46.390
   98.500   43.505    0.379    0.344   46.542
   98.750   42.955    0.382    0.344   45.944
   99.000   43.648    0.376    0.345   46.095
   99.250   44.980    0.369    0.346   46.450
   99.500   45.051    0.362    0.346   47.417
   99.750   45.743    0.369    0.346   48.564
  100.000   45.815    0.373    0.346   48.724
  100.250   43.400    0.372    0.346   49.848
  100.500   43.472    0.370    0.347   50.067
  100.750   47.911    0.375    0.345   50.287
  101.000   48.586    0.382    0.342   50.618
  101.250   48.053    0.388    0.338   50.785
  101.500   45.639    0.385    0.333   51.008
  101.750   43.224    0.376    0.320   51.176
  102.000   42.035    0.369    0.288   51.457
  102.250   44.627    0.369    0.294   51.740
  102.500   45.924    0.369    0.299   51.910
  102.750   44.752    0.367    0.305   48.433
  103.000   41.077    0.366    0.303   41.933
  103.250   41.770    0.369    0.308   33.725
  103.500   46.227    0.369    0.338   30.328
  103.750   48.801    0.369    0.349   35.377
  104.000   50.080    0.372    0.357   38.208
  104.250   51.430    0.376    0.347   36.987
  104.500   51.483    0.383    0.342   37.882
  104.750   51.554    0.384    0.342   38.007
  105.000   50.383    0.378    0.343   39.650
  105.250   48.590    0.384    0.343   39.140
  105.500   48.057    0.390    0.344   39.269
  105.750   48.715    0.398    0.348   38.721
  106.000   49.407    0.396    0.350   39.658
  106.250   49.514    0.393    0.345   40.528
  106.500   48.343    0.389    0.341   42.281
  106.750   46.550    0.387    0.338   43.209
  107.000   45.982    0.383    0.330   42.606
  107.250   48.538    0.375    0.282   42.058
  107.500   48.628    0.373    0.241   42.243
  107.750   45.592    0.379    0.265   40.146
  108.000   46.267    0.387    0.292   34.123
  108.250   51.931    0.395    0.305   28.475
  108.500   56.973    0.398    0.308   26.111
  108.750   60.791    0.405    0.311   27.180
  109.000   61.484    0.420    0.315   29.967
  109.250   61.573    0.430    0.316   29.010
  109.500   61.023    0.415    0.317   27.067
  109.750   61.112    0.411    0.318   24.820
  110.000   61.147    0.417    0.317   23.563
  110.250   61.858    0.419    0.315   22.369
  110.500   60.686    0.407    0.315   20.116
  110.750   58.893    0.397    0.314   18.406
  111.000   60.207    0.395    0.311   16.552
  111.250   66.493    0.394    0.305   14.884
  111.500   71.535    0.400    0.296   13.126
  111.750   77.199    0.421    0.280   10.966
  112.000   84.745    0.443    0.271    7.070
  112.250   91.031    0.464    0.270    5.906
  112.500   89.877    0.477    0.266    5.305
  112.750   86.823    0.495    0.267    4.771
  113.000   86.895    0.500    0.278    4.365
  113.250   87.587    0.495    0.291    4.003
  113.500   88.901    0.517    0.278    3.663
  113.750   90.837    0.504    0.266    3.417
  114.000   92.151    0.489    0.270    3.312
  114.250   91.637    0.471    0.277    3.519
  114.500   89.808    0.473    0.277    3.663
  114.750   85.529    0.468    0.276    3.744
  115.000   81.251    0.459    0.271    4.048
  115.250   78.233    0.442    0.268    4.630
  115.500   77.700    0.458    0.267    5.814
  115.750   77.754    0.497    0.271    6.515
  116.000   77.186    0.509    0.277    8.032
  116.250   75.411    0.524    0.285    9.167
  116.500   74.221    0.484    0.295   10.295
  116.750   69.339    0.416    0.306   11.575
  117.000   64.421    0.403    0.318   12.259
  117.250   54.550    0.390    0.330   13.027
  117.500   47.785    0.387    0.329   13.858
  117.750   47.857    0.400    0.324   14.147
  118.000   49.188    0.388    0.317   14.473
  118.250   47.981    0.383    0.317   14.537
