~VERSION INFORMATION
 VERS.                 2.0:   CWLS LOG ASCII STANDARD -VERSION 2.0
 WRAP.                  NO:   ONE LINE PER DEPTH STEP
~WELL INFORMATION BLOCK
#MNEM.UNIT           DATA                    DESCRIPTION OF MNEMONIC
#---------    -------------------            -------------------------------
# Generated from Intellog Unique Number	CS_73_76/WELL/4864
WELL.         ALBERTA ENERGY CO.LTD.         : Well_name    - WELL
LOC .         00/12-36-072-03W4/0            : Location     - LOCATION
UWI .         00/12-36-072-03W4/0            : Uwi          - UNIQUE WELL ID
ENTR.         JOETTE                         : Entered      - ENTERED BY
SRVC.         SCHLUMBERGER                   : Scn          - SERVICE COMPANY
DATE.         05/13/92                       : Date         - LOG DATE
STRT.M        345                            : top_depth    - START DEPTH
STOP.M        575                            : bot_depth    - STOP DEPTH
STEP.M        0.25                           : increment    - STEP LENGTH
 NULL. -999.2500:NULL Value
~CURVE INFORMATION BLOCK
#MNEM UNIT       ERCB CURVE CODE    CURVE DESCRIPTION
#-----------   ------------------   ----------------------------------
DEPT.M        00 001 00 00         : DEPTH        - DEPTH
ILD .OHMM     00 120 00 00         : RESD         - DEEP RESISTIVITY (DIL)
DPHI.V/V      00 890 00 00         : PHID         - DENSITY POROSITY (SANDSTONE)
NPHI.V/V      00 330 00 00         : PHIN         - NEUTRON POROSITY (SANDSTONE)
GR  .API      00 310 00 00         : GR           - GAMMA RAY
CALI.MM       00 280 01 00         : CAL          - CALIPER
~PARAMETER INFORMATION
#MNEM.UNIT           DATA             DESCRIPTION OF MNEMONIC
#---------         -----------     ------------------------------
GL  .M        698.81               : gl           - GROUND LEVEL ELEVATION
EREF.M        702.22               : kb           - ELEVATION OF DEPTH REFERENCE
DATM.M        702.22               : datum        - DATUM ELEVATION
TDD .M        588                  : tdd          - TOTAL DEPTH DRILLER
RUN .         ONE                  : Run          - RUN NUMBER
ENG .         BILL                 : Engineer     - RECORDING ENGINEER
WIT .         JIM                  : Witness      - WITNESSED BY
MUD .         GEL                  : Mud_type     - MUD TYPE
MATR.         SANDSTONE            : Logunit      - NEUTRON MATRIX
TMAX.C        30                   : BHT          - MAXIMUM RECORDED TEMPERATURE
BHTD.M        588                  : BHTDEP       - MAXIMUM RECORDED TEMPERATURE
MATR.         1                    : LOGUNIT      - NEUTRON MATRIX
RMT .C        12                   : MDTP         - TEMPERATURE OF MUD
NEUT.         1                    : NEUTRON      - NEUTRON TYPE
RESI.         0                    : RESIST       - RESISTIVITY TYPE
RMC .OHMM     2.7                  : RMC          - RESISTIVITY OF MUD CAKE
RMF .OHMM     2.6                  : RMF          - RESISTIVITY OF MUD FILTRATE
SUFT.C        15                   : SUFT         - SURFACE TEMPERATURE
~A  DEPTH     RESD     PHID     PHIN       GR      CAL
# ...
  418.000    9.482    0.338    0.502   59.363  141.428
  418.250    9.489    0.342    0.502   59.419  141.458
  418.500    9.320    0.340    0.493   59.453  141.517
  418.750    9.154    0.339    0.492   58.919  141.592
  419.000    8.991    0.344    0.500   57.206  141.652
  419.250    8.996    0.341    0.514   55.459  141.727
  419.500    8.676    0.329    0.514   51.377  141.801
  419.750    8.520    0.317    0.505   52.612  141.831
  420.000    8.367    0.323    0.487   54.415  141.921
  420.250    8.216    0.330    0.471   51.511  141.951
  420.500    8.069    0.332    0.459   48.619  142.025
  420.750    7.927    0.342    0.451   46.305  142.085
  421.000    7.784    0.350    0.458   45.171  142.130
  421.250    7.648    0.346    0.466   48.765  142.976
  421.500    7.651    0.339    0.474   52.937  143.036
  421.750    7.661    0.336    0.470   55.340  143.096
  422.000    7.523    0.328    0.475   58.334  143.942
  422.250    7.391    0.322    0.474   61.327  144.001
  422.500    7.395    0.320    0.477   64.932  144.091
  422.750    7.130    0.322    0.476   63.775  144.151
  423.000    7.000    0.322    0.466   60.883  144.210
  423.250    6.751    0.321    0.466   61.517  144.285
  423.500    6.627    0.320    0.475   65.089  144.315
  423.750    6.509    0.322    0.501   68.093  144.375
  424.000    6.393    0.325    0.506   63.409  144.435
  424.250    6.052    0.329    0.522   61.685  145.310
  424.500    5.943    0.333    0.534   64.678  145.340
  424.750    5.727    0.338    0.506   68.851  146.987
  425.000    5.624    0.271    0.496   74.214  147.833
  425.250    5.630    0.264    0.478   79.577  147.107
  425.500    5.633    0.264    0.482   77.841  144.808
  425.750    5.431    0.269    0.460   77.308  144.082
  426.000    5.042    0.277    0.453   81.480  144.142
  426.250    4.860    0.282    0.510   79.745  144.216
  426.500    4.775    0.268    0.538   74.494  144.276
  426.750    4.776    0.257    0.556   76.886  143.550
  427.000    4.872    0.255    0.561   79.879  142.823
  427.250    4.966    0.254    0.510   79.357  142.883
  427.500    5.163    0.258    0.508   78.234  142.928
  427.750    5.262    0.266    0.480   75.308  143.032
  428.000    5.267    0.283    0.478   72.404  143.077
  428.250    5.371    0.313    0.472   68.310  143.908
  428.500    5.276    0.303    0.474   66.586  143.968
  428.750    5.181    0.302    0.479   71.949  144.028
  429.000    5.088    0.303    0.473   72.584  144.088
  429.250    4.997    0.289    0.480   72.628  144.934
  429.500    5.001    0.278    0.496   75.032  145.023
  429.750    4.913    0.305    0.517   71.539  145.068
  430.000    4.916    0.318    0.521   60.970  145.128
  430.250    4.919    0.322    0.523   62.784  144.416
  430.500    4.833    0.314    0.527   67.546  144.446
  430.750    4.837    0.302    0.524   66.411  144.506
  431.000    4.839    0.300    0.510   65.889  144.566
  431.250    4.753    0.298    0.505   65.922  144.625
  431.500    4.668    0.291    0.508   67.725  144.685
  431.750    4.500    0.286    0.515   73.099  144.745
  432.000    4.338    0.293    0.515   74.323  144.835
  432.250    4.341    0.296    0.498   72.009  144.894
  432.500    4.511    0.300    0.499   70.875  144.954
  432.750    4.776    0.306    0.507   71.498  145.014
  433.000    4.962    0.301    0.487   73.312  145.074
  433.250    5.155    0.310    0.476   75.126  145.119
  433.500    5.356    0.328    0.460   76.350  144.392
  433.750    5.462    0.347    0.463   68.140  144.482
  434.000    5.568    0.342    0.469   59.340  144.542
  434.250    5.575    0.339    0.476   55.257  144.586
  434.500    5.577    0.337    0.471   57.672  144.631
  434.750    5.477    0.335    0.478   55.347  144.691
  435.000    5.481    0.329    0.482   56.582  144.766
  435.250    5.385    0.320    0.472   58.974  144.825
  435.500    5.388    0.311    0.469   56.082  144.885
  435.750    5.292    0.297    0.455   62.613  144.975
  436.000    5.197    0.275    0.446   65.606  145.020
  436.250    5.201    0.271    0.447   66.841  145.080
  436.500    5.109    0.275    0.435   68.066  145.124
  436.750    5.019    0.277    0.426   71.059  145.184
  437.000    4.929    0.278    0.511   74.063  145.244
  437.250    4.842    0.277    0.516   75.854  145.304
  437.500    4.846    0.272    0.506   75.343  145.363
  437.750    4.940    0.265    0.501   74.776  145.423
  438.000    5.135    0.257    0.491   73.052  145.498
  438.250    5.137    0.260    0.503   72.529  145.558
  438.500    5.141    0.259    0.505   72.552  145.632
  438.750    4.775    0.257    0.501   73.197  146.463
  439.000    4.602    0.262    0.526   74.421  148.111
  439.250    4.435    0.271    0.542   76.235  148.957
  439.500    4.118    0.275    0.539   78.627  150.604
  439.750    4.122    0.271    0.556   82.210  151.420
  440.000    4.282    0.271    0.602   89.342  152.281
  440.250    4.796    0.271    0.604   94.115  151.554
  440.500    4.981    0.260    0.612   91.212  150.042
  440.750    5.374    0.249    0.595   85.950  148.529
  441.000    5.479    0.254    0.555   80.677  147.817
  441.250    5.587    0.263    0.539   76.015  147.847
  441.500    5.488    0.267    0.544   76.072  148.723
  441.750    5.192    0.263    0.534   76.094  148.783
  442.000    4.643    0.266    0.552   75.549  147.255
  442.250    3.781    0.268    0.586   72.668  145.743
  442.500    2.157    0.261    0.603   75.049  145.031
  442.750    1.429    0.253    0.609   82.181  145.091
  443.000    1.208    0.262    0.601   84.006  145.937
  443.250    1.353    0.268    0.601   86.409  147.569
  443.500    1.573    0.247    0.606   89.981  148.415
  443.750    2.248    0.222    0.612   95.933  149.261
  444.000    2.292    0.220    0.610   97.747  149.306
  444.250    2.615    0.220    0.597   97.214  149.411
  444.500    2.929    0.220    0.591   96.646  150.242
  444.750    3.342    0.220    0.580   96.113  150.316
  445.000    3.605    0.220    0.584   94.978  150.361
  445.250    3.675    0.217    0.581   93.844  151.192
  445.500    3.612    0.216    0.577   99.207  152.053
  445.750    3.545    0.216    0.592   98.072  152.884
  446.000    3.483    0.219    0.600  106.361  153.730
  446.250    3.486    0.222    0.588  105.226  153.790
  446.500    3.488    0.222    0.577  103.514  154.666
  446.750    3.491    0.221    0.584  101.789  153.909
  447.000    3.560    0.223    0.598  101.233  152.412
  447.250    3.630    0.224    0.605  100.689  150.113
  447.500    4.065    0.225    0.606   99.565  148.600
  447.750    4.384    0.225    0.631   99.020  148.675
  448.000    5.098    0.227    0.648   98.476  148.720
  448.250    5.603    0.237    0.640  102.070  148.780
  448.500    6.158    0.257    0.642  102.103  148.854
  448.750    6.644    0.275    0.631   98.610  148.143
  449.000    6.649    0.275    0.586   92.758  148.173
  449.250    6.528    0.268    0.564   86.907  147.446
  449.500    6.292    0.256    0.530   84.593  147.506
  449.750    5.843    0.239    0.519   82.880  147.596
  450.000    5.225    0.226    0.524   82.335  148.412
  450.250    4.851    0.230    0.538   84.149  148.486
  450.500    4.590    0.233    0.549   83.015  149.347
  450.750    4.508    0.230    0.565   80.690  149.392
  451.000    4.684    0.233    0.573   81.925  149.452
  451.250    5.053    0.242    0.573   84.317  148.726
  451.500    5.659    0.250    0.589   86.142  147.228
  451.750    6.104    0.254    0.590   84.996  146.501
  452.000    6.462    0.262    0.572   82.683  146.546
  452.250    6.841    0.278    0.551   80.959  145.820
  452.500    7.108    0.290    0.550   79.824  145.880
  452.750    7.385    0.256    0.549   76.342  145.939
  453.000    7.530    0.253    0.554   82.884  145.999
  453.250    7.536    0.256    0.526   82.340  146.089
  453.500    7.403    0.262    0.497   78.257  146.134
  453.750    7.405    0.260    0.503   77.122  146.178
  454.000    7.006    0.257    0.515   75.977  146.253
  454.250    6.628    0.250    0.500   78.970  146.328
