~VERSION INFORMATION
 VERS.                 2.0:   CWLS LOG ASCII STANDARD -VERSION 2.0
 WRAP.                  NO:   ONE LINE PER DEPTH STEP
~WELL INFORMATION BLOCK
#MNEM.UNIT           DATA                    DESCRIPTION OF MNEMONIC
#---------    -------------------            -------------------------------
# Generated from Intellog Unique Number	CS_67_68/WELL/2203
WELL.         11-04-067-03W4                 : Well_name    - WELL
LOC .         00/11-04-067-03W4/0            : Location     - LOCATION
UWI .         00/11-04-067-03W4/0            : Uwi          - UNIQUE WELL ID
ENTR.         SP                             : Entered      - ENTERED BY
SRVC.         SCHLUMBERGER                   : Scn          - SERVICE COMPANY
STRT.M        330                            : top_depth    - START DEPTH
STOP.M        555                            : bot_depth    - STOP DEPTH
STEP.M        0.25                           : increment    - STEP LENGTH
 NULL. -999.2500:NULL Value
~CURVE INFORMATION BLOCK
#MNEM UNIT       ERCB CURVE CODE    CURVE DESCRIPTION
#-----------   ------------------   ----------------------------------
DEPT.M        00 001 00 00         : DEPTH        - DEPTH
ILD .OHMM     00 120 00 00         : RESD         - DEEP RESISTIVITY (DIL)
DPHI.V/V      00 890 00 00         : PHID         - DENSITY POROSITY (LIMESTONE)
NPHI.V/V      00 330 00 00         : PHIN         - NEUTRON POROSITY (LIMESTONE)
GR  .API      00 310 00 00         : GR           - GAMMA RAY
CALI.MM       00 280 01 00         : CAL          - CALIPER
~PARAMETER INFORMATION
#MNEM.UNIT           DATA             DESCRIPTION OF MNEMONIC
#---------         -----------     ------------------------------
GL  .M        654.03               : gl           - GROUND LEVEL ELEVATION
EREF.M        657.79               : kb           - ELEVATION OF DEPTH REFERENCE
DATM.M        657.79               : datum        - DATUM ELEVATION
TDD .M        564                  : tdd          - TOTAL DEPTH DRILLER
RUN .         ONE                  : Run          - RUN NUMBER
ENG .         BILL                 : Engineer     - RECORDING ENGINEER
WIT .         JIM                  : Witness      - WITNESSED BY
MUD .         GEL                  : Mud_type     - MUD TYPE
MATR.         LIMESTONE            : Logunit      - NEUTRON MATRIX
TMAX.C        26                   : BHT          - MAXIMUM RECORDED TEMPERATURE
BHTD.M        564                  : BHTDEP       - MAXIMUM RECORDED TEMPERATURE
MATR.         1                    : LOGUNIT      - NEUTRON MATRIX
RMT .C        25                   : MDTP         - TEMPERATURE OF MUD
NEUT.         1                    : NEUTRON      - NEUTRON TYPE
RESI.         0                    : RESIST       - RESISTIVITY TYPE
RMC .OHMM     0.25                 : RMC          - RESISTIVITY OF MUD CAKE
RMF .OHMM     0.25                 : RMF          - RESISTIVITY OF MUD FILTRATE
SUFT.C        15                   : SUFT         - SURFACE TEMPERATURE
~A  DEPTH     RESD     PHID     PHIN       GR      CAL
  330.000    2.982    0.246    0.561  108.181  218.610
  330.250    2.975    0.263    0.559  107.628  218.808
  330.500    2.941    0.274    0.571  101.092  220.736
  330.750    2.929    0.268    0.546  104.447  223.070
  331.000    2.911    0.253    0.540  104.504  225.201
  331.250    2.905    0.251    0.553  103.646  226.214
  331.500    2.909    0.257    0.528  107.062  227.022
  331.750    2.930    0.259    0.526  108.036  226.814
  332.000    2.978    0.267    0.538  103.332  225.791
  332.250    3.005    0.282    0.533  100.764  222.427
  332.500    3.032    0.282    0.519  102.715  219.472
  332.750    3.048    0.265    0.517  111.991  215.905
  333.000    3.047    0.242    0.525  116.688  213.356
  333.250    3.058    0.228    0.523  109.542  211.620
  333.500    3.028    0.220    0.516  103.007  212.531
  333.750    2.976    0.214    0.529   97.875  213.543
  334.000    2.903    0.252    0.542  103.305  212.112
  334.250    2.822    0.261    0.541  103.913  213.226
  334.500    2.858    0.260    0.529  103.787  213.425
  334.750    3.221    0.255    0.534  101.953  213.318
  335.000    4.289    0.261    0.538   95.539  211.684
  335.250    5.797    0.318    0.482   89.431  210.152
  335.500    7.477    0.350    0.450   83.079  208.824
  335.750    8.998    0.373    0.417   78.741  208.107
  336.000   10.294    0.381    0.374   77.272  207.287
  336.250   10.988    0.367    0.383   78.246  206.671
  336.500   10.344    0.355    0.394   81.295  206.767
  336.750    9.169    0.335    0.410   82.513  206.864
  337.000    9.117    0.318    0.425   82.693  207.570
  337.250    9.044    0.305    0.440   86.168  208.074
  337.500    9.230    0.297    0.432   86.105  208.679
  337.750   10.190    0.293    0.428   75.784  208.368
  338.000   11.990    0.290    0.447   67.722  208.362
  338.250   14.134    0.317    0.471   63.751  208.358
  338.500   16.170    0.339    0.490   61.183  208.149
  338.750   17.752    0.343    0.505   59.409  208.041
  339.000   18.806    0.340    0.504   58.674  208.036
  339.250   19.627    0.333    0.483   59.342  208.132
  339.500   18.968    0.345    0.477   55.920  208.330
  339.750   18.128    0.345    0.489   58.359  208.834
  340.000   15.364    0.348    0.496   63.240  209.439
  340.250   13.147    0.350    0.466   71.112  209.738
  340.500   11.165    0.338    0.465   77.336  209.835
  340.750    9.446    0.317    0.484   81.606  209.830
  341.000    8.470    0.299    0.477   80.015  209.722
  341.250    8.691    0.276    0.477   71.343  209.208
  341.500    8.936    0.248    0.475   64.502  208.796
  341.750    9.432    0.234    0.473   68.650  208.689
  342.000    9.955    0.283    0.483   72.676  208.582
  342.250    9.495    0.311    0.459   75.725  208.678
  342.500    8.856    0.309    0.439   77.859  208.876
  342.750    8.495    0.286    0.449   80.664  208.972
  343.000    8.350    0.283    0.461   75.593  208.967
  343.250    8.505    0.290    0.448   71.989  209.572
  343.500    8.777    0.295    0.419   75.221  210.482
  343.750    8.790    0.277    0.405   83.764  212.206
  344.000    8.575    0.261    0.426   85.532  213.728
  344.250    8.428    0.262    0.446   83.819  215.248
  344.500    8.649    0.256    0.461   80.885  215.446
  344.750    9.077    0.265    0.438   79.051  214.525
  345.000    9.315    0.278    0.421   78.071  213.299
  345.250    8.852    0.267    0.436   85.698  212.174
  345.500    8.118    0.254    0.460   91.068  211.457
  345.750    7.051    0.238    0.442   96.803  211.248
  346.000    6.345    0.226    0.428  101.073  210.631
  346.250    6.019    0.227    0.427  103.879  209.711
  346.500    5.774    0.251    0.441  105.951  207.771
  346.750    5.633    0.260    0.426  102.834  206.443
  347.000    5.433    0.256    0.410  102.221  206.642
  347.250    5.222    0.271    0.438  112.718  206.433
  347.500    5.085    0.288    0.467  120.651  207.038
  347.750    4.989    0.294    0.464  125.166  207.643
  348.000    4.732    0.250    0.466  128.459  208.553
  348.250    4.438    0.207    0.484  128.028  209.667
  348.500    4.147    0.186    0.493  123.385  210.679
  348.750    3.955    0.185    0.508  118.132  211.385
  349.000    3.866    0.173    0.525  114.099  211.788
  349.250    3.715    0.174    0.525  119.407  212.188
  349.500    3.584    0.205    0.528  118.488  212.184
  349.750    3.529    0.217    0.549  112.441  211.160
  350.000    3.683    0.218    0.515  104.562  210.341
  350.250    4.029    0.217    0.466   96.562  208.810
  350.500    4.473    0.272    0.438   89.599  208.092
  350.750    4.975    0.314    0.414   86.665  208.086
  351.000    5.261    0.296    0.420   86.356  208.182
  351.250    5.511    0.271    0.438   90.383  208.076
  351.500    5.666    0.256    0.434   94.103  207.765
  351.750    5.814    0.262    0.440   93.367  207.149
  352.000    5.900    0.275    0.454   90.312  206.329
  352.250    5.942    0.273    0.458   88.844  206.223
  352.500    5.896    0.269    0.458   87.985  205.912
  352.750    5.751    0.274    0.465   85.357  205.702
  353.000    5.569    0.279    0.480   82.546  205.494
  353.250    5.474    0.274    0.495   85.351  205.488
  353.500    5.492    0.267    0.507   87.545  205.483
  353.750    5.531    0.254    0.486   82.414  205.578
  354.000    5.612    0.242    0.489   87.355  205.777
  354.250    5.674    0.233    0.490   89.245  205.873
  354.500    5.768    0.250    0.483   89.486  205.970
  354.750    5.864    0.269    0.482   89.666  206.575
  355.000    5.939    0.284    0.489   91.860  207.384
  355.250    5.982    0.284    0.462   90.819  208.599
  355.500    5.913    0.255    0.445   86.665  209.407
  355.750    5.790    0.219    0.431   92.583  210.217
  356.000    5.564    0.238    0.456   95.571  210.720
  356.250    5.388    0.264    0.479   94.347  211.426
  356.500    5.488    0.267    0.468   96.541  211.727
  356.750    5.706    0.260    0.484   89.395  211.925
  357.000    5.921    0.287    0.419   83.165  211.920
  357.250    6.088    0.334    0.384   77.545  210.896
  357.500    6.330    0.313    0.371   76.626  209.161
  357.750    6.581    0.296    0.395   79.614  208.240
  358.000    6.653    0.288    0.413   83.885  208.336
  358.250    6.540    0.289    0.416   88.032  208.535
  358.500    6.273    0.294    0.410   91.265  208.732
  358.750    6.029    0.280    0.434   94.741  208.625
  359.000    5.870    0.261    0.448   92.724  208.518
  359.250    5.705    0.274    0.442   89.240  208.207
  359.500    5.587    0.287    0.435   88.077  208.202
  359.750    5.533    0.267    0.436   88.929  208.603
  360.000    5.551    0.251    0.445   92.100  209.209
  360.250    5.580    0.243    0.457   94.417  209.610
  360.500    5.610    0.240    0.464   95.390  209.198
  360.750    5.660    0.278    0.473   98.135  206.954
  361.000    5.722    0.300    0.473   98.803  205.015
  361.250    5.839    0.289    0.491   95.503  204.501
  361.500    5.970    0.275    0.499   94.645  203.987
  361.750    6.161    0.284    0.472   92.261  203.473
  362.000    6.393    0.301    0.445   89.327  203.162
  362.250    6.549    0.293    0.432   90.484  202.750
  362.500    6.758    0.275    0.467   93.472  202.643
  362.750    6.692    0.273    0.491   94.568  202.230
  363.000    6.480    0.276    0.510   94.320  201.920
  363.250    6.066    0.267    0.508   95.904  201.609
  363.500    5.743    0.271    0.501   98.953  201.603
  363.750    5.509    0.273    0.492   98.340  201.292
  364.000    5.375    0.272    0.487   94.246  201.287
  364.250    5.302    0.276    0.492   91.740  201.282
  364.500    5.241    0.275    0.489   91.553  201.072
  364.750    5.113    0.287    0.480   91.916  200.966
  365.000    5.045    0.297    0.472   92.341  200.553
  365.250    5.071    0.310    0.467   97.160  200.140
  365.500    5.088    0.302    0.484  102.041  199.830
  365.750    5.105    0.302    0.492  101.976  199.418
  366.000    5.113    0.300    0.485   99.837  198.903
  366.250    5.159    0.284    0.490  100.627  199.407
