~VERSION INFORMATION
 VERS.                 2.0:   CWLS LOG ASCII STANDARD -VERSION 2.0
 WRAP.                  NO:   ONE LINE PER DEPTH STEP
~WELL INFORMATION BLOCK
#MNEM.UNIT           DATA                    DESCRIPTION OF MNEMONIC
#---------    -------------------            -------------------------------
# Generated from Intellog Unique Number	CW_70_72/WELL/1032
NULL.         -999.25                        : NULL_VALUE
WELL.         TPOC ET AL CALLW 10-03         : Well_name    - WELL              
LOC .         10-03-072-21W4                 : Location     - LOCATION          
UWI .         00/10-03-072-21W4/0            : Uwi          - UNIQUE WELL ID    
ENTR.         JAYE                           : Entered      - ENTERED BY        
SRVC.         SCHLUMBERGER                   : Scn          - SERVICE COMPANY   
DATE.         12 MAR 78                      : Date         - LOG DATE          
STRT.M        323.088                        : top_depth    - START DEPTH       
STOP.M        499.838                        : bot_depth    - STOP DEPTH        
STEP.M        0.25                           : increment    - STEP LENGTH       
~CURVE INFORMATION BLOCK
#MNEM UNIT       ERCB CURVE CODE    CURVE DESCRIPTION
#-----------   ------------------   ----------------------------------
DEPT.M        00 001 00 00         : DEPTH        - DEPTH                       
DPHI.V/V      00 890 00 00         : PHID         - DENSITY POROSITY (SANDSTONE)
NPHI.V/V      00 330 00 00         : PHIN         - NEUTRON POROSITY (SANDSTONE)
GR  .API      00 310 00 00         : GR           - GAMMA RAY                   
CALI.MM       00 280 01 00         : CAL          - CALIPER                     
ILD .OHMM     00 120 00 00         : RESD         - DEEP RESISTIVITY (DIL)      
~PARAMETER INFORMATION       
#MNEM.UNIT           DATA             DESCRIPTION OF MNEMONIC
#---------         -----------     ------------------------------
GL  .M        597.713              : gl           - GROUND LEVEL ELEVATION      
EREF.M        600.761              : kb           - ELEVATION OF DEPTH REFERENCE
DATM.M        597.713              : datum        - DATUM ELEVATION             
TDD .M        502.615              : tdd          - TOTAL DEPTH DRILLER         
RUN .         ONE                  : Run          - RUN NUMBER                  
ENG .         DEROCHIE             : Engineer     - RECORDING ENGINEER          
WIT .         MACHUK EVANS         : Witness      - WITNESSED BY                
BASE.         EDM                  : Branch       - HOME BASE OF LOGGING UNIT   
MATR.         SANDSTONE            : Logunit      - NEUTRON MATRIX              
TMAX.C        20                   : BHT          - MAXIMUM RECORDED TEMPERATURE
BHTD.M        504.444              : BHTDEP       - MAXIMUM RECORDED TEMPERATURE
RMT .C        20.5556              : MDTP         - TEMPERATURE OF MUD          
MUDD.KG/M     0                    : MWT          - MUD DENSITY                 
NEUT.         1                    : NEUTRON      - NEUTRON TYPE                
RESI.         0                    : RESIST       - RESISTIVITY TYPE            
RM  .OHMM     5.12                 : RM           - RESISTIVITY OF MUD          
RMC .OHMM     0                    : RMC          - RESISTIVITY OF MUD CAKE     
RMF .OHMM     6.13                 : RMF          - RESISTIVITY OF MUD FILTRATE 
SUFT.C        -17.7778             : SUFT         - SURFACE TEMPERATURE         
~A  DEPTH     PHID     PHIN       GR      CAL     RESD
  323.088    0.175    0.523  124.139  172.504    3.172
  323.338    0.177    0.524  120.834  176.344    3.135
  323.588    0.186    0.501  116.526  178.489    3.222
  323.838    0.166    0.508  113.034  182.225    3.406
  324.088    0.149    0.539  108.789  190.416    3.709
  324.338    0.121    0.414  101.665  193.198    4.257
  324.588    0.073    0.360   96.981  180.181    4.785
  324.838    0.166    0.368  102.882  172.461    5.229
  325.088    0.212    0.402  107.595  162.833    5.803
  325.338    0.225    0.411  108.674  155.543    6.042
  325.588    0.234    0.401  107.936  151.852    6.141
  325.838    0.247    0.392  106.699  149.226    6.172
  326.088    0.243    0.390  107.341  149.996    6.183
  326.338    0.232    0.386  109.797  151.609    6.213
  326.588    0.214    0.379  112.943  152.696    6.130
  326.838    0.198    0.367  114.084  155.689    5.751
  327.088    0.187    0.378  116.793  159.957    5.415
  327.338    0.171    0.401  121.566  163.372    5.205
  327.588    0.153    0.416  118.575  165.306    5.077
  327.838    0.172    0.418  124.477  166.183    5.066
  328.088    0.203    0.410  118.855  167.264    5.245
  328.338    0.223    0.403  111.791  168.776    5.565
  328.588    0.251    0.367  103.413  169.646    5.828
  328.838    0.275    0.316   91.778  167.550    6.114
  329.088    0.285    0.320   80.456  161.319    6.524
  329.338    0.255    0.362   87.612  158.160    6.908
  329.588    0.244    0.390   93.139  157.231    6.803
  329.838    0.234    0.386   96.346  156.831    6.358
  330.088    0.213    0.390   98.866  156.431    5.921
  330.338    0.191    0.410   99.319  156.459    5.575
  330.588    0.175    0.417   94.573  157.116    5.418
  330.838    0.112    0.402   98.911  157.672    5.238
  331.088    0.131    0.389  103.935  158.335    5.148
  331.338    0.194    0.442  102.070  160.372    5.097
  331.588    0.208    0.434   96.886  163.366    5.000
  331.838    0.215    0.430  101.410  167.314    4.951
  332.088    0.246    0.409  106.561  163.099    4.968
  332.338    0.223    0.378  111.712  160.156    4.956
  332.588    0.213    0.394  116.297  161.451    5.500
  332.838    0.199    0.402  107.607  164.975    5.900
  333.088    0.203    0.391  101.922  166.060    6.320
  333.338    0.217    0.389   95.610  164.175    6.446
  333.588    0.233    0.401   84.601  160.701    6.232
  333.838    0.248    0.407   71.087  156.907    5.890
  334.088    0.267    0.388   57.886  153.432    5.734
  334.338    0.286    0.368   52.200  151.333    5.460
  334.588    0.284    0.383   54.971  149.770    5.133
  334.838    0.287    0.410   54.549  148.840    4.941
  335.088    0.287    0.384   51.305  148.551    4.636
  335.338    0.290    0.372   50.569  148.998    4.349
  335.588    0.290    0.385   52.211  149.454    3.997
  335.838    0.288    0.372   55.420  149.789    3.701
  336.088    0.276    0.373   58.942  149.809    3.783
  336.338    0.250    0.385   68.476  149.837    4.082
  336.588    0.219    0.381   81.456  149.548    4.395
  336.838    0.197    0.391   90.302  149.572    4.769
  337.088    0.205    0.387   99.585  149.591    5.213
  337.338    0.215    0.378  104.487  149.932    5.614
  337.588    0.220    0.385  104.625  150.281    5.880
  337.838    0.211    0.378  106.832  150.620    5.811
  338.088    0.206    0.369  111.606  151.386    5.585
  338.338    0.173    0.363  115.631  152.894    5.592
  338.588    0.193    0.382  117.210  155.466    5.813
  338.838    0.207    0.403  120.857  158.245    6.179
  339.088    0.212    0.412  124.379  162.515    5.232
  339.338    0.208    0.431  129.092  164.130    4.530
  339.588    0.191    0.458  135.745  165.427    3.959
  339.838    0.173    0.502  141.772  168.950    3.551
  340.088    0.156    0.551  141.787  175.339    3.198
  340.338    0.176    0.550  136.290  187.135    2.917
  340.588    0.205    0.524  137.682  174.222    2.867
  340.838    0.190    0.511  140.641  170.538    3.065
  341.088    0.188    0.528  143.535  170.770    3.426
  341.338    0.210    0.490  140.983  168.992    3.858
  341.588    0.218    0.426  134.608  166.154    4.241
  341.838    0.207    0.410  129.862  164.799    4.670
  342.088    0.201    0.421  128.624  165.354    4.974
  342.338    0.173    0.439  124.568  167.924    4.990
  342.588    0.193    0.437  118.132  170.917    4.969
  342.838    0.212    0.443  110.505  173.169    5.117
  343.088    0.215    0.473  101.813  172.030    5.763
  343.338    0.274    0.465   94.312  167.068    6.562
  343.588    0.290    0.455   86.999  161.684    7.802
  343.838    0.307    0.416   80.373  153.647    9.844
  344.088    0.292    0.417   74.375  151.977   13.384
  344.338    0.279    0.415   71.948  151.370   16.302
  344.588    0.255    0.390   72.400  151.182   19.561
  344.838    0.202    0.360   73.041  151.842   22.782
  345.088    0.102    0.312   71.114  152.286   26.930
  345.338    0.026    0.215   68.122  153.476   30.611
  345.588    0.019    0.165   67.760  154.882   33.965
  345.838    0.021    0.164   63.829  156.286   36.713
  346.088    0.012    0.178   62.904  157.262   37.317
  346.338    0.075    0.199   67.366  158.561   34.616
  346.588    0.164    0.266   70.952  159.540   29.309
  346.838    0.217    0.291   73.534  159.881   24.958
  347.088    0.242    0.336   76.553  159.695   20.934
  347.338    0.238    0.435   79.450  159.406   17.399
  347.588    0.253    0.436   83.472  159.107   14.731
  347.838    0.265    0.438   87.182  159.132   12.379
  348.088    0.255    0.468   87.948  159.479   10.758
  348.338    0.268    0.468   85.333  159.392   10.321
  348.588    0.256    0.469   84.033  159.205   10.393
  348.838    0.273    0.465   83.483  159.127    9.679
  349.088    0.251    0.459   86.316  159.149    8.763
  349.338    0.265    0.462   91.905  159.173    7.760
  349.588    0.269    0.458   98.684  160.258    7.038
  349.838    0.238    0.446  106.214  164.954    6.094
  350.088    0.237    0.484  111.051  170.596    5.396
  350.338    0.238    0.470  114.073  174.332    4.859
  350.588    0.224    0.457  117.344  164.916    5.079
  350.838    0.214    0.447  119.738  158.368    5.231
  351.088    0.209    0.437  121.631  157.119    5.345
  351.338    0.224    0.428  124.403  157.251    5.333
  351.588    0.217    0.420  127.986  159.082    5.136
  351.838    0.206    0.410  133.011  162.816    5.038
  352.088    0.193    0.434  124.821  166.763    4.926
  352.338    0.200    0.454  112.183  171.134    4.922
  352.588    0.236    0.464   90.151  172.537    5.291
  352.838    0.261    0.456   85.782  164.821    5.881
  353.088    0.283    0.456   88.740  158.270    6.710
  353.338    0.299    0.460   91.197  154.582    7.757
  353.588    0.315    0.461   87.642  153.230    9.255
  353.838    0.312    0.457   85.214  152.299   10.308
  354.088    0.295    0.447   84.164  151.367   10.380
  354.338    0.302    0.437   82.800  150.756    9.685
  354.588    0.297    0.430   81.311  150.252    8.984
  354.838    0.285    0.433   83.707  150.170    8.287
  355.088    0.269    0.441   83.971  149.982    7.615
  355.338    0.267    0.460   82.043  150.429    6.949
  355.588    0.287    0.476   86.005  150.668    6.591
  355.838    0.298    0.455   90.716  150.909    6.128
  356.088    0.311    0.450   88.289  150.829    5.910
  356.338    0.314    0.443   88.928  150.746    5.703
  356.588    0.301    0.425   92.701  150.345    5.533
  356.838    0.294    0.429   94.971  149.837    5.426
  357.088    0.290    0.443   94.484  149.647    5.464
  357.338    0.281    0.432   92.746  149.247    5.595
  357.588    0.271    0.435   98.460  149.386    5.753
  357.838    0.254    0.440  102.983  149.515    5.890
  358.088    0.242    0.445  102.497  149.222    6.054
  358.338    0.230    0.451   99.567  149.246    6.130
  358.588    0.237    0.464   97.139  149.482    6.095
  358.838    0.247    0.473   95.901  149.611    6.058
  359.088    0.261    0.454   94.976  149.952    6.042
  359.338    0.275    0.437   93.175  150.507    5.950
