~VERSION INFORMATION
 VERS.                 2.0:   CWLS LOG ASCII STANDARD -VERSION 2.0
 WRAP.                  NO:   ONE LINE PER DEPTH STEP
~WELL INFORMATION BLOCK
#MNEM.UNIT           DATA                    DESCRIPTION OF MNEMONIC
#---------    -------------------            -------------------------------
# Generated from Intellog Unique Number	CW_73_75/WELL/1033
WELL.         SULPETRO ET AT FAWCETT 11-02   : Well_name    - WELL
LOC .         00/11-02-075-21W4/0            : Location     - LOCATION
UWI .         00/11-02-075-21W4/0            : Uwi          - UNIQUE WELL ID
ENTR.         JAYE                           : Entered      - ENTERED BY
SRVC.         SCHLUMBERGER                   : Scn          - SERVICE COMPANY
DATE.         5 MAR 82                       : Date         - LOG DATE
STRT.M        370                            : top_depth    - START DEPTH
STOP.M        575                            : bot_depth    - STOP DEPTH
STEP.M        0.25                           : increment    - STEP LENGTH
 NULL. -999.2500:NULL Value
~CURVE INFORMATION BLOCK
#MNEM UNIT       ERCB CURVE CODE    CURVE DESCRIPTION
#-----------   ------------------   ----------------------------------
DEPT.M        00 001 00 00         : DEPTH        - DEPTH
ILD .OHMM     00 120 00 00         : RESD         - DEEP RESISTIVITY (DIL)
NPHI.V/V      00 330 00 00         : PHIN         - NEUTRON POROSITY (SANDSTONE)
DPHI.V/V      00 890 00 00         : PHID         - DENSITY POROSITY (SANDSTONE)
CALI.MM       00 280 01 00         : CAL          - CALIPER
GR  .API      00 310 00 00         : GR           - GAMMA RAY
~PARAMETER INFORMATION
#MNEM.UNIT           DATA             DESCRIPTION OF MNEMONIC
#---------         -----------     ------------------------------
GL  .M        676.38               : gl           - GROUND LEVEL ELEVATION
EREF.M        679.28               : kb           - ELEVATION OF DEPTH REFERENCE
DATM.M        676.38               : datum        - DATUM ELEVATION
TDD .M        598.5                : tdd          - TOTAL DEPTH DRILLER
RUN .         ONE                  : Run          - RUN NUMBER
ENG .         SMYTHE               : Engineer     - RECORDING ENGINEER
WIT .         ROWE                 : Witness      - WITNESSED BY
BASE.         EDM                  : Branch       - HOME BASE OF LOGGING UNIT
MUD .         DAPP MUD             : Mud_type     - MUD TYPE
MATR.         SANDSTONE            : Logunit      - NEUTRON MATRIX
TMAX.C        23.3                 : BHT          - MAXIMUM RECORDED TEMPERATURE
BHTD.M        598.5                : BHTDEP       - MAXIMUM RECORDED TEMPERATURE
RMT .C        16.6                 : MDTP         - TEMPERATURE OF MUD
MUDD.KG/M     1190                 : MWT          - MUD DENSITY
NEUT.         1                    : NEUTRON      - NEUTRON TYPE
RESI.         0                    : RESIST       - RESISTIVITY TYPE
RM  .OHMM     1.874                : RM           - RESISTIVITY OF MUD
RMC .OHMM     0                    : RMC          - RESISTIVITY OF MUD CAKE
RMF .OHMM     1.85                 : RMF          - RESISTIVITY OF MUD FILTRATE
SUFT.C        0                    : SUFT         - SURFACE TEMPERATURE
~A  DEPTH     RESD     PHIN     PHID      CAL       GR
# ...
  443.000    5.299    0.500    0.287  161.230   71.796
  443.250    5.718    0.349    0.119  161.677   64.948
  443.500    6.091    0.298    0.077  162.015   71.645
  443.750    6.259    0.405    0.103  162.355   79.839
  444.000    6.287    0.463    0.139  162.389   87.097
  444.250    6.210    0.489    0.256  162.413   71.010
  444.500    6.135    0.458    0.290  161.927   72.152
  444.750    5.969    0.453    0.315  161.638   75.476
  445.000    5.764    0.476    0.312  160.735   78.365
  445.250    5.546    0.489    0.310  159.719   80.442
  445.500    5.275    0.473    0.310  158.195   80.835
  445.750    5.191    0.455    0.305  157.388   76.920
  446.000    5.147    0.447    0.303  156.583   74.066
  446.250    5.121    0.447    0.312  155.882   68.840
  446.500    5.117    0.457    0.315  155.288   63.115
  446.750    5.112    0.442    0.312  155.211   58.514
  447.000    5.136    0.424    0.307  155.448   56.533
  447.250    5.150    0.447    0.296  157.142   60.858
  447.500    5.183    0.460    0.296  158.732   61.436
  447.750    5.198    0.450    0.301  160.528   58.332
  448.000    5.221    0.439    0.307  162.326   55.604
  448.250    5.215    0.433    0.311  161.112   53.314
  448.500    5.239    0.455    0.309  159.888   51.269
  448.750    5.215    0.462    0.305  155.756   50.851
  449.000    5.230    0.454    0.301  152.770   54.361
  449.250    5.245    0.455    0.305  150.924   57.564
  449.500    5.259    0.454    0.315  151.266   59.204
  449.750    5.214    0.447    0.314  152.543   58.472
  450.000    5.238    0.445    0.309  154.862   54.681
  450.250    5.243    0.443    0.313  157.596   53.014
  450.500    5.238    0.442    0.317  159.807   55.716
  450.750    5.231    0.441    0.322  161.396   57.729
  451.000    5.255    0.431    0.325  161.321   57.123
  451.250    5.220    0.419    0.315  158.750   53.272
  451.500    5.236    0.424    0.299  157.541   52.041
  451.750    5.239    0.438    0.285  157.361   53.805
  452.000    5.224    0.442    0.287  157.384   55.881
  452.250    5.228    0.454    0.289  157.726   51.093
  452.500    5.195    0.442    0.285  157.446   50.862
  452.750    5.151    0.416    0.298  157.368   54.747
  453.000    5.165    0.432    0.310  157.083   55.264
  453.250    5.159    0.437    0.313  156.900   55.843
  453.500    5.115    0.430    0.303  156.623   61.603
  453.750    5.081    0.435    0.293  156.444   61.871
  454.000    5.038    0.436    0.307  156.577   57.018
  454.250    5.043    0.441    0.314  156.915   56.600
  454.500    5.066    0.453    0.315  157.675   59.488
  454.750    5.081    0.466    0.309  158.531   61.504
  455.000    5.104    0.466    0.302  159.808   61.274
  455.250    5.109    0.457    0.294  160.877   60.041
  455.500    5.074    0.460    0.301  161.532   56.937
  455.750    5.098    0.446    0.307  161.564   55.519
  456.000    5.131    0.434    0.303  161.595   60.029
  456.250    5.145    0.437    0.304  161.515   65.352
  456.500    5.179    0.429    0.308  161.232   61.624
  456.750    5.252    0.431    0.303  161.263   57.584
  457.000    5.316    0.426    0.307  161.079   56.542
  457.250    5.341    0.411    0.321  160.900   60.178
  457.500    5.367    0.435    0.316  161.042   63.691
  457.750    5.382    0.452    0.306  160.963   60.587
  458.000    5.386    0.456    0.303  160.988   61.853
  458.250    5.360    0.442    0.299  161.330   66.427
  458.500    5.384    0.437    0.282  161.464   72.686
  458.750    5.399    0.450    0.266  161.704   68.023
  459.000    5.414    0.458    0.264  161.520   68.291
  459.250    5.481    0.441    0.266  160.612   71.615
  459.500    5.527    0.442    0.262  159.392   72.195
  459.750    5.511    0.449    0.271  159.527   70.401
  460.000    5.463    0.455    0.280  161.013   72.853
  460.250    5.418    0.450    0.281  162.499   76.928
  460.500    5.372    0.436    0.276  164.402   81.815
  460.750    5.346    0.414    0.256  166.199   86.761
  461.000    5.320    0.427    0.237  166.958   92.585
  461.250    5.315    0.459    0.220  166.877  113.324
  461.500    5.513    0.472    0.201  166.390  112.780
  461.750    5.528    0.474    0.213  166.105  110.864
  462.000    5.410    0.461    0.240  166.027  109.946
  462.250    4.728    0.459    0.232  166.268  108.151
  462.500    3.333    0.481    0.213  166.607  105.298
  462.750    2.578    0.503    0.191  166.740  103.067
  463.000    2.019    0.487    0.189  166.767  102.710
  463.250    2.183    0.474    0.187  167.222  103.539
  463.500    2.517    0.474    0.181  167.351  105.367
  463.750    2.805    0.469    0.196  167.483  107.132
  464.000    3.102    0.461    0.213  167.509  108.648
  464.250    3.335    0.483    0.225  167.850  109.602
  464.500    3.401    0.520    0.220  168.404  105.000
  464.750    3.353    0.540    0.208  168.846  104.332
  465.000    3.350    0.500    0.221  169.396  102.350
  465.250    3.475    0.472    0.230  169.631   95.813
  465.500    3.715    0.480    0.235  169.347   88.590
  465.750    4.116    0.481    0.256  167.814   86.547
  466.000    4.578    0.448    0.271  166.287   81.010
  466.250    5.015    0.425    0.299  165.691   73.224
  466.500    5.135    0.427    0.310  165.300   70.121
  466.750    5.072    0.424    0.326  165.226   71.450
  467.000    4.926    0.440    0.325  165.046   75.775
  467.250    4.694    0.515    0.286  164.661   79.412
  467.500    4.516    0.534    0.276  163.856   78.492
  467.750    4.427    0.514    0.301  162.949   70.957
  468.000    4.423    0.476    0.309  161.833   65.357
  468.250    4.460    0.452    0.312  159.993   67.809
  468.500    4.574    0.439    0.307  158.984   68.950
  468.750    4.683    0.459    0.307  158.594   67.657
  469.000    4.858    0.455    0.309  158.307   66.737
  469.250    5.011    0.439    0.303  158.027   65.945
  469.500    5.111    0.418    0.288  157.850   65.960
  469.750    5.134    0.420    0.294  157.981   64.667
  470.000    5.119    0.442    0.306  158.222   69.117
  470.250    5.095    0.462    0.315  158.348   73.751
  470.500    4.995    0.480    0.326  159.113   68.403
  470.750    4.888    0.471    0.334  159.760   65.549
  471.000    4.800    0.442    0.343  160.103   66.565
  471.250    4.751    0.453    0.340  160.232   70.889
  471.500    4.809    0.481    0.314  159.744   75.713
  471.750    4.941    0.475    0.295  159.152   79.161
  472.000    5.059    0.451    0.282  159.175   83.113
  472.250    5.121    0.460    0.271  159.310   86.063
  472.500    5.154    0.465    0.257  160.379   86.954
  472.750    5.188    0.459    0.256  161.971   87.409
  473.000    5.183    0.455    0.252  163.870   87.928
  473.250    5.207    0.473    0.239  165.251   88.068
  473.500    5.163    0.489    0.222  166.010   88.460
  473.750    5.014    0.464    0.216  166.140   88.539
  474.000    4.860    0.445    0.211  165.440   88.681
  474.250    4.756    0.443    0.233  164.639   88.261
  474.500    4.636    0.466    0.255  161.650   87.156
  474.750    4.527    0.471    0.311  158.874   83.242
  475.000    4.447    0.462    0.331  159.001   78.765
  475.250    4.368    0.476    0.341  160.695   74.349
  475.500    4.306    0.483    0.334  162.805   69.062
  475.750    4.278    0.477    0.330  164.607   66.333
  476.000    4.387    0.460    0.331  165.363   65.101
  476.250    4.525    0.434    0.333  164.353   64.119
  476.500    4.986    0.297    0.316  164.171   63.263
  476.750    5.630    0.269    0.177  164.306   62.844
  477.000    8.166    0.246    0.129  164.435   62.737
  477.250    9.647    0.238    0.109  165.610   63.129
  477.500   10.589    0.240    0.098  166.261   63.645
  477.750   10.439    0.259    0.098  166.188   64.909
  478.000   10.081    0.309    0.110  163.512   68.612
  478.250    9.662    0.408    0.293  158.754   69.439
  478.500    8.637    0.436    0.327  155.455   67.897
  478.750    5.490    0.474    0.342  155.275   69.723
  479.000    4.612    0.476    0.343  157.800   71.801
  479.250    4.256    0.468    0.341  160.638   69.883
