~VERSION INFORMATION
 VERS.                 2.0:   CWLS LOG ASCII STANDARD -VERSION 2.0
 WRAP.                  NO:   ONE LINE PER DEPTH STEP
~WELL INFORMATION BLOCK
#MNEM.UNIT           DATA                    DESCRIPTION OF MNEMONIC
#---------    -------------------            -------------------------------
# Generated from Intellog Unique Number	CS_67_68/WELL/2209
WELL.         11-24-067-04W4                 : Well_name    - WELL
LOC .         00/11-24-067-04W4/0            : Location     - LOCATION
UWI .         00/11-24-067-04W4/0            : Uwi          - UNIQUE WELL ID
ENTR.         SP                             : Entered      - ENTERED BY
SRVC.         SCHLUMBERGER                   : Scn          - SERVICE COMPANY
STRT.M        320                            : top_depth    - START DEPTH
STOP.M        553                            : bot_depth    - STOP DEPTH
STEP.M        0.25                           : increment    - STEP LENGTH
 NULL. -999.2500:NULL Value
~CURVE INFORMATION BLOCK
#MNEM UNIT       ERCB CURVE CODE    CURVE DESCRIPTION
#-----------   ------------------   ----------------------------------
DEPT.M        00 001 00 00         : DEPTH        - DEPTH
ILD .OHMM     00 120 00 00         : RESD         - DEEP RESISTIVITY (DIL)
DPHI.V/V      00 890 00 00         : PHID         - DENSITY POROSITY (LIMESTONE)
NPHI.V/V      00 330 00 00         : PHIN         - NEUTRON POROSITY (LIMESTONE)
GR  .API      00 310 00 00         : GR           - GAMMA RAY
CALI.MM       00 280 01 00         : CAL          - CALIPER
~PARAMETER INFORMATION
#MNEM.UNIT           DATA             DESCRIPTION OF MNEMONIC
#---------         -----------     ------------------------------
GL  .M        674.8                : gl           - GROUND LEVEL ELEVATION
EREF.M        678                  : kb           - ELEVATION OF DEPTH REFERENCE
DATM.M        678                  : datum        - DATUM ELEVATION
TDD .M        558                  : tdd          - TOTAL DEPTH DRILLER
RUN .         ONE                  : Run          - RUN NUMBER
ENG .         BILL                 : Engineer     - RECORDING ENGINEER
WIT .         JIM                  : Witness      - WITNESSED BY
MUD .         GEL                  : Mud_type     - MUD TYPE
MATR.         LIMESTONE            : Logunit      - NEUTRON MATRIX
TMAX.C        18.3                 : BHT          - MAXIMUM RECORDED TEMPERATURE
BHTD.M        556.5                : BHTDEP       - MAXIMUM RECORDED TEMPERATURE
MATR.         1                    : LOGUNIT      - NEUTRON MATRIX
RMT .C        25                   : MDTP         - TEMPERATURE OF MUD
NEUT.         1                    : NEUTRON      - NEUTRON TYPE
RESI.         0                    : RESIST       - RESISTIVITY TYPE
RMC .OHMM     0.25                 : RMC          - RESISTIVITY OF MUD CAKE
RMF .OHMM     0.25                 : RMF          - RESISTIVITY OF MUD FILTRATE
SUFT.C        15                   : SUFT         - SURFACE TEMPERATURE
~A  DEPTH     RESD     PHID     PHIN       GR      CAL
# ...
  393.000    6.916    0.344    0.407   47.632  156.195
  393.250    6.889    0.345    0.398   46.671  156.220
  393.500    6.889    0.339    0.410   47.116  156.247
  393.750    6.915    0.335    0.430   48.047  156.273
  394.000    6.915    0.338    0.429   49.282  156.300
  394.250    6.955    0.344    0.417   50.335  156.023
  394.500    6.955    0.348    0.422   51.268  156.047
  394.750    7.034    0.350    0.429   51.586  155.974
  395.000    7.047    0.351    0.432   50.748  155.999
  395.250    7.087    0.354    0.443   50.031  156.127
  395.500    7.060    0.344    0.450   51.268  156.158
  395.750    6.837    0.327    0.435   55.371  156.183
  396.000    6.546    0.312    0.413   62.523  156.006
  396.250    6.093    0.301    0.417   73.338  155.928
  396.500    5.461    0.296    0.430   82.321  156.364
  396.750    4.876    0.288    0.435   87.584  157.104
  397.000    4.362    0.275    0.466   92.235  158.653
  397.250    4.037    0.266    0.506   97.191  160.710
  397.500    3.946    0.257    0.534  101.599  163.075
  397.750    4.378    0.252    0.520   87.402  162.695
  398.000    4.969    0.275    0.483   77.779  161.095
  398.250    6.608    0.298    0.487   66.753  160.205
  398.500    9.732    0.320    0.495   62.682  159.725
  398.750   13.985    0.334    0.483   59.647  159.349
  399.000   18.776    0.343    0.472   60.093  159.069
  399.250   25.786    0.343    0.461   61.206  158.585
  399.500   33.462    0.341    0.462   62.075  157.999
  399.750   38.047    0.349    0.460   60.566  157.211
  400.000   35.479    0.354    0.452   59.728  156.526
  400.250   32.774    0.347    0.458   60.171  155.742
  400.500   29.990    0.339    0.463   60.612  155.361
  400.750   26.930    0.345    0.455   59.958  155.083
  401.000   23.153    0.344    0.461   57.168  155.004
  401.250   20.440    0.335    0.472   53.401  155.134
  401.500   18.320    0.332    0.488   54.335  155.466
  401.750   15.810    0.330    0.499   56.304  156.103
  402.000   14.197    0.328    0.483   56.925  156.838
  402.250   12.918    0.316    0.475   58.466  158.396
  402.500   11.798    0.297    0.444   60.314  159.027
  402.750   11.447    0.271    0.420   61.731  159.463
  403.000   11.798    0.232    0.400   62.418  159.490
  403.250   12.160    0.276    0.409   62.741  159.719
  403.500   12.322    0.303    0.455   62.938  160.252
  403.750   12.533    0.310    0.476   63.197  159.875
  404.000   12.533    0.320    0.440   62.542  159.085
  404.250   13.040    0.328    0.434   61.155  157.892
  404.500   14.250    0.333    0.477   60.684  157.104
  404.750   16.111    0.340    0.483   57.527  156.523
  405.000   18.667    0.340    0.464   55.593  156.141
  405.250   20.246    0.339    0.443   57.863  156.267
  405.500   21.670    0.337    0.427   60.197  156.395
  405.750   21.507    0.328    0.415   62.531  157.439
  406.000   17.374    0.314    0.426   64.987  158.484
  406.250   13.414    0.308    0.461   67.382  159.330
  406.500   10.297    0.323    0.485   62.885  159.550
  406.750    8.209    0.333    0.476   58.509  159.578
  407.000    7.085    0.341    0.451   58.890  159.198
  407.250    6.965    0.334    0.449   60.857  158.717
  407.500    6.939    0.325    0.439   63.680  157.930
  407.750    6.913    0.311    0.432   66.868  157.039
  408.000    6.835    0.290    0.434   70.604  155.542
  408.250    6.758    0.276    0.446   74.771  154.145
  408.500    6.694    0.282    0.432   76.736  153.155
  408.750    6.582    0.292    0.424   77.178  152.167
  409.000    6.483    0.293    0.417   75.060  151.582
  409.250    6.290    0.287    0.425   73.673  151.404
  409.500    6.126    0.281    0.457   73.871  152.547
  409.750    5.966    0.274    0.477   75.842  154.303
  410.000    5.854    0.274    0.474   77.258  156.261
  410.250    5.832    0.278    0.461   78.372  157.308
  410.500    5.832    0.284    0.450   76.619  157.534
  410.750    5.887    0.285    0.437   71.571  156.749
  411.000    6.022    0.294    0.446   70.185  155.961
  411.250    6.102    0.288    0.459   71.908  154.463
  411.500    6.230    0.285    0.466   71.863  153.572
  411.750    6.361    0.289    0.448   72.734  152.073
  412.000    6.495    0.283    0.439   73.297  150.269
  412.250    6.581    0.279    0.440   71.789  149.482
  412.500    6.631    0.292    0.440   68.572  150.017
  412.750    6.643    0.297    0.441   66.817  150.858
  413.000    6.719    0.305    0.439   65.125  151.798
  413.250    6.834    0.315    0.431   63.679  152.641
  413.500    6.925    0.311    0.424   64.730  152.970
  413.750    6.925    0.296    0.420   67.248  153.303
  414.000    6.873    0.286    0.426   68.728  153.332
  414.250    6.834    0.280    0.446   65.329  153.457
  414.500    7.030    0.292    0.448   62.293  153.788
  414.750    7.384    0.306    0.449   58.465  154.729
  415.000    7.596    0.316    0.445   58.726  155.774
  415.250    7.553    0.328    0.431   60.266  156.612
  415.500    7.567    0.316    0.446   59.184  157.352
  415.750    7.525    0.338    0.462   58.650  157.580
  416.000    7.482    0.347    0.454   61.046  157.608
  416.250    7.412    0.339    0.440   64.298  157.633
  416.500    7.342    0.330    0.437   66.201  157.764
  416.750    7.273    0.324    0.452   61.825  157.688
  417.000    7.205    0.340    0.465   56.838  157.714
  417.250    7.164    0.333    0.448   58.991  157.536
  417.500    7.083    0.328    0.444   61.998  157.459
  417.750    7.070    0.331    0.451   63.475  157.691
  418.000    6.990    0.335    0.455   63.917  157.920
  418.250    6.950    0.337    0.465   64.971  158.251
  418.500    6.911    0.338    0.471   66.328  158.586
  418.750    6.872    0.344    0.453   62.077  158.506
  419.000    6.833    0.349    0.427   59.955  158.434
  419.250    6.782    0.338    0.410   64.794  158.254
  419.500    6.655    0.318    0.406   67.428  157.773
  419.750    6.360    0.294    0.423   72.263  157.294
  420.000    5.798    0.274    0.438   75.879  157.220
  420.250    5.128    0.251    0.440   81.631  157.242
  420.500    4.502    0.229    0.446   85.365  157.472
  420.750    4.034    0.233    0.465   88.737  157.505
  421.000    3.734    0.244    0.481   91.254  157.423
  421.250    3.609    0.247    0.490   92.857  157.248
  421.500    3.589    0.248    0.498   93.605  157.071
  421.750    3.762    0.250    0.494   94.230  157.097
  422.000    4.065    0.256    0.501   93.757  157.833
  422.250    4.359    0.292    0.515   90.478  158.063
  422.500    4.755    0.320    0.513   78.111  157.579
  422.750    5.041    0.341    0.492   62.633  158.015
  423.000    5.365    0.353    0.477   56.608  158.349
  423.250    5.625    0.358    0.470   57.540  157.967
  423.500    5.852    0.361    0.458   60.361  157.482
  423.750    6.066    0.355    0.447   61.658  156.697
  424.000    6.359    0.351    0.462   56.733  156.213
  424.250    6.654    0.348    0.471   60.532  155.528
  424.500    6.936    0.343    0.476   61.523  154.845
  424.750    7.190    0.338    0.469   60.746  154.568
  425.000    7.424    0.331    0.448   59.176  154.895
  425.250    7.652    0.327    0.426   57.849  155.226
  425.500    7.857    0.326    0.463   57.500  155.255
  425.750    8.006    0.326    0.477   57.944  155.286
  426.000    8.098    0.328    0.476   58.934  155.111
  426.250    8.159    0.329    0.464   60.048  155.334
  426.500    8.283    0.327    0.461   60.734  155.770
  426.750    8.314    0.325    0.465   60.753  155.995
  427.000    8.330    0.324    0.459   60.526  156.128
  427.250    8.393    0.325    0.454   60.111  156.353
  427.500    8.489    0.333    0.445   58.846  156.684
  427.750    8.618    0.340    0.434   57.156  156.711
  428.000    8.832    0.337    0.446   55.584  156.946
  428.250    9.051    0.332    0.459   53.708  157.072
  428.500    9.241    0.327    0.471   54.822  157.404
  428.750    9.347    0.321    0.454   59.108  157.528
  429.000    9.453    0.319    0.455   60.284  157.357
  429.250    9.471    0.319    0.468   59.872  157.174
