~VERSION INFORMATION
 VERS.                 2.0:   CWLS LOG ASCII STANDARD -VERSION 2.0
 WRAP.                  NO:   ONE LINE PER DEPTH STEP
~WELL INFORMATION BLOCK
#MNEM.UNIT           DATA                    DESCRIPTION OF MNEMONIC
#---------    -------------------            -------------------------------
# Generated from Intellog Unique Number	CS_77_79/WELL/1008
WELL.         PCI PCEJ CHARD                 : Well_name    - WELL
LOC .         00/11-33-079-07W4/0            : Location     - LOCATION
UWI .         00/11-33-079-07W4/0            : Uwi          - UNIQUE WELL ID
ENTR.         JHS                            : Entered      - ENTERED BY
SRVC.         SCHLUMBERGER                   : Scn          - SERVICE COMPANY
STRT.M        140                            : top_depth    - START DEPTH
STOP.M        380                            : bot_depth    - STOP DEPTH
STEP.M        0.25                           : increment    - STEP LENGTH
 NULL. -999.2500:NULL Value
~CURVE INFORMATION BLOCK
#MNEM UNIT       ERCB CURVE CODE    CURVE DESCRIPTION
#-----------   ------------------   ----------------------------------
DEPT.M        00 001 00 00         : DEPTH        - DEPTH
DPHI.V/V      00 890 00 00         : PHID         - DENSITY POROSITY (LIMESTONE)
NPHI.V/V      00 330 00 00         : PHIN         - NEUTRON POROSITY (LIMESTONE)
GR  .API      00 310 00 00         : GR           - GAMMA RAY
ILD .OHMM     00 120 00 00         : RESD         - DEEP RESISTIVITY (DIL)
RHOB.KG/M3    00 350 00 00         : DENS         - BULK DENSITY
~PARAMETER INFORMATION
#MNEM.UNIT           DATA             DESCRIPTION OF MNEMONIC
#---------         -----------     ------------------------------
GL  .M        589.9                : gl           - GROUND LEVEL ELEVATION
EREF.M        593.55               : kb           - ELEVATION OF DEPTH REFERENCE
DATM.M        593.55               : datum        - DATUM ELEVATION
TDD .M        406                  : tdd          - TOTAL DEPTH DRILLER
RUN .         ONE                  : Run          - RUN NUMBER
ENG .         BILL                 : Engineer     - RECORDING ENGINEER
WIT .         JIM                  : Witness      - WITNESSED BY
MUD .         GEL                  : Mud_type     - MUD TYPE
MATR.         LIMESTONE            : Logunit      - NEUTRON MATRIX
TMAX.C        23                   : BHT          - MAXIMUM RECORDED TEMPERATURE
BHTD.M        406                  : BHTDEP       - MAXIMUM RECORDED TEMPERATURE
MATR.         1                    : LOGUNIT      - NEUTRON MATRIX
RMT .C        25                   : MDTP         - TEMPERATURE OF MUD
NEUT.         1                    : NEUTRON      - NEUTRON TYPE
RESI.         0                    : RESIST       - RESISTIVITY TYPE
RMC .OHMM     0.25                 : RMC          - RESISTIVITY OF MUD CAKE
RMF .OHMM     0.25                 : RMF          - RESISTIVITY OF MUD FILTRATE
SUFT.C        15                   : SUFT         - SURFACE TEMPERATURE
~A  DEPTH     PHID     PHIN       GR     RESD     DENS
  140.000    0.317    0.558  101.225    3.748    0.000
  140.250    0.320    0.577  102.459    3.610    0.000
  140.500    0.320    0.582  100.638    3.411    0.000
  140.750    0.315    0.593   96.991    3.348    0.000
  141.000    0.313    0.590   93.346    3.225    0.000
  141.250    0.313    0.595   95.796    3.225    0.000
  141.500    0.313    0.610   97.025    3.226    0.000
  141.750    0.314    0.606   96.426    3.226    0.000
  142.000    0.327    0.596   95.828    3.288    0.000
  142.250    0.337    0.590   96.451    3.288    0.000
  142.500    0.338    0.581   95.242    3.415    0.000
  142.750    0.338    0.574   95.865    3.481    0.000
  143.000    0.338    0.592   92.825    3.548    0.000
  143.250    0.330    0.611   89.788    3.616    0.000
  143.500    0.324    0.592   94.676    3.686    0.000
  143.750    0.337    0.606  100.786    3.686    0.000
  144.000    0.338    0.608   96.530    3.687    0.000
  144.250    0.339    0.600   88.614    3.618    0.000
  144.500    0.341    0.589   86.185    3.619    0.000
  144.750    0.328    0.580   91.076    3.552    0.000
  145.000    0.326    0.590   95.965    3.486    0.000
  145.250    0.341    0.598   93.537    3.486    0.000
  145.500    0.342    0.585   91.111    3.421    0.000
  145.750    0.329    0.569   92.950    3.358    0.000
  146.000    0.322    0.585   95.404    3.296    0.000
  146.250    0.328    0.615   95.412    3.234    0.000
  146.500    0.340    0.618   93.594    3.115    0.000
  146.750    0.345    0.618   88.730    3.116    0.000
  147.000    0.354    0.618   86.303    3.058    0.000
  147.250    0.354    0.615   89.360    3.001    0.000
  147.500    0.345    0.614   93.642    3.002    0.000
  147.750    0.340    0.614   89.994    2.946    0.000
  148.000    0.343    0.614   85.128    2.946    0.000
  148.250    0.354    0.610   90.627    2.947    0.000
  148.500    0.355    0.605   91.858    3.003    0.000
  148.750    0.345    0.597   91.869    3.061    0.000
  149.000    0.343    0.581   93.100    3.061    0.000
  149.250    0.360    0.570   91.892    3.005    0.000
  149.500    0.363    0.594   91.292    3.005    0.000
  149.750    0.344    0.611   94.353    3.006    0.000
  150.000    0.327    0.599   91.315    2.950    0.000
  150.250    0.340    0.576   85.840    2.895    0.000
  150.500    0.360    0.562   87.679    2.841    0.000
  150.750    0.347    0.583   90.740    2.842    0.000
  151.000    0.334    0.599   89.532    2.842    0.000
  151.250    0.331    0.614   88.932    2.843    0.000
  151.500    0.339    0.614   85.286    2.897    0.000
  151.750    0.337    0.603   85.906    2.898    0.000
  152.000    0.342    0.588   87.137    3.009    0.000
  152.250    0.341    0.564   83.490    3.185    0.000
  152.500    0.326    0.555   81.677    3.247    0.000
  152.750    0.332    0.563   82.905    3.309    0.000
  153.000    0.337    0.567   87.185    3.372    0.000
  153.250    0.316    0.563   87.805    3.503    0.000
  153.500    0.316    0.559   86.598    3.570    0.000
  153.750    0.302    0.553   85.999    3.638    0.000
  154.000    0.293    0.569   86.008    3.851    0.000
  154.250    0.313    0.579   84.801    4.000    0.000
  154.500    0.321    0.575   86.643    4.154    0.000
  154.750    0.305    0.554   88.484    4.234    0.000
  155.000    0.298    0.532   86.664    4.397    0.000
  155.250    0.292    0.515   84.238    4.482    0.000
  155.500    0.290    0.547   86.690    4.482    0.000
  155.750    0.279    0.554   85.480    4.317    0.000
  156.000    0.276    0.563   84.271    4.237    0.000
  156.250    0.317    0.570   85.502    4.158    0.000
  156.500    0.319    0.580   87.952    4.081    0.000
  156.750    0.314    0.587   91.013    4.082    0.000
  157.000    0.293    0.595   90.416    4.082    0.000
  157.250    0.274    0.553   87.986    4.321    0.000
  157.500    0.266    0.531   90.438    4.749    0.000
  157.750    0.289    0.542   92.888    5.629    0.000
  158.000    0.268    0.441   81.923    6.425    0.000
  158.250    0.133    0.323   49.006    6.549    0.000
  158.500    0.120    0.366   49.627    6.189    0.000
  158.750    0.215    0.477   61.834    5.424    0.000
  159.000    0.282    0.548   79.530    5.126    0.000
  159.250    0.291    0.523   85.030    5.031    0.000
  159.500    0.300    0.491   78.333    4.938    0.000
  159.750    0.305    0.505   84.442    4.667    0.000
  160.000    0.300    0.540   89.943    4.667    0.000
  160.250    0.290    0.518   89.954    4.940    0.000
  160.500    0.278    0.530   93.625    5.328    0.000
  160.750    0.262    0.518   84.489    5.534    0.000
  161.000    0.275    0.483   76.574    6.082    0.000
  161.250    0.317    0.483   77.805    6.560    0.000
  161.500    0.298    0.507   81.474    7.076    0.000
  161.750    0.280    0.518   86.364    7.077    0.000
  162.000    0.276    0.516   91.864    7.078    0.000
  162.250    0.291    0.523   95.532    7.491    0.000
  162.500    0.305    0.528   87.617    8.551    0.000
  162.750    0.331    0.504   80.921    9.760    0.000
  163.000    0.339    0.493   81.546   10.932    0.000
  163.250    0.346    0.496   80.943   12.015    0.000
  163.500    0.338    0.468   79.127   13.206    0.000
  163.750    0.323    0.438   74.870   13.978    0.000
  164.000    0.314    0.422   69.392   14.518    0.000
  164.250    0.320    0.420   64.524   14.797    0.000
  164.500    0.331    0.415   59.659   15.080    0.000
  164.750    0.312    0.442   76.135   15.371    0.000
  165.000    0.308    0.458   86.511   15.665    0.000
  165.250    0.336    0.448   90.790   16.270    0.000
  165.500    0.336    0.448   88.974   16.583    0.000
  165.750    0.339    0.461   92.643   16.585    0.000
  166.000    0.335    0.482   98.752   16.277    0.000
  166.250    0.324    0.489  101.812   15.096    0.000
  166.500    0.315    0.480  102.437   14.539    0.000
  166.750    0.292    0.482  100.617   14.270    0.000
  167.000    0.264    0.478   95.751   14.544    0.000
  167.250    0.252    0.472   86.004   14.822    0.000
  167.500    0.289    0.479   72.600   15.395    0.000
  167.750    0.305    0.471   69.562   15.989    0.000
  168.000    0.294    0.441   77.501   16.924    0.000
  168.250    0.282    0.439   78.124   17.249    0.000
  168.500    0.300    0.463   70.816   17.580    0.000
  168.750    0.325    0.439   66.559   17.254    0.000
  169.000    0.319    0.441   66.576   17.585    0.000
  169.250    0.255    0.429   66.583   18.967    0.000
  169.500    0.180    0.377   66.594   20.075    0.000
  169.750    0.182    0.409   65.385   21.247    0.000
  170.000    0.343    0.453   70.885   21.655    0.000
  170.250    0.364    0.464   70.289   21.254    0.000
  170.500    0.368    0.471   67.248   21.256    0.000
  170.750    0.354    0.480   73.969   20.472    0.000
  171.000    0.337    0.462   77.638   20.092    0.000
  171.250    0.332    0.450   74.601   19.721    0.000
  171.500    0.328    0.441   66.075   19.723    0.000
  171.750    0.329    0.447   53.891   19.726    0.000
  172.000    0.333    0.461   48.413   19.729    0.000
  172.250    0.344    0.432   50.867   19.732    0.000
  172.500    0.359    0.440   54.538   19.734    0.000
  172.750    0.360    0.457   55.765   19.737    0.000
  173.000    0.341    0.464   60.655   19.008    0.000
  173.250    0.308    0.463   64.935   19.012    0.000
  173.500    0.308    0.458   66.777   19.376    0.000
  173.750    0.327    0.452   68.007   20.124    0.000
  174.000    0.357    0.448   68.629   21.300    0.000
  174.250    0.363    0.457   68.031   22.544    0.000
  174.500    0.365    0.470   65.604   23.415    0.000
  174.750    0.362    0.455   62.565   23.865    0.000
  175.000    0.355    0.433   63.187   23.424    0.000
  175.250    0.349    0.437   65.026   23.425    0.000
  175.500    0.351    0.452   67.480   22.562    0.000
  175.750    0.362    0.453   68.098   22.143    0.000
  176.000    0.376    0.469   68.110   21.732    0.000
  176.250    0.378    0.443   71.781   21.328    0.000
