~VERSION INFORMATION
 VERS.                 2.0:   CWLS LOG ASCII STANDARD -VERSION 2.0
 WRAP.                  NO:   ONE LINE PER DEPTH STEP
~WELL INFORMATION BLOCK
#MNEM.UNIT           DATA                    DESCRIPTION OF MNEMONIC
#---------    -------------------            -------------------------------
# Generated from Intellog Unique Number	CS_71_72/WELL/925
WELL.         ET AL IPIATIK                  : Well_name    - WELL
LOC .         00/14-16-071-09W4/0            : Location     - LOCATION
UWI .         00/14-16-071-09W4/0            : Uwi          - UNIQUE WELL ID
ENTR.         SP                             : Entered      - ENTERED BY
SRVC.         SCHLUMBERGER                   : Scn          - SERVICE COMPANY
STRT.M        300                            : top_depth    - START DEPTH
STOP.M        500                            : bot_depth    - STOP DEPTH
STEP.M        0.25                           : increment    - STEP LENGTH
 NULL. -999.2500:NULL Value
~CURVE INFORMATION BLOCK
#MNEM UNIT       ERCB CURVE CODE    CURVE DESCRIPTION
#-----------   ------------------   ----------------------------------
DEPT.M        00 001 00 00         : DEPTH        - DEPTH
ILD .OHMM     00 120 00 00         : RESD         - DEEP RESISTIVITY (DIL)
DPHI.V/V      00 890 00 00         : PHID         - DENSITY POROSITY (LIMESTONE)
NPHI.V/V      00 330 00 00         : PHIN         - NEUTRON POROSITY (LIMESTONE)
GR  .API      00 310 00 00         : GR           - GAMMA RAY
~PARAMETER INFORMATION
#MNEM.UNIT           DATA             DESCRIPTION OF MNEMONIC
#---------         -----------     ------------------------------
GL  .M        662.6                : gl           - GROUND LEVEL ELEVATION
EREF.M        666.21               : kb           - ELEVATION OF DEPTH REFERENCE
DATM.M        662.6                : datum        - DATUM ELEVATION
TDD .M        504                  : tdd          - TOTAL DEPTH DRILLER
RUN .         ONE                  : Run          - RUN NUMBER
ENG .         BILL                 : Engineer     - RECORDING ENGINEER
WIT .         JIM                  : Witness      - WITNESSED BY
MUD .         GEL                  : Mud_type     - MUD TYPE
MATR.         LIMESTONE            : Logunit      - NEUTRON MATRIX
TMAX.C        24                   : BHT          - MAXIMUM RECORDED TEMPERATURE
BHTD.M        504                  : BHTDEP       - MAXIMUM RECORDED TEMPERATURE
MATR.         1                    : LOGUNIT      - NEUTRON MATRIX
RMT .C        25                   : MDTP         - TEMPERATURE OF MUD
NEUT.         1                    : NEUTRON      - NEUTRON TYPE
RESI.         0                    : RESIST       - RESISTIVITY TYPE
RMC .OHMM     0.25                 : RMC          - RESISTIVITY OF MUD CAKE
RMF .OHMM     0.25                 : RMF          - RESISTIVITY OF MUD FILTRATE
SUFT.C        15                   : SUFT         - SURFACE TEMPERATURE
~A  DEPTH     RESD     PHID     PHIN       GR
# ...
  474.000   12.276    0.265    0.365   52.222
  474.250   12.142    0.255    0.348   53.879
  474.500   11.698    0.249    0.364   58.789
  474.750   11.166    0.244    0.359   63.577
  475.000   11.002    0.241    0.370   62.104
  475.250   11.534    0.249    0.370   57.132
  475.500   12.250    0.268    0.361   54.432
  475.750   12.770    0.276    0.352   50.995
  476.000   13.113    0.279    0.348   46.146
  476.250   13.215    0.291    0.359   41.052
  476.500   13.021    0.286    0.355   44.367
  476.750   12.640    0.271    0.348   50.013
  477.000   12.110    0.261    0.343   52.652
  477.250   11.601    0.250    0.340   57.562
  477.500   11.177    0.241    0.371   61.675
  477.750   11.117    0.238    0.385   63.761
  478.000   11.416    0.256    0.372   57.808
  478.250   11.745    0.269    0.358   50.689
  478.500   11.881    0.268    0.350   49.277
  478.750   11.774    0.264    0.339   53.389
  479.000   11.667    0.260    0.320   56.274
  479.250   11.583    0.258    0.316   55.292
  479.500   11.761    0.270    0.329   55.477
  479.750   12.077    0.285    0.333   52.469
  480.000   12.263    0.296    0.344   45.902
  480.250   12.152    0.272    0.365   50.260
  480.500   11.796    0.262    0.380   56.704
  480.750   11.450    0.262    0.373   60.448
  481.000   11.052    0.271    0.352   56.398
  481.250   10.849    0.276    0.337   54.679
  481.500   10.711    0.272    0.332   54.434
  481.750   10.714    0.269    0.340   55.047
  482.000   10.838    0.271    0.344   56.152
  482.250   10.943    0.266    0.348   57.319
  482.500   10.804    0.258    0.350   57.196
  482.750   10.507    0.254    0.350   55.968
  483.000   10.180    0.253    0.350   57.257
  483.250    9.644    0.258    0.344   59.283
  483.500    9.449    0.253    0.339   61.431
  483.750    8.850    0.249    0.334   63.334
  484.000    7.837    0.248    0.327   65.052
  484.250    6.939    0.245    0.321   74.381
  484.500    6.191    0.222    0.323   83.097
  484.750    5.649    0.206    0.330   82.913
  485.000    5.321    0.246    0.337   74.198
  485.250    5.126    0.274    0.345   71.006
  485.500    5.118    0.282    0.356   72.786
  485.750    5.226    0.241    0.365   75.241
  486.000    5.267    0.199    0.390   90.339
  486.250    5.084    0.114    0.450  111.575
  486.500    4.843    0.143    0.486  125.630
  486.750    4.701    0.171    0.506  130.417
  487.000    4.828    0.134    0.470  131.215
  487.250    5.033    0.125    0.445  125.078
  487.500    5.178    0.172    0.426  115.994
  487.750    5.092    0.231    0.409   97.214
  488.000    4.560    0.287    0.387   56.461
  488.250    4.176    0.313    0.375   45.966
  488.500    3.719    0.319    0.365   46.825
  488.750    3.483    0.321    0.354   48.360
  489.000    3.325    0.323    0.341   50.324
  489.250    3.276    0.317    0.353   52.165
  489.500    3.402    0.312    0.364   54.866
  489.750    3.527    0.305    0.365   57.260
  490.000    3.649    0.299    0.358   60.083
  490.250    3.684    0.294    0.354   61.863
  490.500    3.678    0.293    0.352   62.968
  490.750    3.570    0.298    0.372   63.152
  491.000    3.459    0.309    0.395   51.368
  491.250    3.421    0.316    0.396   38.847
  491.500    3.442    0.314    0.382   44.249
  491.750    3.488    0.309    0.374   50.447
  492.000    3.562    0.301    0.370   56.462
  492.250    3.616    0.294    0.365   61.188
  492.500    3.763    0.287    0.356   63.152
  492.750    3.857    0.288    0.367   61.864
  493.000    4.059    0.286    0.371   62.907
  493.250    4.262    0.276    0.363   69.474
  493.500    4.459    0.266    0.353   77.514
  493.750    4.763    0.260    0.348   82.302
  494.000    5.145    0.244    0.350   86.659
  494.250    5.424    0.206    0.344   91.263
  494.500    5.783    0.214    0.337   91.324
  494.750    6.085    0.212    0.333   92.061
  495.000    6.319    0.173    0.333  101.758
  495.250    6.514    0.172    0.345  111.823
  495.500    6.577    0.184    0.359  116.120
  495.750    6.959    0.196    0.360  117.102
  496.000    8.043    0.205    0.332  115.936
  496.250   10.209    0.206    0.220  113.113
  496.500   14.205    0.031    0.177   99.794
  496.750   23.227    0.018    0.156   23.935
  497.000   27.764    0.032    0.143   17.614
  497.250   31.372    0.023    0.150   18.473
  497.500   30.281    0.042    0.171   23.874
  497.750   24.367    0.061    0.200   28.109
  498.000   21.135    0.077    0.229   33.633
  498.250   20.210    0.079    0.253   39.586
  498.500   19.952    0.067    0.245   41.489
  498.750   19.662    0.051    0.236   39.525
  499.000   19.519    0.083    0.238   38.482
  499.250   19.968    0.113    0.257   38.911
  499.500   20.699    0.131    0.282   40.262
  499.750   21.335    0.107    0.241   38.789
  500.000   22.073    0.081    0.213   37.377
