~VERSION INFORMATION
 VERS.                 2.0:   CWLS LOG ASCII STANDARD -VERSION 2.0
 WRAP.                  NO:   ONE LINE PER DEPTH STEP
~WELL INFORMATION BLOCK
#MNEM.UNIT           DATA                    DESCRIPTION OF MNEMONIC
#---------    -------------------            -------------------------------
# Generated from Intellog Unique Number	CS_67_68/WELL/818
WELL.         AMOCO CANADA PETROLEUM         : Well_name    - WELL
LOC .         00/11-03-068-18W4/0            : Location     - LOCATION
UWI .         00/11-03-068-18W4/0            : Uwi          - UNIQUE WELL ID
ENTR.         SP                             : Entered      - ENTERED BY
SRVC.         SCHLUMBERGER                   : Scn          - SERVICE COMPANY
STRT.M        289.560                        : top_depth    - START DEPTH
STOP.M        502.560                        : bot_depth    - STOP DEPTH
STEP.M        0.25                           : increment    - STEP LENGTH
 NULL. -999.2500:NULL Value
~CURVE INFORMATION BLOCK
#MNEM UNIT       ERCB CURVE CODE    CURVE DESCRIPTION
#-----------   ------------------   ----------------------------------
DEPT.M        00 001 00 00         : DEPTH        - DEPTH
GR  .API      00 310 00 00         : GR           - GAMMA RAY
DPHI.V/V      00 890 00 00         : PHID         - DENSITY POROSITY (SANDSTONE)
NPHI.V/V      00 330 00 00         : PHIN         - NEUTRON POROSITY (SANDSTONE)
ILD .OHMM     00 120 00 00         : RESD         - DEEP RESISTIVITY (DIL)
~PARAMETER INFORMATION
#MNEM.UNIT           DATA             DESCRIPTION OF MNEMONIC
#---------         -----------     ------------------------------
GL  .M        556.992              : gl           - GROUND LEVEL ELEVATION
EREF.M        561.137              : kb           - ELEVATION OF DEPTH REFERENCE
DATM.M        556.992              : datum        - DATUM ELEVATION
TDD .M        519.989              : tdd          - TOTAL DEPTH DRILLER
RUN .         ONE                  : Run          - RUN NUMBER
ENG .         BILL                 : Engineer     - RECORDING ENGINEER
WIT .         JIM                  : Witness      - WITNESSED BY
MUD .         GEL                  : Mud_type     - MUD TYPE
MATR.         SANDSTONE            : Logunit      - NEUTRON MATRIX
TMAX.C        31.6667              : BHT          - MAXIMUM RECORDED TEMPERATURE
BHTD.M        519.989              : BHTDEP       - MAXIMUM RECORDED TEMPERATURE
MATR.         1                    : LOGUNIT      - NEUTRON MATRIX
RMT .C        25                   : MDTP         - TEMPERATURE OF MUD
NEUT.         1                    : NEUTRON      - NEUTRON TYPE
RESI.         0                    : RESIST       - RESISTIVITY TYPE
RMC .OHMM     0.25                 : RMC          - RESISTIVITY OF MUD CAKE
RMF .OHMM     0.25                 : RMF          - RESISTIVITY OF MUD FILTRATE
SUFT.C        15                   : SUFT         - SURFACE TEMPERATURE
~A  DEPTH       GR     PHID     PHIN     RESD
# ...
  333.060   87.006    0.222    0.490    2.376
  333.310   87.208    0.228    0.501    2.449
  333.560   87.333    0.222    0.509    2.608
  333.810   86.010    0.213    0.492    2.787
  334.060   84.406    0.237    0.435    2.969
  334.310   82.259    0.255    0.415    3.187
  334.560   79.377    0.272    0.418    3.326
  334.810   75.457    0.282    0.422    3.335
  335.060   73.521    0.288    0.420    3.111
  335.310   73.117    0.276    0.419    2.947
  335.560   74.894    0.280    0.414    2.828
  335.810   77.587    0.286    0.409    2.732
  336.060   82.182    0.293    0.408    2.794
  336.310   86.478    0.285    0.411    2.883
  336.560   89.831    0.279    0.416    2.993
  336.810   93.022    0.274    0.419    3.132
  337.060   96.192    0.256    0.408    3.244
  337.310   97.877    0.229    0.399    3.391
  337.560   98.790    0.209    0.398    3.548
  337.810   94.792    0.226    0.415    3.699
  338.060   89.129    0.259    0.430    3.838
  338.310   80.649    0.288    0.463    3.959
  338.560   74.045    0.267    0.436    4.098
  338.810   67.755    0.258    0.401    3.970
  339.060   62.663    0.283    0.383    3.544
  339.310   56.004    0.294    0.379    3.126
  339.560   51.356    0.283    0.387    2.870
  339.810   48.362    0.307    0.392    2.577
  340.060   46.726    0.319    0.383    2.321
  340.310   48.881    0.323    0.373    2.093
  340.560   56.270    0.325    0.368    1.975
  340.810   60.415    0.325    0.355    2.111
  341.060   67.950    0.287    0.347    2.297
  341.310   75.455    0.264    0.355    2.465
  341.560   79.894    0.256    0.379    2.606
  341.810   77.420    0.253    0.387    2.755
  342.060   74.016    0.256    0.388    2.863
  342.310   75.368    0.269    0.390    2.934
  342.560   78.437    0.279    0.387    3.060
  342.810   82.535    0.241    0.380    3.275
  343.060   85.095    0.236    0.376    3.513
  343.310   85.651    0.295    0.422    3.714
  343.560   83.837    0.355    0.498    3.896
  343.810   79.760    0.382    0.552    3.969
  344.060   80.335    0.371    0.560    3.855
  344.310   82.856    0.298    0.483    3.819
  344.560   83.075    0.260    0.445    3.810
  344.810   79.953    0.241    0.424    3.860
  345.060   76.753    0.248    0.432    4.125
  345.310   73.888    0.263    0.437    4.463
  345.560   71.170    0.282    0.435    4.892
  345.810   68.981    0.291    0.442    5.276
  346.060   68.782    0.299    0.450    5.710
  346.310   69.172    0.310    0.444    5.755
  346.560   69.909    0.305    0.424    5.453
  346.810   70.406    0.300    0.415    4.986
  347.060   70.858    0.290    0.414    4.537
  347.310   71.435    0.275    0.411    4.177
  347.560   71.773    0.264    0.413    3.938
  347.810   71.321    0.250    0.424    3.717
  348.060   70.047    0.264    0.434    3.590
  348.310   69.766    0.259    0.422    3.482
  348.560   72.547    0.252    0.432    3.404
  348.810   74.691    0.256    0.432    3.302
  349.060   77.327    0.249    0.419    3.238
  349.310   78.933    0.256    0.421    3.156
  349.560   80.161    0.257    0.438    3.063
  349.810   80.500    0.251    0.430    3.000
  350.060   78.652    0.250    0.436    2.969
  350.310   75.216    0.243    0.440    2.954
  350.560   74.017    0.238    0.431    2.990
  350.810   73.391    0.240    0.425    3.052
  351.060   73.440    0.266    0.430    3.109
  351.310   73.406    0.282    0.421    3.165
  351.560   73.352    0.270    0.419    3.200
  351.810   74.375    0.268    0.414    3.243
  352.060   77.029    0.268    0.419    3.307
  352.310   79.599    0.260    0.432    3.403
  352.560   80.640    0.249    0.439    3.525
  352.810   79.216    0.237    0.431    3.718
  353.060   77.968    0.220    0.437    3.900
  353.310   78.596    0.191    0.423    3.968
  353.560   81.764    0.160    0.409    3.877
  353.810   85.201    0.171    0.393    3.929
  354.060   88.016    0.226    0.385    3.902
  354.310   89.718    0.239    0.420    3.847
  354.560   91.286    0.223    0.431    3.803
  354.810   93.518    0.206    0.413    3.796
  355.060   95.869    0.162    0.412    3.809
  355.310   97.620    0.163    0.424    3.798
  355.560   97.489    0.174    0.438    3.795
  355.810  100.288    0.183    0.451    3.823
  356.060  102.925    0.192    0.470    3.897
  356.310  104.358    0.215    0.465    4.031
  356.560  103.925    0.237    0.440    4.162
  356.810  102.561    0.200    0.419    4.353
  357.060  102.149    0.206    0.408    4.556
  357.310  102.283    0.193    0.392    4.804
  357.560  103.258    0.196    0.374    4.965
  357.810  103.083    0.201    0.371    4.960
  358.060  101.000    0.202    0.378    4.942
  358.310   97.077    0.209    0.384    4.868
  358.560   93.392    0.208    0.381    4.729
  358.810   92.880    0.201    0.383    4.632
  359.060   94.349    0.194    0.391    4.522
  359.310   95.330    0.191    0.408    4.462
  359.560   96.540    0.200    0.420    4.378
  359.810   97.467    0.203    0.421    4.261
  360.060   98.210    0.200    0.426    4.173
  360.310   99.729    0.210    0.441    4.062
  360.560  102.088    0.193    0.446    3.978
  360.810  103.487    0.191    0.445    3.911
  361.060  105.621    0.180    0.442    3.914
  361.310  108.841    0.195    0.425    4.015
  361.560  110.109    0.212    0.418    4.084
  361.810  111.016    0.199    0.431    4.164
  362.060  107.083    0.198    0.421    4.259
  362.310  106.276    0.196    0.410    4.356
  362.560  106.527    0.170    0.399    4.444
  362.810  106.977    0.156    0.399    4.478
  363.060  106.828    0.166    0.417    4.397
  363.310  106.593    0.168    0.424    4.109
  363.560  108.440    0.180    0.432    3.804
  363.810  110.709    0.187    0.431    3.659
  364.060  112.639    0.189    0.448    3.443
  364.310  111.391    0.205    0.466    3.230
  364.560  105.638    0.232    0.465    3.154
  364.810   97.933    0.227    0.440    3.183
  365.060   92.075    0.213    0.435    3.335
  365.310   87.057    0.256    0.443    3.442
  365.560   82.975    0.238    0.441    3.496
  365.810   81.691    0.198    0.435    3.450
  366.060   83.479    0.181    0.432    3.385
  366.310   86.146    0.180    0.430    3.362
  366.560   86.620    0.208    0.428    3.270
  366.810   83.587    0.240    0.428    3.238
  367.060   81.329    0.258    0.445    3.291
  367.310   80.726    0.291    0.463    3.364
  367.560   79.220    0.322    0.579    3.476
  367.810   78.635    0.378    0.477    3.564
  368.060   79.644    0.361    0.449    3.572
  368.310   80.489    0.311    0.438    3.417
  368.560   79.718    0.271    0.442    3.261
  368.810   78.608    0.268    0.435    3.136
  369.060   78.011    0.272    0.428    3.042
  369.310   78.669    0.275    0.434    3.024
  369.560   80.184    0.273    0.445    2.832
  369.810   81.993    0.275    0.454    2.819
  370.060   83.720    0.271    0.452    2.830
  370.310   83.109    0.262    0.437    2.882
  370.560   84.426    0.257    0.428    2.939
  370.810   86.459    0.240    0.422    2.988
  371.060   88.051    0.220    0.433    3.014
  371.310   88.995    0.245    0.442    3.036
  371.560   88.462    0.251    0.442    3.077
  371.810   87.101    0.243    0.425    3.121
  372.060   85.873    0.240    0.412    3.154
  372.310   85.922    0.246    0.397    3.219
  372.560   88.406    0.240    0.402    3.268
  372.810   89.418    0.227    0.419    3.352
  373.060   90.253    0.221    0.435    3.383
  373.310   90.939    0.232    0.449    3.419
  373.560   91.563    0.225    0.447    3.472
  373.810   92.990    0.215    0.446    3.493
  374.060   94.458    0.204    0.452    3.509
  374.310   96.407    0.195    0.443    3.520
  374.560   98.023    0.187    0.443    3.536
  374.810   99.186    0.196    0.447    3.572
  375.060   97.093    0.220    0.433    3.592
  375.310   92.554    0.218    0.423    3.644
  375.560   87.190    0.245    0.426    3.675
  375.810   85.733    0.238    0.419    3.713
  376.060   87.750    0.222    0.412    3.698
  376.310   91.084    0.207    0.406    3.581
