~VERSION INFORMATION
 VERS.                 2.0:   CWLS LOG ASCII STANDARD -VERSION 2.0
 WRAP.                  NO:   ONE LINE PER DEPTH STEP
~WELL INFORMATION BLOCK
#MNEM.UNIT           DATA                    DESCRIPTION OF MNEMONIC
#---------    -------------------            -------------------------------
# Generated from Intellog Unique Number	CW_82_90/WELL/928
WELL.         TEXEX WABASCA 10-27            : Well_name    - WELL
LOC .         00/10-27-082-24W4/0            : Location     - LOCATION
UWI .         00/10-27-082-24W4/0            : Uwi          - UNIQUE WELL ID
ENTR.         JAYE                           : Entered      - ENTERED BY
SRVC.         SCHLUMBERGER                   : Scn          - SERVICE COMPANY
STRT.M        228.6                          : top_depth    - START DEPTH
STOP.M        457.1                          : bot_depth    - STOP DEPTH
STEP.M        0.25                           : increment    - STEP LENGTH
 NULL. -999.2500:NULL Value
~CURVE INFORMATION BLOCK
#MNEM UNIT       ERCB CURVE CODE    CURVE DESCRIPTION
#-----------   ------------------   ----------------------------------
DEPT.M        00 001 00 00         : DEPTH        - DEPTH
CALI.MM       00 280 01 00         : CAL          - CALIPER
GR  .API      00 310 00 00         : GR           - GAMMA RAY
DPHI.V/V      00 890 00 00         : PHID         - DENSITY POROSITY (SANDSTONE)
NPHI.V/V      00 330 00 00         : PHIN         - NEUTRON POROSITY (SANDSTONE)
ILD .OHMM     00 120 00 00         : RESD         - DEEP RESISTIVITY (DIL)
~PARAMETER INFORMATION
#MNEM.UNIT           DATA             DESCRIPTION OF MNEMONIC
#---------         -----------     ------------------------------
GL  .M        599.572              : gl           - GROUND LEVEL ELEVATION
EREF.M        603.23               : kb           - ELEVATION OF DEPTH REFERENCE
DATM.M        599.572              : datum        - DATUM ELEVATION
TDD .M        491.033              : tdd          - TOTAL DEPTH DRILLER
RUN .         ONE                  : Run          - RUN NUMBER
ENG .         EARLEY               : Engineer     - RECORDING ENGINEER
WIT .         SEVERS               : Witness      - WITNESSED BY
BASE.         EDMONTON             : Branch       - HOME BASE OF LOGGING UNIT
MUD .         WATER & LOST CIRC    : Mud_type     - MUD TYPE
MATR.         SANDSTONE            : Logunit      - NEUTRON MATRIX
TMAX.C        18.8889              : BHT          - MAXIMUM RECORDED TEMPERATURE
BHTD.M        490.728              : BHTDEP       - MAXIMUM RECORDED TEMPERATURE
RMT .C        4.44444              : MDTP         - TEMPERATURE OF MUD
MUDD.KG/M     1000                 : MWT          - MUD DENSITY
NEUT.         1                    : NEUTRON      - NEUTRON TYPE
RESI.         0                    : RESIST       - RESISTIVITY TYPE
RM  .OHMM     0.25                 : RM           - RESISTIVITY OF MUD
RMC .OHMM     0.25                 : RMC          - RESISTIVITY OF MUD CAKE
RMF .OHMM     0.25                 : RMF          - RESISTIVITY OF MUD FILTRATE
SUFT.C        4                    : SUFT         - SURFACE TEMPERATURE
~A  DEPTH      CAL       GR     PHID     PHIN     RESD
  228.600  236.237  109.953    0.276    0.578    2.271
  228.850  235.001  115.732    0.272    0.581    2.300
  229.100  233.041  116.976    0.261    0.593    2.315
  229.350  232.117  109.717    0.259    0.578    2.319
  229.600  231.295  109.285    0.252    0.582    2.296
  229.850  234.612  109.352    0.234    0.556    2.324
  230.100  238.551  112.646    0.246    0.549    2.353
  230.350  236.694  112.773    0.250    0.561    2.396
  230.600  233.597  113.833    0.262    0.569    2.453
  230.850  234.844  115.451    0.253    0.577    2.512
  231.100  237.541  115.020    0.232    0.570    2.577
  231.350  231.235  114.775    0.221    0.568    2.683
  231.600  228.760  112.607    0.226    0.575    2.836
  231.850  226.902  110.250    0.246    0.587    2.980
  232.100  225.874  105.040    0.249    0.601    3.040
  232.350  224.741  103.056    0.231    0.573    3.055
  232.600  224.023  105.296    0.228    0.557    3.031
  232.850  222.788  110.700    0.236    0.556    2.973
  233.100  221.656  112.629    0.237    0.566    2.927
  233.350  220.524  114.681    0.202    0.580    2.931
  233.600  219.599  115.492    0.169    0.591    2.940
  233.850  219.194  107.673    0.222    0.581    2.927
  234.100  219.094  100.537    0.234    0.560    2.898
  234.350  218.893   94.953    0.230    0.542    2.881
  234.600  218.796   83.844    0.216    0.517    3.207
  234.850  218.802   69.754    0.239    0.491    3.551
  235.100  218.188   60.010    0.251    0.455    4.252
  235.350  217.159   52.067    0.287    0.448    5.177
  235.600  213.337   51.388    0.313    0.448    6.153
  235.850  211.584   51.081    0.323    0.461    8.149
  236.100  211.177   49.409    0.320    0.470   15.576
  236.350  210.872   50.159    0.327    0.463   21.810
  236.600  210.568   52.584    0.305    0.461   25.395
  236.850  210.678   54.946    0.297    0.468   27.343
  237.100  210.995   62.151    0.303    0.470   28.103
  237.350  211.933   67.370    0.308    0.472   29.152
  237.600  212.146   70.727    0.310    0.480   30.579
  237.850  211.945   74.766    0.311    0.485   31.722
  238.100  211.227   73.156    0.305    0.485   33.028
  238.350  210.819   68.130    0.301    0.484   34.006
  238.600  210.826   62.671    0.297    0.478   34.757
  238.850  210.729   58.328    0.302    0.470   36.255
  239.100  210.528   55.973    0.310    0.460   37.469
  239.350  210.430   55.977    0.321    0.448   38.725
  239.600  210.541   57.719    0.323    0.440   40.094
  239.850  211.376   58.343    0.327    0.439   40.522
  240.100  212.001   57.416    0.321    0.441   41.176
  240.350  212.318   57.047    0.316    0.446   41.156
  240.600  212.842   57.610    0.316    0.456   40.147
  240.850  213.369   55.813    0.320    0.457   39.090
  241.100  213.164   54.327    0.326    0.456   38.921
  241.350  212.655   52.592    0.326    0.460   38.536
  241.600  211.629   50.858    0.328    0.470   38.653
  241.850  211.631   50.427    0.319    0.472   38.992
  242.100  211.844   50.803    0.318    0.473   39.115
  242.350  212.264   52.669    0.309    0.472   38.512
  242.600  212.064   53.294    0.300    0.469   37.709
  242.850  211.657   52.614    0.305    0.460   36.375
  243.100  211.249   50.694    0.300    0.455   34.505
  243.350  211.151   51.567    0.307    0.450   32.669
  243.600  212.089   53.247    0.315    0.448   30.932
  243.850  212.302   52.381    0.308    0.466   29.287
  244.100  211.791   51.206    0.305    0.482   27.834
  244.350  211.282   51.768    0.327    0.468   26.699
  244.600  210.872   52.020    0.315    0.454   26.141
  244.850  208.809   50.596    0.285    0.415   26.716
  245.100  208.401   49.544    0.246    0.390   28.500
  245.350  209.546   51.039    0.243    0.392   29.505
  245.600  211.001   54.705    0.259    0.397   29.990
  245.850  211.421   60.606    0.263    0.434   30.532
  246.100  211.531   67.626    0.293    0.476   29.563
  246.350  211.433   67.878    0.311    0.495   28.097
  246.600  211.958   66.454    0.305    0.502   26.355
  246.850  212.170   63.974    0.320    0.487   25.048
  247.100  212.694   60.998    0.330    0.476   24.162
  247.350  212.493   58.953    0.316    0.488   23.744
  247.600  212.190   56.473    0.322    0.494   23.863
  247.850  211.370   54.304    0.340    0.487   24.161
  248.100  210.753   53.501    0.342    0.464   24.646
  248.350  210.759   52.139    0.348    0.458   25.047
  248.600  211.490   50.342    0.342    0.469   25.361
  248.850  212.325   51.153    0.335    0.476   25.633
  249.100  212.952   51.777    0.334    0.483   25.856
  249.350  212.444   52.464    0.339    0.489   26.034
  249.600  212.550   51.226    0.343    0.490   26.116
  249.850  212.763   48.374    0.348    0.486   26.197
  250.100  212.976   47.881    0.349    0.482   26.325
  250.350  213.399   49.065    0.362    0.491   26.457
  250.600  213.092   49.131    0.364    0.504   26.640
  250.850  212.374   50.003    0.352    0.508   26.823
  251.100  211.138   51.187    0.346    0.499   26.957
  251.350  208.870   50.818    0.335    0.498   26.939
  251.600  207.426   50.139    0.331    0.499   26.924
  251.850  201.743   49.521    0.326    0.494   26.909
  252.100  196.369   49.091    0.311    0.478   26.742
  252.350  194.510   48.970    0.300    0.496   26.825
  252.600  196.276   49.098    0.312    0.482   26.910
  252.850  201.559   52.144    0.328    0.491   26.993
  253.100  208.602   49.292    0.335    0.486   27.027
  253.350  212.540   48.179    0.345    0.484   27.009
  253.600  214.823   48.741    0.341    0.490   26.892
  253.850  216.692   50.297    0.325    0.484   26.876
  254.100  217.942   50.983    0.340    0.490   26.961
  254.350  218.567   51.112    0.340    0.491   26.744
  254.600  218.366   51.612    0.324    0.492   26.481
  254.850  217.545   53.106    0.339    0.506   26.317
  255.100  215.793   55.344    0.347    0.506   26.008
  255.350  214.247   58.391    0.342    0.492   25.654
  255.600  212.701   59.636    0.339    0.483   25.120
  255.850  211.672   59.205    0.326    0.493   24.503
  256.100  210.852   57.967    0.333    0.486   24.171
  256.350  210.960   57.102    0.346    0.481   23.933
  256.600  212.727   57.043    0.343    0.485   23.653
  256.850  215.422   56.426    0.336    0.502   23.201
  257.100  219.774   55.996    0.333    0.501   22.930
  257.350  220.919   56.248    0.338    0.499   22.619
  257.600  220.200   57.680    0.341    0.519   22.020
  257.850  217.830   62.401    0.341    0.524   21.521
  258.100  217.316   68.365    0.336    0.514   21.152
  258.350  216.184   72.032    0.324    0.508   20.027
  258.600  216.191   72.408    0.302    0.509   18.474
  258.850  217.231   70.487    0.280    0.497   16.726
  259.100  218.789   69.498    0.275    0.497   14.864
  259.350  219.727   69.936    0.265    0.490   13.334
  259.600  217.768   71.493    0.279    0.493   12.766
  259.850  215.704   74.290    0.292    0.502   12.313
  260.100  214.261   81.992    0.294    0.515   11.638
  260.350  213.233   83.610    0.267    0.525    9.817
  260.600  212.518   85.538    0.287    0.510    8.265
  260.850  212.315   90.385    0.295    0.498    7.553
  261.100  212.217   99.018    0.281    0.537    5.794
  261.350  213.673  113.053    0.240    0.559    4.806
  261.600  215.029  114.858    0.229    0.551    4.077
  261.850  215.030  113.620    0.223    0.563    3.562
  262.100  214.520  113.313    0.227    0.574    3.243
  262.350  213.805  114.000    0.239    0.557    3.037
  262.600  213.600  112.203    0.243    0.553    2.897
  262.850  214.540  106.495    0.247    0.535    2.955
  263.100  215.682  100.415    0.258    0.547    3.060
  263.350  217.240   94.148    0.246    0.560    3.478
  263.600  217.871   86.763    0.258    0.543    4.141
  263.850  217.563   78.572    0.264    0.525    5.392
  264.100  215.914   73.112    0.283    0.506    6.943
  264.350  213.647   71.377    0.301    0.477    7.935
  264.600  213.340   73.554    0.275    0.456    8.528
  264.850  213.553   78.090    0.241    0.440    8.896
