~VERSION INFORMATION
 VERS.                 2.0:   CWLS LOG ASCII STANDARD -VERSION 2.0
 WRAP.                  NO:   ONE LINE PER DEPTH STEP
~WELL INFORMATION BLOCK
#MNEM.UNIT           DATA                    DESCRIPTION OF MNEMONIC
#---------    -------------------            -------------------------------
# Generated from Intellog Unique Number	CW_82_90/WELL/3448
WELL.         NUMAC LIEGE                    : Well_name    - WELL
LOC .         00/11-14-088-21W4/0            : Location     - LOCATION
UWI .         00/11-14-088-21W4/0            : Uwi          - UNIQUE WELL ID
ENTR.         MAX                            : Entered      - ENTERED BY
SRVC.         WESTERN ATLAS                  : Scn          - SERVICE COMPANY
STRT.M        125                            : top_depth    - START DEPTH
STOP.M        303                            : bot_depth    - STOP DEPTH
STEP.M        0.25                           : increment    - STEP LENGTH
 NULL. -999.2500:NULL Value
~CURVE INFORMATION BLOCK
#MNEM UNIT       ERCB CURVE CODE    CURVE DESCRIPTION
#-----------   ------------------   ----------------------------------
DEPT.M        00 001 00 00         : DEPTH        - DEPTH
ILD .OHMM     00 120 00 00         : RESD         - DEEP RESISTIVITY (DIL)
NPHI.V/V      00 330 00 00         : PHIN         - NEUTRON POROSITY (SANDSTONE)
DPHI.V/V      00 890 00 00         : PHID         - DENSITY POROSITY (SANDSTONE)
CALI.MM       00 280 01 00         : CAL          - CALIPER
GR  .API      00 310 00 00         : GR           - GAMMA RAY
~PARAMETER INFORMATION
#MNEM.UNIT           DATA             DESCRIPTION OF MNEMONIC
#---------         -----------     ------------------------------
GL  .M        529.86               : gl           - GROUND LEVEL ELEVATION
EREF.M        532.96               : kb           - ELEVATION OF DEPTH REFERENCE
DATM.M        529.86               : datum        - DATUM ELEVATION
TDD .M        304                  : tdd          - TOTAL DEPTH DRILLER
RUN .         ONE                  : Run          - RUN NUMBER
ENG .         BILL                 : Engineer     - RECORDING ENGINEER
WIT .         JIM                  : Witness      - WITNESSED BY
MUD .         GEL                  : Mud_type     - MUD TYPE
MATR.         SANDSTONE            : Logunit      - NEUTRON MATRIX
TMAX.C        18                   : BHT          - MAXIMUM RECORDED TEMPERATURE
BHTD.M        304                  : BHTDEP       - MAXIMUM RECORDED TEMPERATURE
MATR.         1                    : LOGUNIT      - NEUTRON MATRIX
RMT .C        18                   : MDTP         - TEMPERATURE OF MUD
NEUT.         1                    : NEUTRON      - NEUTRON TYPE
RESI.         0                    : RESIST       - RESISTIVITY TYPE
RMC .OHMM     2.5                  : RMC          - RESISTIVITY OF MUD CAKE
RMF .OHMM     1                    : RMF          - RESISTIVITY OF MUD FILTRATE
SUFT.C        -1                   : SUFT         - SURFACE TEMPERATURE
~A  DEPTH     RESD     PHIN     PHID      CAL       GR
# ...
  234.500   27.333    0.273    0.087  213.235   80.279
  234.750   23.601    0.274    0.198  211.796   86.269
  235.000   21.936    0.340    0.173  214.818   85.711
  235.250   19.472    0.356    0.139  217.360   84.837
  235.500   18.267    0.343    0.107  218.400   87.253
  235.750   17.624    0.326    0.187  218.931   89.960
  236.000   17.647    0.329    0.208  219.474   92.969
  236.250   18.167    0.396    0.211  219.520   96.283
  236.500   18.876    0.380    0.205  219.075   98.994
  236.750   19.612    0.365    0.182  218.127   93.056
  237.000   20.000    0.378    0.157  217.191   87.721
  237.250   20.214    0.367    0.099  216.735   84.763
  237.500   20.238    0.334    0.155  215.781   79.723
  237.750   19.528    0.354    0.106  215.839   77.667
  238.000   18.668    0.330    0.129  215.891   89.020
  238.250   18.005    0.331    0.166  216.416   98.591
  238.500   17.212    0.368    0.180  216.468  101.600
  238.750   16.603    0.382    0.201  217.017  104.609
  239.000   16.023    0.381    0.181  217.057   97.184
  239.250   15.889    0.384    0.145  216.115   93.932
  239.500   15.911    0.391    0.222  214.174   94.258
  239.750   16.081    0.411    0.205  213.717   97.266
  240.000   16.401    0.387    0.171  213.272   95.509
  240.250   16.881    0.353    0.155  212.821   94.944
  240.500   17.540    0.370    0.172  211.873   94.372
  240.750   18.400    0.403    0.175  210.926   89.927
  241.000   18.249    0.376    0.085  210.481   85.185
  241.250   17.936    0.345    0.061  213.017   79.545
  241.500   16.985    0.326    0.056  214.548   87.036
  241.750   15.940    0.330    0.089  215.097   91.528
  242.000   15.663    0.372    0.140  215.137   96.926
  242.250   15.682    0.370    0.188  215.177  100.829
  242.500   16.451    0.387    0.209  214.732   99.370
  242.750   16.626    0.401    0.159  215.292   94.922
  243.000   16.490    0.365    0.092  215.824   83.323
  243.250   16.057    0.360    0.162  215.870   86.033
  243.500   15.491    0.379    0.203  215.910   91.129
  243.750   15.510    0.372    0.153  215.962   90.262
  244.000   15.526    0.373    0.126  214.523  100.728
  244.250   15.123    0.358    0.163  214.563  104.635
  244.500   14.723    0.360    0.162  217.597   99.889
  244.750   13.440    0.379    0.140  217.637   91.271
  245.000   12.610    0.373    0.156  216.689   90.404
  245.250   11.941    0.376    0.185  216.238   94.009
  245.500   11.733    0.377    0.197  215.788   99.109
  245.750   11.534    0.372    0.211  216.336  102.714
  246.000   11.983    0.374    0.202  217.370  104.530
  246.250   13.163    0.348    0.206  217.913  106.347
  246.500   15.006    0.395    0.206  217.977  109.061
  246.750   16.334    0.395    0.197  218.017   98.352
  247.000   16.503    0.364    0.199  214.591   93.017
  247.250   16.525    0.368    0.220  213.140   93.936
  247.500   16.702    0.353    0.217  212.689   97.250
  247.750   17.191    0.335    0.214  212.239   98.466
  248.000   18.539    0.338    0.215  212.285   99.690
  248.250   20.939    0.351    0.221  212.325   99.416
  248.500   24.543    0.351    0.205  212.879   97.059
  248.750   24.801    0.337    0.108  213.925   88.441
  249.000   22.635    0.319    0.019  215.450   83.098
  249.250   19.538    0.286    0.075  217.490   91.775
  249.500   17.668    0.282    0.139  219.026  100.452
  249.750   16.271    0.326    0.180  219.569  106.446
  250.000   10.482    0.358    0.189  222.179  105.132
  250.250   10.759    0.341    0.185  221.220  106.941
  250.500   11.325    0.345    0.192  220.254  111.441
  250.750   12.322    0.359    0.203  219.793  109.970
  251.000   13.522    0.348    0.216  219.822  104.313
  251.250   12.345    0.353    0.204  219.859   99.256
  251.500   10.367    0.340    0.015  218.897   94.199
  251.750    8.563    0.322    0.125  218.934  106.463
  252.000    7.373    0.364    0.172  219.955  114.248
  252.250    6.565    0.393    0.207  223.484  119.051
  252.500    6.462    0.373    0.210  225.006  114.887
  252.750    6.578    0.383    0.201  225.039  109.531
  253.000    6.980    0.415    0.181  224.575  108.359
  253.250    7.788    0.391    0.173  224.106  106.585
  253.500    9.371    0.357    0.203  224.139  104.514
  253.750   12.054    0.341    0.200  223.176  101.553
  254.000   14.142    0.333    0.147  219.232   96.789
  254.250   14.039    0.339    0.001  218.274   86.058
  254.500   13.142    0.319    0.100  218.796   90.856
  254.750   12.406    0.331    0.157  222.313  100.731
  255.000   11.617    0.378    0.196  223.346  103.439
  255.250   10.873    0.387    0.204  222.885  107.341
  255.500   10.180    0.378    0.189  222.923  109.458
  255.750    9.938    0.363    0.198  222.454  107.087
  256.000   10.548    0.365    0.195  220.990  110.389
  256.250   11.383    0.352    0.187  218.538  110.708
  256.500   11.682    0.372    0.139  217.082   93.708
  256.750   11.403    0.371    0.089  217.609   99.698
  257.000   10.326    0.347    0.146  219.629  107.482
  257.250    9.994    0.350    0.173  221.155  106.307
  257.500    9.514    0.385    0.127  218.708  104.239
  257.750    8.908    0.369    0.094  215.754  106.947
  258.000    8.695    0.370    0.198  217.276  111.449
  258.250    8.417    0.369    0.206  220.300  111.765
  258.500    8.149    0.358    0.160  219.333  105.812
  258.750    7.953    0.356    0.141  217.380  110.610
  259.000    7.830    0.391    0.217  218.910  119.589
  259.250    7.772    0.424    0.212  220.926  125.581
  259.500    7.843    0.426    0.207  219.470  119.927
  259.750    7.854    0.400    0.213  218.006  112.780
  260.000    7.795    0.386    0.211  216.554  114.293
  260.250    7.673    0.392    0.197  216.579  117.602
  260.500    7.808    0.409    0.194  217.620  122.995
  260.750    8.787    0.418    0.190  219.137  123.612
  261.000   11.209    0.389    0.184  220.170  126.917
  261.250   14.060    0.346    0.181  220.697  122.159
  261.500   14.312    0.318    0.130  219.241   99.781
  261.750   13.853    0.299    0.089  217.283   85.464
  262.000   12.438    0.290    0.049  217.814   98.629
  262.250   10.891    0.339    0.144  219.838  111.189
  262.500   10.112    0.363    0.171  221.360  118.674
  262.750   10.122    0.360    0.157  221.895  113.321
  263.000   10.131    0.356    0.143  220.435  113.943
  263.250   10.056    0.352    0.139  218.983  116.651
  263.500   10.235    0.338    0.146  219.505  118.756
  263.750   11.614    0.336    0.167  221.529  119.075
  264.000   14.090    0.343    0.180  221.562  110.434
  264.250   16.811    0.309    0.192  220.604  111.649
  264.500   16.689    0.281    0.149  220.140  104.800
  264.750   15.107    0.271    0.088  218.178  102.430
  265.000   13.228    0.260    0.001  217.219  111.409
  265.250   12.384    0.309    0.102  217.750  118.303
  265.500   11.691    0.341    0.173  219.276  109.958
  265.750   11.223    0.333    0.178  221.300  109.381
  266.000   11.328    0.343    0.181  222.329  104.921
  266.250   13.071    0.348    0.188  222.366  104.941
  266.500   14.225    0.338    0.170  221.901  108.545
  266.750   13.657    0.354    0.122  221.437  104.682
  267.000   11.183    0.342   -0.010  222.461   88.573
  267.250    9.630    0.306    0.051  222.494   97.258
  267.500    8.503    0.313    0.146  222.527  108.624
  267.750    7.959    0.347    0.175  223.556  113.422
  268.000    7.577    0.367    0.196  224.091  116.431
  268.250    7.337    0.399    0.195  224.621  115.555
  268.500    7.223    0.423    0.192  224.161  111.396
  268.750    7.229    0.423    0.200  223.199  113.205
  269.000    7.544    0.392    0.201  221.245  117.110
  269.250    7.939    0.387    0.168  219.279  112.349
  269.500    8.425    0.390    0.161  218.316  106.396
  269.750    9.017    0.381    0.180  218.354  105.522
  270.000    9.651    0.388    0.194  221.373  110.915
  270.250   10.157    0.361    0.154  220.411  103.469
  270.500   10.081    0.352    0.043  217.955   89.456
  270.750   10.176    0.341    0.072  218.984  107.095
