~VERSION INFORMATION
 VERS.                 2.0:   CWLS LOG ASCII STANDARD -VERSION 2.0
 WRAP.                  NO:   ONE LINE PER DEPTH STEP
~WELL INFORMATION BLOCK
#MNEM.UNIT           DATA                    DESCRIPTION OF MNEMONIC
#---------    -------------------            -------------------------------
# Generated from Intellog Unique Number	CS_73_76/WELL/818
WELL.         BOW VALLEY INDUSTRIES LTD      : Well_name    - WELL
LOC .         00/10-11-073-17W4/0            : Location     - LOCATION
UWI .         00/10-11-073-17W4/0            : Uwi          - UNIQUE WELL ID
ENTR.         SP                             : Entered      - ENTERED BY
SRVC.         SCHLUMBERGER                   : Scn          - SERVICE COMPANY
STRT.M        234.696                        : top_depth    - START DEPTH
STOP.M        423.446                        : bot_depth    - STOP DEPTH
STEP.M        0.25                           : increment    - STEP LENGTH
 NULL. -999.2500:NULL Value
~CURVE INFORMATION BLOCK
#MNEM UNIT       ERCB CURVE CODE    CURVE DESCRIPTION
#-----------   ------------------   ----------------------------------
DEPT.M        00 001 00 00         : DEPTH        - DEPTH
GR  .API      00 310 00 00         : GR           - GAMMA RAY
DPHI.V/V      00 890 00 00         : PHID         - DENSITY POROSITY (SANDSTONE)
NPHI.V/V      00 330 00 00         : PHIN         - NEUTRON POROSITY (SANDSTONE)
ILD .OHMM     00 120 00 00         : RESD         - DEEP RESISTIVITY (DIL)
~PARAMETER INFORMATION
#MNEM.UNIT           DATA             DESCRIPTION OF MNEMONIC
#---------         -----------     ------------------------------
GL  .M        567.385              : gl           - GROUND LEVEL ELEVATION
EREF.M        570.433              : kb           - ELEVATION OF DEPTH REFERENCE
DATM.M        567.385              : datum        - DATUM ELEVATION
TDD .M        568.147              : tdd          - TOTAL DEPTH DRILLER
RUN .         ONE                  : Run          - RUN NUMBER
ENG .         BILL                 : Engineer     - RECORDING ENGINEER
WIT .         JIM                  : Witness      - WITNESSED BY
MUD .         GEL                  : Mud_type     - MUD TYPE
MATR.         SANDSTONE            : Logunit      - NEUTRON MATRIX
TMAX.C        11.6667              : BHT          - MAXIMUM RECORDED TEMPERATURE
BHTD.M        568.147              : BHTDEP       - MAXIMUM RECORDED TEMPERATURE
MATR.         1                    : LOGUNIT      - NEUTRON MATRIX
RMT .C        25                   : MDTP         - TEMPERATURE OF MUD
NEUT.         1                    : NEUTRON      - NEUTRON TYPE
RESI.         0                    : RESIST       - RESISTIVITY TYPE
RMC .OHMM     0.25                 : RMC          - RESISTIVITY OF MUD CAKE
RMF .OHMM     0.25                 : RMF          - RESISTIVITY OF MUD FILTRATE
SUFT.C        15                   : SUFT         - SURFACE TEMPERATURE
~A  DEPTH       GR     PHID     PHIN     RESD
# ...
  365.196   67.087    0.332    0.432    5.932
  365.446   67.661    0.325    0.426    6.043
  365.696   68.999    0.320    0.422    6.231
  365.946   69.331    0.330    0.421    6.422
  366.196   67.843    0.334    0.433    6.631
  366.446   67.265    0.337    0.437    6.653
  366.696   69.784    0.332    0.440    6.517
  366.946   72.283    0.327    0.449    6.243
  367.196   74.138    0.337    0.458    5.871
  367.446   73.762    0.329    0.458    5.644
  367.696   73.378    0.321    0.459    5.444
  367.946   73.220    0.331    0.463    5.314
  368.196   73.222    0.322    0.473    5.258
  368.446   73.593    0.329    0.469    5.203
  368.696   73.793    0.334    0.473    5.171
  368.946   74.403    0.328    0.467    5.174
  369.196   74.740    0.327    0.474    5.228
  369.446   74.978    0.332    0.484    5.287
  369.696   74.508    0.332    0.474    5.293
  369.946   73.644    0.320    0.428    5.233
  370.196   71.973    0.301    0.362    5.289
  370.446   68.430    0.276    0.343    5.581
  370.696   66.856    0.248    0.321    6.053
  370.946   68.603    0.229    0.333    6.350
  371.196   72.717    0.258    0.457    6.355
  371.446   74.296    0.304    0.459    6.184
  371.696   75.204    0.309    0.438    5.818
  371.946   74.918    0.322    0.427    5.705
  372.196   73.906    0.317    0.425    5.576
  372.446   73.327    0.308    0.425    5.499
  372.696   76.222    0.299    0.444    5.494
  372.946   78.485    0.290    0.457    5.614
  373.196   81.609    0.291    0.460    5.686
  373.446   83.728    0.284    0.464    5.873
  373.696   86.720    0.286    0.444    5.932
  373.946   93.785    0.292    0.433    5.648
  374.196  103.985    0.284    0.431    4.959
  374.446  111.569    0.271    0.469    4.610
  374.696  114.330    0.256    0.505    4.330
  374.946  112.736    0.246    0.506    4.270
  375.196  113.394    0.242    0.494    4.205
  375.446  114.085    0.240    0.487    4.208
  375.696  114.846    0.233    0.485    4.208
  375.946  114.445    0.241    0.487    4.278
  376.196  111.929    0.240    0.492    4.284
  376.446  111.773    0.240    0.482    4.380
  376.696  110.955    0.231    0.477    4.316
  376.946  109.073    0.247    0.478    4.308
  377.196  109.423    0.258    0.496    4.224
  377.446  111.418    0.252    0.509    4.229
  377.696  112.309    0.241    0.517    4.244
  377.946  111.310    0.257    0.508    4.384
  378.196  108.609    0.250    0.497    4.570
  378.446  108.238    0.239    0.468    4.757
  378.696  106.724    0.230    0.457    4.983
  378.946  105.334    0.215    0.457    5.133
  379.196  108.596    0.196    0.473    5.285
  379.446  112.004    0.205    0.477    5.290
  379.696  113.919    0.225    0.460    5.149
  379.946  115.554    0.232    0.450    5.002
  380.196  117.312    0.233    0.451    4.854
  380.446  119.253    0.235    0.449    4.689
  380.696  121.465    0.223    0.444    4.496
  380.946  122.116    0.217    0.440    4.410
  381.196  122.062    0.222    0.451    4.419
  381.446  119.991    0.212    0.460    4.410
  381.696  114.310    0.201    0.447    4.624
  381.946  107.149    0.189    0.445    4.978
  382.196  100.384    0.205    0.438    5.276
  382.446   93.102    0.195    0.411    5.599
  382.696   87.432    0.187    0.401    6.079
  382.946   84.537    0.204    0.398    6.581
  383.196   83.547    0.221    0.398    6.839
  383.446   83.570    0.242    0.403    7.137
  383.696   85.092    0.251    0.410    7.151
  383.946   87.605    0.247    0.412    6.989
  384.196   89.460    0.251    0.397    6.538
  384.446   92.447    0.262    0.401    6.217
  384.696   94.597    0.235    0.410    5.786
  384.946   98.116    0.205    0.405    5.443
  385.196   89.528    0.183    0.405    5.430
  385.446   80.745    0.138    0.364    6.404
  385.696   71.359    0.088    0.290    8.681
  385.946   71.340    0.046    0.215   11.300
  386.196   77.978    0.053    0.248   13.955
  386.446   83.438    0.074    0.291   15.904
  386.696   91.396    0.096    0.318   13.659
  386.946   97.965    0.142    0.346   11.367
  387.196  102.521    0.154    0.385   10.015
  387.446  103.542    0.166    0.416    8.959
  387.696  105.107    0.174    0.430    8.500
  387.946  107.446    0.174    0.432    8.005
  388.196  108.909    0.183    0.417    7.723
  388.446  109.471    0.193    0.414    7.612
  388.696  108.492    0.188    0.427    7.668
  388.946  108.217    0.179    0.436    7.908
  389.196  107.601    0.174    0.435    8.036
  389.446  108.599    0.174    0.441    7.862
  389.696  111.911    0.179    0.437    7.490
  389.946  114.664    0.181    0.431    7.266
  390.196  116.851    0.179    0.427    7.238
  390.446  117.829    0.172    0.424    7.239
  390.696  118.867    0.169    0.426    7.232
  390.946  119.042    0.184    0.436    7.421
  391.196  118.801    0.199    0.437    7.505
  391.446  113.144    0.205    0.432    7.910
  391.696  111.284    0.189    0.433    7.966
  391.946  111.931    0.171    0.416    8.121
  392.196  111.036    0.147    0.400    7.940
  392.446  112.207    0.146    0.393    7.955
  392.696  118.316    0.142    0.408    7.825
  392.946  122.963    0.169    0.410    7.630
  393.196  123.975    0.194    0.402    7.414
  393.446  120.451    0.207    0.388    7.289
  393.696  117.767    0.202    0.390    7.148
  393.946  116.930    0.191    0.393    7.037
  394.196  114.782    0.183    0.397    7.021
  394.446  111.126    0.178    0.389    7.176
  394.696  108.262    0.172    0.391    7.168
  394.946  105.263    0.149    0.397    7.172
  395.196  103.816    0.129    0.382    7.175
  395.446  106.557    0.144    0.398    7.194
  395.696  110.924    0.178    0.410    6.742
  395.946  110.404    0.183    0.421    5.847
  396.196  110.214    0.177    0.426    4.551
  396.446  113.392    0.188    0.423    3.797
  396.696  117.530    0.204    0.495    3.233
  396.946  117.835    0.225    0.511    2.807
  397.196  119.848    0.242    0.516    2.554
  397.446  121.772    0.237    0.526    2.377
  397.696  121.290    0.223    0.538    2.207
  397.946  119.286    0.220    0.539    2.195
  398.196  119.724    0.226    0.521    2.163
  398.446  120.826    0.218    0.517    2.121
  398.696  116.342    0.212    0.508    2.389
  398.946  112.995    0.201    0.495    2.631
  399.196  109.730    0.185    0.443    3.246
  399.446  107.033    0.161    0.400    4.033
  399.696  104.395    0.144    0.371    4.826
  399.946  100.574    0.130    0.358    5.887
  400.196  101.447    0.116    0.342    6.367
  400.446  109.670    0.113    0.374    6.604
  400.696  116.102    0.172    0.391    6.107
  400.946  119.484    0.183    0.400    6.141
  401.196  114.621    0.174    0.408    6.393
  401.446  101.882    0.166    0.386    6.834
  401.696   96.199    0.150    0.344    7.857
  401.946   92.392    0.129    0.324    8.973
  402.196   94.881    0.119    0.335    8.207
  402.446  101.197    0.113    0.334    6.163
  402.696  107.236    0.124    0.431    5.046
  402.946  116.594    0.146    0.461    4.227
  403.196  121.705    0.175    0.482    3.789
  403.446  125.931    0.172    0.496    3.477
  403.696  125.735    0.185    0.497    3.276
  403.946  125.219    0.193    0.482    3.300
  404.196  123.037    0.199    0.468    3.409
  404.446  119.347    0.188    0.447    3.665
  404.696  111.884    0.154    0.429    4.386
  404.946  105.113    0.126    0.413    4.918
  405.196  100.646    0.103    0.404    5.393
  405.446  102.423    0.119    0.414    5.719
  405.696  105.014    0.134    0.417    5.888
  405.946  107.515    0.125    0.418    6.004
  406.196  110.072    0.129    0.417    5.997
  406.446  110.428    0.133    0.416    6.106
  406.696  107.162    0.147    0.421    6.218
  406.946  104.847    0.135    0.415    6.512
  407.196  105.404    0.119    0.408    6.581
  407.446  108.034    0.120    0.407    6.714
  407.696  110.639    0.155    0.416    6.850
  407.946  110.277    0.158    0.414    6.850
  408.196  106.660    0.135    0.416    6.633
  408.446  108.901    0.116    0.422    6.245
