~VERSION INFORMATION
 VERS.                 2.0:   CWLS LOG ASCII STANDARD -VERSION 2.0
 WRAP.                  NO:   ONE LINE PER DEPTH STEP
~WELL INFORMATION BLOCK
#MNEM.UNIT           DATA                    DESCRIPTION OF MNEMONIC
#---------    -------------------            -------------------------------
# Generated from Intellog Unique Number	CW_70_72/WELL/3029
NULL.         -999.25                        : NULL_VALUE
WELL.         CHIEFCO ET AL DANCING 11-12    : Well_name    - WELL              
LOC .         11-12-070-27W4                 : Location     - LOCATION          
UWI .         00/11-12-070-27W4/0            : Uwi          - UNIQUE WELL ID    
ENTR.         JAYE                           : Entered      - ENTERED BY        
SRVC.         SCHLUMBERGER                   : Scn          - SERVICE COMPANY   
DATE.         5 OCT 76                       : Date         - LOG DATE          
STRT.M        469.392                        : top_depth    - START DEPTH       
STOP.M        719.392                        : bot_depth    - STOP DEPTH        
STEP.M        0.25                           : increment    - STEP LENGTH       
~CURVE INFORMATION BLOCK
#MNEM UNIT       ERCB CURVE CODE    CURVE DESCRIPTION
#-----------   ------------------   ----------------------------------
DEPT.M        00 001 00 00         : DEPTH        - DEPTH                       
ILD .OHMM     00 120 00 00         : RESD         - DEEP RESISTIVITY (DIL)      
CALI.MM       00 280 01 00         : CAL          - CALIPER                     
GR  .API      00 310 00 00         : GR           - GAMMA RAY                   
NPHI.V/V      00 330 00 00         : PHIN         - NEUTRON POROSITY (SANDSTONE)
DPHI.V/V      00 890 00 00         : PHID         - DENSITY POROSITY (SANDSTONE)
~PARAMETER INFORMATION       
#MNEM.UNIT           DATA             DESCRIPTION OF MNEMONIC
#---------         -----------     ------------------------------
GL  .M        636.422              : gl           - GROUND LEVEL ELEVATION      
EREF.M        639.166              : kb           - ELEVATION OF DEPTH REFERENCE
DATM.M        636.422              : datum        - DATUM ELEVATION             
TDD .M        733.654              : tdd          - TOTAL DEPTH DRILLER         
RUN .         ONE                  : Run          - RUN NUMBER                  
ENG .         PAQUIN               : Engineer     - RECORDING ENGINEER          
WIT .         ERICKSON             : Witness      - WITNESSED BY                
BASE.         EDM                  : Branch       - HOME BASE OF LOGGING UNIT   
MUD .         GEL                  : Mud_type     - MUD TYPE                    
MATR.         SANDSTONE            : Logunit      - NEUTRON MATRIX              
TMAX.C        -17.7778             : BHT          - MAXIMUM RECORDED TEMPERATURE
BHTD.M        733.958              : BHTDEP       - MAXIMUM RECORDED TEMPERATURE
RMT .C        10.5556              : MDTP         - TEMPERATURE OF MUD          
MUDD.KG/M     1140                 : MWT          - MUD DENSITY                 
NEUT.         1                    : NEUTRON      - NEUTRON TYPE                
RESI.         0                    : RESIST       - RESISTIVITY TYPE            
RM  .OHMM     4.35                 : RM           - RESISTIVITY OF MUD          
RMC .OHMM     0.25                 : RMC          - RESISTIVITY OF MUD CAKE     
RMF .OHMM     3.86                 : RMF          - RESISTIVITY OF MUD FILTRATE 
SUFT.C        -17.7778             : SUFT         - SURFACE TEMPERATURE         
~A  DEPTH     RESD      CAL       GR     PHIN     PHID
# ...
  578.892    2.987  154.148   66.598    0.426    0.224
  579.142    3.301  154.033   65.621    0.417    0.193
  579.392    3.399  152.278   64.646    0.400    0.158
  579.642    3.290  151.036   63.488    0.376    0.129
  579.892    2.982  151.743   62.937    0.361    0.149
  580.142    2.625  153.268   61.294    0.355    0.159
  580.392    2.550  153.974   62.498    0.335    0.125
  580.642    2.824  154.270   63.096    0.399    0.075
  580.892    3.099  154.052   63.149    0.421    0.154
  581.142    3.534  154.242   62.960    0.379    0.205
  581.392    3.794  154.233   62.832    0.353    0.170
  581.642    3.864  154.426   62.582    0.342    0.152
  581.892    3.347  154.204   62.515    0.387    0.148
  582.142    2.930  154.092   64.990    0.421    0.177
  582.392    2.506  153.977   67.527    0.436    0.204
  582.642    2.356  153.966   70.487    0.443    0.229
  582.892    2.309  153.852   71.146    0.449    0.238
  583.142    2.395  153.838   68.049    0.462    0.212
  583.392    2.701  154.543   65.076    0.453    0.234
  583.642    3.136  155.042   62.889    0.440    0.228
  583.892    3.688  155.134   61.367    0.432    0.216
  584.142    4.114  154.919   59.725    0.402    0.209
  584.392    4.539  155.315   60.081    0.411    0.190
  584.642    4.972  155.817   63.949    0.444    0.220
  584.892    5.486  157.134   66.546    0.419    0.268
  585.142    5.547  157.328   67.448    0.346    0.241
  585.392    4.718  157.523   67.441    0.326    0.214
  585.642    4.138  157.306   71.672    0.336    0.175
  585.892    3.637  156.885   77.357    0.363    0.153
  586.142    3.213  156.564   81.891    0.384    0.193
  586.392    2.955  156.344   82.369    0.411    0.190
  586.642    2.748  156.126   80.666    0.416    0.198
  586.892    2.660  155.706   78.781    0.414    0.203
  587.142    2.626  154.152   80.348    0.424    0.210
  587.392    2.641  153.118   81.674    0.437    0.203
  587.642    2.680  152.696   82.030    0.447    0.184
  587.892    2.749  152.171   78.208    0.454    0.188
  588.142    2.836  152.057   73.114    0.420    0.208
  588.392    2.914  152.350   69.655    0.398    0.217
  588.642    3.164  152.751   69.890    0.371    0.186
  588.892    3.472  154.172   72.366    0.350    0.150
  589.142    3.614  156.007   75.931    0.337    0.133
  589.392    3.498  157.431   81.131    0.380    0.129
  589.642    3.324  157.214   80.640    0.407    0.169
  589.892    3.079  156.788   77.423    0.418    0.181
  590.142    2.932  156.676   77.416    0.422    0.207
  590.392    2.792  156.047   79.952    0.419    0.201
  590.642    2.782  155.523   82.912    0.407    0.181
  590.892    2.828  155.407   84.722    0.407    0.194
  591.142    2.922  154.985   83.322    0.424    0.166
  591.392    3.031  154.975   82.102    0.417    0.181
  591.642    3.178  154.962   81.733    0.412    0.189
  591.892    3.296  154.950   83.663    0.413    0.182
  592.142    3.272  154.629   84.564    0.423    0.173
  592.392    3.237  154.207   84.073    0.428    0.160
  592.642    3.122  153.989   83.520    0.438    0.156
  592.892    3.032  153.871   83.150    0.455    0.171
  593.142    2.935  153.655   82.234    0.435    0.194
  593.392    2.871  153.645   80.834    0.428    0.206
  593.642    2.866  153.634   80.766    0.425    0.215
  593.892    2.909  154.234   82.092    0.421    0.198
  594.142    3.078  154.326   83.901    0.432    0.183
  594.392    3.251  154.311   85.347    0.429    0.170
  594.642    3.347  154.300   86.551    0.421    0.169
  594.892    3.434  154.187   87.816    0.422    0.183
  595.142    3.484  154.582   88.111    0.437    0.188
  595.392    3.504  154.881   88.103    0.434    0.175
  595.642    3.530  155.074   88.097    0.423    0.165
  595.892    3.562  155.061   89.845    0.418    0.190
  596.142    3.562  155.149   90.565    0.420    0.171
  596.392    3.550  155.038   90.861    0.444    0.160
  596.642    3.531  154.510   90.490    0.434    0.170
  596.892    3.531  154.191   91.513    0.437    0.179
  597.142    3.525  154.078   92.352    0.444    0.167
  597.392    3.531  154.078   92.163    0.436    0.178
  597.642    3.506  155.076   91.368    0.429    0.150
  597.892    3.481  156.604   90.393    0.425    0.167
  598.142    3.418  156.604   89.235    0.436    0.184
  598.392    3.388  158.628   88.622    0.444    0.172
  598.642    3.363  158.413   86.920    0.431    0.177
  598.892    3.364  157.376   87.094    0.421    0.165
  599.142    3.419  156.440   88.238    0.428    0.183
  599.392    3.464  157.351   87.988    0.414    0.167
  599.642    3.547  157.747   87.738    0.410    0.175
  599.892    3.606  157.221   87.550    0.419    0.177
  600.142    3.567  156.595   87.542    0.422    0.166
  600.392    3.421  155.148   88.081    0.421    0.173
  600.642    3.263  154.315   88.315    0.436    0.165
  600.892    3.107  153.380   87.521    0.451    0.177
  601.142    2.889  153.267   86.848    0.463    0.163
  601.392    2.628  152.843   81.451    0.471    0.173
  601.642    2.435  152.521   66.305    0.462    0.207
  601.892    2.203  152.410   57.820    0.430    0.238
  602.142    2.041  152.191   51.393    0.431    0.239
  602.392    2.004  152.180   52.717    0.427    0.253
  602.642    2.071  152.269   54.104    0.402    0.252
  602.892    2.244  152.155   54.399    0.387    0.226
  603.142    2.554  151.835   54.877    0.375    0.203
  603.392    2.880  151.618   55.837    0.355    0.221
  603.642    2.938  151.402   56.496    0.339    0.207
  603.892    2.912  152.000   57.095    0.364    0.202
  604.142    2.783  152.197   57.997    0.429    0.282
  604.392    2.555  151.771   58.837    0.451    0.291
  604.642    2.257  151.558   58.042    0.454    0.289
  604.892    2.122  151.236   56.642    0.443    0.287
  605.142    1.998  150.812   57.120    0.431    0.297
  605.392    1.948  150.495   61.291    0.439    0.295
  605.642    2.050  149.654   66.128    0.428    0.272
  605.892    2.234  149.651   70.360    0.415    0.243
  606.142    2.429  150.971   75.258    0.417    0.222
  606.392    2.675  154.033   82.881    0.423    0.190
  606.642    2.909  156.688   85.840    0.431    0.168
  606.892    3.152  158.414   86.803    0.434    0.156
  607.142    3.372  158.610   90.005    0.426    0.158
  607.392    3.485  158.909   89.936    0.420    0.162
  607.642    3.523  158.909   89.506    0.414    0.160
  607.892    3.498  160.107   88.771    0.411    0.149
  608.142    3.473  160.102   88.644    0.414    0.146
  608.392    3.385  160.705   89.243    0.421    0.133
  608.642    3.271  162.228   88.932    0.431    0.132
  608.892    3.183  163.140   88.016    0.458    0.127
  609.142    3.108  163.842   85.525    0.487    0.134
  609.392    2.927  162.606   82.249    0.483    0.168
  609.642    2.712  157.978   76.793    0.447    0.180
  609.892    2.485  154.475   70.730    0.436    0.196
  610.142    2.249  153.748   65.151    0.432    0.227
  610.392    2.141  153.120   59.209    0.425    0.263
  610.642    2.204  152.903   54.659    0.420    0.284
  610.892    2.307  152.687   53.139    0.420    0.255
  611.142    2.415  152.672   52.950    0.442    0.253
  611.392    2.528  152.355   53.245    0.439    0.273
  611.642    2.617  152.343   53.239    0.410    0.257
  611.892    2.704  152.126   52.928    0.394    0.244
  612.142    2.774  152.012   52.679    0.395    0.251
  612.392    2.805  151.996   51.945    0.417    0.248
  612.642    2.841  152.087   51.270    0.416    0.230
  612.892    2.957  152.281   50.901    0.402    0.250
  613.142    3.216  152.573   49.865    0.393    0.250
  613.392    3.378  152.665   49.796    0.386    0.241
  613.642    3.447  152.858   51.362    0.387    0.211
  613.892    3.102  153.053   53.172    0.388    0.203
  614.142    2.842  153.348   55.164    0.386    0.197
  614.392    2.662  152.103   56.005    0.391    0.227
  614.642    2.498  151.476   55.635    0.409    0.253
  614.892    2.413  150.745   56.294    0.423    0.268
  615.142    2.366  150.015   57.800    0.420    0.266
