~VERSION INFORMATION
 VERS.                 2.0:   CWLS LOG ASCII STANDARD -VERSION 2.0
 WRAP.                  NO:   ONE LINE PER DEPTH STEP
~WELL INFORMATION BLOCK
#MNEM.UNIT           DATA                    DESCRIPTION OF MNEMONIC
#---------    -------------------            -------------------------------
# Generated from Intellog Unique Number	CS_77_79/WELL/978
WELL.         TRANS-PRAIRIE PIPLINES         : Well_name    - WELL
LOC .         00/10-32-077-12W4/0            : Location     - LOCATION
UWI .         00/10-32-077-12W4/0            : Uwi          - UNIQUE WELL ID
ENTR.         SP                             : Entered      - ENTERED BY
SRVC.         SCHLUMBERGER                   : Scn          - SERVICE COMPANY
STRT.M        264.566                        : top_depth    - START DEPTH
STOP.M        469.066                        : bot_depth    - STOP DEPTH
STEP.M        0.25                           : increment    - STEP LENGTH
 NULL. -999.2500:NULL Value
~CURVE INFORMATION BLOCK
#MNEM UNIT       ERCB CURVE CODE    CURVE DESCRIPTION
#-----------   ------------------   ----------------------------------
DEPT.M        00 001 00 00         : DEPTH        - DEPTH
GR  .API      00 310 00 00         : GR           - GAMMA RAY
DPHI.V/V      00 890 00 00         : PHID         - DENSITY POROSITY (SANDSTONE)
NPHI.V/V      00 330 00 00         : PHIN         - NEUTRON POROSITY (SANDSTONE)
ILD .OHMM     00 120 00 00         : RESD         - DEEP RESISTIVITY (DIL)
~PARAMETER INFORMATION
#MNEM.UNIT           DATA             DESCRIPTION OF MNEMONIC
#---------         -----------     ------------------------------
GL  .M        669.188              : gl           - GROUND LEVEL ELEVATION
EREF.M        672.846              : kb           - ELEVATION OF DEPTH REFERENCE
DATM.M        669.188              : datum        - DATUM ELEVATION
TDD .M        475.488              : tdd          - TOTAL DEPTH DRILLER
RUN .         ONE                  : Run          - RUN NUMBER
ENG .         BILL                 : Engineer     - RECORDING ENGINEER
WIT .         JIM                  : Witness      - WITNESSED BY
MUD .         GEL                  : Mud_type     - MUD TYPE
MATR.         SANDSTONE            : Logunit      - NEUTRON MATRIX
TMAX.C        60                   : BHT          - MAXIMUM RECORDED TEMPERATURE
BHTD.M        475.488              : BHTDEP       - MAXIMUM RECORDED TEMPERATURE
MATR.         1                    : LOGUNIT      - NEUTRON MATRIX
RMT .C        25                   : MDTP         - TEMPERATURE OF MUD
NEUT.         1                    : NEUTRON      - NEUTRON TYPE
RESI.         0                    : RESIST       - RESISTIVITY TYPE
RMC .OHMM     0.25                 : RMC          - RESISTIVITY OF MUD CAKE
RMF .OHMM     0.25                 : RMF          - RESISTIVITY OF MUD FILTRATE
SUFT.C        15                   : SUFT         - SURFACE TEMPERATURE
~A  DEPTH       GR     PHID     PHIN     RESD
# ...
  308.066   43.621    0.299    0.460   18.197
  308.316   43.949    0.312    0.451   18.194
  308.566   44.943    0.301    0.467   18.528
  308.816   45.889    0.307    0.487   18.508
  309.066   46.870    0.323    0.497   18.480
  309.316   47.239    0.334    0.509   18.844
  309.566   47.431    0.329    0.498   18.793
  309.816   46.950    0.320    0.486   19.121
  310.066   44.246    0.327    0.483   19.129
  310.316   43.080    0.333    0.482   19.131
  310.566   43.019    0.313    0.479   19.087
  310.816   44.971    0.321    0.471   19.497
  311.066   46.167    0.318    0.461   19.452
  311.316   46.186    0.303    0.450   19.440
  311.566   45.365    0.305    0.459   19.419
  311.816   46.724    0.314    0.455   19.413
  312.066   46.267    0.318    0.449   19.050
  312.316   46.213    0.327    0.468   18.479
  312.566   47.249    0.334    0.483   17.718
  312.816   47.884    0.343    0.484   16.195
  313.066   49.019    0.333    0.505   14.384
  313.316   49.523    0.337    0.491   12.959
  313.566   49.058    0.355    0.489   12.009
  313.816   47.013    0.383    0.504   12.547
  314.066   44.958    0.391    0.540   13.236
  314.316   45.049    0.392    0.568   14.787
  314.566   46.102    0.371    0.611   15.799
  314.816   49.811    0.330    0.543   16.299
  315.066   52.250    0.333    0.489   15.747
  315.316   52.467    0.339    0.480   14.902
  315.566   51.815    0.346    0.488   14.868
  315.816   51.907    0.360    0.531   15.223
  316.066   53.554    0.371    0.572   15.980
  316.316   53.906    0.352    0.612   15.985
  316.566   54.148    0.325    0.561   15.970
  316.816   54.656    0.338    0.507   15.200
  317.066   53.933    0.326    0.505   14.481
  317.316   52.279    0.344    0.485   13.778
  317.566   52.088    0.342    0.486   13.986
  317.816   54.009    0.334    0.497   14.086
  318.066   55.285    0.349    0.531   14.840
  318.316   53.789    0.345    0.555   15.567
  318.566   53.541    0.336    0.560   16.019
  318.816   52.855    0.332    0.519   16.506
  319.066   52.039    0.352    0.530   16.315
  319.316   52.225    0.360    0.540   16.203
  319.566   50.624    0.345    0.544   16.191
  319.816   46.686    0.339    0.539   16.372
  320.066   43.508    0.336    0.531   16.179
  320.316   41.451    0.335    0.506   16.487
  320.566   41.555    0.340    0.492   16.595
  320.816   43.243    0.345    0.501   16.762
  321.066   43.857    0.350    0.521   17.076
  321.316   41.981    0.354    0.506   17.127
  321.566   41.928    0.345    0.507   17.669
  321.816   43.951    0.324    0.511   17.622
  322.066   44.023    0.312    0.475   18.016
  322.316   41.962    0.331    0.469   17.953
  322.566   41.480    0.338    0.476   18.332
  322.816   43.318    0.315    0.488   18.340
  323.066   44.734    0.299    0.504   18.622
  323.316   45.461    0.326    0.518   18.600
  323.566   45.405    0.333    0.523   18.581
  323.816   44.897    0.332    0.529   18.856
  324.066   44.792    0.338    0.534   18.905
  324.316   44.761    0.331    0.540   18.906
  324.566   45.448    0.319    0.556   18.899
  324.816   43.481    0.315    0.567   18.911
  325.066   41.738    0.337    0.574   18.535
  325.316   40.034    0.328    0.572   18.318
  325.566   39.904    0.320    0.536   18.178
  325.816   39.846    0.325    0.483   18.183
  326.066   40.773    0.344    0.492   17.795
  326.316   41.705    0.336    0.480   17.824
  326.566   40.703    0.329    0.499   17.531
  326.816   39.069    0.339    0.516   17.481
  327.066   39.821    0.347    0.500   17.463
  327.316   39.725    0.355    0.491   17.442
  327.566   40.598    0.324    0.486   17.332
  327.816   41.547    0.329    0.482   17.118
  328.066   42.160    0.329    0.490   17.104
  328.316   42.147    0.314    0.488   17.099
  328.566   41.534    0.328    0.494   17.087
  328.816   39.911    0.337    0.508   17.082
  329.066   37.744    0.326    0.524   17.080
  329.316   36.696    0.334    0.522   16.794
  329.566   37.576    0.329    0.527   16.932
  329.816   38.526    0.337    0.547   16.709
  330.066   39.041    0.340    0.547   16.729
  330.316   39.043    0.349    0.513   16.714
  330.566   38.353    0.341    0.493   16.702
  330.816   37.370    0.331    0.498   16.728
  331.066   36.515    0.342    0.502   16.353
  331.316   36.550    0.333    0.503   16.373
  331.566   36.537    0.320    0.515   16.367
  331.816   36.523    0.339    0.536   16.353
  332.066   36.467    0.346    0.512   16.365
  332.316   37.027    0.352    0.493   16.014
  332.566   38.411    0.335    0.487   16.035
  332.816   39.835    0.336    0.480   16.017
  333.066   40.867    0.326    0.504   15.885
  333.316   41.827    0.338    0.514   15.720
  333.566   41.801    0.341    0.510   15.706
  333.816   41.995    0.338    0.515   15.694
  334.066   42.361    0.321    0.548   15.689
  334.316   43.361    0.340    0.560   15.375
  334.566   44.458    0.357    0.579   15.382
  334.816   45.868    0.339    0.577   15.389
  335.066   47.263    0.357    0.569   15.069
  335.316   47.835    0.350    0.553   15.082
  335.566   49.367    0.336    0.557   15.077
  335.816   50.073    0.342    0.547   15.068
  336.066   50.014    0.328    0.535   15.062
  336.316   49.610    0.316    0.542   15.053
  336.566   48.090    0.321    0.562   15.043
  336.816   48.208    0.324    0.563   15.038
  337.066   49.887    0.325    0.568   15.021
  337.316   50.263    0.335    0.568   14.933
  337.566   51.697    0.328    0.567   14.738
  337.816   53.319    0.330    0.576   14.720
  338.066   56.171    0.327    0.573   14.662
  338.316   58.691    0.331    0.578   14.441
  338.566   59.365    0.337    0.546   14.438
  338.816   59.076    0.323    0.538   14.427
  339.066   55.956    0.329    0.563   14.443
  339.316   54.200    0.337    0.581   14.127
  339.566   53.979    0.329    0.583   14.143
  339.816   53.924    0.330    0.597   14.164
  340.066   54.979    0.330    0.589   13.841
  340.316   56.959    0.306    0.600   13.862
  340.566   59.172    0.324    0.600   13.581
  340.816   60.105    0.335    0.591   13.529
  341.066   59.935    0.342    0.569   13.340
  341.316   57.614    0.324    0.566   13.329
  341.566   56.816    0.343    0.578   13.283
  341.816   56.284    0.343    0.578   13.073
  342.066   56.179    0.333    0.573   13.064
  342.316   56.889    0.325    0.598   13.036
  342.566   57.885    0.322    0.608   12.811
  342.816   57.929    0.314    0.585   12.813
  343.066   57.910    0.328    0.556   12.809
  343.316   57.284    0.339    0.565   12.795
  343.566   57.276    0.321    0.577   12.718
  343.816   57.886    0.305    0.560   12.554
  344.066   58.438    0.309    0.557   12.547
  344.316   59.085    0.318    0.582   12.553
  344.566   59.601    0.336    0.599   12.321
  344.816   59.654    0.343    0.618   12.305
  345.066   58.838    0.347    0.641   12.294
  345.316   58.925    0.332    0.629   12.282
  345.566   59.443    0.316    0.601   12.160
  345.816   61.515    0.335    0.574   12.003
  346.066   62.621    0.330    0.580   10.269
  346.316   63.070    0.319    0.552    8.961
  346.566   66.806    0.265    0.532    8.164
  346.816   70.846    0.237    0.547    6.815
  347.066   75.361    0.210    0.592    5.972
  347.316   77.408    0.227    0.613    6.294
  347.566   76.477    0.239    0.631    6.827
  347.816   74.750    0.247    0.634    8.169
  348.066   74.360    0.275    0.625    8.987
  348.316   74.351    0.294    0.567   10.805
  348.566   74.337    0.276    0.542   11.817
  348.816   74.310    0.269    0.550   12.180
  349.066   74.071    0.290    0.539   11.936
  349.316   72.992    0.306    0.545   10.657
  349.566   69.922    0.308    0.579    9.526
  349.816   69.254    0.287    0.601    8.448
  350.066   73.657    0.278    0.563    7.268
  350.316   77.457    0.235    0.538    6.559
  350.566   80.329    0.202    0.579    5.972
  350.816   83.707    0.210    0.609    5.722
  351.066   84.125    0.223    0.625    5.764
  351.316   82.194    0.230    0.637    5.923
