~VERSION INFORMATION
 VERS.                 2.0:   CWLS LOG ASCII STANDARD -VERSION 2.0
 WRAP.                  NO:   ONE LINE PER DEPTH STEP
~WELL INFORMATION BLOCK
#MNEM.UNIT           DATA                    DESCRIPTION OF MNEMONIC
#---------    -------------------            -------------------------------
# Generated from Intellog Unique Number	CW_70_72/WELL/1039
NULL.         -999.25                        : NULL_VALUE
WELL.         MCMORGAN DOME SMITH 10-18      : Well_name    - WELL              
LOC .         10-18-071-24W4                 : Location     - LOCATION          
UWI .         00/10-18-071-24W4/0            : Uwi          - UNIQUE WELL ID    
ENTR.         JAYE                           : Entered      - ENTERED BY        
SRVC.         SCHLUMBERGER                   : Scn          - SERVICE COMPANY   
DATE.         16 MAR 72                      : Date         - LOG DATE          
STRT.M        434.645                        : top_depth    - START DEPTH       
STOP.M        646.145                        : bot_depth    - STOP DEPTH        
STEP.M        0.25                           : increment    - STEP LENGTH       
~CURVE INFORMATION BLOCK
#MNEM UNIT       ERCB CURVE CODE    CURVE DESCRIPTION
#-----------   ------------------   ----------------------------------
DEPT.M        00 001 00 00         : DEPTH        - DEPTH                       
DPHI.V/V      00 890 00 00         : PHID         - DENSITY POROSITY (SANDSTONE)
NPHI.V/V      00 330 00 00         : PHIN         - NEUTRON POROSITY (SANDSTONE)
GR  .API      00 310 00 00         : GR           - GAMMA RAY                   
CALI.MM       00 280 01 00         : CAL          - CALIPER                     
ILD .OHMM     00 120 00 00         : RESD         - DEEP RESISTIVITY (DIL)      
~PARAMETER INFORMATION       
#MNEM.UNIT           DATA             DESCRIPTION OF MNEMONIC
#---------         -----------     ------------------------------
GL  .M        638.861              : gl           - GROUND LEVEL ELEVATION      
EREF.M        642.518              : kb           - ELEVATION OF DEPTH REFERENCE
DATM.M        638.861              : datum        - DATUM ELEVATION             
TDD .M        612.648              : tdd          - TOTAL DEPTH DRILLER         
RUN .         ONE                  : Run          - RUN NUMBER                  
ENG .         HAYWOOD              : Engineer     - RECORDING ENGINEER          
WIT .         GRAD                 : Witness      - WITNESSED BY                
BASE.         EDM                  : Branch       - HOME BASE OF LOGGING UNIT   
MUD .         FGM                  : Mud_type     - MUD TYPE                    
MATR.         SANDSTONE            : Logunit      - NEUTRON MATRIX              
TMAX.C        28.3333              : BHT          - MAXIMUM RECORDED TEMPERATURE
BHTD.M        612.648              : BHTDEP       - MAXIMUM RECORDED TEMPERATURE
RMT .C        20                   : MDTP         - TEMPERATURE OF MUD          
MUDD.KG/M     1104                 : MWT          - MUD DENSITY                 
NEUT.         1                    : NEUTRON      - NEUTRON TYPE                
RESI.         0                    : RESIST       - RESISTIVITY TYPE            
RM  .OHMM     2.62                 : RM           - RESISTIVITY OF MUD          
RMC .OHMM     0                    : RMC          - RESISTIVITY OF MUD CAKE     
RMF .OHMM     2.67                 : RMF          - RESISTIVITY OF MUD FILTRATE 
SUFT.C        0                    : SUFT         - SURFACE TEMPERATURE         
~A  DEPTH     PHID     PHIN       GR      CAL     RESD
# ...
  507.645    0.294    0.441   65.651  206.858    2.809
  507.895    0.292    0.442   64.297  206.837    2.752
  508.145    0.295    0.436   63.371  206.919    2.731
  508.395    0.294    0.418   62.076  207.110    2.716
  508.645    0.294    0.424   61.151  207.294    2.715
  508.895    0.291    0.429   60.407  207.176    2.715
  509.145    0.283    0.427   60.760  207.052    2.714
  509.395    0.278    0.423   61.177  206.719    2.734
  509.645    0.288    0.417   62.021  206.910    2.709
  509.895    0.286    0.426   63.658  207.097    2.649
  510.145    0.279    0.436   65.233  207.388    2.605
  510.395    0.278    0.445   65.710  207.578    2.552
  510.645    0.284    0.448   65.942  207.449    2.515
  510.895    0.282    0.437   66.175  207.331    2.519
  511.145    0.282    0.423   67.690  207.313    2.505
  511.395    0.287    0.417   68.594  207.190    2.598
  511.645    0.282    0.434   66.995  207.171    2.731
  511.895    0.269    0.442   63.932  206.839    3.016
  512.145    0.278    0.445   61.786  206.823    3.295
  512.395    0.278    0.443   59.822  206.803    3.660
  512.645    0.276    0.417   61.701  206.989    4.266
  512.895    0.268    0.405   63.276  206.865    5.008
  513.145    0.257    0.396   61.678  206.744    5.138
  513.395    0.243    0.386   59.593  206.828    4.557
  513.645    0.220    0.362   61.900  207.119    3.945
  513.895    0.190    0.336   62.987  207.204    3.480
  514.145    0.170    0.320   66.578  207.077    3.365
  514.395    0.224    0.349   70.105  207.163    3.745
  514.645    0.260    0.425   68.874  207.042    4.742
  514.895    0.284    0.441   65.201  206.296    5.917
  515.145    0.296    0.458   62.566  208.040    7.024
  515.395    0.308    0.449   59.625  208.021    8.911
  515.645    0.320    0.406   59.187  208.415   10.157
  515.895    0.290    0.365   60.152  208.290    9.951
  516.145    0.156    0.324   60.565  208.686    8.680
  516.395    0.130    0.302   62.020  209.078    7.006
  516.645    0.104    0.305   64.389  209.473    5.541
  516.895    0.111    0.309   67.856  210.178    4.391
  517.145    0.120    0.326   69.431  210.469    3.816
  517.395    0.157    0.393   71.678  210.448    3.537
  517.645    0.203    0.415   74.779  210.430    3.491
  517.895    0.230    0.409   78.917  210.413    3.530
  518.145    0.228    0.401   81.285  210.080    3.582
  518.395    0.227    0.405   83.714  210.063    3.662
  518.645    0.220    0.418   86.085  210.043    3.771
  518.895    0.203    0.432   89.552  209.920    3.855
  519.145    0.194    0.448   91.189  209.593    3.904
  519.395    0.196    0.452   92.580  209.781    4.013
  519.645    0.192    0.450   93.728  209.656    4.057
  519.895    0.185    0.446   93.718  209.224    4.064
  520.145    0.185    0.441   93.218  208.690    4.079
  520.395    0.194    0.416   93.450  208.463    4.078
  520.645    0.203    0.397   93.866  208.340    4.138
  520.895    0.195    0.407   95.503  208.529    4.184
  521.145    0.181    0.428   98.055  209.646    4.206
  521.395    0.172    0.447   97.615  210.556    4.245
  521.645    0.175    0.470   95.530  210.538    4.260
  521.895    0.176    0.485   92.955  210.930    4.251
  522.145    0.182    0.480   90.868  210.808    4.259
  522.395    0.188    0.467   90.185  210.477    4.297
  522.645    0.191    0.458   89.929  210.251    4.297
  522.895    0.192    0.468   89.553  210.026    4.288
  523.145    0.200    0.478   89.421  210.008    4.178
  523.395    0.201    0.483   89.104  209.680    4.056
  523.645    0.190    0.477   88.543  209.245    3.894
  523.895    0.180    0.469   88.043  209.124    3.597
  524.145    0.176    0.463   86.690  209.104    3.219
  524.395    0.182    0.455   85.641  209.397    2.908
  524.645    0.199    0.449   85.141  209.790    2.565
  524.895    0.221    0.443   81.591  209.359    2.369
  525.145    0.239    0.436   73.096  207.065    2.278
  525.395    0.265    0.416   65.091  206.529    2.241
  525.645    0.277    0.420   66.178  206.405    2.232
  525.895    0.283    0.427   67.875  206.491    2.248
  526.145    0.291    0.428   69.877  206.678    2.354
  526.395    0.302    0.434   71.697  206.864    2.492
  526.645    0.307    0.442   73.518  206.844    2.738
  526.895    0.306    0.430   74.787  206.828    2.931
  527.145    0.310    0.451   75.385  206.704    2.963
  527.395    0.318    0.460   76.778  206.478    2.892
  527.645    0.314    0.461   78.049  206.460    2.762
  527.895    0.304    0.462   81.394  206.545    2.666
  528.145    0.301    0.463   84.006  206.629    2.593
  528.395    0.309    0.461   79.845  206.919    2.545
  528.645    0.301    0.456   72.450  207.210    2.540
  528.895    0.290    0.453   75.368  207.294    2.540
  529.145    0.275    0.450   75.784  207.378    2.549
  529.395    0.277    0.443   74.978  207.358    2.596
  529.645    0.294    0.438   74.236  207.339    2.654
  529.895    0.297    0.438   75.505  207.425    2.718
  530.145    0.290    0.440   77.326  207.404    2.702
  530.395    0.284    0.447   74.263  207.488    2.677
  530.645    0.281    0.447   76.814  207.882    2.726
  530.895    0.287    0.446   76.132  207.967    2.797
  531.145    0.294    0.446   70.873  207.949    3.006
  531.395    0.290    0.441   71.166  207.616    3.254
  531.645    0.276    0.434   73.351  207.493    3.509
  531.895    0.259    0.425   73.095  207.270    3.708
  532.145    0.243    0.400   71.071  207.146    3.791
  532.395    0.230    0.374   67.703  207.025    3.776
  532.645    0.246    0.364   68.423  206.696    3.707
  532.895    0.255    0.387   69.146  206.678    3.625
  533.145    0.239    0.408   68.341  206.967    3.545
  533.395    0.225    0.396   66.193  207.051    3.422
  533.645    0.192    0.372   65.938  207.032    3.244
  533.895    0.225    0.374   68.002  207.116    3.018
  534.145    0.244    0.396   70.369  207.094    2.855
  534.395    0.262    0.416   71.885  207.182    2.881
  534.645    0.278    0.432   73.581  207.368    3.000
  534.895    0.286    0.424   74.302  207.455    3.147
  535.145    0.288    0.414   73.803  207.535    3.253
  535.395    0.276    0.404   72.022  207.520    3.276
  535.645    0.246    0.388   68.838  207.498    3.198
  535.895    0.256    0.410   65.896  207.481    3.122
  536.145    0.267    0.430   65.153  207.565    3.082
  536.395    0.269    0.437   67.215  207.545    3.064
  536.645    0.255    0.434   68.913  207.937    3.035
  536.895    0.255    0.437   69.757  208.022    3.007
  537.145    0.263    0.445   70.600  207.900    2.974
  537.395    0.267    0.441   70.345  207.465    2.957
  537.645    0.264    0.434   67.770  207.346    2.962
  537.895    0.248    0.418   69.528  207.325    2.950
  538.145    0.246    0.409   72.080  207.099    2.945
  538.395    0.253    0.411   71.825  206.978    2.906
  538.645    0.249    0.418   67.542  206.647    2.901
  538.895    0.241    0.424   65.333  206.527    2.890
  539.145    0.232    0.426   63.919  206.611    2.868
  539.395    0.238    0.420   63.662  206.590    2.857
  539.645    0.262    0.428   64.200  206.572    2.841
  539.895    0.278    0.440   65.532  206.656    2.814
  540.145    0.285    0.447   67.230  206.742    2.773
  540.395    0.286    0.439   71.552  207.133    2.712
  540.645    0.285    0.422   72.639  207.219    2.662
  540.895    0.290    0.413   68.294  207.717    2.642
  541.145    0.289    0.427   66.330  207.903    2.636
  541.395    0.284    0.434   67.356  208.195    2.646
  541.645    0.286    0.436   69.175  208.280    2.645
  541.895    0.292    0.446   69.958  208.257    2.635
  542.145    0.291    0.447   68.238  208.342    2.630
  542.395    0.275    0.440   67.006  208.324    2.625
  542.645    0.276    0.431   66.140  208.512    2.698
  542.895    0.281    0.420   65.763  208.906    2.820
  543.145    0.278    0.410   66.056  209.198    2.958
  543.395    0.258    0.391   67.815  209.592    3.184
  543.645    0.230    0.377   69.451  209.883    3.415
  543.895    0.216    0.364   64.619  209.966    3.243
