~Version Information
VERS.                2.00:
WRAP.                  NO:
~Well Information Block
#MNEM.UNIT       Data Type    Information
#---------    -------------   -------------------
FLD.   :FIELD
FLD.   :FIELD
FLD.   :FIELD
FLD.   :FIELD
STRT.M          1950.0000:
STOP.M          4060.0000:
STEP.M             0.8202:
NULL.           -999.2500:
COMP.  MUTUAL EXPLORATION FUNDS:COMPANY
WELL.  MUTES IOE SEAFORTH:WELL
FLD.   :FIELD
LOC.   15-20-095-20W4:LOCATION
CTRY.  CANADA:COUNTRY
PROV.  ALBERTA:PROVINCE
SRVC.  SCHLUMBERGER:SERVICE COMPANY
DATE.  01 MAR 69:LOG DATE
UWI.   00/15-20-095-20W4/0:UNIQUE WELL ID
~Curve Information Block
#MNEM.UNIT        API CODE    Curve Description
#---------    ------------    -----
DEPT.M                    :   DEPTH
CALI.in                   :   CALI
GR  .API                  :   GR
SNP .V/V                  :   SNP
~A  Depth           CALI          GR         SNP
# ...
2622.5640         9.2457     73.3662      0.2142
2623.3842         9.2148     73.7771      0.3471
2624.2044         9.2130     74.1416      0.3317
2625.0246         9.1873     73.0891      0.3164
2625.8448         9.1802     71.1642      0.3010
2626.6650         9.2171     69.5783      0.3088
2627.4852         9.3320     68.3781      0.3504
2628.3054         9.6080     68.9522      0.3676
2629.1256        10.1089     67.2770      0.3571
2629.9458         9.6828     67.1723      0.3461
2630.7660         9.3627     68.3430      0.2369
2631.5862         9.3293     69.0602      0.2351
2632.4064         9.3288     69.6819      0.2447
2633.2266         9.3022     68.9591      0.2230
2634.0468         9.2957     64.1781      0.2061
2634.8670         9.2982     58.5970      0.2002
2635.6872         9.3016     55.7816      0.2181
2636.5074         9.3051     56.0209      0.2422
2637.3276         9.3086     55.4046      0.2474
2638.1478         9.3121     55.3351      0.1700
2638.9680         9.2412     56.4000      0.1368
2639.7882         9.2012     58.0105      0.1322
2640.6084         9.2010     54.1499      0.1433
2641.4286         9.2418     47.0807      0.1417
2642.2488         9.1730     39.7053      0.1248
2643.0690         9.2087     41.1785      0.1057
2643.8892         9.2145     48.6661      0.0953
2644.7094         9.1424     57.0716      0.1188
2645.5296         9.1416     59.0995      0.1519
2646.3498         9.1439     48.8929      0.1991
2647.1700         9.1473     40.1745      0.1860
2647.9902         9.1896     38.0626      0.1418
2648.8104         9.1948     43.4510      0.1183
2649.6306         9.1984     49.8133      0.1251
2650.4508         9.2019     50.1030      0.1396
2651.2710         9.2451     46.2314      0.1538
2652.0912         9.1705     42.5643      0.1707
2652.9114         9.0932     42.1330      0.1575
2653.7316         9.0547     43.8040      0.1097
2654.5518         9.0568     49.0733      0.0995
2655.3720         9.0603     55.1284      0.1031
2656.1922         9.1853     60.8778      0.1401
2657.0124         9.2548     75.4762      0.2594
2657.8326         9.3522     75.6549      0.2630
2658.6528         9.4597     78.0534      0.4509
2659.4730         9.4778     77.5245      0.4543
2660.2932         9.4867     78.1922      0.4394
2661.1134         9.5254     75.5500      0.4182
2661.9336         9.6394     76.6153      0.4000
2662.7538         9.8017     74.3886      0.3819
2663.5740         9.8970     77.0725      0.3522
2664.3942         9.8026     76.3707      0.4074
2665.2144         9.7947     71.8803      0.3815
2666.0346         9.6197     69.0235      0.2475
2666.8548         9.5299     66.2842      0.2232
2667.6750         9.4162     64.5729      0.2127
2668.4952         9.3684     63.5524      0.2001
2669.3154         9.3298     66.0910      0.1703
2670.1356         9.3273     69.4295      0.1555
2670.9558         9.3302     73.2758      0.1573
2671.7760         9.3045     75.0253      0.1622
2672.5962         9.2996     73.4757      0.1695
2673.4164         9.2763     72.6889      0.1775
2674.2366         9.2647     67.8273      0.1875
2675.0568         9.2375     65.2953      0.1961
2675.8770         9.2031     61.9038      0.2046
2676.6972         9.1936     57.4657      0.2041
2677.5174         9.1598     61.3552      0.1918
2678.3376         9.1595     64.8518      0.1699
2679.1578         9.1618     61.5711      0.1765
2679.9780         9.1356     56.1765      0.1896
2680.7982         9.1292     48.4752      0.1931
2681.6184         9.1318     42.4093      0.2284
2682.4386         9.1350     44.4560      0.2637
2683.2588         9.1384     47.3892      0.2991
2684.0790         9.1419     49.7928      0.3018
2684.8992         9.1454     52.3241      0.3015
2685.7194         9.1863     54.1710      0.3015
2686.5396         9.2686     52.4526      0.3015
2687.3598         9.3544     50.2132      0.3015
2688.1800         9.5603     49.8204      0.3015
2689.0002         9.5047     52.5292      0.3015
2689.8204         9.4009     55.8544      0.3016
2690.6406         9.3354     62.0956      0.3008
2691.4608         9.3361     68.1093      0.3064
2692.2810         9.4190     68.5160      0.3364
2693.1012         9.5877     65.3906      0.3877
2693.9214         9.7237     60.4498      0.4714
2694.7416         9.8188     57.5935      0.5153
2695.5618         9.8721     56.2771      0.4267
2696.3820         9.8160     54.0287      0.3381
2697.2022         9.6433     47.8029      0.2584
2698.0224         9.4517     37.5873      0.1860
2698.8426         9.2866     31.9252      0.1548
2699.6628         9.1299     25.3489      0.1314
2700.4830         9.0511     24.7743      0.1079
2701.3032         9.0527     24.9958      0.0758
2702.1234         9.0562     24.4323      0.0527
2702.9436         9.0196     24.3607      0.0508
2703.7638         9.0225     26.8083      0.0527
2704.5840         9.0260     29.3541      0.0571
2705.4042         8.9971     31.9151      0.0602
2706.2244         8.9940     33.3126      0.0634
2707.0446         8.9636     35.3879      0.0680
2707.8648         8.9603     35.5186      0.0749
2708.6850         8.9625     36.7487      0.0768
2709.5052         8.9658     38.0270      0.0828
2710.3254         8.9362     38.8884      0.0911
2711.1456         8.9345     36.1222      0.0976
2711.9658         8.9360     23.8774      0.1025
2712.7860         8.9392     15.9191      0.1045
2713.6062         8.9705     14.6606      0.0915
2714.4264         8.9845     14.2690      0.0663
2715.2466         8.9898     14.2942      0.0686
2716.0668         8.9935     13.6899      0.0836
2716.8870         8.9971     13.1577      0.0931
2717.7072         9.0006     13.1822      0.0939
2718.5274         9.0327     13.2149      0.1011
2719.3476         9.0425     12.8482      0.1088
2720.1678         9.0741     12.0797      0.1178
2720.9880         9.0907     12.0999      0.1158
2721.8082         9.0987     11.7337      0.1182
2722.6284         9.1275     11.7632      0.1258
2723.4486         9.1426     12.7836      0.1329
2724.2688         9.1488     13.0083      0.1394
2725.0890         9.1538     13.0792      0.1449
2725.9092         9.1575     13.1208      0.1434
2726.7294         9.1610     14.1713      0.1417
2727.5496         9.1280     13.7030      0.1448
2728.3698         9.1278     13.9903      0.1426
2729.1900         9.1679     14.4095      0.1390
2730.0102         9.1747     14.7800      0.1335
2730.8304         9.1784     15.2857      0.1262
2731.6506         9.1820     15.0397      0.1194
2732.4708         9.1855     14.7544      0.1071
2733.2910         9.1890     14.9838      0.0946
2734.1112         9.1925     15.4418      0.0902
2734.9314         9.2344     15.1767      0.0953
2735.7516         9.2396     14.1199      0.0975
2736.5718         9.2435     14.3593      0.1012
2737.3920         9.2471     15.5029      0.1067
2738.2122         9.2506     16.3956      0.1129
2739.0324         9.2541     13.6805      0.1092
2739.8526         9.2576     12.5600      0.1018
2740.6728         9.2611     11.8382      0.0783
2741.4930         9.2646     11.4190      0.0429
2742.3132         9.2359     11.3917      0.0233
2743.1334         9.2327     11.0658      0.0139
2743.9536         9.2025     10.7004      0.0157
2744.7738         9.1668     10.6820      0.0151
2745.5940         9.1602     10.7100      0.0142
2746.4142         9.1636     10.3885      0.0132
2747.2344         9.1671     10.7372      0.0154
2748.0546         9.1706     11.1713      0.0170
2748.8748         9.1468     10.8879      0.0163
2749.6950         9.1426     10.1675      0.0153
2750.5152         9.1422      9.3997      0.0160
2751.3354         9.1170      8.9816      0.0176
2752.1556         9.1093      8.9630      0.0175
2752.9758         9.1113      8.9919      0.0168
2753.7960         9.1141     10.1315      0.0198
2754.6162         9.1173     10.2702      0.0191
2755.4364         9.1207     10.6881      0.0176
2756.2566         9.1242     10.7542      0.0185
