~VERSION INFORMATION
 VERS.                 2.0:   CWLS LOG ASCII STANDARD -VERSION 2.0
 WRAP.                  NO:   ONE LINE PER DEPTH STEP
~WELL INFORMATION BLOCK
#MNEM.UNIT           DATA                    DESCRIPTION OF MNEMONIC
#---------    -------------------            -------------------------------
# Generated from Intellog Unique Number	CS_73_76/WELL/908
WELL.         HOLSTON OIL                    : Well_name    - WELL
LOC .         00/10-20-076-17W4/0            : Location     - LOCATION
UWI .         00/10-20-076-17W4/0            : Uwi          - UNIQUE WELL ID
ENTR.         T                              : Entered      - ENTERED BY
SRVC.         SCHLUMBERGER                   : Scn          - SERVICE COMPANY
STRT.F        1100                           : top_depth    - START DEPTH
STOP.F        1810.3                         : bot_depth    - STOP DEPTH
STEP.F        0.82                           : increment    - STEP LENGTH
 NULL. -999.2500:NULL Value
~CURVE INFORMATION BLOCK
#MNEM UNIT       ERCB CURVE CODE    CURVE DESCRIPTION
#-----------   ------------------   ----------------------------------
DEPT.F        00 001 00 00         : DEPTH        - DEPTH
GR  .API      00 310 00 00         : GR           - GAMMA RAY
DPHI.V/V      00 890 00 00         : PHID         - DENSITY POROSITY (SANDSTONE)
ILD .OHMM     00 120 00 00         : RESD         - DEEP RESISTIVITY (DIL)
~PARAMETER INFORMATION
#MNEM.UNIT           DATA             DESCRIPTION OF MNEMONIC
#---------         -----------     ------------------------------
GL  .F        2324                 : gl           - GROUND LEVEL ELEVATION
EREF.F        2334                 : kb           - ELEVATION OF DEPTH REFERENCE
DATM.F        2334                 : datum        - DATUM ELEVATION
TDD .F        1870                 : tdd          - TOTAL DEPTH DRILLER
RUN .         ONE                  : Run          - RUN NUMBER
ENG .         BILL                 : Engineer     - RECORDING ENGINEER
WIT .         JIM                  : Witness      - WITNESSED BY
MUD .         GEL                  : Mud_type     - MUD TYPE
MATR.         SANDSTONE            : Logunit      - NEUTRON MATRIX
TMAX.F        69                   : BHT          - MAXIMUM RECORDED TEMPERATURE
BHTD.F        1870                 : BHTDEP       - MAXIMUM RECORDED TEMPERATURE
MATR.         1                    : LOGUNIT      - NEUTRON MATRIX
RMT .F        73                   : MDTP         - TEMPERATURE OF MUD
NEUT.         1                    : NEUTRON      - NEUTRON TYPE
RESI.         0                    : RESIST       - RESISTIVITY TYPE
RMC .OHMM     1.64                 : RMC          - RESISTIVITY OF MUD CAKE
RMF .OHMM     1.64                 : RMF          - RESISTIVITY OF MUD FILTRATE
SUFT.F        59                   : SUFT         - SURFACE TEMPERATURE
~A  DEPTH       GR     PHID     RESD
# ...
 1455.970   53.369    0.262    6.145
 1456.790   56.380    0.248    6.034
 1457.610   59.990    0.242    5.609
 1458.430   71.415    0.235    5.119
 1459.250   73.825    0.224    4.264
 1460.070   76.234    0.206    3.551
 1460.890   79.846    0.210    2.650
 1461.710   82.255    0.212    2.207
 1462.530   83.462    0.210    1.978
 1463.350   85.272    0.208    1.806
 1464.170   85.879    0.209    1.741
 1464.990   84.682    0.210    1.710
 1465.810   82.283    0.211    1.679
 1466.630   79.884    0.210    1.679
 1467.450   78.085    0.207    1.742
 1468.270   77.490    0.204    2.017
 1469.090   75.691    0.201    2.560
 1469.910   73.293    0.199    3.018
 1470.730   72.096    0.203    3.495
 1471.560   75.708    0.208    3.973
 1472.380   73.910    0.214    4.198
 1473.200   72.712    0.211    3.903
 1474.020   70.914    0.207    3.497
 1474.840   69.717    0.207    3.077
 1475.660   69.121    0.212    3.078
 1476.480   67.924    0.211    3.252
 1477.300   67.328    0.215    3.564
 1478.120   65.531    0.226    3.979
 1478.940   64.333    0.253    4.692
 1479.760   64.942    0.265    4.868
 1480.580   65.548    0.257    5.335
 1481.400   66.154    0.239    5.535
 1482.220   67.962    0.231    5.638
 1483.040   68.568    0.230    5.640
 1483.860   68.572    0.232    5.640
 1484.680   68.577    0.236    5.641
 1485.500   68.585    0.235    5.642
 1486.320   68.588    0.229    5.644
 1487.140   69.194    0.227    5.644
 1487.960   67.998    0.227    5.543
 1488.780   66.201    0.228    5.443
 1489.600   63.802    0.228    5.444
 1490.420   62.604    0.229    5.347
 1491.240   59.605    0.231    5.348
 1492.060   59.009    0.239    5.348
 1492.880   60.216    0.247    5.350
 1493.700   61.423    0.252    5.350
 1494.520   61.428    0.256    5.351
 1495.340   57.826    0.259    5.352
 1496.160   54.825    0.267    5.353
 1496.980   53.630    0.273    5.354
 1497.800   53.635    0.278    5.355
 1498.620   53.640    0.277    5.356
 1499.440   51.842    0.271    5.357
 1500.260   50.649    0.266    5.358
 1501.080   49.449    0.266    5.358
 1501.900   48.853    0.262    5.458
 1502.720   47.055    0.257    6.206
 1503.540   44.654    0.231    6.801
 1504.360   41.056    0.217    7.876
 1505.180   38.655    0.181    8.475
 1506.000   36.257    0.131    9.460
 1506.820   34.459    0.084   10.180
 1507.640   33.863    0.073   11.158
 1508.460   35.069    0.062   12.685
 1509.280   45.293    0.063   12.921
 1510.100   49.505    0.069   10.762
 1510.930   50.712    0.088    8.964
 1511.750   51.921    0.100    7.745
 1512.570   52.527    0.264    6.940
 1513.390   53.135    0.267    6.220
 1514.210   54.943    0.256    5.782
 1515.030   58.556    0.252    5.575
 1515.850   59.160    0.257    5.475
 1516.670   60.368    0.259    5.476
 1517.490   60.973    0.258    5.377
 1518.310   61.579    0.256    5.378
 1519.130   61.586    0.255    5.379
 1519.950   62.192    0.250    5.380
 1520.770   62.198    0.239    5.381
 1521.590   62.202    0.233    5.382
 1522.410   62.808    0.233    5.383
 1523.230   62.816    0.232    5.384
 1524.050   63.419    0.232    5.385
 1524.870   64.026    0.232    5.386
 1525.690   64.633    0.232    5.386
 1526.510   66.441    0.231    5.388
 1527.330   68.850    0.230    5.389
 1528.150   70.659    0.228    5.390
 1528.970   70.666    0.222    5.391
 1529.790   70.671    0.213    5.391
 1530.610   70.677    0.213    5.295
 1531.430   71.282    0.213    5.295
 1532.250   71.887    0.212    5.296
 1533.070   73.097    0.211    5.201
 1533.890   73.702    0.208    5.202
 1534.710   74.308    0.206    5.109
 1535.530   74.914    0.205    5.110
 1536.350   74.920    0.204    5.018
 1537.170   74.924    0.202    5.019
 1537.990   74.328    0.200    5.020
 1538.810   74.333    0.196    4.929
 1539.630   74.940    0.192    4.841
 1540.450   74.945    0.194    4.842
 1541.270   74.351    0.194    4.843
 1542.090   74.354    0.195    4.843
 1542.910   73.759    0.189    4.934
 1543.730   73.162    0.188    4.935
 1544.550   73.168    0.198    5.027
 1545.370   73.173    0.200    5.027
 1546.190   73.180    0.201    5.028
 1547.010   73.785    0.201    5.122
 1547.830   73.790    0.199    5.123
 1548.650   73.796    0.198    5.124
 1549.480   72.599    0.200    5.125
 1550.300   70.801    0.199    5.126
 1551.120   69.603    0.192    5.127
 1551.940   66.603    0.187    5.222
 1552.760   67.812    0.188    5.223
 1553.580   70.220    0.191    5.224
 1554.400   72.631    0.194    5.225
 1555.220   72.036    0.200    5.226
 1556.040   71.438    0.205    5.227
 1556.860   70.842    0.207    5.133
 1557.680   70.247    0.204    4.859
 1558.500   70.252    0.204    4.601
 1559.320   70.859    0.204    4.277
 1560.140   70.864    0.207    3.903
 1560.960   71.470    0.207    3.628
 1561.780   72.678    0.208    3.629
 1562.600   72.082    0.212    3.834
 1563.420   69.684    0.218    4.203
 1564.240   67.884    0.221    5.048
 1565.060   64.282    0.225    5.845
 1565.880   60.080    0.228    6.289
 1566.700   55.878    0.234    7.554
 1567.520   50.473    0.235    8.746
 1568.340   46.872    0.232   10.699
 1569.160   44.474    0.224   12.617
 1569.980   44.479    0.227   14.878
 1570.800   44.485    0.244   13.581
 1571.620   44.492    0.259   12.623
 1572.440   44.494    0.277   10.708
 1573.260   44.499    0.284    8.919
 1574.080   43.904    0.280    7.566
 1574.900   44.510    0.274    6.418
 1575.720   45.117    0.273    5.647
 1576.540   46.324    0.273    5.250
 1577.360   48.134    0.272    4.880
 1578.180   49.944    0.265    4.880
 1579.000   50.547    0.263    4.882
 1579.820   51.756    0.257    4.973
 1580.640   52.362    0.249    5.066
 1581.460   52.967    0.258    5.067
 1582.280   53.573    0.261    5.161
 1583.100   53.578    0.255    5.162
 1583.920   57.792    0.240    5.163
 1584.740   61.402    0.236    5.163
 1585.560   66.819    0.229    5.164
 1586.380   69.229    0.222    5.165
 1587.200   65.628    0.224    5.073
 1588.020   63.828    0.223    5.073
 1588.850   60.828    0.219    4.982
 1589.670   57.828    0.223    4.983
 1590.490   54.829    0.245    4.894
 1591.310   53.029    0.258    4.894
 1592.130   53.036    0.260    4.806
 1592.950   52.441    0.262    4.807
 1593.770   53.047    0.265    4.721
 1594.590   53.654    0.269    4.722
 1595.410   54.260    0.269    4.637
 1596.230   54.265    0.268    4.638
 1597.050   54.269    0.269    4.554
 1597.870   54.276    0.279    4.555
 1598.690   54.279    0.287    4.473
 1599.510   53.683    0.289    4.474
 1600.330   53.688    0.285    4.394
 1601.150   53.694    0.284    4.395
 1601.970   53.100    0.281    4.316
 1602.790   53.104    0.281    4.316
 1603.610   52.509    0.280    4.317
 1604.430   52.515    0.279    4.240
 1605.250   53.120    0.278    4.240
 1606.070   53.728    0.278    4.241
 1606.890   53.130    0.280    4.242
 1607.710   52.535    0.280    4.242
 1608.530   51.339    0.280    4.243
 1609.350   50.740    0.280    4.244
 1610.170   49.547    0.279    4.245
 1610.990   49.550    0.278    4.246
 1611.810   50.158    0.276    4.246
 1612.630   50.161    0.274    4.247
 1613.450   50.167    0.273    4.248
 1614.270   49.573    0.272    4.327
 1615.090   49.577    0.271    4.328
 1615.910   49.582    0.267    4.328
 1616.730   50.187    0.265    4.491
 1617.550   50.794    0.266    4.659
 1618.370   49.597    0.267    5.494
 1619.190   47.799    0.268    6.971
 1620.010   43.596    0.266    8.684
 1620.830   38.793    0.251   11.429
 1621.650   35.193    0.224   12.527
 1622.470   36.400    0.187   12.079
 1623.290   40.613    0.128   11.026
 1624.110   44.223    0.132   10.631
 1624.930   47.235    0.193    9.882
 1625.750   48.441    0.222    9.355
 1626.570   49.649    0.271    8.539
 1627.400   49.654    0.276    7.652
 1628.220   49.661    0.275    6.984
 1629.040   49.665    0.273    6.374
 1629.860   49.069    0.272    5.712
 1630.680   49.075    0.274    5.214
 1631.500   49.081    0.268    5.028
 1632.320   48.483    0.259    4.760
 1633.140   48.489    0.261    4.674
