~VERSION INFORMATION
 VERS.                 2.0:   CWLS LOG ASCII STANDARD -VERSION 2.0
 WRAP.                  NO:   ONE LINE PER DEPTH STEP
~WELL INFORMATION BLOCK
#MNEM.UNIT           DATA                    DESCRIPTION OF MNEMONIC
#---------    -------------------            -------------------------------
# Generated from Intellog Unique Number	CS_77_79/WELL/3304
WELL.         NUMAC OIL & GAS LTD.           : Well_name    - WELL
LOC .         00/12-23-079-14W4/0            : Location     - LOCATION
UWI .         00/12-23-079-14W4/0            : Uwi          - UNIQUE WELL ID
ENTR.         JOETTE                         : Entered      - ENTERED BY
SRVC.         SCHLUMBERGER                   : Scn          - SERVICE COMPANY
DATE.         08/24/92                       : Date         - LOG DATE
STRT.M        275                            : top_depth    - START DEPTH
STOP.M        500                            : bot_depth    - STOP DEPTH
STEP.M        0.25                           : increment    - STEP LENGTH
 NULL. -999.2500:NULL Value
~CURVE INFORMATION BLOCK
#MNEM UNIT       ERCB CURVE CODE    CURVE DESCRIPTION
#-----------   ------------------   ----------------------------------
DEPT.M        00 001 00 00         : DEPTH        - DEPTH
NPHI.V/V      00 330 00 00         : PHIN         - NEUTRON POROSITY (SANDSTONE)
DPHI.V/V      00 890 00 00         : PHID         - DENSITY POROSITY (SANDSTONE)
ILD .OHMM     00 120 00 00         : RESD         - DEEP RESISTIVITY (DIL)
GR  .API      00 310 00 00         : GR           - GAMMA RAY
~PARAMETER INFORMATION
#MNEM.UNIT           DATA             DESCRIPTION OF MNEMONIC
#---------         -----------     ------------------------------
GL  .M        695.8                : gl           - GROUND LEVEL ELEVATION
EREF.M        699.2                : kb           - ELEVATION OF DEPTH REFERENCE
DATM.M        699.2                : datum        - DATUM ELEVATION
TDD .M        512                  : tdd          - TOTAL DEPTH DRILLER
RUN .         ONE                  : Run          - RUN NUMBER
ENG .         BILL                 : Engineer     - RECORDING ENGINEER
WIT .         JIM                  : Witness      - WITNESSED BY
MUD .         GEL                  : Mud_type     - MUD TYPE
MATR.         SANDSTONE            : Logunit      - NEUTRON MATRIX
TMAX.C        12                   : BHT          - MAXIMUM RECORDED TEMPERATURE
BHTD.M        512                  : BHTDEP       - MAXIMUM RECORDED TEMPERATURE
RMT .C        12                   : MDTP         - TEMPERATURE OF MUD
MUDD.KG/M     1080                 : MWT          - MUD DENSITY
NEUT.         1                    : NEUTRON      - NEUTRON TYPE
RESI.         0                    : RESIST       - RESISTIVITY TYPE
RM  .OHMM     2.3                  : RM           - RESISTIVITY OF MUD
RMC .OHMM     2.3                  : RMC          - RESISTIVITY OF MUD CAKE
RMF .OHMM     4                    : RMF          - RESISTIVITY OF MUD FILTRATE
SUFT.C        4                    : SUFT         - SURFACE TEMPERATURE
~A  DEPTH     PHIN     PHID     RESD       GR
# ...
  449.000    0.399    0.101    7.862   67.582
  449.250    0.367    0.083    8.618   67.576
  449.500    0.385    0.135    8.300   71.809
  449.750    0.460    0.219    7.850   77.252
  450.000    0.489    0.201    7.560   77.245
  450.250    0.467    0.175    7.149   74.214
  450.500    0.461    0.171    6.886   74.207
  450.750    0.446    0.140    6.512   76.018
  451.000    0.432    0.166    6.158   81.461
  451.250    0.465    0.183    5.611   89.326
  451.500    0.488    0.198    5.208   89.320
  451.750    0.541    0.231    4.409   87.498
  452.000    0.570    0.218    4.017   88.703
  452.250    0.544    0.204    4.015   88.698
  452.500    0.519    0.198    4.088   86.876
  452.750    0.513    0.182    4.240   90.503
  453.000    0.508    0.165    4.317   93.525
  453.250    0.504    0.153    4.478   96.548
  453.500    0.502    0.143    4.644   93.515
  453.750    0.489    0.126    4.817   90.482
  454.000    0.476    0.128    4.996   89.871
  454.250    0.490    0.205    4.993   94.104
  454.500    0.503    0.199    4.990   98.337
  454.750    0.503    0.193    4.987   99.542
  455.000    0.500    0.188    5.078   96.509
  455.250    0.489    0.181    5.267   97.109
  455.500    0.466    0.153    5.564   84.994
  455.750    0.439    0.157    5.772   72.275
  456.000    0.383    0.183    6.211   60.161
  456.250    0.344    0.206    6.685   63.788
  456.500    0.344    0.209    7.892   66.204
  456.750    0.357    0.124    9.316   63.170
  457.000    0.300    0.072   10.997   63.770
  457.250    0.319    0.135   12.981   69.820
  457.500    0.336    0.165   15.043   70.420
  457.750    0.343    0.179   22.165   69.204
  458.000    0.349    0.195   23.857   72.831
  458.250    0.371    0.195   14.744   77.669
  458.500    0.386    0.212   12.712   77.058
  458.750    0.390    0.195   11.799   72.209
  459.000    0.390    0.182   12.466   67.966
  459.250    0.397    0.192   12.459   69.171
  459.500    0.392    0.202   12.456   74.009
  459.750    0.402    0.191   12.448   81.874
  460.000    0.431    0.171   12.909   87.922
  460.250    0.435    0.167   13.640   94.577
  460.500    0.430    0.165   14.954   98.808
  460.750    0.420    0.180   16.394   92.748
  461.000    0.396    0.226   18.310   85.478
  461.250    0.361    0.239   24.150   76.391
  461.500    0.332    0.248   26.473   66.093
  461.750    0.328    0.244   28.490   67.903
  462.000    0.342    0.238   31.238   70.320
  462.250    0.355    0.232   32.999   75.763
  462.500    0.363    0.222   30.071   75.153
  462.750    0.371    0.208   27.918   77.569
  463.000    0.379    0.176   24.975   78.167
  463.250    0.377    0.150   21.526   72.714
  463.500    0.356    0.141   23.602   65.444
  463.750    0.361    0.143   26.849   58.779
  464.000    0.354    0.198   29.984   57.562
  464.250    0.350    0.236   33.485   56.952
  464.500    0.354    0.248   37.391   56.943
  464.750    0.370    0.217   40.246   59.966
  465.000    0.367    0.203   41.741   67.226
  465.250    0.367    0.169   31.039   73.880
  465.500    0.374    0.166   25.784   77.506
  465.750    0.377    0.168   23.938   74.475
  466.000    0.373    0.175   20.632   72.651
  466.250    0.377    0.180   20.249   77.491
  466.500    0.384    0.156   19.869   81.723
  466.750    0.395    0.137   19.495   87.165
  467.000    0.388    0.129   19.484   89.583
  467.250    0.360    0.111   19.474   87.156
  467.500    0.346    0.109   19.826   84.122
  467.750    0.349    0.093   19.821   86.539
  468.000    0.355    0.103   20.555   90.772
  468.250    0.356    0.132   21.319   91.976
  468.500    0.356    0.129   22.111   94.393
  468.750    0.364    0.133   23.794   93.177
  469.000    0.362    0.141   25.604   95.593
  469.250    0.359    0.189   26.559  102.853
  469.500    0.361    0.187   27.549  109.507
  469.750    0.367    0.185   29.646  101.026
  470.000    0.370    0.186   30.184   98.597
  470.250    0.372    0.185   30.170  104.040
  470.500    0.384    0.174   31.291  103.430
  470.750    0.395    0.171   31.859   96.764
  471.000    0.379    0.212   33.039   91.916
  471.250    0.348    0.227   34.275   82.223
  471.500    0.330    0.238   35.549   71.926
  471.750    0.320    0.249   38.963   65.259
  472.000    0.318    0.260   40.416   63.439
  472.250    0.323    0.267   43.497   64.037
  472.500    0.330    0.245   47.681   66.454
  472.750    0.331    0.227   49.458   69.477
  473.000    0.326    0.219   45.075   74.314
  473.250    0.325    0.219   41.071   81.574
  473.500    0.329    0.218   38.837   88.228
  473.750    0.331    0.217   39.547   89.434
  474.000    0.332    0.212   41.011   82.163
  474.250    0.326    0.219   41.762   74.893
  474.500    0.336    0.249   44.122   61.566
  474.750    0.348    0.262   50.187   60.350
  475.000    0.342    0.255   57.099   51.263
  475.250    0.331    0.267   68.660   51.861
  475.500    0.316    0.277   82.562   49.435
  475.750    0.310    0.290   95.675   50.036
  476.000    0.326    0.299  112.925   51.847
  476.250    0.324    0.285  123.801   48.814
  476.500    0.299    0.288  117.051   46.992
  476.750    0.295    0.289  108.669   55.463
  477.000    0.290    0.279  100.887   60.300
  477.250    0.285    0.275   90.229   54.847
  477.500    0.296    0.288   80.727   54.236
  477.750    0.295    0.283   70.894   51.202
  478.000    0.282    0.272   77.713   44.538
  478.250    0.275    0.276   88.416   37.871
  478.500    0.302    0.318  118.789   40.289
  478.750    0.295    0.330  132.660   42.704
  479.000    0.288    0.315  148.149   37.854
  479.250    0.277    0.315  153.636   36.639
  479.500    0.271    0.319  148.006   40.266
  479.750    0.272    0.316  122.966   42.681
  480.000    0.305    0.290   93.143   40.860
  480.250    0.347    0.286   88.064   43.882
  480.500    0.363    0.272   84.817   48.114
  480.750    0.367    0.257   81.718   53.558
  481.000    0.363    0.255   78.714   52.946
  481.250    0.358    0.246   74.432   51.125
  481.500    0.374    0.237   70.374   48.093
  481.750    0.392    0.248   66.545   44.455
  482.000    0.394    0.243   64.099   40.816
  482.250    0.387    0.236   59.494   43.233
  482.500    0.380    0.229   58.376   48.676
  482.750    0.373    0.219   64.006   55.330
  483.000    0.363    0.234   74.171   52.903
  483.250    0.361    0.247  117.689   49.265
  483.500    0.370    0.247  136.381   46.838
  483.750    0.376    0.253  193.680   46.831
  484.000    0.380    0.262  212.359   42.588
  484.250    0.382    0.265  260.120   32.895
  484.500    0.382    0.277  376.298   25.625
  484.750    0.388    0.287  469.473   23.198
  485.000    0.390    0.285  505.321   25.613
  485.250    0.390    0.282  553.987   28.030
  485.500    0.388    0.282  596.216   31.050
  485.750    0.384    0.288  629.834   29.229
  486.000    0.376    0.293  641.276   29.223
  486.250    0.378    0.291  652.925   32.243
  486.500    0.391    0.283  562.893   33.450
  486.750    0.392    0.280  512.949   33.445
  487.000    0.387    0.276  494.032   29.203
  487.250    0.386    0.280  484.807   30.407
  487.500    0.388    0.282  466.984   34.641
  487.750    0.386    0.287  433.437   41.295
  488.000    0.380    0.286  394.979   47.949
  488.250    0.369    0.276  346.869   54.602
  488.500    0.379    0.265  293.597   56.414
  488.750    0.389    0.253  132.531   55.195
  489.000    0.392    0.245   94.949   52.162
  489.250    0.405    0.261  132.371   48.524
  489.500    0.404    0.256  142.479   47.308
  489.750    0.398    0.253  150.531   49.724
  490.000    0.386    0.248   98.347   52.142
  490.250    0.396    0.244   80.212   56.373
  490.500    0.405    0.242   64.223   58.790
  490.750    0.399    0.234   52.380   61.811
  491.000    0.393    0.227   42.721   63.016
  491.250    0.386    0.223   34.205   61.800
  491.500    0.390    0.210   27.380   61.190
  491.750    0.393    0.236   25.890   63.001
  492.000    0.387    0.236   24.482   64.812
  492.250    0.368    0.233   24.025   65.412
