~VERSION INFORMATION
 VERS.                 2.0:   CWLS LOG ASCII STANDARD -VERSION 2.0
 WRAP.                  NO:   ONE LINE PER DEPTH STEP
~WELL INFORMATION BLOCK
#MNEM.UNIT           DATA                    DESCRIPTION OF MNEMONIC
#---------    -------------------            -------------------------------
# Generated from Intellog Unique Number	CW_73_75/WELL/1028
WELL.         PCP MARTEN HILLS 10-28         : Well_name    - WELL
LOC .         00/10-28-075-04W5/0            : Location     - LOCATION
UWI .         00/10-28-075-04W5/0            : Uwi          - UNIQUE WELL ID
ENTR.         JAYE                           : Entered      - ENTERED BY
SRVC.         SCHLUMBERGER                   : Scn          - SERVICE COMPANY
DATE.         27 FEB 74                      : Date         - LOG DATE
STRT.M        670.56                         : top_depth    - START DEPTH
STOP.M        890.06                         : bot_depth    - STOP DEPTH
STEP.M        0.25                           : increment    - STEP LENGTH
 NULL. -999.2500:NULL Value
~CURVE INFORMATION BLOCK
#MNEM UNIT       ERCB CURVE CODE    CURVE DESCRIPTION
#-----------   ------------------   ----------------------------------
DEPT.M        00 001 00 00         : DEPTH        - DEPTH
ILD .OHMM     00 120 00 00         : RESD         - DEEP RESISTIVITY (DIL)
NPHI.V/V      00 330 00 00         : PHIN         - NEUTRON POROSITY (SANDSTONE)
DPHI.V/V      00 890 00 00         : PHID         - DENSITY POROSITY (SANDSTONE)
GR  .API      00 310 00 00         : GR           - GAMMA RAY
CALI.MM       00 280 01 00         : CAL          - CALIPER
~PARAMETER INFORMATION
#MNEM.UNIT           DATA             DESCRIPTION OF MNEMONIC
#---------         -----------     ------------------------------
GL  .M        943.051              : gl           - GROUND LEVEL ELEVATION
EREF.M        946.404              : kb           - ELEVATION OF DEPTH REFERENCE
DATM.M        973.531              : datum        - DATUM ELEVATION
TDD .M        903.732              : tdd          - TOTAL DEPTH DRILLER
RUN .         ONE                  : Run          - RUN NUMBER
ENG .         SIMPSOM              : Engineer     - RECORDING ENGINEER
WIT .         STIEL                : Witness      - WITNESSED BY
BASE.         EDM                  : Branch       - HOME BASE OF LOGGING UNIT
MUD .         GEL                  : Mud_type     - MUD TYPE
MATR.         SANDSTONE            : Logunit      - NEUTRON MATRIX
TMAX.C        33.3333              : BHT          - MAXIMUM RECORDED TEMPERATURE
BHTD.M        903.732              : BHTDEP       - MAXIMUM RECORDED TEMPERATURE
RMT .C        19.4444              : MDTP         - TEMPERATURE OF MUD
MUDD.KG/M     1140                 : MWT          - MUD DENSITY
NEUT.         1                    : NEUTRON      - NEUTRON TYPE
RESI.         0                    : RESIST       - RESISTIVITY TYPE
RM  .OHMM     4.6                  : RM           - RESISTIVITY OF MUD
RMC .OHMM     0                    : RMC          - RESISTIVITY OF MUD CAKE
RMF .OHMM     6.22                 : RMF          - RESISTIVITY OF MUD FILTRATE
SUFT.C        -17.7778             : SUFT         - SURFACE TEMPERATURE
~A  DEPTH     RESD     PHIN     PHID       GR      CAL
# ...
  816.560    3.289    0.512    0.265   91.464  205.600
  816.810    3.317    0.526    0.219   93.686  207.509
  817.060    3.370    0.498    0.239   87.142  206.109
  817.310    3.429    0.471    0.251   84.126  202.449
  817.560    3.510    0.503    0.251   84.763  200.641
  817.810    3.585    0.516    0.260   81.627  199.875
  818.060    3.650    0.498    0.273   83.000  199.305
  818.310    3.749    0.484    0.284   86.436  199.046
  818.560    3.872    0.486    0.293   89.329  199.096
  818.810    4.096    0.517    0.304   90.695  199.247
  819.060    4.293    0.535    0.311   87.558  199.502
  819.310    4.266    0.508    0.316   81.995  199.652
  819.560    4.155    0.499    0.310   82.381  200.015
  819.810    3.958    0.500    0.298   83.934  200.171
  820.060    3.702    0.502    0.287   85.123  200.118
  820.310    3.494    0.494    0.272   84.237  199.543
  820.560    3.304    0.481    0.271   81.587  198.460
  820.810    3.223    0.498    0.284   76.258  197.588
  821.060    3.263    0.502    0.275   76.775  197.216
  821.310    3.278    0.479    0.274   78.509  197.060
  821.560    3.312    0.460    0.285   81.586  197.523
  821.810    3.328    0.448    0.275   83.623  198.810
  822.060    3.368    0.458    0.253   85.537  200.410
  822.310    3.378    0.468    0.249   88.246  201.905
  822.560    3.248    0.468    0.253   94.301  203.085
  822.810    3.049    0.465    0.255   90.069  203.957
  823.060    2.617    0.467    0.264   92.892  205.495
  823.310    2.867    0.467    0.243   94.535  205.705
  823.560    3.084    0.472    0.218   96.361  206.020
  823.810    3.204    0.479    0.229  100.192  206.540
  824.060    3.292    0.476    0.230  102.382  207.059
  824.310    3.395    0.469    0.240  102.446  207.476
  824.560    3.475    0.465    0.227  103.360  208.098
  824.810    3.564    0.476    0.208  106.523  208.309
  825.060    3.696    0.490    0.191  102.273  208.110
  825.310    3.797    0.500    0.197   99.421  207.909
  825.560    3.930    0.477    0.206   96.812  208.223
  825.810    3.950    0.430    0.212   94.385  208.639
  826.060    3.970    0.449    0.221   93.841  209.056
  826.310    3.911    0.466    0.222   96.578  208.959
  826.560    3.796    0.465    0.213   98.829  209.170
  826.810    3.657    0.458    0.208   98.650  209.177
  827.060    3.504    0.465    0.196   96.406  209.183
  827.310    3.446    0.473    0.177   96.591  209.083
  827.560    3.357    0.480    0.186   98.963  208.885
  827.810    3.325    0.485    0.176  100.060  208.683
  828.060    3.329    0.491    0.175   97.269  207.968
  828.310    3.396    0.476    0.197   93.687  207.150
  828.560    3.502    0.457    0.200   93.569  206.641
  828.810    3.625    0.436    0.212   94.666  205.618
  829.060    3.656    0.436    0.233   96.856  205.006
  829.310    3.642    0.441    0.218  100.626  207.069
  829.560    3.586    0.457    0.207  104.214  209.955
  829.810    3.572    0.471    0.202  107.315  212.018
  830.060    3.544    0.485    0.206  106.650  213.463
  830.310    3.582    0.465    0.205  103.859  212.543
  830.560    3.614    0.433    0.204  102.222  210.799
  830.810    3.618    0.438    0.194  101.678  209.468
  831.060    3.610    0.446    0.182  102.106  208.650
  831.310    3.609    0.460    0.191  101.563  208.141
  831.560    3.634    0.471    0.202  100.108  207.632
  831.810    3.761    0.485    0.211   97.499  206.505
  832.060    4.016    0.497    0.225   93.371  204.247
  832.310    4.490    0.501    0.261   89.060  201.270
  832.560    5.442    0.488    0.261   83.170  200.452
  832.810    7.985    0.426    0.233   75.883  201.589
  833.060   10.884    0.393    0.180   71.816  204.578
  833.310   11.328    0.359    0.166   69.328  207.155
  833.560   10.482    0.394    0.187   70.121  208.806
  833.810    9.594    0.435    0.229   72.251  206.960
  834.060    8.449    0.483    0.266   72.801  203.056
  834.310    7.634    0.481    0.305   73.229  201.828
  834.560    6.735    0.469    0.312   74.569  201.833
  834.810    6.030    0.465    0.302   75.787  201.838
  835.060    5.529    0.479    0.290   76.823  202.254
  835.310    5.202    0.488    0.285   78.284  202.878
  835.560    4.966    0.502    0.301   79.563  203.088
  835.810    4.715    0.488    0.308   79.384  203.301
  836.060    4.527    0.480    0.309   79.934  203.718
  836.310    4.298    0.479    0.304   80.424  203.826
  836.560    4.051    0.479    0.304   80.974  204.241
  836.810    3.860    0.475    0.301   81.523  204.453
  837.060    3.754    0.468    0.295   82.499  204.665
  837.310    3.657    0.493    0.285   82.502  204.670
  837.560    3.596    0.512    0.278   78.920  204.880
  837.810    3.567    0.502    0.287   75.704  205.195
  838.060    3.566    0.487    0.280   76.983  205.508
  838.310    3.604    0.475    0.264   79.052  205.720
  838.560    3.669    0.471    0.270   79.966  205.829
  838.810    3.736    0.493    0.296   80.820  205.833
  839.060    3.817    0.508    0.294   83.010  205.839
  839.310    3.865    0.518    0.286   84.167  205.845
  839.560    3.899    0.498    0.276   82.713  205.746
  839.810    3.933    0.491    0.278   83.992  205.649
  840.060    3.967    0.490    0.292   85.817  205.860
  840.310    4.010    0.489    0.291   84.605  205.969
  840.560    4.045    0.492    0.281   86.309  206.076
  840.810    4.110    0.490    0.275   87.285  206.289
  841.060    4.208    0.472    0.265   86.863  206.395
  841.310    4.427    0.465    0.262   87.413  206.401
  841.560    4.575    0.463    0.260   85.168  206.406
  841.810    4.787    0.461    0.267   85.353  206.310
  842.060    4.937    0.464    0.273   86.268  206.315
  842.310    4.999    0.464    0.276   87.486  206.217
  842.560    5.042    0.450    0.282   89.008  206.120
  842.810    5.096    0.447    0.289   86.095  206.022
  843.060    5.103    0.457    0.293   84.094  206.131
  843.310    5.091    0.477    0.284   86.709  206.136
  843.560    5.061    0.493    0.270   87.259  206.244
  843.810    4.967    0.494    0.266   84.893  206.455
  844.060    4.865    0.471    0.274   89.878  207.181
  844.310    4.731    0.459    0.274   93.465  207.906
  844.560    4.567    0.447    0.255   93.712  208.529
  844.810    4.441    0.444    0.218   92.682  208.945
  845.060    4.326    0.456    0.200   91.956  209.568
  845.310    4.176    0.476    0.215   94.815  210.397
  845.560    4.039    0.482    0.213   99.010  210.916
  845.810    3.913    0.479    0.199  100.471  211.334
  846.060    3.869    0.474    0.199   98.105  211.235
  846.310    3.824    0.470    0.202   96.103  211.447
  846.560    3.781    0.469    0.194   99.934  211.555
  846.810    3.751    0.465    0.213  104.007  211.766
  847.060    3.736    0.466    0.193  105.226  211.978
  847.310    3.707    0.461    0.191  105.290  211.880
  847.560    3.692    0.456    0.188  103.166  211.783
  847.810    3.697    0.459    0.184  104.810  211.892
  848.060    3.702    0.484    0.201  107.911  211.999
  848.310    3.734    0.490    0.200  103.783  212.004
  848.560    3.788    0.478    0.200  102.389  212.113
  848.810    3.835    0.459    0.225  104.094  212.427
  849.060    3.876    0.461    0.208  102.153  212.432
  849.310    3.889    0.469    0.180  100.515  212.232
  849.560    3.909    0.473    0.193  102.767  211.722
  849.810    3.928    0.469    0.214  101.980  209.156
  850.060    3.927    0.463    0.215  101.923  205.355
  850.310    3.939    0.456    0.207  103.687  205.669
  850.560    3.924    0.447    0.190  107.579  207.938
  850.810    3.879    0.452    0.184  104.970  210.618
  851.060    3.870    0.461    0.165  101.388  211.755
  851.310    3.833    0.471    0.187  101.452  212.069
  851.560    3.824    0.474    0.178  103.582  211.766
  851.810    3.836    0.466    0.193  106.197  211.359
  852.060    3.913    0.455    0.189  108.327  210.953
  852.310    3.969    0.444    0.186  108.937  210.547
  852.560    4.011    0.436    0.187  104.567  209.523
  852.810    4.061    0.429    0.201  104.691  206.648
