~VERSION INFORMATION
 VERS.                 2.0:   CWLS LOG ASCII STANDARD -VERSION 2.0
 WRAP.                  NO:   ONE LINE PER DEPTH STEP
~WELL INFORMATION BLOCK
#MNEM.UNIT           DATA                    DESCRIPTION OF MNEMONIC
#---------    -------------------            -------------------------------
# Generated from Intellog Unique Number	CS_77_79/WELL/989
WELL.         PARAMOUNT RESOURCES LTD.       : Well_name    - WELL
LOC .         00/11-06-077-09W4/0            : Location     - LOCATION
UWI .         00/11-06-077-09W4/0            : Uwi          - UNIQUE WELL ID
ENTR.         SP                             : Entered      - ENTERED BY
SRVC.         SCHLUMBERGER                   : Scn          - SERVICE COMPANY
STRT.M        210                            : top_depth    - START DEPTH
STOP.M        425                            : bot_depth    - STOP DEPTH
STEP.M        0.25                           : increment    - STEP LENGTH
 NULL. -999.2500:NULL Value
~CURVE INFORMATION BLOCK
#MNEM UNIT       ERCB CURVE CODE    CURVE DESCRIPTION
#-----------   ------------------   ----------------------------------
DEPT.M        00 001 00 00         : DEPTH        - DEPTH
ILD .OHMM     00 120 00 00         : RESD         - DEEP RESISTIVITY (DIL)
GR  .API      00 310 00 00         : GR           - GAMMA RAY
NPHI.V/V      00 330 00 00         : PHIN         - NEUTRON POROSITY (LIMESTONE)
DPHI.V/V      00 890 00 00         : PHID         - DENSITY POROSITY (LIMESTONE)
~PARAMETER INFORMATION
#MNEM.UNIT           DATA             DESCRIPTION OF MNEMONIC
#---------         -----------     ------------------------------
GL  .M        627.96               : gl           - GROUND LEVEL ELEVATION
EREF.M        631                  : kb           - ELEVATION OF DEPTH REFERENCE
DATM.M        627.96               : datum        - DATUM ELEVATION
TDD .M        431                  : tdd          - TOTAL DEPTH DRILLER
RUN .         ONE                  : Run          - RUN NUMBER
ENG .         BILL                 : Engineer     - RECORDING ENGINEER
WIT .         JIM                  : Witness      - WITNESSED BY
MUD .         GEL                  : Mud_type     - MUD TYPE
MATR.         LIMESTONE            : Logunit      - NEUTRON MATRIX
TMAX.C        21                   : BHT          - MAXIMUM RECORDED TEMPERATURE
BHTD.M        431                  : BHTDEP       - MAXIMUM RECORDED TEMPERATURE
MATR.         1                    : LOGUNIT      - NEUTRON MATRIX
RMT .C        25                   : MDTP         - TEMPERATURE OF MUD
NEUT.         1                    : NEUTRON      - NEUTRON TYPE
RESI.         0                    : RESIST       - RESISTIVITY TYPE
RMC .OHMM     0.25                 : RMC          - RESISTIVITY OF MUD CAKE
RMF .OHMM     0.25                 : RMF          - RESISTIVITY OF MUD FILTRATE
SUFT.C        15                   : SUFT         - SURFACE TEMPERATURE
~A  DEPTH     RESD       GR     PHIN     PHID
# ...
  297.000   13.998   71.311    0.433    0.317
  297.250   14.322   72.530    0.431    0.328
  297.500   15.611   71.320    0.443    0.330
  297.750   16.900   70.111    0.439    0.330
  298.000   18.189   67.686    0.436    0.254
  298.250   18.113   62.832    0.263    0.158
  298.500   17.473   59.192    0.251    0.095
  298.750   15.629   56.158    0.261    0.065
  299.000   14.348   53.126    0.284    0.108
  299.250   13.628   62.240    0.345    0.153
  299.500   12.828   72.568    0.416    0.242
  299.750   11.628   73.787    0.446    0.291
  300.000   10.988   75.006    0.433    0.334
  300.250   10.349   78.047    0.427    0.334
  300.500    9.951   80.480    0.427    0.321
  300.750    9.633   81.698    0.450    0.303
  301.000    9.476   80.488    0.467    0.280
  301.250    9.479   77.456    0.479    0.284
  301.500    9.562   79.890    0.485    0.295
  301.750    9.486   81.717    0.474    0.298
  302.000    9.328   81.114    0.465    0.304
  302.250    8.288   81.117    0.461    0.292
  302.500    6.926   84.158    0.462    0.281
  302.750    5.885   85.984    0.471    0.279
  303.000    5.166   88.417    0.505    0.296
  303.250    4.527   93.280    0.491    0.281
  303.500    4.048  101.786    0.488    0.251
  303.750    3.651  108.470    0.500    0.241
  304.000    3.413  105.439    0.508    0.241
  304.250    3.255  106.658    0.498    0.235
  304.500    3.259  108.483    0.494    0.232
  304.750    3.506  110.310    0.494    0.232
  305.000    3.668  109.707    0.497    0.245
  305.250    4.154  108.496    0.508    0.244
  305.500    4.639  107.893    0.521    0.254
  305.750    5.126  106.683    0.535    0.276
  306.000    5.288  101.221    0.544    0.287
  306.250    5.373   96.367    0.509    0.281
  306.500    5.295   98.195    0.455    0.277
  306.750    5.058   99.413    0.460    0.267
  307.000    4.741  101.238    0.494    0.245
  307.250    4.664  101.849    0.482    0.220
  307.500    4.909  100.640    0.462    0.220
  307.750    5.073  100.036    0.445    0.205
  308.000    5.076  100.040    0.441    0.224
  308.250    4.918  103.082    0.449    0.221
  308.500    4.441  106.122    0.470    0.215
  308.750    4.122  107.341    0.501    0.209
  309.000    3.565  107.344    0.531    0.223
  309.250    3.326  106.742    0.546    0.232
  309.500    3.169  106.140    0.553    0.236
  309.750    3.092  107.357    0.549    0.240
  310.000    3.176  109.184    0.546    0.242
  310.250    3.583  109.795    0.563    0.245
  310.500    3.987  108.585    0.559    0.258
  310.750    4.874  107.374    0.548    0.272
  311.000    5.922  106.164    0.502    0.230
  311.250    6.567  105.562    0.470    0.240
  311.500    7.455  101.314    0.460    0.229
  311.750    7.941   94.639    0.441    0.240
  312.000    8.024   89.784    0.438    0.253
  312.250    8.028   87.966    0.449    0.253
  312.500    7.950   92.222    0.456    0.272
  312.750    7.874   97.084    0.461    0.258
  313.000    7.877   95.266    0.458    0.240
  313.250    7.802   94.664    0.454    0.259
  313.500    7.804   96.490    0.446    0.250
  313.750    7.889   97.101    0.434    0.252
  314.000    7.891   97.106    0.450    0.250
  314.250    7.976   94.073    0.465    0.262
  314.500    8.059   94.685    0.469    0.265
  314.750    8.062   94.082    0.459    0.263
  315.000    8.066   92.871    0.437    0.275
  315.250    8.072   91.660    0.435    0.280
  315.500    8.074   93.487    0.443    0.272
  315.750    8.077   95.313    0.469    0.253
  316.000    7.999   95.924    0.477    0.243
  316.250    8.003   94.716    0.464    0.247
  316.500    7.847   93.504    0.443    0.254
  316.750    7.771   92.900    0.446    0.246
  317.000    7.693   95.335    0.453    0.246
  317.250    7.617   95.945    0.438    0.236
  317.500    7.619   93.521    0.435    0.248
  317.750    7.785   93.525    0.441    0.265
  318.000    7.788   95.351    0.460    0.255
  318.250    7.872   98.392    0.473    0.256
  318.500    7.955   97.788    0.483    0.256
  318.750    7.959   97.185    0.465    0.244
  319.000    7.962   96.582    0.444    0.271
  319.250    7.805   94.765    0.438    0.276
  319.500    7.568   97.200    0.451    0.261
  319.750    7.409   97.811    0.471    0.252
  320.000    7.092   99.029    0.492    0.248
  320.250    6.855   98.425    0.495    0.241
  320.500    6.779   97.823    0.481    0.240
  320.750    6.701  100.256    0.461    0.238
  321.000    6.627  102.082    0.464    0.231
  321.250    6.549  100.873    0.468    0.226
  321.500    6.551  100.877    0.480    0.235
  321.750    6.476  102.703    0.472    0.244
  322.000    6.398  105.137    0.443    0.234
  322.250    6.401  106.355    0.444    0.227
  322.500    6.244  106.965    0.465    0.227
  322.750    6.167  108.184    0.475    0.235
  323.000    5.688  111.226    0.478    0.246
  323.250    5.050  113.659    0.484    0.247
  323.500    4.410  113.055    0.487    0.265
  323.750    3.691  114.882    0.499    0.265
  324.000    3.293  116.707    0.528    0.275
  324.250    2.654  113.676    0.562    0.291
  324.500    2.256  113.679    0.562    0.296
  324.750    2.180  113.077    0.568    0.294
  325.000    2.263  108.830    0.579    0.299
  325.250    2.749  105.191    0.583    0.269
  325.500    3.234   99.730    0.509    0.261
  325.750    3.961   95.482    0.494    0.284
  326.000    4.284   91.843    0.463    0.276
  326.250    5.171   89.418    0.435    0.266
  326.500    6.300   88.207    0.402    0.289
  326.750    7.187   89.426    0.360    0.322
  327.000    8.476   88.216    0.324    0.349
  327.250    9.523   90.042    0.281    0.366
  327.500   11.133   91.869    0.279    0.370
  327.750   11.861   92.480    0.300    0.361
  328.000   11.784   88.233    0.321    0.338
  328.250   12.429   84.593    0.313    0.319
  328.500   13.478   82.168    0.277    0.374
  328.750   14.364   78.528    0.249    0.402
  329.000   14.930   73.067    0.203    0.439
  329.250   14.373   68.821    0.230    0.450
  329.500   13.652   69.432    0.342    0.414
  329.750   12.450   68.830    0.389    0.354
  330.000   10.687   67.618    0.414    0.331
  330.250    9.245   65.193    0.428    0.324
  330.500    8.525   61.554    0.429    0.325
  330.750    8.127   60.344    0.418    0.326
  331.000    7.971   60.956    0.415    0.319
  331.250    7.893   62.175    0.426    0.318
  331.500    7.897   64.608    0.429    0.325
  331.750    8.063   65.219    0.434    0.331
  332.000    8.147   63.402    0.446    0.342
  332.250    8.150   61.584    0.436    0.349
  332.500    8.154   64.019    0.423    0.347
  332.750    8.157   66.452    0.421    0.352
  333.000    8.079   67.669    0.422    0.348
  333.250    8.001   65.852    0.429    0.332
  333.500    7.845   64.034    0.434    0.318
  333.750    7.689   65.254    0.435    0.337
  334.000    7.611   66.472    0.428    0.336
  334.250    7.614   64.655    0.419    0.332
  334.500    7.618   63.444    0.410    0.326
  334.750    7.621   64.055    0.414    0.321
  335.000    7.624   64.667    0.422    0.319
  335.250    7.548   64.671    0.428    0.317
  335.500    7.632   63.461    0.436    0.318
  335.750    7.637   61.643    0.442    0.323
  336.000    7.721   64.076    0.446    0.331
  336.250    7.483   63.474    0.419    0.323
  336.500    7.486   64.692    0.415    0.316
  336.750    7.408   68.341    0.420    0.310
  337.000    7.412   70.168    0.412    0.301
  337.250    7.416   70.779    0.425    0.309
  337.500    7.420   70.782    0.435    0.310
  337.750    7.422   69.572    0.436    0.311
  338.000    7.347   68.362    0.413    0.323
  338.250    7.349   65.937    0.422    0.317
  338.500    7.433   66.547    0.437    0.327
  338.750    7.436   66.553    0.441    0.327
  339.000    7.441   65.341    0.434    0.323
  339.250    7.524   65.953    0.422    0.320
  339.500    7.530   65.958    0.417    0.320
  339.750    7.532   65.356    0.419    0.312
  340.000    7.615   65.967    0.429    0.307
  340.250    7.699   66.579    0.420    0.314
