~VERSION INFORMATION
 VERS.                 2.0:   CWLS LOG ASCII STANDARD -VERSION 2.0
 WRAP.                  NO:   ONE LINE PER DEPTH STEP
~WELL INFORMATION BLOCK
#MNEM.UNIT           DATA                    DESCRIPTION OF MNEMONIC
#---------    -------------------            -------------------------------
# Generated from Intellog Unique Number	CN_91_93/WELL/2621
WELL.         PETRO-CANADA INC.              : Well_name    - WELL
LOC .         00/11-30-091-17W4/0            : Location     - LOCATION
UWI .         00/11-30-091-17W400            : Uwi          - UNIQUE WELL ID
ENTR.         JOETTE                         : Entered      - ENTERED BY
SRVC.         SCHLUMBERGER                   : Scn          - SERVICE COMPANY
DATE.         02/05/92                       : Date         - LOG DATE
STRT.M        75                             : top_depth    - START DEPTH
STOP.M        255                            : bot_depth    - STOP DEPTH
STEP.M        0.25                           : increment    - STEP LENGTH
 NULL. -999.2500:NULL Value
~CURVE INFORMATION BLOCK
#MNEM UNIT       ERCB CURVE CODE    CURVE DESCRIPTION
#-----------   ------------------   ----------------------------------
DEPT.M        00 001 00 00         : DEPTH        - DEPTH
GR  .API      00 310 00 00         : GR           - GAMMA RAY
CALI.MM       00 280 01 00         : CAL          - CALIPER
NPHI.V/V      00 330 00 00         : PHIN         - NEUTRON POROSITY (SANDSTONE)
DPHI.V/V      00 890 00 00         : PHID         - DENSITY POROSITY (SANDSTONE)
ILD .OHMM     00 120 00 00         : RESD         - DEEP RESISTIVITY (DIL)
~PARAMETER INFORMATION
#MNEM.UNIT           DATA             DESCRIPTION OF MNEMONIC
#---------         -----------     ------------------------------
GL  .M        513.2                : gl           - GROUND LEVEL ELEVATION
EREF.M        516.6                : kb           - ELEVATION OF DEPTH REFERENCE
DATM.M        516.6                : datum        - DATUM ELEVATION
TDD .M        260.5                : tdd          - TOTAL DEPTH DRILLER
RUN .         ONE                  : Run          - RUN NUMBER
ENG .         BILL                 : Engineer     - RECORDING ENGINEER
WIT .         JIM                  : Witness      - WITNESSED BY
MUD .         GEL                  : Mud_type     - MUD TYPE
MATR.         SANDSTONE            : Logunit      - NEUTRON MATRIX
TMAX.C        28                   : BHT          - MAXIMUM RECORDED TEMPERATURE
BHTD.M        260.5                : BHTDEP       - MAXIMUM RECORDED TEMPERATURE
RMT .C        8.33333              : MDTP         - TEMPERATURE OF MUD
MUDD.KG/M     1030                 : MWT          - MUD DENSITY
NEUT.         1                    : NEUTRON      - NEUTRON TYPE
RESI.         0                    : RESIST       - RESISTIVITY TYPE
RM  .OHMM     6.97                 : RM           - RESISTIVITY OF MUD
RMC .OHMM     6.97                 : RMC          - RESISTIVITY OF MUD CAKE
RMF .OHMM     6.97                 : RMF          - RESISTIVITY OF MUD FILTRATE
SUFT.C        4                    : SUFT         - SURFACE TEMPERATURE
~A  DEPTH       GR      CAL     PHIN     PHID     RESD
# ...
  221.000   87.957  161.151    0.344    0.267   14.629
  221.250   85.864  161.146    0.359    0.266   16.789
  221.500   72.128  161.633    0.372    0.263   19.993
  221.750   68.243  161.627    0.328    0.260   23.815
  222.000   63.761  161.618    0.293    0.212   27.090
  222.250   61.069  161.114    0.269    0.238   31.969
  222.500   58.080  160.608    0.240    0.287   38.071
  222.750   55.985  160.600    0.238    0.358   39.820
  223.000   53.891  161.089    0.321    0.367   43.603
  223.250   54.185  162.076    0.353    0.339   46.042
  223.500   53.285  162.070    0.384    0.313   49.509
  223.750   51.191  162.060    0.401    0.313   53.747
  224.000   51.783  161.555    0.399    0.321   59.429
  224.250   53.868  161.050    0.387    0.322   61.556
  224.500   56.250  161.041    0.391    0.322   62.583
  224.750   57.142  161.041    0.400    0.309   63.053
  225.000   55.644  160.527    0.398    0.306   63.526
  225.250   50.566  160.024    0.395    0.312   64.018
  225.500   44.591  159.518    0.393    0.311   65.710
  225.750   36.826  159.012    0.390    0.304   69.987
  226.000   28.164  159.004    0.370    0.304   77.404
  226.250   25.472  158.997    0.340    0.307   87.195
  226.500   25.767  158.989    0.325    0.313   95.521
  226.750   28.149  159.479    0.328    0.317  100.820
  227.000   29.637  159.471    0.354    0.321  103.461
  227.250   29.335  159.961    0.375    0.328  102.340
  227.500   29.629  160.450    0.380    0.330   95.714
  227.750   30.520  160.442    0.360    0.330   81.547
  228.000   33.200  161.430    0.358    0.332   63.913
  228.250   34.987  161.920    0.366    0.332   49.616
  228.500   37.370  162.408    0.356    0.330   37.458
  228.750   40.649  162.408    0.349    0.318   27.758
  229.000   45.420  162.394    0.356    0.302   20.379
  229.250   58.848  161.887    0.415    0.278   13.507
  229.500   60.336  161.383    0.396    0.246   10.388
  229.750  102.717  161.383    0.378    0.229    7.080
  230.000   95.549  160.865    0.462    0.224    6.498
  230.250   85.992  160.860    0.494    0.248    7.670
  230.500   75.839  161.847    0.457    0.302   12.421
  230.750   52.551  162.835    0.401    0.329   24.690
  231.000   42.696  163.326    0.386    0.324   45.124
  231.250   42.094  163.816    0.401    0.322   72.401
  231.500   42.985  163.808    0.381    0.329   83.848
  231.750   44.472  163.800    0.370    0.330   81.411
  232.000   45.960  162.298    0.386    0.330   76.123
  232.250   48.643  161.793    0.397    0.327   68.594
  232.500   53.712  161.786    0.385    0.319   54.770
  232.750   51.916  161.778    0.360    0.305   39.104
  233.000   54.300  161.769    0.344    0.290   30.076
  233.250   57.279  161.761    0.346    0.278   27.342
  233.500   46.827  161.753    0.386    0.280   30.522
  233.750   43.241  161.746    0.393    0.295   38.812
  234.000   41.147  161.738    0.388    0.309   50.278
  234.250   40.843  161.731    0.374    0.322   60.435
  234.500   41.734  161.225    0.365    0.324   66.809
  234.750   43.819  160.720    0.372    0.322   68.574
  235.000   47.993  160.711    0.376    0.319   69.767
  235.250   47.989  160.704    0.373    0.315   72.939
  235.500   42.910  160.697    0.366    0.318   74.883
  235.750   37.532  160.192    0.360    0.318   76.845
  236.000   35.139  159.686    0.358    0.323   75.995
  236.250   38.120  157.191    0.361    0.331   68.463
  236.500   38.115  156.685    0.377    0.337   62.283
  236.750   39.900  159.163    0.380    0.339   51.126
  237.000   47.956  159.654    0.387    0.335   23.570
  237.250   56.607  160.144    0.406    0.315   15.192
  237.500   72.124  160.136    0.414    0.303   12.943
  237.750   78.686  160.129    0.423    0.286   12.330
  238.000   76.294  160.120    0.455    0.285   12.541
  238.250   56.290  160.611    0.449    0.292   14.259
  238.500   52.107  161.098    0.425    0.313   19.715
  238.750   45.236  161.587    0.407    0.331   30.195
  239.000   41.948  162.575    0.402    0.328   38.387
  239.250   44.033  162.568    0.399    0.327   42.445
  239.500   45.221  162.561    0.393    0.330   38.965
  239.750   46.112  161.557    0.405    0.333   29.962
  240.000   46.704  160.555    0.395    0.331   25.063
  240.250   49.387  160.050    0.362    0.311   20.965
  240.500   69.381  159.545    0.359    0.277   17.862
  240.750   81.615  159.534    0.364    0.241   15.791
  241.000   89.670  159.526    0.356    0.225   15.039
  241.250  103.396  159.520    0.350    0.204   15.019
  241.500  108.167  160.010    0.357    0.180   15.273
  241.750  103.684  160.498    0.391    0.208   16.580
  242.000   99.202  160.990    0.402    0.245   19.749
  242.250   89.944  161.478    0.410    0.294   22.665
  242.500   87.551  162.467    0.419    0.290   24.146
  242.750   90.234  163.453    0.408    0.273   24.560
  243.000   93.213  164.439    0.375    0.249   24.970
  243.250   85.150  164.433    0.368    0.251   24.914
  243.500   80.667  164.424    0.361    0.266   24.880
  243.750   77.975  164.416    0.379    0.282   24.834
  244.000   78.867  163.912    0.380    0.284   24.789
  244.250   90.504  162.909    0.374    0.276   24.970
  244.500   95.573  162.404    0.364    0.264   24.688
  244.750   97.061  161.899    0.359    0.234   24.426
  245.000   87.505  161.890    0.364    0.234   25.306
  245.250   70.187  161.882    0.382    0.240   26.697
  245.500   61.227  161.873    0.373    0.242   27.924
  245.750   74.058  162.364    0.358    0.264   28.662
  246.000   84.799  162.854    0.366    0.275   27.044
  246.250   90.167  163.343    0.356    0.240   25.065
  246.500   98.222  162.837    0.340    0.226   22.372
  246.750  100.008  162.333    0.341    0.208   20.533
  247.000   97.018  161.328    0.358    0.203   18.850
  247.250   99.998  160.823    0.342    0.209   17.629
  247.500  108.352  160.319    0.334    0.207   16.802
  247.750  114.616  160.809    0.338    0.204   16.155
  248.000  117.596  161.795    0.363    0.197   15.828
  248.250  116.098  162.285    0.386    0.192   15.796
  248.500  111.019  162.278    0.385    0.227   16.213
  248.750   95.493  161.275    0.390    0.275   17.273
  249.000   84.145  161.267    0.390    0.313   18.577
  249.250   84.737  161.756    0.396    0.302   19.971
  249.500   86.822  162.244    0.400    0.282   19.940
  249.750   89.206  162.735    0.381    0.265   19.177
  250.000   96.664  162.728    0.356    0.247   18.098
  250.250  105.016  162.720    0.342    0.232   16.927
  250.500  107.101  162.712    0.332    0.217   15.827
  250.750  108.290  161.708    0.328    0.199   15.511
  251.000  108.882  160.208    0.330    0.204   15.482
  251.250  107.983  159.206    0.340    0.211   15.892
  251.500  106.485  158.203    0.373    0.211   16.618
  251.750  105.585  157.200    0.371    0.232   17.865
  252.000  105.282  156.694    0.370    0.247   19.939
  252.250  104.979  156.687    0.398    0.244   21.445
  252.500  103.780  157.177    0.411    0.204   22.846
  252.750  102.283  158.164    0.405    0.194   22.588
  253.000  102.874  159.150    0.404    0.231   21.522
  253.250  104.064  159.640    0.377    0.246   20.892
  253.500  106.149  159.631    0.362    0.216   19.539
  253.750  107.337  159.624    0.357    0.196   18.441
  254.000  107.034  159.617    0.356    0.189   17.243
  254.250  106.732  159.608    0.356    0.199   16.426
  254.500  105.532  160.595    0.354    0.217   16.708
  254.750  103.738  160.589    0.354    0.232   17.475
  255.000  100.449  160.579    0.354    0.277   19.869
