~VERSION INFORMATION
 VERS.                 2.0:   CWLS LOG ASCII STANDARD -VERSION 2.0
 WRAP.                  NO:   ONE LINE PER DEPTH STEP
~WELL INFORMATION BLOCK
#MNEM.UNIT           DATA                    DESCRIPTION OF MNEMONIC
#---------    -------------------            -------------------------------
# Generated from Intellog Unique Number	CC_80_83/WELL/2339
NULL.         -999.25                        : NULL_VALUE
WELL.         BVX ET AL HOUSE                : Well_name    - WELL
LOC .         10-08-082-15W4                 : Location     - LOCATION          
UWI .         00/10-08-082-15W400            : Uwi          - UNIQUE WELL ID    
ENTR.         DW                             : Entered      - ENTERED BY        
SRVC.         SCHLUMBERGER                   : Scn          - SERVICE COMPANY   
DATE.         23 MAR 80                      : Date         - LOG DATE
STRT.M        130                            : top_depth    - START DEPTH       
STOP.M        330.098                        : bot_depth    - STOP DEPTH        
STEP.M        0.3                            : increment    - STEP LENGTH       
~CURVE INFORMATION BLOCK
#MNEM UNIT       ERCB CURVE CODE    CURVE DESCRIPTION
#-----------   ------------------   ----------------------------------
DEPT.M        00 001 00 00         : DEPTH        - DEPTH                       
DPHI.V/V      00 890 00 00         : PHID         - DENSITY POROSITY (LIMESTONE)
NPHI.V/V      00 330 00 00         : PHIN         - NEUTRON POROSITY (LIMESTONE)
GR  .API      00 310 00 00         : GR           - GAMMA RAY                   
ILD .OHMM     00 120 00 00         : RESD         - DEEP RESISTIVITY (DIL)      
~PARAMETER INFORMATION       
#MNEM.UNIT           DATA             DESCRIPTION OF MNEMONIC
#---------         -----------     ------------------------------
GL  .M        563                  : gl           - GROUND LEVEL ELEVATION      
EREF.M        566.2                : kb           - ELEVATION OF DEPTH REFERENCE
DATM.M        566.2                : datum        - DATUM ELEVATION             
TDD .M        330                  : tdd          - TOTAL DEPTH DRILLER         
RUN .         ONE                  : Run          - RUN NUMBER                  
ENG .         BILL                 : Engineer     - RECORDING ENGINEER          
WIT .         JIM                  : Witness      - WITNESSED BY                
MUD .         GEL                  : Mud_type     - MUD TYPE                    
MATR.         LIMESTONE            : Logunit      - NEUTRON MATRIX              
TMAX.C        20                   : BHT          - MAXIMUM RECORDED TEMPERATURE
BHTD.M        330                  : BHTDEP       - MAXIMUM RECORDED TEMPERATURE
MATR.         1                    : LOGUNIT      - NEUTRON MATRIX              
RMT .C        25                   : MDTP         - TEMPERATURE OF MUD          
NEUT.         1                    : NEUTRON      - NEUTRON TYPE                
RESI.         0                    : RESIST       - RESISTIVITY TYPE            
RMC .OHMM     0.25                 : RMC          - RESISTIVITY OF MUD CAKE     
RMF .OHMM     0.25                 : RMF          - RESISTIVITY OF MUD FILTRATE 
SUFT.C        15                   : SUFT         - SURFACE TEMPERATURE         
~A  DEPTH     PHID     PHIN       GR     RESD
# ...
  234.401    0.287    0.472   78.608   10.036
  234.701    0.283    0.485   76.748   10.039
  235.001    0.281    0.494   78.636    9.308
  235.301    0.278    0.457   77.400    8.794
  235.601    0.273    0.424   77.410    8.967
  235.901    0.253    0.435   78.674    9.320
  236.201    0.232    0.465   78.685   11.724
  236.501    0.183    0.455   74.327   19.637
  236.801    0.058    0.393   63.732   26.665
  237.101    0.000    0.235   47.522   27.714
  237.401    0.000    0.189   48.781   25.689
  237.701    0.000    0.191   52.538   14.225
  238.001    0.032    0.211   59.414   10.894
  238.301    0.094    0.302   73.154    9.357
  238.601    0.202    0.340   82.527    8.841
  238.901    0.243    0.435   80.669    8.844
  239.201    0.244    0.457   80.057    8.848
  239.501    0.244    0.481   86.310    8.687
  239.801    0.253    0.491   85.697    8.689
  240.101    0.256    0.476   84.463    8.531
  240.401    0.244    0.457   85.722    8.373
  240.701    0.223    0.440   85.111    8.218
  241.001    0.231    0.435   85.124    7.914
  241.301    0.236    0.454   85.135    7.480
  241.601    0.243    0.479   84.526    7.482
  241.901    0.249    0.476   86.409    7.343
  242.201    0.235    0.464   87.670    6.938
  242.501    0.209    0.462   87.058    5.846
  242.801    0.224    0.488   85.823    4.926
  243.101    0.233    0.495   86.463    4.653
  243.401    0.240    0.479   88.344    4.482
  243.701    0.245    0.484   92.725    4.483
  244.001    0.250    0.509   95.233    4.573
  244.301    0.253    0.503   92.124    4.663
  244.601    0.239    0.486   87.771    4.846
  244.901    0.243    0.470   89.029    5.542
  245.201    0.244    0.479   90.917    6.460
  245.501    0.241    0.484   90.928    6.586
  245.801    0.243    0.481   90.322    6.466
  246.101    0.241    0.470   89.704    6.346
  246.401    0.230    0.465   89.093    6.230
  246.701    0.243    0.486   87.856    6.475
  247.001    0.272    0.492   86.622    7.127
  247.301    0.274    0.494   84.138    7.994
  247.601    0.267    0.492   76.664    9.682
  247.901    0.266    0.486   77.300    9.871
  248.201    0.262    0.476   75.440   10.067
  248.501    0.227    0.438   72.331    9.695
  248.801    0.232    0.434   71.720    9.887
  249.101    0.302    0.469   72.983    9.891
  249.401    0.302    0.454   72.994    9.896
  249.701    0.286    0.449   74.255   10.287
  250.001    0.227    0.445   76.762   10.097
  250.301    0.109    0.429   71.782   11.326
  250.601    0.117    0.321   70.548   11.118
  250.901    0.207    0.360   76.801   10.913
  251.201    0.251    0.445   82.428   10.312
  251.501    0.255    0.452   83.691    9.930
  251.801    0.262    0.452   83.700    9.746
  252.101    0.274    0.450   82.467    9.387
  252.401    0.279    0.450   79.360    9.390
  252.701    0.252    0.450   75.629    9.577
  253.001    0.228    0.484   75.015    9.401
  253.301    0.248    0.483   83.143    9.405
  253.601    0.247    0.484   83.153    9.057
  253.901    0.241    0.477   83.166    8.236
  254.201    0.261    0.462   84.425    7.210
  254.501    0.267    0.462   87.559    6.192
  254.801    0.253    0.467   86.948    5.632
  255.101    0.244    0.476   87.583    5.423
  255.401    0.224    0.478   91.339    5.222
  255.701    0.224    0.485   91.980    5.428
  256.001    0.211    0.504   89.494    5.974
  256.301    0.212    0.503   90.128    7.516
  256.601    0.239    0.477   89.517    9.454
  256.901    0.244    0.443   85.162   11.893
  257.201    0.220    0.465   80.807   13.343
  257.501    0.232    0.429   76.451   13.607
  257.801    0.193    0.380   72.720   13.356
  258.101    0.140    0.340   72.109   11.470
  258.401    0.164    0.385   77.736    8.785
  258.701    0.210    0.427   92.100    6.858
  259.001    0.223    0.428   97.730    5.891
  259.301    0.224    0.440   98.367    5.673
  259.601    0.226    0.474   98.380    5.675
  259.901    0.229    0.494   99.017    5.899
  260.201    0.233    0.495   99.653    6.132
  260.501    0.240    0.489  100.287    6.373
  260.801    0.220    0.474  100.302    6.751
  261.101    0.226    0.492  100.937    7.017
  261.401    0.220    0.504  101.574    6.889
  261.701    0.221    0.485  102.213    6.761
  262.001    0.205    0.470  101.601    6.511
  262.301    0.227    0.476  100.366    7.031
  262.601    0.222    0.462   99.753    8.677
  262.901    0.210    0.466   97.893   10.710
  263.201    0.226    0.446   94.161   11.565
  263.501    0.205    0.426   92.924   11.570
  263.801    0.201    0.396   93.562   11.357
  264.101    0.196    0.400   94.822   10.527
  264.401    0.190    0.404   99.826    8.871
  264.701    0.202    0.411  103.583    7.764
  265.001    0.215    0.460   98.604    6.929
  265.301    0.211    0.447   94.248    6.932
  265.601    0.199    0.461   98.007    7.486
  265.901    0.189    0.480   96.770    8.558
  266.201    0.195    0.470   93.667   10.364
  266.501    0.206    0.435   90.555   11.193
  266.801    0.216    0.411   80.582   11.412
  267.101    0.225    0.422   81.844   11.418
  267.401    0.242    0.446   84.979   10.788
  267.701    0.239    0.436   84.988   10.195
  268.001    0.226    0.443   88.121    9.817
  268.301    0.210    0.457   88.758    9.820
  268.601    0.209    0.442   83.778    9.640
  268.901    0.224    0.428   78.800    9.831
  269.201    0.241    0.437   77.566   10.025
  269.501    0.260    0.456   79.450   11.034
  269.801    0.247    0.437   79.464   11.914
  270.101    0.248    0.443   78.849   12.865
  270.401    0.247    0.417   78.861   13.119
  270.701    0.222    0.400   80.745   12.635
  271.001    0.198    0.387   83.255   11.938
  271.301    0.232    0.401   82.642   11.278
  271.601    0.240    0.421   85.153   10.656
  271.901    0.220    0.433   88.909   10.461
  272.201    0.223    0.437   87.672   10.666
  272.501    0.218    0.426   87.684    9.887
  272.801    0.209    0.408   85.830    9.524
  273.101    0.205    0.412   85.213    9.528
  273.401    0.205    0.419   82.106    9.352
  273.701    0.238    0.427   80.248    9.356
  274.001    0.236    0.434   77.764    9.360
  274.301    0.228    0.439   76.527    9.545
  274.601    0.209    0.443   79.662    9.550
  274.901    0.226    0.451   80.920    9.738
  275.201    0.244    0.460   79.061    9.743
  275.500    0.245    0.466   79.698    9.748
  275.800    0.241    0.460   80.337    9.753
  276.100    0.240    0.443   80.347    9.572
  276.400    0.225    0.448   77.239    9.397
  276.700    0.211    0.433   74.132    9.050
  277.000    0.206    0.434   75.396    8.550
  277.300    0.212    0.438   79.150    8.078
  277.600    0.220    0.442   81.661    7.778
  277.900    0.253    0.446   81.049    7.492
  278.200    0.241    0.440   80.435    7.352
  278.500    0.232    0.425   81.073    7.080
  278.800    0.233    0.429   81.708    6.199
  279.100    0.232    0.440   85.466    5.637
  279.400    0.223    0.461   89.220    5.126
  279.700    0.225    0.476   87.362    4.487
  280.000    0.222    0.490   90.494    3.929
  280.300    0.220    0.481   95.497    3.856
  280.600    0.223    0.484   99.879    3.932
  280.900    0.216    0.478  100.516    4.328
  281.200    0.192    0.468   96.158    6.845
  281.500    0.195    0.442   88.059    8.778
  281.800    0.182    0.436   81.832   10.428
  282.100    0.127    0.421   77.479   11.047
  282.400    0.108    0.364   79.361   11.266
  282.700    0.155    0.379   85.616   10.850
  283.000    0.229    0.426   86.875   10.447
  283.300    0.234    0.437   86.887    9.873
  283.600    0.201    0.436   85.028    9.876
  283.900    0.211    0.446   83.169   10.072
  284.200    0.212    0.438   83.182   10.075
  284.500    0.206    0.437   85.691   10.277
  284.800    0.188    0.443   87.572   10.085
  285.100    0.176    0.438   90.707   10.091
  285.400    0.199    0.433   93.841    9.904
  285.700    0.193    0.429   94.475   10.101
  286.000    0.182    0.412   93.240   10.498
  286.300    0.178    0.408   87.013   10.706
