~VERSION INFORMATION
 VERS.                 2.0:   CWLS LOG ASCII STANDARD -VERSION 2.0
 WRAP.                  NO:   ONE LINE PER DEPTH STEP
~WELL INFORMATION BLOCK
#MNEM.UNIT           DATA                    DESCRIPTION OF MNEMONIC
#---------    -------------------            -------------------------------
# Generated from Intellog Unique Number	CS_73_76/WELL/4784
WELL.         BOW VALLEY INDUSTRIES          : Well_name    - WELL
LOC .         00/11-28-076-16W4/0            : Location     - LOCATION
UWI .         00/11-28-076-16W4/0            : Uwi          - UNIQUE WELL ID
ENTR.         JO                             : Entered      - ENTERED BY
SRVC.         SCHLUMBERGER                   : Scn          - SERVICE COMPANY
STRT.M        330                            : top_depth    - START DEPTH
STOP.M        555                            : bot_depth    - STOP DEPTH
STEP.M        0.25                           : increment    - STEP LENGTH
 NULL. -999.2500:NULL Value
~CURVE INFORMATION BLOCK
#MNEM UNIT       ERCB CURVE CODE    CURVE DESCRIPTION
#-----------   ------------------   ----------------------------------
DEPT.M        00 001 00 00         : DEPTH        - DEPTH
GR  .API      00 310 00 00         : GR           - GAMMA RAY
NPHI.V/V      00 330 00 00         : PHIN         - NEUTRON POROSITY (SANDSTONE)
DPHI.V/V      00 890 00 00         : PHID         - DENSITY POROSITY (SANDSTONE)
ILD .OHMM     00 120 00 00         : RESD         - DEEP RESISTIVITY (DIL)
~PARAMETER INFORMATION
#MNEM.UNIT           DATA             DESCRIPTION OF MNEMONIC
#---------         -----------     ------------------------------
GL  .M        699.4                : gl           - GROUND LEVEL ELEVATION
EREF.M        708.7                : kb           - ELEVATION OF DEPTH REFERENCE
DATM.M        708.7                : datum        - DATUM ELEVATION
TDD .M        561                  : tdd          - TOTAL DEPTH DRILLER
RUN .         ONE                  : Run          - RUN NUMBER
ENG .         BILL                 : Engineer     - RECORDING ENGINEER
WIT .         JIM                  : Witness      - WITNESSED BY
MUD .         GEL                  : Mud_type     - MUD TYPE
MATR.         SANDSTONE            : Logunit      - NEUTRON MATRIX
TMAX.C        38                   : BHT          - MAXIMUM RECORDED TEMPERATURE
BHTD.M        561                  : BHTDEP       - MAXIMUM RECORDED TEMPERATURE
MATR.         1                    : LOGUNIT      - NEUTRON MATRIX
RMT .C        22                   : MDTP         - TEMPERATURE OF MUD
NEUT.         1                    : NEUTRON      - NEUTRON TYPE
RESI.         0                    : RESIST       - RESISTIVITY TYPE
RMC .OHMM     2                    : RMC          - RESISTIVITY OF MUD CAKE
RMF .OHMM     4                    : RMF          - RESISTIVITY OF MUD FILTRATE
SUFT.C        5                    : SUFT         - SURFACE TEMPERATURE
~A  DEPTH       GR     PHIN     PHID     RESD
# ...
  417.000   59.099    0.403    0.330   11.914
  417.250   53.046    0.396    0.320   11.479
  417.500   50.646    0.405    0.330   11.267
  417.750   50.057    0.417    0.325   10.855
  418.000   57.981    0.407    0.313   10.857
  418.250   59.829    0.396    0.319   10.657
  418.500   51.346    0.422    0.315   10.661
  418.750   50.763    0.438    0.304   10.665
  419.000   57.472    0.420    0.288   10.667
  419.250   62.358    0.410    0.265   10.669
  419.500   66.637    0.399    0.220   10.674
  419.750   73.953    0.393    0.245   10.677
  420.000   79.453    0.418    0.257   10.679
  420.250   72.186    0.463    0.270   10.683
  420.500   77.072    0.468    0.280   10.486
  420.750   80.135    0.470    0.294    9.914
  421.000   74.690    0.462    0.322    9.550
  421.250   72.892    0.439    0.322    9.028
  421.500   77.170    0.436    0.315    8.067
  421.750   79.632    0.436    0.306    7.627
  422.000   84.511    0.430    0.284    7.076
  422.250   89.397    0.410    0.257    6.945
  422.500   84.561    0.459    0.282    6.818
  422.750   92.485    0.449    0.269    6.820
  423.000   86.433    0.444    0.236    6.447
  423.250   81.596    0.448    0.217    5.870
  423.500   77.974    0.420    0.204    6.097
  423.750   70.099    0.333    0.160    6.701
  424.000   84.708    0.365    0.175    6.959
  424.250   93.854    0.396    0.195    7.228
  424.500  102.386    0.430    0.219    7.368
  424.750   91.472    0.401    0.239    7.370
  425.000   90.288    0.402    0.241    7.099
  425.250   90.306    0.410    0.227    6.712
  425.500   94.585    0.431    0.228    6.466
  425.750   87.925    0.446    0.232    6.229
  426.000   98.888    0.452    0.232    6.001
  426.250   91.012    0.452    0.226    5.890
  426.500   88.612    0.424    0.216    5.675
  426.750   87.428    0.400    0.215    5.676
  427.000   86.225    0.401    0.220    5.572
  427.250   86.249    0.415    0.216    5.470
  427.500   92.351    0.417    0.215    5.269
  427.750   99.060    0.416    0.216    5.172
  428.000  101.515    0.417    0.218    4.983
  428.250   95.469    0.426    0.221    4.711
  428.500   95.487    0.449    0.222    4.453
  428.750  105.855    0.491    0.234    4.210
  429.000  104.658    0.461    0.247    4.056
  429.250   96.175    0.465    0.248    3.982
  429.500   91.940    0.462    0.243    4.135
  429.750   87.103    0.433    0.255    4.460
  430.000   78.620    0.427    0.288    6.027
  430.250   67.098    0.417    0.291    6.380
  430.500   70.775    0.404    0.319    6.502
  430.750   67.755    0.411    0.315    6.882
  431.000   71.426    0.400    0.302    6.884
  431.250   74.495    0.391    0.286    6.632
  431.500   70.266    0.424    0.301    6.389
  431.750   67.252    0.421    0.313    6.271
  432.000   64.846    0.410    0.309    6.637
  432.250   84.924    0.440    0.259    6.639
  432.500   98.318    0.474    0.249    5.822
  432.750  103.210    0.502    0.236    5.105
  433.000  108.090    0.512    0.227    4.393
  433.250   95.961    0.562    0.212    3.709
  433.500   95.378    0.585    0.207    3.192
  433.750  106.948    0.603    0.216    2.852
  434.000  116.094    0.622    0.227    2.597
  434.250  115.517    0.636    0.237    2.364
  434.500  114.320    0.626    0.252    2.235
  434.750  111.306    0.596    0.234    2.074
  435.000  108.299    0.584    0.223    1.998
  435.250  110.140    0.522    0.214    1.998
  435.500  107.126    0.516    0.221    2.196
  435.750  110.196    0.489    0.232    2.554
  436.000  107.783    0.427    0.232    2.914
  436.250  107.808    0.446    0.226    3.084
  436.500  104.186    0.467    0.234    3.203
  436.750   87.803    0.474    0.237    3.265
  437.000   89.043    0.446    0.237    3.328
  437.250   83.599    0.404    0.270    3.392
  437.500   73.907    0.450    0.286    3.590
  437.750   73.931    0.457    0.296    3.729
  438.000   76.988    0.469    0.308    3.946
  438.250   80.659    0.470    0.318    4.419
  438.500   73.999    0.423    0.319    5.236
  438.750   71.593    0.407    0.321    5.863
  439.000   72.839    0.407    0.327    6.089
  439.250   72.864    0.430    0.317    6.325
  439.500   74.711    0.437    0.302    6.327
  439.750   76.559    0.442    0.265    6.449
  440.000   75.374    0.391    0.258    6.450
  440.250   74.177    0.421    0.267    6.214
  440.500   74.809    0.448    0.277    6.100
  440.750   78.474    0.447    0.271    5.877
  441.000   81.537    0.416    0.283    5.769
  441.250   77.915    0.410    0.324    5.880
  441.500   78.548    0.440    0.333    6.107
  441.750   73.103    0.449    0.310    6.225
  442.000   77.995    0.435    0.287    6.345
  442.250   81.058    0.413    0.292    6.347
  442.500   88.983    0.431    0.297    6.231
  442.750   92.653    0.418    0.325    6.115
  443.000   81.740    0.403    0.314    5.892
  443.250   77.511    0.408    0.300    5.892
  443.500   71.458    0.407    0.315    6.356
  443.750   73.306    0.399    0.328    5.786
  444.000   68.469    0.401    0.334    5.681
  444.250   61.809    0.441    0.341    5.682
  444.500   67.309    0.451    0.350    5.683
  444.750   59.428    0.453    0.353    5.685
  445.000   56.414    0.452    0.343    5.686
  445.250   64.952    0.423    0.335    6.019
  445.500   62.546    0.365    0.325    6.135
  445.750   60.748    0.335    0.273    6.742
  446.000   58.335    0.320    0.248    7.002
  446.250   51.675    0.318    0.213    8.142
  446.500   46.839    0.394    0.124    9.118
  446.750   54.763    0.422    0.166    9.832
  447.000   64.510    0.427    0.345   10.213
  447.250   61.497    0.393    0.362   10.216
  447.500   60.913    0.389    0.361   10.028
  447.750   66.407    0.431    0.349    9.843
  448.000   66.438    0.431    0.349    9.306
  448.250   70.103    0.410    0.352    8.473
  448.500   61.620    0.403    0.347    7.571
  448.750   56.783    0.406    0.326    6.894
  449.000   66.530    0.424    0.328    6.517
  449.250   70.815    0.438    0.321    6.278
  449.500   75.093    0.415    0.310    6.163
  449.750   69.648    0.393    0.298    6.164
  450.000   70.895    0.406    0.289    6.166
  450.250   68.482    0.420    0.298    6.053
  450.500   67.899    0.394    0.294    6.054
  450.750   73.393    0.393    0.288    6.056
  451.000   67.347    0.444    0.284    5.945
  451.250   70.404    0.455    0.292    5.947
  451.500   72.251    0.466    0.297    5.948
  451.750   66.807    0.461    0.305    5.839
  452.000   62.590    0.435    0.303    5.841
  452.250   64.425    0.431    0.296    5.734
  452.500   68.704    0.419    0.289    5.736
  452.750   74.805    0.407    0.282    5.737
  453.000   86.989    0.399    0.278    5.739
  453.250   78.500    0.403    0.281    5.740
  453.500   73.056    0.403    0.279    5.742
  453.750   80.379    0.419    0.272    5.744
  454.000   88.303    0.418    0.268    5.746
  454.250   83.472    0.404    0.263    5.746
  454.500   76.806    0.408    0.256    5.748
  454.750   86.554    0.411    0.243    5.750
  455.000   94.478    0.403    0.240    5.752
  455.250   89.034    0.392    0.249    5.646
  455.500   89.666    0.393    0.262    5.338
  455.750   89.697    0.406    0.259    5.544
  456.000   90.930    0.404    0.248    5.868
  456.250   91.563    0.402    0.245    5.981
  456.500   93.417    0.449    0.235    5.982
  456.750   94.650    0.460    0.219    5.763
  457.000   95.890    0.454    0.205    5.247
  457.250   95.313    0.443    0.210    4.868
  457.500   95.939    0.432    0.226    4.690
  457.750   85.032    0.436    0.235    4.604
  458.000   88.697    0.447    0.228    4.605
  458.250   88.721    0.446    0.223    4.782
  458.500   84.492    0.438    0.220    5.062
  458.750   80.876    0.421    0.225    5.459
  459.000   88.193    0.416    0.229    5.461
  459.250   97.333    0.411    0.225    5.360
  459.500  102.827    0.419    0.216    5.164
  459.750   94.344    0.411    0.212    5.263
  460.000   87.684    0.403    0.221    5.467
  460.250   86.499    0.410    0.226    5.572
