~VERSION INFORMATION
 VERS.                 2.0:   CWLS LOG ASCII STANDARD -VERSION 2.0
 WRAP.                  NO:   ONE LINE PER DEPTH STEP
~WELL INFORMATION BLOCK
#MNEM.UNIT           DATA                    DESCRIPTION OF MNEMONIC
#---------    -------------------            -------------------------------
# Generated from Intellog Unique Number	CW_73_75/WELL/1051
WELL.         CHIEFCO LILY LAKE 13-07        : Well_name    - WELL
LOC .         00/13-07-075-05W5/0            : Location     - LOCATION
UWI .         00/13-07-075-05W5/0            : Uwi          - UNIQUE WELL ID
ENTR.         JAYE                           : Entered      - ENTERED BY
SRVC.         SCHLUMBERGER                   : Scn          - SERVICE COMPANY
DATE.         14 JAN 84                      : Date         - LOG DATE
STRT.M        625                            : top_depth    - START DEPTH
STOP.M        870                            : bot_depth    - STOP DEPTH
STEP.M        0.25                           : increment    - STEP LENGTH
 NULL. -999.2500:NULL Value
~CURVE INFORMATION BLOCK
#MNEM UNIT       ERCB CURVE CODE    CURVE DESCRIPTION
#-----------   ------------------   ----------------------------------
DEPT.M        00 001 00 00         : DEPTH        - DEPTH
ILD .OHMM     00 120 00 00         : RESD         - DEEP RESISTIVITY (DIL)
NPHI.V/V      00 330 00 00         : PHIN         - NEUTRON POROSITY (SANDSTONE)
DPHI.V/V      00 890 00 00         : PHID         - DENSITY POROSITY (SANDSTONE)
GR  .API      00 310 00 00         : GR           - GAMMA RAY
CALI.MM       00 280 01 00         : CAL          - CALIPER
~PARAMETER INFORMATION
#MNEM.UNIT           DATA             DESCRIPTION OF MNEMONIC
#---------         -----------     ------------------------------
GL  .M        873.9                : gl           - GROUND LEVEL ELEVATION
EREF.M        876                  : kb           - ELEVATION OF DEPTH REFERENCE
DATM.M        873.9                : datum        - DATUM ELEVATION
TDD .M        889                  : tdd          - TOTAL DEPTH DRILLER
RUN .         ONE                  : Run          - RUN NUMBER
ENG .         BRANDSTROM           : Engineer     - RECORDING ENGINEER
WIT .         KUCHINSKI            : Witness      - WITNESSED BY
BASE.         5202                 : Branch       - HOME BASE OF LOGGING UNIT
MUD .         GEL CHEM             : Mud_type     - MUD TYPE
MATR.         SANDSTONE            : Logunit      - NEUTRON MATRIX
TMAX.C        31                   : BHT          - MAXIMUM RECORDED TEMPERATURE
BHTD.M        890.5                : BHTDEP       - MAXIMUM RECORDED TEMPERATURE
RMT .C        31                   : MDTP         - TEMPERATURE OF MUD
MUDD.KG/M     1110                 : MWT          - MUD DENSITY
NEUT.         1                    : NEUTRON      - NEUTRON TYPE
RESI.         0                    : RESIST       - RESISTIVITY TYPE
RM  .OHMM     7.829                : RM           - RESISTIVITY OF MUD
RMC .OHMM     0                    : RMC          - RESISTIVITY OF MUD CAKE
RMF .OHMM     8.115                : RMF          - RESISTIVITY OF MUD FILTRATE
SUFT.C        0                    : SUFT         - SURFACE TEMPERATURE
~A  DEPTH     RESD     PHIN     PHID       GR      CAL
# ...
  734.500    4.210    0.437    0.276   59.405  198.184
  734.750    4.258    0.423    0.285   61.976  198.130
  735.000    4.259    0.424    0.289   65.725  197.876
  735.250    4.284    0.442    0.292   65.256  197.708
  735.500    4.325    0.456    0.296   57.415  197.657
  735.750    4.433    0.467    0.299   58.561  197.707
  736.000    4.543    0.480    0.300   60.324  197.660
  736.250    4.613    0.486    0.295   61.286  197.599
  736.500    4.614    0.477    0.290   60.076  197.541
  736.750    4.469    0.471    0.298   59.300  197.296
  737.000    4.296    0.463    0.303   59.020  197.339
  737.250    4.154    0.452    0.314   59.236  197.178
  737.500    4.016    0.440    0.317   60.812  196.704
  737.750    3.868    0.465    0.309   63.199  196.252
  738.000    3.740    0.482    0.307   60.687  195.979
  738.250    3.719    0.477    0.315   58.609  195.728
  738.500    3.841    0.472    0.312   60.127  195.670
  738.750    3.989    0.460    0.303   57.675  195.920
  739.000    4.081    0.436    0.295   53.367  195.869
  739.250    4.151    0.445    0.291   54.326  196.032
  739.500    4.121    0.453    0.298   56.214  196.081
  739.750    3.991    0.453    0.301   59.160  196.240
  740.000    3.780    0.453    0.305   60.677  196.272
  740.250    3.519    0.461    0.315   60.891  196.632
  740.500    3.345    0.475    0.324   60.551  196.683
  740.750    3.265    0.492    0.320   60.580  196.838
  741.000    3.265    0.506    0.311   61.350  196.890
  741.250    3.278    0.487    0.310   62.189  196.931
  741.500    3.279    0.460    0.312   63.954  197.090
  741.750    3.285    0.469    0.309   63.985  197.442
  742.000    3.280    0.464    0.286   63.143  197.906
  742.250    3.305    0.452    0.257   63.421  198.581
  742.500    3.349    0.452    0.205   64.692  199.874
  742.750    3.414    0.447    0.268   67.386  201.263
  743.000    3.473    0.437    0.262   71.259  202.655
  743.250    3.486    0.460    0.199   77.051  203.937
  743.500    3.480    0.484    0.188   80.306  204.813
  743.750    3.429    0.501    0.211   80.583  205.490
  744.000    3.346    0.499    0.220   81.728  205.954
  744.250    3.297    0.491    0.220   82.627  206.302
  744.500    3.230    0.488    0.222   83.834  206.976
  744.750    3.194    0.503    0.223   81.630  207.229
  745.000    3.182    0.490    0.218   80.110  207.180
  745.250    3.165    0.478    0.210   84.297  206.501
  745.500    3.148    0.463    0.201   89.221  205.212
  745.750    3.107    0.468    0.202   91.914  202.572
  746.000    3.044    0.495    0.239   87.542  199.935
  746.250    3.021    0.500    0.263   80.259  197.813
  746.500    3.085    0.487    0.295   72.850  196.120
  746.750    3.204    0.480    0.306   64.328  195.442
  747.000    3.365    0.476    0.317   63.054  195.071
  747.250    3.562    0.469    0.309   63.334  194.912
  747.500    3.776    0.462    0.300   63.857  194.961
  747.750    3.885    0.455    0.285   62.710  195.118
  748.000    3.871    0.445    0.270   60.324  195.276
  748.250    3.821    0.438    0.261   60.413  195.317
  748.500    3.807    0.467    0.281   62.800  195.373
  748.750    3.830    0.478    0.300   64.377  195.420
  749.000    3.859    0.458    0.293   66.701  195.676
  749.250    3.860    0.437    0.283   69.273  196.030
  749.500    3.994    0.453    0.280   70.540  196.082
  749.750    4.132    0.450    0.294   66.912  196.342
  750.000    5.009    0.352    0.323   57.092  195.518
  750.250    5.988    0.331    0.192   51.172  196.269
  750.500    6.894    0.323    0.110   46.983  196.200
  750.750    8.058    0.282    0.049   41.680  195.808
  751.000    9.019    0.193    0.013   40.832  195.629
  751.250    6.216    0.241    0.220   48.766  195.663
  751.500    5.064    0.298    0.283   58.988  195.481
  751.750    4.252    0.442    0.299   65.068  194.996
  752.000    2.920    0.466    0.299   64.219  195.023
  752.250    2.930    0.455    0.298   62.814  194.746
  752.500    2.992    0.472    0.301   65.182  194.778
  752.750    3.031    0.496    0.298   65.755  194.703
  753.000    3.101    0.484    0.302   64.350  194.517
  753.250    3.178    0.451    0.309   59.356  193.930
  753.500    3.230    0.455    0.305   61.787  193.857
  753.750    3.305    0.472    0.296   63.227  194.090
  754.000    3.323    0.477    0.302   61.884  194.223
  754.250    3.335    0.468    0.315   62.023  194.455
  754.500    3.298    0.481    0.322   64.699  194.690
  754.750    3.255    0.490    0.312   66.510  194.937
  755.000    3.194    0.484    0.303   66.963  194.959
  755.250    3.141    0.480    0.313   66.484  195.087
  755.500    3.123    0.484    0.325   65.016  195.217
  755.750    3.077    0.495    0.329   63.053  195.457
  756.000    3.064    0.490    0.316   61.586  195.694
  756.250    3.060    0.481    0.300   61.727  195.817
  756.500    3.087    0.484    0.312   63.537  195.954
  756.750    3.151    0.483    0.328   62.876  195.977
  757.000    3.255    0.474    0.329   63.386  196.010
  757.250    3.309    0.469    0.314   69.529  196.554
  757.500    3.366    0.470    0.291   73.504  197.613
  757.750    3.378    0.449    0.263   77.108  198.569
  758.000    3.379    0.462    0.235   81.084  199.214
  758.250    3.378    0.514    0.252   76.523  200.066
  758.500    3.385    0.492    0.258   70.850  200.302
  758.750    3.397    0.467    0.249   77.115  200.437
  759.000    3.429    0.467    0.257   78.370  200.461
  759.250    3.461    0.478    0.254   76.716  200.599
  759.500    3.486    0.453    0.222   76.857  200.621
  759.750    3.546    0.453    0.208   76.997  200.653
  760.000    3.593    0.457    0.227   79.675  200.681
  760.250    3.594    0.456    0.226   82.908  200.604
  760.500    3.586    0.452    0.226   80.576  200.119
  760.750    3.594    0.448    0.232   75.086  199.947
  761.000    3.613    0.459    0.232   82.837  199.662
  761.250    3.627    0.466    0.221   81.739  199.381
  761.500    3.653    0.469    0.218   76.622  199.512
  761.750    3.660    0.491    0.216   74.907  199.233
  762.000    3.668    0.514    0.211   79.935  198.950
  762.250    3.681    0.504    0.206   87.066  198.985
  762.500    3.688    0.466    0.201   89.433  199.007
  762.750    3.708    0.472    0.194   89.760  199.037
  763.000    3.716    0.488    0.219   84.271  199.380
  763.250    3.701    0.480    0.234   78.599  199.611
  763.500    3.695    0.476    0.238   75.275  199.634
  763.750    3.729    0.483    0.246   77.025  199.978
  764.000    3.814    0.475    0.247   76.608  200.107
  764.250    3.930    0.449    0.233   78.606  200.855
  764.500    4.004    0.438    0.207   81.467  201.917
  764.750    4.088    0.442    0.183   88.103  202.974
  765.000    4.103    0.449    0.181   92.202  204.239
  765.250    4.103    0.460    0.182   92.157  205.298
  765.500    4.050    0.470    0.181   89.515  206.669
  765.750    3.997    0.477    0.177   85.759  208.141
  766.000    3.952    0.476    0.161   87.941  209.201
  766.250    3.914    0.463    0.162   90.990  210.053
  766.500    3.856    0.462    0.180   89.769  210.600
  766.750    3.856    0.459    0.186   87.870  210.627
  767.000    3.900    0.448    0.172   87.207  210.656
  767.250    3.951    0.429    0.161   86.606  210.686
  767.500    3.952    0.437    0.167   84.704  210.818
  767.750    3.921    0.443    0.173   86.825  210.945
  768.000    3.871    0.442    0.183   89.502  210.565
  768.250    3.819    0.468    0.197   92.488  210.181
  768.500    3.727    0.490    0.197   93.619  209.485
  768.750    3.685    0.471    0.181   87.697  208.280
  769.000    3.672    0.446    0.169   88.520  206.760
  769.250    3.664    0.461    0.176   89.587  204.420
  769.500    3.645    0.476    0.189   88.181  202.693
  769.750    3.616    0.478    0.204   84.552  201.381
  770.000    3.555    0.465    0.224   81.906  200.377
  770.250    3.463    0.448    0.217   79.758  199.687
  770.500    3.284    0.468    0.216   80.891  199.302
  770.750    3.134    0.495    0.235   78.865  200.052
