~VERSION INFORMATION
 VERS.                 2.0:   CWLS LOG ASCII STANDARD -VERSION 2.0
 WRAP.                  NO:   ONE LINE PER DEPTH STEP
~WELL INFORMATION BLOCK
#MNEM.UNIT           DATA                    DESCRIPTION OF MNEMONIC
#---------    -------------------            -------------------------------
# Generated from Intellog Unique Number	CW_70_72/WELL/1038
NULL.         -999.25                        : NULL_VALUE
WELL.         LANDBANK ET AL SPURFIELD 10-15 : Well_name    - WELL              
LOC .         10-15-072-02W5                 : Location     - LOCATION          
UWI .         00/10-15-072-02W5/0            : Uwi          - UNIQUE WELL ID    
ENTR.         JAYE                           : Entered      - ENTERED BY        
SRVC.         SCHLUMBERGER                   : Scn          - SERVICE COMPANY   
DATE.         6 MAR 83                       : Date         - LOG DATE          
STRT.M        375                            : top_depth    - START DEPTH       
STOP.M        590                            : bot_depth    - STOP DEPTH        
STEP.M        0.25                           : increment    - STEP LENGTH       
~CURVE INFORMATION BLOCK
#MNEM UNIT       ERCB CURVE CODE    CURVE DESCRIPTION
#-----------   ------------------   ----------------------------------
DEPT.M        00 001 00 00         : DEPTH        - DEPTH                       
DPHI.V/V      00 890 00 00         : PHID         - DENSITY POROSITY (SANDSTONE)
NPHI.V/V      00 330 00 00         : PHIN         - NEUTRON POROSITY (SANDSTONE)
GR  .API      00 310 00 00         : GR           - GAMMA RAY                   
CALI.MM       00 280 01 00         : CAL          - CALIPER                     
ILD .OHMM     00 120 00 00         : RESD         - DEEP RESISTIVITY (DIL)      
~PARAMETER INFORMATION       
#MNEM.UNIT           DATA             DESCRIPTION OF MNEMONIC
#---------         -----------     ------------------------------
GL  .M        589.3                : gl           - GROUND LEVEL ELEVATION      
EREF.M        593                  : kb           - ELEVATION OF DEPTH REFERENCE
DATM.M        589.3                : datum        - DATUM ELEVATION             
TDD .M        622                  : tdd          - TOTAL DEPTH DRILLER         
RUN .         ONE                  : Run          - RUN NUMBER                  
ENG .         DUNLOP               : Engineer     - RECORDING ENGINEER          
WIT .         SMITH                : Witness      - WITNESSED BY                
BASE.         EDM                  : Branch       - HOME BASE OF LOGGING UNIT   
MUD .         CHEM GEL             : Mud_type     - MUD TYPE                    
MATR.         SANDSTONE            : Logunit      - NEUTRON MATRIX              
TMAX.C        35.6                 : BHT          - MAXIMUM RECORDED TEMPERATURE
BHTD.M        622.2                : BHTDEP       - MAXIMUM RECORDED TEMPERATURE
RMT .C        21.1                 : MDTP         - TEMPERATURE OF MUD          
MUDD.KG/M     1140                 : MWT          - MUD DENSITY                 
NEUT.         1                    : NEUTRON      - NEUTRON TYPE                
RESI.         0                    : RESIST       - RESISTIVITY TYPE            
RM  .OHMM     5.6                  : RM           - RESISTIVITY OF MUD          
RMC .OHMM     0                    : RMC          - RESISTIVITY OF MUD CAKE     
RMF .OHMM     6.48                 : RMF          - RESISTIVITY OF MUD FILTRATE 
SUFT.C        32                   : SUFT         - SURFACE TEMPERATURE         
~A  DEPTH     PHID     PHIN       GR      CAL     RESD
# ...
  484.500    0.292    0.383   60.327  172.815    3.596
  484.750    0.296    0.399   60.679  173.192    3.657
  485.000    0.301    0.404   61.846  173.462    3.698
  485.250    0.305    0.415   63.765  173.532    3.719
  485.500    0.308    0.425   66.309  173.487    3.720
  485.750    0.305    0.421   69.795  173.553    3.658
  486.000    0.296    0.408   65.010  173.507    3.551
  486.250    0.301    0.392   62.854  173.368    3.428
  486.500    0.303    0.390   62.140  173.430    3.235
  486.750    0.295    0.395   60.363  173.706    3.100
  487.000    0.309    0.390   59.964  174.085    3.026
  487.250    0.344    0.396   64.260  174.672    3.009
  487.500    0.366    0.417   67.560  174.942    3.027
  487.750    0.370    0.445   69.665  174.904    3.044
  488.000    0.331    0.439   65.882  175.175    3.073
  488.250    0.277    0.420   64.730  175.662    3.142
  488.500    0.278    0.394   66.334  176.244    3.208
  488.750    0.292    0.381   68.317  176.616    3.281
  489.000    0.299    0.388   71.862  176.894    3.287
  489.250    0.304    0.402   72.278  177.172    3.281
  489.500    0.308    0.412   68.933  177.232    3.245
  489.750    0.312    0.419   66.464  177.718    3.179
  490.000    0.315    0.418   65.751  177.883    3.104
  490.250    0.310    0.408   68.799  178.160    3.018
  490.500    0.292    0.397   70.591  178.641    2.963
  490.750    0.275    0.400   69.938  179.331    2.903
  491.000    0.284    0.411   69.351  179.605    2.823
  491.250    0.301    0.423   68.952  179.984    2.766
  491.500    0.313    0.428   67.734  180.248    2.746
  491.750    0.310    0.413   66.773  180.633    2.731
  492.000    0.294    0.392   65.747  181.220    2.736
  492.250    0.267    0.350   64.155  181.805    2.762
  492.500    0.228    0.313   62.378  182.706    2.856
  492.750    0.176    0.267   60.725  183.815    3.078
  493.000    0.104    0.244   58.759  184.920    3.398
  493.250    0.081    0.223   57.233  185.925    3.886
  493.500    0.093    0.217   55.767  186.411    4.520
  493.750    0.090    0.216   55.742  186.890    5.468
  494.000    0.096    0.221   56.846  186.956    6.407
  494.250    0.096    0.224   56.760  186.494    7.721
  494.500    0.090    0.219   55.860  186.042    8.304
  494.750    0.084    0.212   55.522  185.477    8.849
  495.000    0.081    0.208   56.312  184.600    9.168
  495.250    0.080    0.215   58.229  183.617    9.342
  495.500    0.084    0.227   60.523  182.952    9.378
  495.750    0.110    0.242   62.626  182.185    9.274
  496.000    0.138    0.258   64.048  180.892    8.886
  496.250    0.159    0.283   66.279  179.492    8.248
  496.500    0.200    0.300   68.572  178.093    7.571
  496.750    0.258    0.318   67.544  176.799    6.923
  497.000    0.293    0.359   67.962  175.613    6.226
  497.250    0.292    0.396   69.878  174.530    5.394
  497.500    0.288    0.419   72.737  173.553    4.655
  497.750    0.288    0.432   76.347  172.883    4.140
  498.000    0.287    0.428   76.636  172.115    3.765
  498.250    0.279    0.425   75.609  171.757    3.385
  498.500    0.284    0.425   73.957  171.401    3.050
  498.750    0.294    0.428   71.803  171.155    2.810
  499.000    0.301    0.425   72.342  171.012    2.697
  499.250    0.296    0.419   74.449  171.079    2.653
  499.500    0.290    0.422   75.427  171.139    2.648
  499.750    0.280    0.435   71.517  171.203    2.643
  500.000    0.289    0.436   71.183  170.388    2.648
  500.250    0.293    0.438   75.062  170.323    2.664
  500.500    0.287    0.434   77.634  170.674    2.684
  500.750    0.270    0.423   78.345  171.027    2.735
  501.000    0.238    0.409   79.176  171.791    2.812
  501.250    0.219    0.394   80.817  172.553    2.947
  501.500    0.196    0.385   80.094  173.010    3.169
  501.750    0.195    0.378   78.316  172.738    3.505
  502.000    0.212    0.375   77.843  171.850    3.749
  502.250    0.235    0.410   77.371  170.334    4.002
  502.500    0.281    0.434   76.153  167.264    3.973
  502.750    0.294    0.438   75.367  164.613    3.792
  503.000    0.280    0.427   74.830  163.825    3.507
  503.250    0.262    0.425   75.231  163.762    3.323
  503.500    0.239    0.409   75.190  163.696    3.367
  503.750    0.223    0.356   74.533  163.540    3.469
  504.000    0.241    0.358   73.437  164.198    3.601
  504.250    0.263    0.394   71.719  164.334    3.676
  504.500    0.270    0.409   69.317  164.481    3.509
  504.750    0.268    0.411   69.404  164.316    3.349
  505.000    0.272    0.401   71.481  164.359    3.319
  505.250    0.266    0.394   74.798  163.981    3.325
  505.500    0.242    0.400   79.611  163.601    3.388
  505.750    0.225    0.385   85.105  163.542    3.433
  506.000    0.230    0.401   85.627  164.096    3.478
  506.250    0.234    0.411   87.018  166.730    3.611
  506.500    0.227    0.415   91.332  168.428    3.720
  506.750    0.217    0.422   91.853  168.675    3.855
  507.000    0.207    0.399   89.453  168.194    3.928
  507.250    0.215    0.424   88.172  169.068    3.943
  507.500    0.227    0.405   86.642  169.941    3.936
  507.750    0.223    0.380   83.993  170.493    3.914
  508.000    0.232    0.397   80.039  171.261    3.893
  508.250    0.230    0.387   79.812  171.718    3.930
  508.500    0.194    0.371   84.998  172.486    4.019
  508.750    0.173    0.359   89.250  173.146    4.149
  509.000    0.205    0.365   88.962  174.633    4.347
  509.250    0.230    0.390   85.629  175.709    4.513
  509.500    0.226    0.388   87.953  176.894    4.521
  509.750    0.212    0.391   91.770  177.344    4.480
  510.000    0.207    0.393   94.592  178.213    4.455
  510.250    0.215    0.387   93.746  179.081    4.406
  510.500    0.219    0.384   92.900  179.647    4.357
  510.750    0.209    0.388   95.224  180.408    4.301
  511.000    0.203    0.395   93.942  181.893    4.214
  511.250    0.201    0.404   91.044  183.283    4.129
  511.500    0.208    0.414   86.406  183.840    4.084
  511.750    0.220    0.422   80.400  183.983    4.107
  512.000    0.220    0.422   76.196  184.651    4.279
  512.250    0.200    0.405   83.121  185.318    4.680
  512.500    0.191    0.394   92.969  185.870    4.969
  512.750    0.200    0.407   97.841  186.118    5.196
  513.000    0.192    0.411   94.446  186.158    5.275
  513.250    0.147    0.373   80.669  186.407    5.236
  513.500    0.126    0.332   79.450  186.753    5.198
  513.750    0.180    0.359   85.193  187.210    5.189
  514.000    0.197    0.382   90.626  188.182    5.179
  514.250    0.203    0.394   94.505  189.053    5.199
  514.500    0.197    0.404   96.456  189.917    5.209
  514.750    0.196    0.405   95.796  191.206    5.123
  515.000    0.198    0.397   92.961  192.494    4.773
  515.250    0.192    0.402   91.806  193.358    4.565
  515.500    0.188    0.397   93.631  193.808    4.514
  515.750    0.193    0.386   94.650  193.854    4.532
  516.000    0.198    0.373   91.007  193.993    4.592
  516.250    0.198    0.400   88.358  193.938    4.670
  516.500    0.196    0.415   87.077  193.970    4.723
  516.750    0.192    0.393   92.571  193.698    4.785
  517.000    0.190    0.372   97.505  193.537    4.848
  517.250    0.197    0.390  102.254  193.062    4.913
  517.500    0.184    0.382  105.699  192.991    4.978
  517.750    0.173    0.385  108.831  192.409    4.997
  518.000    0.177    0.397  106.430  192.039    4.951
  518.250    0.169    0.404  102.351  191.562    4.842
  518.500    0.163    0.409  101.008  190.259    4.753
  518.750    0.170    0.409   98.858  189.364    4.631
  519.000    0.197    0.395   95.834  188.574    4.562
  519.250    0.172    0.405   89.767  187.160    4.521
  519.500    0.122    0.349   90.784  185.854    4.917
  519.750    0.119    0.325  102.932  185.169    5.219
  520.000    0.129    0.355  108.179  184.487    5.572
  520.250    0.105    0.354   94.400  184.113    5.993
  520.500    0.078    0.297   80.374  183.839    6.338
  520.750    0.118    0.304   92.770  183.881    6.678
