~VERSION INFORMATION
 VERS.                 2.0:   CWLS LOG ASCII STANDARD -VERSION 2.0
 WRAP.                  NO:   ONE LINE PER DEPTH STEP
~WELL INFORMATION BLOCK
#MNEM.UNIT           DATA                    DESCRIPTION OF MNEMONIC
#---------    -------------------            -------------------------------
# Generated from Intellog Unique Number	CW_82_90/WELL/3438
WELL.         TEXEX WOODEN                   : Well_name    - WELL
LOC .         00/10-13-089-24W4/0            : Location     - LOCATION
UWI .         00/10-13-089-24W4/0            : Uwi          - UNIQUE WELL ID
ENTR.         MAX                            : Entered      - ENTERED BY
SRVC.         SCHLUMBERGER                   : Scn          - SERVICE COMPANY
STRT.M        121.92                         : top_depth    - START DEPTH
STOP.M        270.67                         : bot_depth    - STOP DEPTH
STEP.M        0.25                           : increment    - STEP LENGTH
 NULL. -999.2500:NULL Value
~CURVE INFORMATION BLOCK
#MNEM UNIT       ERCB CURVE CODE    CURVE DESCRIPTION
#-----------   ------------------   ----------------------------------
DEPT.M        00 001 00 00         : DEPTH        - DEPTH
ILD .OHMM     00 120 00 00         : RESD         - DEEP RESISTIVITY (DIL)
NPHI.V/V      00 330 00 00         : PHIN         - NEUTRON POROSITY (SANDSTONE)
DPHI.V/V      00 890 00 00         : PHID         - DENSITY POROSITY (SANDSTONE)
CALI.MM       00 280 01 00         : CAL          - CALIPER
GR  .API      00 310 00 00         : GR           - GAMMA RAY
~PARAMETER INFORMATION
#MNEM.UNIT           DATA             DESCRIPTION OF MNEMONIC
#---------         -----------     ------------------------------
GL  .M        508.65               : gl           - GROUND LEVEL ELEVATION
EREF.M        512.003              : kb           - ELEVATION OF DEPTH REFERENCE
DATM.M        508.65               : datum        - DATUM ELEVATION
TDD .M        263.347              : tdd          - TOTAL DEPTH DRILLER
RUN .         ONE                  : Run          - RUN NUMBER
ENG .         BILL                 : Engineer     - RECORDING ENGINEER
WIT .         JIM                  : Witness      - WITNESSED BY
MUD .         GEL                  : Mud_type     - MUD TYPE
MATR.         SANDSTONE            : Logunit      - NEUTRON MATRIX
TMAX.C        15.5556              : BHT          - MAXIMUM RECORDED TEMPERATURE
BHTD.M        263.347              : BHTDEP       - MAXIMUM RECORDED TEMPERATURE
MATR.         1                    : LOGUNIT      - NEUTRON MATRIX
RMT .C        15.5556              : MDTP         - TEMPERATURE OF MUD
NEUT.         1                    : NEUTRON      - NEUTRON TYPE
RESI.         0                    : RESIST       - RESISTIVITY TYPE
RMC .OHMM     5.35                 : RMC          - RESISTIVITY OF MUD CAKE
RMF .OHMM     5.35                 : RMF          - RESISTIVITY OF MUD FILTRATE
SUFT.C        -12.2222             : SUFT         - SURFACE TEMPERATURE
~A  DEPTH     RESD     PHIN     PHID      CAL       GR
# ...
  194.920    6.469    0.448    0.189  226.788   85.709
  195.170    6.120    0.446    0.200  226.751   84.210
  195.420    5.633    0.438    0.212  226.698   83.008
  195.670    4.952    0.445    0.198  226.661   82.980
  195.920    4.160    0.469    0.204  227.117   82.664
  196.170    3.430    0.496    0.218  227.069   81.462
  196.420    3.366    0.521    0.208  227.032   86.439
  196.670    3.587    0.551    0.213  226.979   86.705
  196.920    3.894    0.560    0.218  226.433   82.558
  197.170    4.506    0.547    0.219  226.396   78.999
  197.420    5.983    0.522    0.217  227.350   74.564
  197.670    6.736    0.501    0.214  227.307   68.066
  197.920    7.584    0.482    0.207  227.758   65.978
  198.170    7.045    0.467    0.250  227.721   67.716
  198.420    6.308    0.459    0.248  227.673   70.047
  198.670    5.806    0.458    0.221  228.129   73.553
  198.920    5.494    0.469    0.220  230.074   76.470
  199.170    5.342    0.480    0.220  230.037   76.733
  199.420    5.100    0.471    0.216  230.980   79.653
  199.670    4.960    0.468    0.210  230.938   82.273
  199.920    4.912    0.483    0.195  230.895   81.659
  200.170    5.187    0.470    0.183  230.853   80.163
  200.420    5.630    0.467    0.176  230.810   78.373
  200.670    6.759    0.460    0.185  230.768   75.697
  200.920    8.263    0.460    0.193  229.719   73.612
  201.170    9.218    0.438    0.184  229.178   71.524
  201.420    9.824    0.415    0.156  229.135   71.208
  201.670   10.279    0.398    0.147  229.098   72.651
  201.920   10.755    0.430    0.181  229.056   75.274
  202.170   10.849    0.460    0.170  229.003   73.772
  202.420   10.845    0.444    0.150  228.955   72.867
  202.670   10.545    0.427    0.126  227.922   69.311
  202.920   10.443    0.399    0.139  228.378   65.164
  203.170   10.439    0.374    0.097  228.833   63.374
  203.420   10.626    0.325    0.020  229.289   68.056
  203.670   10.719    0.355    0.029  231.738   74.210
  203.920   10.913    0.380    0.114  234.186   78.304
  204.170   11.109    0.447    0.146  233.142   80.927
  204.420   11.102    0.452    0.144  232.103   80.313
  204.670   10.698    0.448    0.128  232.559   79.402
  204.920    9.758    0.434    0.121  233.513   79.077
  205.170    9.317    0.415    0.125  234.960   78.466
  205.420    9.143    0.399    0.118  230.418   77.562
  205.670    8.973    0.389    0.115  228.399   76.354
  205.920    8.335    0.398    0.136  228.849   78.097
  206.170    7.671    0.426    0.133  226.814   82.485
  206.420    7.529    0.442    0.124  226.771   81.869
  206.670    7.188    0.452    0.153  227.222   81.844
  206.920    6.801    0.449    0.174  225.187   81.521
  207.170    7.248    0.448    0.177  224.143   82.673
  207.420    8.310    0.463    0.176  223.607   83.534
  207.670    9.020    0.472    0.168  223.056   83.505
  207.920    9.099    0.469    0.178  223.019   79.653
  208.170    8.929    0.459    0.179  222.976   79.333
  208.420    9.090    0.448    0.175  223.427   78.426
  208.670    9.170    0.433    0.112  222.886   69.574
  208.920    8.999    0.408    0.099  222.839   60.713
  209.170    8.670    0.395    0.098  222.802   64.814
  209.420    8.279    0.402    0.135  222.748   74.203
  209.670    7.147    0.433    0.180  222.711   80.357
  209.920    7.209    0.439    0.177  223.167   82.682
  210.170    7.824    0.425    0.159  224.121   82.069
  210.420    8.810    0.424    0.154  226.066   80.867
  210.670   10.771    0.419    0.149  227.518   77.308
  210.920   13.787    0.399    0.139  226.469   72.281
  211.170   17.167    0.369    0.127  226.935   65.784
  211.420   25.208    0.340    0.088  227.386   59.871
  211.670   33.466    0.225    0.053  227.343   55.433
  211.920   32.544    0.191    0.003  227.799   53.640
  212.170   26.110    0.209    0.003  227.751   55.674
  212.420   19.828    0.244    0.003  227.709   60.356
  212.670   15.057    0.258    0.005  227.667   70.040
  212.920   11.646    0.312    0.040  227.624   78.842
  213.170    9.871    0.408    0.091  228.578   84.112
  213.420    8.522    0.436    0.123  228.960   86.444
  213.670    8.919    0.442    0.139  229.457   81.671
  213.920    9.852    0.426    0.139  229.452   83.753
  214.170   11.082    0.388    0.112  228.941   88.221
  214.420   11.489    0.353    0.086  228.935   89.410
  214.670   10.878    0.324    0.029  228.927   89.704
  214.920   10.207    0.377    0.044  228.923   89.403
  215.170    9.578    0.448    0.073  228.412   88.803
  215.420    9.235    0.490    0.136  228.404   87.905
  215.670    8.986    0.464    0.114  228.400   87.603
  215.920    8.432    0.436    0.121  229.403   87.600
  216.170    8.279    0.415    0.075  230.406   88.490
  216.420    8.429    0.448    0.124  230.400   89.381
  216.670    8.581    0.454    0.154  230.394   90.569
  216.920    9.309    0.454    0.145  230.893   92.354
  217.170    9.478    0.440    0.139  232.905   92.350
  217.420    9.390    0.436    0.126  235.423   92.347
  217.670    9.388    0.430    0.123  235.922   92.344
  217.920    9.645    0.425    0.132  234.401   92.638
  218.170    9.820    0.421    0.139  233.386   92.635
  218.420   10.366    0.411    0.150  232.875   92.333
  218.670   10.650    0.407    0.148  231.354   90.541
  218.920   11.041    0.403    0.141  230.842   87.854
  219.170   11.447    0.376    0.128  230.333   85.168
  219.420   11.867    0.365    0.117  228.307   82.780
  219.670   12.191    0.393    0.133  226.283   83.073
  219.920   11.755    0.409    0.179  225.772   84.561
  220.170   11.233    0.397    0.181  225.765   87.240
  220.420   10.445    0.392    0.188  225.759   89.323
  220.670    9.980    0.390    0.188  225.752   90.810
  220.920    9.799    0.394    0.186  225.747   91.998
  221.170    9.886    0.399    0.181  226.750   93.186
  221.420   10.342    0.407    0.168  228.763   92.885
  221.670   10.247    0.418    0.150  229.767   92.584
  221.920   10.153    0.396    0.119  231.275   92.580
  222.170    9.969    0.394    0.146  232.783   91.682
  222.420    9.877    0.403    0.168  232.272   91.977
  222.670    9.524    0.414    0.153  229.741   94.060
  222.920    9.099    0.442    0.150  229.230   94.354
  223.170    8.853    0.427    0.145  229.225   92.562
  223.420    8.772    0.431    0.136  231.743   91.962
  223.670    8.692    0.448    0.125  233.250   93.151
  223.920    8.380    0.448    0.118  234.254   92.551
  224.170    8.154    0.437    0.120  236.268   91.056
  224.420    8.079    0.424    0.115  239.793   88.669
  224.670    8.077    0.390    0.104  239.284   85.684
  224.920    8.076    0.411    0.158  233.725   83.594
  225.170    7.858    0.447    0.171  231.195   83.888
  225.420    7.508    0.460    0.169  231.694   88.057
  225.670    6.672    0.479    0.159  229.164   95.507
  225.920    5.515    0.529    0.152  228.653  106.234
  226.170    4.641    0.525    0.167  231.675  107.720
  226.420    4.516    0.504    0.170  233.184  104.140
  226.670    4.515    0.480    0.162  233.177   99.963
  226.920    4.724    0.457    0.164  231.656   97.575
  227.170    5.313    0.451    0.172  231.145   96.081
  227.420    6.603    0.452    0.193  232.150   94.289
  227.670    7.632    0.454    0.188  230.123   91.899
  227.920    8.902    0.447    0.165  229.109   91.002
  228.170    9.833    0.441    0.143  229.608   89.509
  228.420   10.287    0.437    0.134  235.153   88.611
  228.670   10.101    0.473    0.137  234.136   88.309
  228.920   10.098    0.457    0.142  234.637   88.305
  229.170   10.188    0.442    0.134  234.629   89.196
  229.420   10.095    0.448    0.124  234.119   90.384
  229.670    9.302    0.455    0.114  233.608   91.872
  229.920    8.572    0.460    0.099  232.592   94.551
  230.170    8.043    0.440    0.131  232.080   96.335
  230.420    7.547    0.437    0.141  232.075   95.736
  230.670    7.343    0.436    0.143  233.583   94.540
  230.920    7.409    0.439    0.146  234.082   92.747
  231.170    7.893    0.444    0.143  234.581   90.658
