~VERSION INFORMATION
 VERS.                 2.0:   CWLS LOG ASCII STANDARD -VERSION 2.0
 WRAP.                  NO:   ONE LINE PER DEPTH STEP
~WELL INFORMATION BLOCK
#MNEM.UNIT           DATA                    DESCRIPTION OF MNEMONIC
#---------    -------------------            -------------------------------
# Generated from Intellog Unique Number	CS_67_68/WELL/2197
WELL.         10-29-067-02W4                 : Well_name    - WELL
LOC .         00/10-29-067-02W4/0            : Location     - LOCATION
UWI .         00/10-29-067-02W4/0            : Uwi          - UNIQUE WELL ID
ENTR.         SP                             : Entered      - ENTERED BY
SRVC.         SCHLUMBERGER                   : Scn          - SERVICE COMPANY
STRT.M        375                            : top_depth    - START DEPTH
STOP.M        638                            : bot_depth    - STOP DEPTH
STEP.M        0.25                           : increment    - STEP LENGTH
 NULL. -999.2500:NULL Value
~CURVE INFORMATION BLOCK
#MNEM UNIT       ERCB CURVE CODE    CURVE DESCRIPTION
#-----------   ------------------   ----------------------------------
DEPT.M        00 001 00 00         : DEPTH        - DEPTH
ILD .OHMM     00 120 00 00         : RESD         - DEEP RESISTIVITY (DIL)
DPHI.V/V      00 890 00 00         : PHID         - DENSITY POROSITY (LIMESTONE)
NPHI.V/V      00 330 00 00         : PHIN         - NEUTRON POROSITY (LIMESTONE)
GR  .API      00 310 00 00         : GR           - GAMMA RAY
CALI.MM       00 280 01 00         : CAL          - CALIPER
~PARAMETER INFORMATION
#MNEM.UNIT           DATA             DESCRIPTION OF MNEMONIC
#---------         -----------     ------------------------------
GL  .M        707.5                : gl           - GROUND LEVEL ELEVATION
EREF.M        710.7                : kb           - ELEVATION OF DEPTH REFERENCE
DATM.M        710.7                : datum        - DATUM ELEVATION
TDD .M        645                  : tdd          - TOTAL DEPTH DRILLER
RUN .         ONE                  : Run          - RUN NUMBER
ENG .         BILL                 : Engineer     - RECORDING ENGINEER
WIT .         JIM                  : Witness      - WITNESSED BY
MUD .         GEL                  : Mud_type     - MUD TYPE
MATR.         LIMESTONE            : Logunit      - NEUTRON MATRIX
TMAX.C        20.5                 : BHT          - MAXIMUM RECORDED TEMPERATURE
BHTD.M        645                  : BHTDEP       - MAXIMUM RECORDED TEMPERATURE
MATR.         1                    : LOGUNIT      - NEUTRON MATRIX
RMT .C        25                   : MDTP         - TEMPERATURE OF MUD
NEUT.         1                    : NEUTRON      - NEUTRON TYPE
RESI.         0                    : RESIST       - RESISTIVITY TYPE
RMC .OHMM     0.25                 : RMC          - RESISTIVITY OF MUD CAKE
RMF .OHMM     0.25                 : RMF          - RESISTIVITY OF MUD FILTRATE
SUFT.C        15                   : SUFT         - SURFACE TEMPERATURE
~A  DEPTH     RESD     PHID     PHIN       GR      CAL
# ...
  411.500    7.666    0.277    0.437   67.501  157.360
  411.750    7.385    0.278    0.412   71.610  156.740
  412.000    7.276    0.276    0.407   73.831  156.015
  412.250    7.360    0.275    0.420   72.386  155.804
  412.500    7.557    0.283    0.428   68.011  155.593
  412.750    7.673    0.274    0.433   62.352  155.482
  413.000    7.791    0.294    0.437   58.586  155.473
  413.250    7.836    0.324    0.440   60.866  155.463
  413.500    7.868    0.337    0.439   66.019  155.557
  413.750    7.824    0.326    0.441   69.637  155.446
  414.000    7.767    0.321    0.451   74.664  155.745
  414.250    7.552    0.315    0.457   79.081  155.835
  414.500    7.316    0.307    0.451   83.436  156.135
  414.750    7.008    0.292    0.463   83.515  156.225
  415.000    6.801    0.283    0.478   81.950  156.524
  415.250    6.601    0.276    0.464   85.144  156.617
  415.500    6.431    0.282    0.445   84.860  157.118
  415.750    6.336    0.278    0.434   82.192  157.312
  416.000    6.605    0.263    0.437   86.859  157.305
  416.250    6.807    0.251    0.437   89.682  157.907
  416.500    7.043    0.263    0.436   92.083  158.307
  416.750    7.259    0.272    0.446   88.502  158.909
  417.000    7.288    0.281    0.462   88.218  159.511
  417.250    7.207    0.268    0.488   87.442  159.810
  417.500    7.222    0.253    0.513   82.946  160.106
  417.750    7.223    0.237    0.472   84.618  160.097
  418.000    7.279    0.229    0.464   87.931  160.191
  418.250    7.391    0.237    0.458   91.431  160.285
  418.500    7.561    0.247    0.487   92.550  160.376
  418.750    7.735    0.254    0.477   90.192  160.266
  419.000    7.942    0.264    0.466   88.744  159.646
  419.250    8.019    0.276    0.470   89.682  158.110
  419.500    8.035    0.266    0.476   88.910  156.776
  419.750    8.036    0.260    0.474   88.074  156.154
  420.000    8.053    0.254    0.466   88.459  156.044
  420.250    8.115    0.249    0.461   88.725  155.729
  420.500    8.349    0.259    0.460   87.219  155.721
  420.750    8.557    0.273    0.462   82.171  155.815
  421.000    8.623    0.290    0.468   78.162  155.397
  421.250    8.560    0.305    0.464   78.490  155.491
  421.500    8.402    0.310    0.466   80.402  155.482
  421.750    8.154    0.312    0.458   76.147  155.473
  422.000    8.110    0.308    0.449   76.476  155.465
  422.250    8.188    0.294    0.441   79.363  155.149
  422.500    8.267    0.288    0.444   82.316  154.835
  422.750    8.346    0.283    0.446   80.626  154.828
  423.000    8.254    0.276    0.446   77.409  154.411
  423.250    8.117    0.271    0.451   80.054  154.403
  423.500    7.937    0.275    0.462   83.862  154.089
  423.750    7.805    0.285    0.453   87.059  154.080
  424.000    7.705    0.285    0.436   89.155  154.071
  424.250    7.663    0.281    0.464   90.515  154.059
  424.500    7.664    0.274    0.473   92.123  154.053
  424.750    7.738    0.272    0.466   95.319  154.044
  425.000    7.901    0.277    0.449   97.719  153.934
  425.250    7.932    0.280    0.427   98.899  153.722
  425.500    7.904    0.278    0.414   98.370  153.406
  425.750    7.743    0.278    0.440   95.277  153.500
  426.000    7.600    0.284    0.457   91.514  153.593
  426.250    7.488    0.289    0.458   90.311  153.379
  426.500    7.504    0.292    0.464   91.127  153.474
  426.750    7.269    0.291    0.472   92.062  153.567
  427.000    6.937    0.284    0.466   92.387  153.763
  427.250    6.582    0.279    0.456   93.751  153.957
  427.500    6.317    0.280    0.453   94.930  153.947
  427.750    6.028    0.277    0.447   93.547  154.450
  428.000    5.928    0.267    0.432   94.056  155.359
  428.250    6.249    0.258    0.428   97.191  156.367
  428.500    6.526    0.256    0.456  100.631  156.870
  428.750    6.880    0.255    0.482   97.046  156.657
  429.000    7.118    0.253    0.478   90.722  155.629
  429.250    7.337    0.250    0.460   88.601  155.110
  429.500    7.619    0.248    0.468   85.631  154.591
  429.750    7.809    0.247    0.476   82.478  154.381
  430.000    7.958    0.255    0.480   79.199  154.372
  430.250    8.218    0.261    0.472   74.397  154.159
  430.500    8.599    0.246    0.431   69.533  154.354
  430.750    8.847    0.229    0.390   68.517  154.344
  431.000    9.033    0.220    0.369   72.813  154.439
  431.250    9.189    0.248    0.402   75.393  154.327
  431.500    9.312    0.274    0.430   66.013  154.116
  431.750    9.455    0.295    0.430   60.782  154.104
  432.000    9.492    0.311    0.417   56.711  153.791
  432.250    9.530    0.322    0.415   58.017  153.782
  432.500    9.549    0.342    0.420   62.493  153.979
  432.750    9.497    0.358    0.437   67.215  154.072
  433.000    9.463    0.375    0.497   69.735  154.063
  433.250    9.429    0.331    0.509   61.213  154.258
  433.500    9.414    0.305    0.480   57.506  154.249
  433.750    9.433    0.320    0.453   58.382  154.649
  434.000    9.434    0.329    0.439   61.026  154.537
  434.250    9.418    0.327    0.443   62.084  154.426
  434.500    9.420    0.320    0.443   59.479  154.419
  434.750    9.369    0.324    0.427   64.323  154.204
  435.000    9.370    0.320    0.415   68.738  154.198
  435.250    9.337    0.312    0.408   72.666  153.984
  435.500    9.303    0.315    0.414   71.651  153.976
  435.750    9.218    0.318    0.434   71.428  153.864
  436.000    9.202    0.319    0.457   72.729  153.653
  436.250    9.187    0.320    0.475   73.787  153.643
  436.500    9.205    0.323    0.449   73.992  153.533
  436.750    9.241    0.323    0.443   74.070  153.525
  437.000    9.261    0.316    0.441   74.215  153.309
  437.250    9.262    0.308    0.447   73.195  153.607
  437.500    9.264    0.302    0.439   68.332  153.599
  437.750    9.300    0.302    0.416   70.612  153.588
  438.000    9.337    0.298    0.393   73.379  153.581
  438.250    9.357    0.293    0.405   74.013  153.573
  438.500    9.376    0.295    0.415   71.468  153.566
  438.750    9.377    0.302    0.416   70.756  153.252
  439.000    9.343    0.312    0.422   70.835  152.937
  439.250    9.275    0.323    0.431   72.570  152.926
  439.500    9.225    0.293    0.417   74.905  152.817
  439.750    9.071    0.229    0.405   78.711  152.706
  440.000    8.854    0.199    0.393   81.172  152.799
  440.250    8.513    0.190    0.413   81.559  152.995
  440.500    8.108    0.216    0.406   81.395  153.089
  440.750    7.855    0.235    0.391   83.006  153.487
  441.000    7.595    0.245    0.417   84.124  154.090
  441.250    7.343    0.245    0.456   85.364  154.286
  441.500    7.100    0.251    0.486   85.263  154.579
  441.750    6.995    0.236    0.466   85.160  154.674
  442.000    6.944    0.192    0.449   90.619  155.074
  442.250    6.972    0.173    0.466   93.751  154.965
  442.500    7.065    0.177    0.477   96.577  155.261
  442.750    7.174    0.192    0.454   98.734  154.947
  443.000    7.311    0.205    0.425   89.047  155.243
  443.250    7.507    0.210    0.408   72.768  155.336
  443.500    7.811    0.214    0.393   63.569  155.532
  443.750    7.975    0.234    0.399   63.530  155.319
  444.000    8.022    0.276    0.413   64.525  155.105
  444.250    8.054    0.294    0.420   68.453  155.099
  444.500    8.146    0.282    0.396   76.045  154.988
  444.750    8.194    0.236    0.380   84.433  154.569
  445.000    8.211    0.229    0.403   80.968  154.257
  445.250    8.290    0.242    0.403   71.464  153.738
  445.500    8.338    0.249    0.391   67.456  153.932
  445.750    8.340    0.257    0.407   69.619  154.333
  446.000    8.310    0.252    0.401   70.854  154.732
  446.250    8.264    0.240    0.391   71.976  155.233
  446.500    8.173    0.231    0.382   72.666  155.326
  446.750    8.083    0.246    0.394   72.624  154.706
  447.000    8.009    0.270    0.411   70.204  153.269
  447.250    7.935    0.294    0.422   68.819  152.446
  447.500    7.789    0.303    0.431   69.939  153.148
  447.750    7.703    0.298    0.440   74.360  153.550
