~VERSION INFORMATION
 VERS.                 2.0:   CWLS LOG ASCII STANDARD -VERSION 2.0
 WRAP.                  NO:   ONE LINE PER DEPTH STEP
~WELL INFORMATION BLOCK
#MNEM.UNIT           DATA                    DESCRIPTION OF MNEMONIC
#---------    -------------------            -------------------------------
# Generated from Intellog Unique Number	CS_67_68/WELL/857
WELL.         AEC FISHCREEK                  : Well_name    - WELL
LOC .         00/15-05-068-08W4/0            : Location     - LOCATION
UWI .         00/15-05-068-08W4/0            : Uwi          - UNIQUE WELL ID
ENTR.         SP                             : Entered      - ENTERED BY
SRVC.         SCHLUMBERGER                   : Scn          - SERVICE COMPANY
STRT.M        355                            : top_depth    - START DEPTH
STOP.M        570                            : bot_depth    - STOP DEPTH
STEP.M        0.25                           : increment    - STEP LENGTH
 NULL. -999.2500:NULL Value
~CURVE INFORMATION BLOCK
#MNEM UNIT       ERCB CURVE CODE    CURVE DESCRIPTION
#-----------   ------------------   ----------------------------------
DEPT.M        00 001 00 00         : DEPTH        - DEPTH
ILD .OHMM     00 120 00 00         : RESD         - DEEP RESISTIVITY (DIL)
DPHI.V/V      00 890 00 00         : PHID         - DENSITY POROSITY (LIMESTONE)
NPHI.V/V      00 330 00 00         : PHIN         - NEUTRON POROSITY (LIMESTONE)
GR  .API      00 310 00 00         : GR           - GAMMA RAY
~PARAMETER INFORMATION
#MNEM.UNIT           DATA             DESCRIPTION OF MNEMONIC
#---------         -----------     ------------------------------
GL  .M        668.25               : gl           - GROUND LEVEL ELEVATION
EREF.M        671.52               : kb           - ELEVATION OF DEPTH REFERENCE
DATM.M        668.25               : datum        - DATUM ELEVATION
TDD .M        576                  : tdd          - TOTAL DEPTH DRILLER
RUN .         ONE                  : Run          - RUN NUMBER
ENG .         BILL                 : Engineer     - RECORDING ENGINEER
WIT .         JIM                  : Witness      - WITNESSED BY
MUD .         GEL                  : Mud_type     - MUD TYPE
MATR.         LIMESTONE            : Logunit      - NEUTRON MATRIX
TMAX.C        20                   : BHT          - MAXIMUM RECORDED TEMPERATURE
BHTD.M        576                  : BHTDEP       - MAXIMUM RECORDED TEMPERATURE
MATR.         1                    : LOGUNIT      - NEUTRON MATRIX
RMT .C        25                   : MDTP         - TEMPERATURE OF MUD
NEUT.         1                    : NEUTRON      - NEUTRON TYPE
RESI.         0                    : RESIST       - RESISTIVITY TYPE
RMC .OHMM     0.25                 : RMC          - RESISTIVITY OF MUD CAKE
RMF .OHMM     0.25                 : RMF          - RESISTIVITY OF MUD FILTRATE
SUFT.C        15                   : SUFT         - SURFACE TEMPERATURE
~A  DEPTH     RESD     PHID     PHIN       GR
# ...
  442.000    4.287    0.290    0.437   92.219
  442.250    4.313    0.284    0.422   93.937
  442.500    4.347    0.280    0.435   93.561
  442.750    4.382    0.278    0.426   95.157
  443.000    4.416    0.275    0.431   97.920
  443.250    4.459    0.269    0.444   99.393
  443.500    4.503    0.266    0.456  100.187
  443.750    4.522    0.264    0.444   99.812
  444.000    4.532    0.266    0.443   96.480
  444.250    4.559    0.271    0.460   94.012
  444.500    4.586    0.264    0.439   98.808
  444.750    4.641    0.252    0.423   96.955
  445.000    4.668    0.242    0.412   93.870
  445.250    4.696    0.248    0.426   96.512
  445.500    4.724    0.263    0.436   95.951
  445.750    4.744    0.273    0.438   94.344
  446.000    4.772    0.278    0.443   93.107
  446.250    4.792    0.271    0.434   92.916
  446.500    4.802    0.266    0.427  100.668
  446.750    4.822    0.268    0.421   98.445
  447.000    4.860    0.273    0.415   95.360
  447.250    4.890    0.269    0.412   93.385
  447.500    4.900    0.259    0.414   92.886
  447.750    4.902    0.249    0.420   96.697
  448.000    4.913    0.244    0.417   99.462
  448.250    4.914    0.242    0.422  101.304
  448.500    4.944    0.163    0.411  102.344
  448.750    4.983    0.130    0.389   90.454
  449.000    5.478    0.118    0.367   79.918
  449.250    5.811    0.224    0.401   89.394
  449.500    5.672    0.240    0.411   95.546
  449.750    5.133    0.244    0.406   99.481
  450.000    4.806    0.248    0.412   96.827
  450.250    4.577    0.254    0.418  101.684
  450.500    4.459    0.256    0.433  104.574
  450.750    4.369    0.252    0.425  109.615
  451.000    4.346    0.249    0.418  109.672
  451.250    4.339    0.245    0.413  104.617
  451.500    4.316    0.239    0.422   98.392
  451.750    4.326    0.234    0.444   96.415
  452.000    4.344    0.231    0.434   97.518
  452.250    4.353    0.231    0.436   97.880
  452.500    4.355    0.234    0.450   97.874
  452.750    4.679    0.241    0.447   98.854
  453.000    4.628    0.242    0.424  101.803
  453.250    4.552    0.242    0.415  105.554
  453.500    4.502    0.242    0.414  109.981
  453.750    4.419    0.244    0.421  114.962
  454.000    4.329    0.248    0.426  118.774
  454.250    4.210    0.255    0.428  116.675
  454.500    4.063    0.266    0.451  106.878
  454.750    3.906    0.272    0.453   98.498
  455.000    3.755    0.272    0.433   95.844
  455.250    3.590    0.265    0.426  102.057
  455.500    3.471    0.257    0.437  105.437
  455.750    3.343    0.251    0.446  103.522
  456.000    3.220    0.250    0.457  108.566
  456.250    3.096    0.258    0.465  114.286
  456.500    2.965    0.275    0.461  109.970
  456.750    2.878    0.295    0.466  102.820
  457.000    2.793    0.313    0.453  104.847
  457.250    2.742    0.297    0.442  106.565
  457.500    2.769    0.283    0.437  106.128
  457.750    2.937    0.271    0.434  103.597
  458.000    3.198    0.281    0.433   98.418
  458.250    3.425    0.304    0.429   91.085
  458.500    3.585    0.320    0.423   85.230
  458.750    3.668    0.301    0.420   79.497
  459.000    3.718    0.278    0.423   81.954
  459.250    3.747    0.262    0.401   92.970
  459.500    3.756    0.245    0.389   98.136
  459.750    3.764    0.251    0.406   96.837
  460.000    3.765    0.309    0.436   93.136
  460.250    3.745    0.326    0.451   86.726
  460.500    3.718    0.330    0.443   81.794
  460.750    3.698    0.335    0.436   80.741
  461.000    3.678    0.338    0.432   79.995
  461.250    3.673    0.341    0.449   78.450
  461.500    3.709    0.343    0.447   75.551
  461.750    3.703    0.339    0.424   70.618
  462.000    3.662    0.332    0.416   70.920
  462.250    3.609    0.327    0.429   77.195
  462.500    3.583    0.334    0.449   82.053
  462.750    3.550    0.342    0.468   80.322
  463.000    3.525    0.344    0.461   79.085
  463.250    3.506    0.344    0.440   75.693
  463.500    3.500    0.345    0.430   77.410
  463.750    3.488    0.349    0.432   80.606
  464.000    3.489    0.332    0.437   82.325
  464.250    3.503    0.315    0.441   82.688
  464.500    3.626    0.297    0.378   78.556
  464.750    3.934    0.170    0.307   69.314
  465.000    4.484    0.044    0.242   62.719
  465.250    4.874    0.065    0.246   59.142
  465.500    5.268    0.123    0.361   71.204
  465.750    5.598    0.223    0.410   79.635
  466.000    5.816    0.290    0.439   81.291
  466.250    5.303    0.318    0.438   82.516
  466.500    4.569    0.310    0.439   86.451
  466.750    3.929    0.302    0.447   93.033
  467.000    3.398    0.292    0.411   94.382
  467.250    2.939    0.283    0.389   92.714
  467.500    2.615    0.279    0.408   94.554
  467.750    2.331    0.281    0.438   97.197
  468.000    2.078    0.267    0.421   97.928
  468.250    2.021    0.260    0.409   96.692
  468.500    1.954    0.255    0.412   96.070
  468.750    1.958    0.260    0.425   95.202
  469.000    2.093    0.262    0.426   97.166
  469.250    2.283    0.257    0.412   99.930
  469.500    2.445    0.253    0.427  101.895
  469.750    2.638    0.252    0.444  102.012
  470.000    2.846    0.253    0.443   99.604
  470.250    2.962    0.256    0.432   96.827
  470.500    3.088    0.260    0.441   93.927
  470.750    3.172    0.260    0.444   91.520
  471.000    3.185    0.257    0.431   95.701
  471.250    3.115    0.255    0.424  101.668
  471.500    3.017    0.254    0.418  107.326
  471.750    2.928    0.253    0.425  108.984
  472.000    2.869    0.252    0.437  102.572
  472.250    2.897    0.251    0.447   99.612
  472.500    3.186    0.250    0.447  100.714
  472.750    3.424    0.249    0.439  102.370
  473.000    3.715    0.248    0.431  103.349
  473.250    3.896    0.247    0.423  102.912
  473.500    4.086    0.248    0.415  103.584
  473.750    4.118    0.252    0.432  103.947
  474.000    3.826    0.280    0.463  102.032
  474.250    3.086    0.319    0.481   95.375
  474.500    2.674    0.338    0.487   98.818
  474.750    2.317    0.324    0.488  105.462
  475.000    2.141    0.313    0.471  107.303
  475.250    1.993    0.322    0.483  105.265
  475.500    1.859    0.342    0.496  104.828
  475.750    1.791    0.361    0.496  104.576
  476.000    1.735    0.372    0.496  104.692
  476.250    1.735    0.340    0.504  103.394
  476.500    1.752    0.317    0.492   96.984
  476.750    1.780    0.306    0.495   99.809
  477.000    1.842    0.297    0.490  102.821
  477.250    1.943    0.298    0.478  104.108
  477.500    1.965    0.313    0.467  102.809
  477.750    2.038    0.324    0.460  101.879
  478.000    2.085    0.327    0.462  101.749
  478.250    2.134    0.332    0.465  101.127
  478.500    2.217    0.345    0.456   99.213
  478.750    2.382    0.353    0.441   94.281
  479.000    2.624    0.331    0.437   91.319
  479.250    2.858    0.330    0.457   89.158
  479.500    3.142    0.306    0.448   89.829
  479.750    3.429    0.216    0.426   91.917
  480.000    3.713    0.181    0.413   88.094
  480.250    3.946    0.153    0.385   82.546
  480.500    4.330    0.163    0.376   92.514
  480.750    4.601    0.198    0.399  101.929
  481.000    4.825    0.228    0.412  102.909
  481.250    4.882    0.242    0.423  100.316
  481.500    4.694    0.238    0.419   99.387
  481.750    4.353    0.233    0.417   97.963
  482.000    4.084    0.228    0.417   96.480
  482.250    3.949    0.225    0.421   95.058
  482.500    4.095    0.222    0.429   94.558
  482.750    4.127    0.221    0.433   94.245
  483.000    4.223    0.225    0.436   92.761
  483.250    4.289    0.221    0.431   90.354
  483.500    4.314    0.220    0.418   89.240
  483.750    4.283    0.231    0.401   88.494
  484.000    4.220    0.248    0.400   87.811
  484.250    4.142    0.269    0.430   90.206
  484.500    4.074    0.287    0.447   91.371
  484.750    4.045    0.281    0.434   90.317
  485.000    4.046    0.268    0.444   93.206
  485.250    4.063    0.261    0.447   96.155
