~VERSION INFORMATION
 VERS.                 2.0:   CWLS LOG ASCII STANDARD -VERSION 2.0
 WRAP.                  NO:   ONE LINE PER DEPTH STEP
~WELL INFORMATION BLOCK
#MNEM.UNIT           DATA                    DESCRIPTION OF MNEMONIC
#---------    -------------------            -------------------------------
# Generated from Intellog Unique Number	CS_73_76/WELL/4866
WELL.         ESSO KIRBY 15-23-75-4          : Well_name    - WELL
LOC .         00/15-23-075-04W4/0            : Location     - LOCATION
UWI .         00/15-23-075-04W4/0            : Uwi          - UNIQUE WELL ID
ENTR.         ANDERSEN                       : Entered      - ENTERED BY
SRVC.         COMPUTALOG                     : Scn          - SERVICE COMPANY
STRT.M        200                            : top_depth    - START DEPTH
STOP.M        435                            : bot_depth    - STOP DEPTH
STEP.M        0.25                           : increment    - STEP LENGTH
 NULL. -999.2500:NULL Value
~CURVE INFORMATION BLOCK
#MNEM UNIT       ERCB CURVE CODE    CURVE DESCRIPTION
#-----------   ------------------   ----------------------------------
DEPT.M        00 001 00 00         : DEPTH        - DEPTH
ILD .OHMM     00 120 00 00         : RESD         - DEEP RESISTIVITY (DIL)
DPHI.V/V      00 890 00 00         : PHID         - DENSITY POROSITY (SANDSTONE)
NPHI.V/V      00 330 00 00         : PHIN         - NEUTRON POROSITY (SANDSTONE)
CALI.MM       00 280 01 00         : CAL          - CALIPER
GR  .API      00 310 00 00         : GR           - GAMMA RAY
~PARAMETER INFORMATION
#MNEM.UNIT           DATA             DESCRIPTION OF MNEMONIC
#---------         -----------     ------------------------------
GL  .M        596.42               : gl           - GROUND LEVEL ELEVATION
EREF.M        606.22               : kb           - ELEVATION OF DEPTH REFERENCE
DATM.M        606.22               : datum        - DATUM ELEVATION
TDD .M        446                  : tdd          - TOTAL DEPTH DRILLER
RUN .         ONE                  : Run          - RUN NUMBER
ENG .         BILL                 : Engineer     - RECORDING ENGINEER
WIT .         JIM                  : Witness      - WITNESSED BY
MUD .         GEL                  : Mud_type     - MUD TYPE
MATR.         SANDSTONE            : Logunit      - NEUTRON MATRIX
TMAX.C        32                   : BHT          - MAXIMUM RECORDED TEMPERATURE
BHTD.M        456                  : BHTDEP       - MAXIMUM RECORDED TEMPERATURE
MATR.         1                    : LOGUNIT      - NEUTRON MATRIX
RMT .C        10                   : MDTP         - TEMPERATURE OF MUD
NEUT.         1                    : NEUTRON      - NEUTRON TYPE
RESI.         0                    : RESIST       - RESISTIVITY TYPE
RMC .OHMM     6.2                  : RMC          - RESISTIVITY OF MUD CAKE
RMF .OHMM     6                    : RMF          - RESISTIVITY OF MUD FILTRATE
SUFT.C        15                   : SUFT         - SURFACE TEMPERATURE
~A  DEPTH     RESD     PHID     PHIN      CAL       GR
# ...
  346.000    3.214    0.381    0.404  197.511   58.808
  346.250    2.985    0.381    0.412  197.521   58.342
  346.500    2.720    0.385    0.418  197.528   58.346
  346.750    2.718    0.389    0.426  197.534   58.821
  347.000    2.716    0.413    0.431  197.546   59.766
  347.250    2.711    0.417    0.431  197.552   60.711
  347.500    2.710    0.406    0.424  197.561   62.598
  347.750    2.707    0.393    0.412  197.571   64.014
  348.000    2.754    0.388    0.408  197.577   63.547
  348.250    2.801    0.376    0.413  197.585   63.080
  348.500    2.799    0.359    0.431  197.596   64.025
  348.750    2.746    0.338    0.439  197.600   65.911
  349.000    2.794    0.306    0.441  197.612   70.151
  349.250    2.948    0.267    0.448  197.616   73.921
  349.500    3.111    0.248    0.456  197.624   75.809
  349.750    3.283    0.245    0.482  196.654   76.754
  350.000    3.592    0.250    0.479  196.664   76.758
  350.250    3.656    0.255    0.474  196.671   76.762
  350.500    3.927    0.258    0.476  196.681   77.236
  350.750    3.998    0.258    0.484  195.704   77.240
  351.000    4.140    0.257    0.482  195.719   76.303
  351.250    4.215    0.250    0.474  195.725   76.778
  351.500    4.288    0.247    0.474  194.751   77.722
  351.750    4.283    0.251    0.477  194.763   79.138
  352.000    4.202    0.255    0.471  194.769   76.788
  352.250    4.046    0.257    0.471  194.775   74.439
  352.500    3.896    0.254    0.472  194.784   72.561
  352.750    3.752    0.249    0.470  194.792   73.977
  353.000    3.682    0.240    0.466  193.820   76.334
  353.250    3.677    0.233    0.468  192.847   79.162
  353.500    3.674    0.240    0.474  191.875   81.519
  353.750    3.736    0.261    0.477  190.905   77.757
  354.000    3.803    0.288    0.471  190.913   71.172
  354.250    3.868    0.312    0.464  190.921   67.882
  354.500    3.864    0.312    0.453  190.929   69.298
  354.750    3.860    0.297    0.452  190.938   72.125
  355.000    3.786    0.270    0.454  193.885   76.365
  355.250    3.782    0.248    0.458  195.857   79.664
  355.500    3.709    0.236    0.462  197.824   78.256
  355.750    3.638    0.240    0.466  199.797   75.436
  356.000    3.378    0.247    0.478  200.784   74.969
  356.250    3.138    0.259    0.494  200.790   74.973
  356.500    2.913    0.298    0.520  200.801   74.036
  356.750    2.656    0.299    0.537  200.809   74.511
  357.000    2.512    0.292    0.535  200.815   75.927
  357.250    2.332    0.273    0.533  200.827   75.931
  357.500    2.329    0.274    0.535  200.832   74.995
  357.750    2.369    0.284    0.517  200.842   73.587
  358.000    2.367    0.288    0.526  200.850   73.121
  358.250    2.365    0.291    0.536  200.864   73.594
  358.500    2.363    0.287    0.537  200.871   75.481
  358.750    2.360    0.280    0.527  200.875   76.897
  359.000    2.358    0.273    0.526  200.885   78.313
  359.250    2.355    0.273    0.524  200.891   79.258
  359.500    2.353    0.272    0.521  200.904   80.204
  359.750    2.394    0.267    0.513  200.908   80.208
  360.000    2.481    0.261    0.504  201.896   79.741
  360.250    2.617    0.247    0.492  203.868   77.861
  360.500    2.813    0.240    0.474  204.855   75.513
  360.750    3.024    0.236    0.467  205.847   75.046
  361.000    3.433    0.235    0.463  205.852   75.049
  361.250    3.828    0.240    0.476  205.860   75.995
  361.500    4.267    0.248    0.478  205.870   76.470
  361.750    4.755    0.251    0.460  204.896   76.003
  362.000    5.018    0.238    0.437  202.947   74.125
  362.250    5.296    0.222    0.430  201.971   73.186
  362.500    5.388    0.211    0.430  200.998   72.249
  362.750    5.384    0.204    0.435  200.026   72.253
  363.000    5.378    0.224    0.442  199.056   72.728
  363.250    5.275    0.238    0.449  199.064   73.675
  363.500    5.079    0.249    0.453  200.053   73.677
  363.750    4.803    0.254    0.442  200.063   74.623
  364.000    4.626    0.251    0.450  200.067   76.980
  364.250    4.374    0.258    0.464  200.077   79.808
  364.500    4.292    0.272    0.486  200.086   83.578
  364.750    4.059    0.288    0.506  200.094   85.464
  365.000    3.769    0.295    0.517  200.102   87.821
  365.250    3.563    0.282    0.511  200.112   84.531
  365.500    3.432    0.264    0.506  200.119   81.240
  365.750    3.366    0.256    0.498  200.129   77.480
  366.000    3.425    0.247    0.489  200.137   76.072
  366.250    3.548    0.239    0.480  200.145   76.545
  366.500    3.545    0.235    0.463  200.154   78.432
  366.750    3.541    0.230    0.461  200.162   81.260
  367.000    3.410    0.229    0.470  200.168   84.558
  367.250    3.344    0.229    0.468  200.176   84.091
  367.500    3.342    0.234    0.468  200.187   83.154
  367.750    3.337    0.233    0.479  200.197   85.982
  368.000    3.334    0.232    0.486  200.203   84.574
  368.250    3.456    0.235    0.496  199.233   81.755
  368.500    3.852    0.232    0.496  199.239   78.934
  368.750    4.537    0.229    0.471  199.245   74.231
  369.000    5.541    0.238    0.447  199.253   69.058
  369.250    6.177    0.255    0.420  199.264   65.297
  369.500    7.143    0.263    0.409  199.272   64.830
  369.750    7.963    0.262    0.400  199.278   64.834
  370.000    8.560    0.259    0.403  199.290   64.840
  370.250    9.367    0.246    0.406  198.316   62.959
  370.500    9.706    0.217    0.394  198.324   59.198
  370.750   10.057    0.166    0.379  200.294   59.675
  371.000   10.232    0.130    0.383  201.284   60.618
  371.250    9.855    0.257    0.393  201.293   62.034
  371.500    9.153    0.281    0.417  201.297   63.920
  371.750    8.655    0.289    0.440  200.324   66.750
  372.000    7.746    0.289    0.470  199.354   68.166
  372.250    7.598    0.287    0.478  199.362   68.641
  372.500    7.590    0.285    0.463  198.392   63.937
  372.750    8.010    0.295    0.445  198.400   53.116
  373.000    8.929    0.305    0.432  198.407   44.648
  373.250   10.910    0.315    0.423  198.415   46.064
  373.500   15.146    0.317    0.417  198.423   47.951
  373.750   19.189    0.315    0.414  199.414   50.779
  374.000   20.250    0.313    0.414  199.422   54.078
  374.250   18.462    0.313    0.414  200.413   55.493
  374.500   15.362    0.311    0.413  200.417   60.204
  374.750   13.502    0.298    0.411  200.425   63.973
  375.000   12.084    0.272    0.405  200.434   63.977
  375.250   11.638    0.239    0.397  201.422   58.333
  375.500   11.206    0.247    0.384  201.431   53.630
  375.750   10.992    0.252    0.369  201.439   52.693
  376.000   10.586    0.244    0.360  201.449   59.757
  376.250   10.013    0.231    0.354  201.457   64.938
  376.500    9.469    0.218    0.360  201.466   67.767
  376.750    8.475    0.208    0.368  201.476   69.653
  377.000    8.014    0.199    0.382  201.480   73.421
  377.250    7.718    0.199    0.398  201.490   77.191
  377.500    7.712    0.206    0.417  201.496   79.548
  377.750    7.702    0.211    0.414  200.528   80.494
  378.000    7.695    0.214    0.409  200.532   78.615
  378.250    7.689    0.216    0.407  199.562   75.324
  378.500    7.820    0.218    0.406  199.568   71.094
  378.750    7.956    0.219    0.400  199.577   71.569
  379.000    8.091    0.219    0.393  198.604   72.514
  379.250    8.236    0.218    0.386  198.617   74.400
  379.500    8.227    0.214    0.389  198.623   76.757
  379.750    8.368    0.213    0.393  198.631   78.174
  380.000    8.364    0.215    0.400  198.639   77.707
  380.250    8.353    0.216    0.405  198.650   79.592
  380.500    8.196    0.214    0.414  198.656   83.832
  380.750    8.037    0.209    0.428  198.666   91.837
  381.000    7.883    0.205    0.432  197.694   91.372
  381.250    7.592    0.206    0.431  197.702   88.551
  381.500    7.584    0.203    0.427  197.708   84.791
  381.750    7.437    0.187    0.422  197.716   84.324
  382.000    7.432    0.158    0.421  197.725   84.798
  382.250    7.422    0.180    0.435  197.733   86.684
