~VERSION INFORMATION
 VERS.                 2.0:   CWLS LOG ASCII STANDARD -VERSION 2.0
 WRAP.                  NO:   ONE LINE PER DEPTH STEP
~WELL INFORMATION BLOCK
#MNEM.UNIT           DATA                    DESCRIPTION OF MNEMONIC
#---------    -------------------            -------------------------------
# Generated from Intellog Unique Number	CW_73_75/WELL/3525
WELL.         HCO ET AL FRANCIS              : Well_name    - WELL
LOC .         00/11-01-073-21W4/0            : Location     - LOCATION
UWI .         00/11-01-073-21W4/0            : Uwi          - UNIQUE WELL ID
ENTR.         TIM                            : Entered      - ENTERED BY
SRVC.         SCHLUMBERGER                   : Scn          - SERVICE COMPANY
STRT.M        320                            : top_depth    - START DEPTH
STOP.M        575                            : bot_depth    - STOP DEPTH
STEP.M        0.25                           : increment    - STEP LENGTH
 NULL. -999.2500:NULL Value
~CURVE INFORMATION BLOCK
#MNEM UNIT       ERCB CURVE CODE    CURVE DESCRIPTION
#-----------   ------------------   ----------------------------------
DEPT.M        00 001 00 00         : DEPTH        - DEPTH
GR  .API      00 310 00 00         : GR           - GAMMA RAY
CALI.MM       00 280 01 00         : CAL          - CALIPER
NPHI.V/V      00 330 00 00         : PHIN         - NEUTRON POROSITY (SANDSTONE)
DPHI.V/V      00 890 00 00         : PHID         - DENSITY POROSITY (SANDSTONE)
ILD .OHMM     00 120 00 00         : RESD         - DEEP RESISTIVITY (DIL)
~PARAMETER INFORMATION
#MNEM.UNIT           DATA             DESCRIPTION OF MNEMONIC
#---------         -----------     ------------------------------
GL  .M        658.2                : gl           - GROUND LEVEL ELEVATION
EREF.M        661.7                : kb           - ELEVATION OF DEPTH REFERENCE
DATM.M        661.7                : datum        - DATUM ELEVATION
TDD .M        587                  : tdd          - TOTAL DEPTH DRILLER
RUN .         ONE                  : Run          - RUN NUMBER
ENG .         BILL                 : Engineer     - RECORDING ENGINEER
WIT .         JIM                  : Witness      - WITNESSED BY
MUD .         GEL                  : Mud_type     - MUD TYPE
MATR.         SANDSTONE            : Logunit      - NEUTRON MATRIX
TMAX.C        26                   : BHT          - MAXIMUM RECORDED TEMPERATURE
BHTD.M        487                  : BHTDEP       - MAXIMUM RECORDED TEMPERATURE
MATR.         1                    : LOGUNIT      - NEUTRON MATRIX
RMT .C        18                   : MDTP         - TEMPERATURE OF MUD
NEUT.         1                    : NEUTRON      - NEUTRON TYPE
RESI.         0                    : RESIST       - RESISTIVITY TYPE
RMC .OHMM     3.39                 : RMC          - RESISTIVITY OF MUD CAKE
RMF .OHMM     3.39                 : RMF          - RESISTIVITY OF MUD FILTRATE
SUFT.C        5                    : SUFT         - SURFACE TEMPERATURE
~A  DEPTH       GR      CAL     PHIN     PHID     RESD
# ...
  539.000  101.278  159.015    0.393    0.147    5.858
  539.250  103.657  160.023    0.400    0.139    5.758
  539.500  104.848  161.036    0.406    0.139    5.766
  539.750  105.453  162.044    0.406    0.146    5.771
  540.000  106.064  163.046    0.403    0.152    5.671
  540.250  105.485  165.043    0.401    0.157    5.575
  540.500  104.905  165.061    0.402    0.159    5.480
  540.750  103.739  166.069    0.416    0.157    5.382
  541.000  101.983  168.066    0.401    0.147    5.388
  541.250  101.407  168.090    0.389    0.098    5.295
  541.500  102.012  169.098    0.402    0.126    5.111
  541.750  102.030  170.100    0.419    0.154    5.020
  542.000  103.225  170.130    0.426    0.173    4.845
  542.250  103.829  171.143    0.435    0.152    4.848
  542.500  104.434  171.167    0.442    0.155    4.855
  542.750  104.452  171.191    0.441    0.174    5.139
  543.000  105.049  171.215    0.425    0.174    5.240
  543.250  106.838  171.233    0.412    0.171    5.342
  543.500  106.852  171.257    0.407    0.175    5.448
  543.750  102.148  171.287    0.407    0.170    5.558
  544.000   97.437  171.305    0.391    0.161    5.463
  544.250   98.635  171.335    0.368    0.148    5.174
  544.500  106.320  170.375    0.401    0.149    4.899
  544.750  112.237  170.393    0.419    0.154    4.554
  545.000  114.612  169.446    0.435    0.159    4.475
  545.250  115.217  169.457    0.425    0.160    4.400
  545.500  118.776  169.481    0.431    0.161    4.484
  545.750  122.919  168.522    0.440    0.167    5.019
  546.000  126.475  168.552    0.437    0.173    5.825
  546.250  129.440  167.586    0.420    0.176    7.559
  546.500  121.191  167.616    0.392    0.165    9.631
  546.750   71.034  166.656    0.337    0.150   11.182
  547.000   52.750  166.686    0.281    0.140   12.984
  547.250   48.042  165.726    0.236    0.139   14.260
  547.500   49.241  165.738    0.198    0.139   14.543
  547.750   51.026  165.774    0.214    0.155   12.096
  548.000   53.398  165.792    0.238    0.174   10.061
  548.250   59.315  165.816    0.223    0.159    8.067
  548.500   65.232  165.840    0.251    0.134    7.361
  548.750   72.329  165.876    0.268    0.124    6.841
  549.000   77.656  165.888    0.293    0.155    7.107
  549.250   78.854  164.928    0.307    0.162    7.662
  549.500   76.508  164.952    0.300    0.174    8.109
  549.750   72.977  163.992    0.299    0.179    8.587
  550.000   66.499  163.044    0.305    0.180    8.752
  550.250   74.186  163.056    0.309    0.190    9.268
  550.500   77.746  163.086    0.307    0.199    9.278
  550.750   80.121  163.110    0.298    0.188    8.951
  551.000   84.271  163.128    0.283    0.173    8.635
  551.250   87.233  163.158    0.297    0.166    8.027
  551.500   97.282  164.166    0.319    0.174    7.599
  551.750  103.789  164.196    0.360    0.181    7.064
  552.000  109.116  164.220    0.361    0.185    6.818
  552.250  101.460  165.216    0.358    0.217    6.950
  552.500  101.478  165.246    0.354    0.245    7.220
  552.750  101.485  165.264    0.349    0.233    6.965
  553.000  101.500  165.300    0.356    0.214    6.475
  553.250  100.334  165.312    0.369    0.196    6.727
  553.500   92.084  165.341    0.389    0.186    7.810
  553.750   82.064  165.365    0.407    0.231    8.902
  554.000   67.913  165.395    0.397    0.274   10.729
  554.250   89.176  165.419    0.384    0.301   11.567
  554.500   95.683  165.449    0.374    0.290   11.803
  554.750  101.604  165.461    0.377    0.278   11.809
  555.000   93.942  165.485    0.385    0.278   11.398
  555.250   80.970  165.509    0.416    0.320   11.198
  555.500   65.051  165.533    0.407    0.324   10.800
  555.750   66.836  165.563    0.395    0.325   10.227
  556.000   71.569  165.587    0.401    0.318    9.510
  556.250   79.260  165.605    0.407    0.310    8.840
  556.500   80.459  165.635    0.403    0.315    8.685
  556.750   76.338  165.653    0.398    0.318    8.379
  557.000   62.776  165.677    0.402    0.318    8.388
  557.250   58.659  165.701    0.418    0.318    8.397
  557.500   57.496  165.725    0.432    0.323    8.564
  557.750   53.969  165.749    0.437    0.330    9.238
  558.000   51.029  165.779    0.429    0.341    9.595
  558.250   46.911  165.803    0.420    0.366   10.160
  558.500   49.294  165.833    0.418    0.359   10.356
  558.750   50.482  165.845    0.421    0.349    9.993
  559.000   52.861  165.875    0.424    0.332    9.465
  559.250   55.826  165.893    0.427    0.326    9.297
  559.500   59.379  165.935    0.430    0.325    8.642
  559.750   62.938  165.953    0.427    0.324    8.189
  560.000   63.539  165.971    0.424    0.322    8.043
  560.250   60.602  166.000    0.416    0.319    7.761
  560.500   58.259  166.024    0.396    0.262    7.627
  560.750   60.044  166.042    0.331    0.220    7.635
  561.000   61.239  166.066    0.336    0.190    8.383
  561.250   58.299  167.074    0.381    0.167    9.380
  561.500   53.591  167.104    0.406    0.165   10.693
  561.750   45.932  167.122    0.362    0.156   11.744
  562.000   48.308  166.168    0.279    0.143   12.429
  562.250   50.093  166.192    0.266    0.123   12.679
  562.500   50.107  166.210    0.262    0.090   12.007
  562.750   44.813  166.246    0.296    0.083   11.159
  563.000   46.008  166.258    0.323    0.176   10.373
  563.250   48.970  166.294    0.311    0.232    9.294
  563.500   54.890  166.306    0.307    0.254    8.638
  563.750   59.627  167.314    0.321    0.215    8.030
  564.000   59.645  168.321    0.337    0.193    7.464
  564.250   58.475  168.351    0.354    0.175    6.811
  564.500   52.587  168.375    0.332    0.156    6.450
  564.750   53.191  168.399    0.315    0.144    6.578
  565.000   57.341  169.407    0.291    0.125    7.360
  565.250   59.713  169.437    0.256    0.094    7.935
  565.500   64.449  169.455    0.244    0.059    8.094
  565.750   70.957  170.469    0.238    0.044    7.665
  566.000   89.269  170.493    0.251    0.064    6.493
  566.250  104.043  171.500    0.279    0.083    5.605
  566.500  118.814  171.518    0.297    0.112    5.308
  566.750  125.912  171.554    0.331    0.130    5.727
  567.000  110.579  171.566    0.314    0.084    6.058
  567.250  115.316  171.602    0.279    0.059    6.653
  567.500  121.823  171.620    0.287    0.111    7.444
  567.750  120.657  171.644    0.302    0.115    8.486
  568.000  101.193  171.662    0.297    0.078    8.981
  568.250   87.631  171.698    0.263    0.053    9.508
  568.500   79.972  171.710    0.261    0.068    9.694
  568.750   85.299  171.734    0.256    0.082    9.529
  569.000   95.348  171.764    0.254    0.119    8.533
  569.250  118.382  171.788    0.298    0.142    7.096
  569.500  124.889  171.806    0.336    0.120    6.847
  569.750  103.654  170.852    0.336    0.070    7.249
  570.000   78.288  170.870    0.281    0.052    7.813
  570.250   82.434  169.916    0.251    0.025    8.905
  570.500   93.073  168.956    0.241    0.011    9.966
  570.750  102.531  168.986    0.249    0.017    9.611
  571.000  109.629  168.027    0.266    0.027    8.934
  571.250  112.595  167.067    0.297    0.047    7.856
  571.500   93.721  167.097    0.327    0.077    7.440
  571.750   81.340  167.109    0.338    0.094    7.731
  572.000   79.583  167.133    0.320    0.084    8.648
  572.250   81.368  166.173    0.299    0.042   10.419
  572.500   84.928  165.213    0.260    0.005   10.434
  572.750   89.074  165.237    0.263    0.027    9.702
  573.000   89.088  165.261    0.271    0.029    9.188
  573.250   83.794  164.313    0.277    0.032    8.538
  573.500   78.493  163.341    0.299    0.042    8.086
  573.750   69.059  163.365    0.320    0.054    9.388
  574.000   65.532  162.412    0.330    0.106   11.107
  574.250   57.873  162.436    0.310    0.134   12.892
  574.500   53.759  161.476    0.315    0.160   13.903
  574.750   52.597  160.522    0.300    0.175   13.663
  575.000   52.608  159.550    0.271    0.145   13.181
