~VERSION INFORMATION
 VERS.                 2.0:   CWLS LOG ASCII STANDARD -VERSION 2.0
 WRAP.                  NO:   ONE LINE PER DEPTH STEP
~WELL INFORMATION BLOCK
#MNEM.UNIT           DATA                    DESCRIPTION OF MNEMONIC
#---------    -------------------            -------------------------------
# Generated from Intellog Unique Number	CS_77_79/WELL/1023
WELL.         AMOCO CANADA PETROLEUM         : Well_name    - WELL
LOC .         00/15-26-077-09W4/0            : Location     - LOCATION
UWI .         00/15-26-077-09W4/0            : Uwi          - UNIQUE WELL ID
ENTR.         SP                             : Entered      - ENTERED BY
SRVC.         SCHLUMBERGER                   : Scn          - SERVICE COMPANY
STRT.M        150                            : top_depth    - START DEPTH
STOP.M        360                            : bot_depth    - STOP DEPTH
STEP.M        0.25                           : increment    - STEP LENGTH
 NULL. -999.2500:NULL Value
~CURVE INFORMATION BLOCK
#MNEM UNIT       ERCB CURVE CODE    CURVE DESCRIPTION
#-----------   ------------------   ----------------------------------
DEPT.M        00 001 00 00         : DEPTH        - DEPTH
GR  .API      00 310 00 00         : GR           - GAMMA RAY
NPHI.V/V      00 330 00 00         : PHIN         - NEUTRON POROSITY (SANDSTONE)
DPHI.V/V      00 890 00 00         : PHID         - DENSITY POROSITY (SANDSTONE)
ILD .OHMM     00 120 00 00         : RESD         - DEEP RESISTIVITY (DIL)
~PARAMETER INFORMATION
#MNEM.UNIT           DATA             DESCRIPTION OF MNEMONIC
#---------         -----------     ------------------------------
GL  .M        578.5                : gl           - GROUND LEVEL ELEVATION
EREF.M        582.7                : kb           - ELEVATION OF DEPTH REFERENCE
DATM.M        582.7                : datum        - DATUM ELEVATION
TDD .M        358                  : tdd          - TOTAL DEPTH DRILLER
RUN .         ONE                  : Run          - RUN NUMBER
ENG .         BILL                 : Engineer     - RECORDING ENGINEER
WIT .         JIM                  : Witness      - WITNESSED BY
MUD .         GEL                  : Mud_type     - MUD TYPE
MATR.         SANDSTONE            : Logunit      - NEUTRON MATRIX
TMAX.C        19                   : BHT          - MAXIMUM RECORDED TEMPERATURE
BHTD.M        359                  : BHTDEP       - MAXIMUM RECORDED TEMPERATURE
MATR.         1                    : LOGUNIT      - NEUTRON MATRIX
RMT .C        19                   : MDTP         - TEMPERATURE OF MUD
NEUT.         1                    : NEUTRON      - NEUTRON TYPE
RESI.         3.81                 : RESIST       - RESISTIVITY TYPE
RMC .OHMM     3.14                 : RMC          - RESISTIVITY OF MUD CAKE
RMF .OHMM     3.14                 : RMF          - RESISTIVITY OF MUD FILTRATE
SUFT.C        15                   : SUFT         - SURFACE TEMPERATURE
~A  DEPTH       GR     PHIN     PHID     RESD
  150.000   93.233    0.552    0.311    2.881
  150.250   93.197    0.565    0.307    2.877
  150.500   93.149    0.577    0.307    2.982
  150.750   93.718    0.604    0.307    3.032
  151.000   97.362    0.613    0.307    3.084
  151.250   99.783    0.613    0.305    3.136
  151.500   99.735    0.608    0.303    3.192
  151.750   97.847    0.606    0.300    3.247
  152.000   96.552    0.604    0.299    3.303
  152.250   95.886    0.600    0.299    3.360
  152.500   96.456    0.595    0.299    3.416
  152.750   97.025    0.589    0.298    3.410
  153.000   97.594    0.582    0.298    3.407
  153.250   97.558    0.565    0.296    3.401
  153.500   95.040    0.546    0.292    3.396
  153.750   92.510    0.544    0.290    3.454
  154.000   90.610    0.528    0.287    3.578
  154.250   90.574    0.520    0.284    3.641
  154.500   91.760    0.527    0.273    3.703
  154.750   91.712    0.540    0.160    3.908
  155.000   91.664    0.556    0.140    3.976
  155.250   91.616    0.518    0.123    4.196
  155.500   92.790    0.512    0.117    4.191
  155.750   93.372    0.541    0.152    4.343
  156.000   95.163    0.544    0.243    4.180
  156.250   96.955    0.549    0.291    3.876
  156.500   97.537    0.562    0.286    3.525
  156.750   98.735    0.560    0.282    3.587
  157.000   98.687    0.545    0.279    3.718
  157.250   97.404    0.538    0.276    3.850
  157.500   96.738    0.532    0.272    3.989
  157.750   96.690    0.526    0.270    3.986
  158.000   99.099    0.520    0.271    4.055
  158.250  101.521    0.518    0.276    4.124
  158.500  102.719    0.524    0.278    4.118
  158.750  104.499    0.531    0.286    4.037
  159.000  105.698    0.542    0.287    3.957
  159.250  106.279    0.547    0.291    3.807
  159.500  106.231    0.541    0.291    3.662
  159.750  104.936    0.515    0.285    3.658
  160.000  104.258    0.496    0.280    3.652
  160.250  104.210    0.492    0.277    3.715
  160.500  103.544    0.498    0.277    3.848
  160.750  102.867    0.508    0.279    4.062
  161.000  101.608    0.518    0.281    4.211
  161.250   99.683    0.530    0.277    4.611
  161.500   98.400    0.536    0.272    5.341
  161.750   97.142    0.501    0.270    6.418
  162.000   95.859    0.469    0.275    7.571
  162.250   92.724    0.442    0.282    9.269
  162.500   90.823    0.416    0.290   13.410
  162.750   87.059    0.400    0.295   14.964
  163.000   80.837    0.379    0.302   16.698
  163.250   72.146    0.354    0.311   17.619
  163.500   63.455    0.350    0.318   16.947
  163.750   55.369    0.367    0.344   16.019
  164.000   49.147    0.395    0.347   14.312
  164.250   43.543    0.404    0.331   11.866
  164.500   48.433    0.427    0.298   12.296
  164.750   73.709    0.477    0.299   13.221
  165.000   86.625    0.474    0.326   15.035
  165.250   85.342    0.464    0.329   16.475
  165.500   81.590    0.452    0.337   19.435
  165.750   67.960    0.440    0.342   21.289
  166.000   62.343    0.429    0.340   22.456
  166.250   54.270    0.425    0.338   22.858
  166.500   48.653    0.438    0.333   22.825
  166.750   46.147    0.450    0.329   22.364
  167.000   47.334    0.462    0.328   21.929
  167.250   50.361    0.480    0.326   21.495
  167.500   54.029    0.487    0.325   21.061
  167.750   57.067    0.482    0.319   20.644
  168.000   60.106    0.476    0.309   21.799
  168.250   62.527    0.467    0.301   21.359
  168.500   64.331    0.448    0.286   20.944
  168.750   64.888    0.431    0.234   20.521
  169.000   64.840    0.398    0.201   19.745
  169.250   64.174    0.405    0.250   18.992
  169.500   61.039    0.421    0.277   18.623
  169.750   60.374    0.432    0.302   18.254
  170.000   60.325    0.443    0.328   18.220
  170.250   60.265    0.459    0.351   18.193
  170.500   59.624    0.475    0.369   18.844
  170.750   59.575    0.457    0.336   19.168
  171.000   60.133    0.457    0.328   19.505
  171.250   60.702    0.469    0.326   19.476
  171.500   61.876    0.463    0.326   19.454
  171.750   63.075    0.457    0.325   19.061
  172.000   64.273    0.457    0.320   19.040
  172.250   65.460    0.457    0.315   19.040
  172.500   64.794    0.460    0.318   18.273
  172.750   61.018    0.462    0.321   18.941
  173.000   61.599    0.465    0.328   18.920
  173.250   64.614    0.475    0.332   18.545
  173.500   65.824    0.483    0.337   18.524
  173.750   67.640    0.491    0.339   18.497
  174.000   71.284    0.487    0.330   18.469
  174.250   74.952    0.482    0.315   18.442
  174.500   79.843    0.479    0.308   18.070
  174.750   84.733    0.467    0.294   17.380
  175.000   89.007    0.461    0.295   17.049
  175.250   93.268    0.461    0.293   16.711
  175.500   96.307    0.462    0.290   16.061
  175.750   97.505    0.466    0.287   15.755
  176.000   98.074    0.470    0.284   15.154
  176.250   98.026    0.472    0.283   14.859
  176.500   97.966    0.471    0.282   14.292
  176.750   97.930    0.456    0.276   13.499
  177.000   98.487    0.448    0.270   12.521
  177.250   98.451    0.444    0.259   11.184
  177.500   97.156    0.441    0.252    9.809
  177.750   94.009    0.437    0.250    8.764
  178.000   92.121    0.441    0.249    7.543
  178.250   90.220    0.450    0.245    6.033
  178.500   93.271    0.479    0.242    5.005
  178.750  101.248    0.517    0.235    4.471
  179.000  111.066    0.551    0.225    4.221
  179.250  114.104    0.566    0.217    4.141
  179.500  112.834    0.582    0.207    4.057
  179.750  109.081    0.580    0.217    4.284
  180.000  103.477    0.570    0.237    5.054
  180.250   97.872    0.526    0.253    6.914
  180.500   86.082    0.466    0.266   10.969
  180.750   76.774    0.436    0.287   17.735
  181.000   63.132    0.414    0.294   19.791
  181.250   51.353    0.406    0.286   19.754
  181.500   46.342    0.428    0.282   19.724
  181.750   46.318    0.429    0.293   18.972
  182.000   46.270    0.413    0.300   18.603
  182.250   46.839    0.415    0.303   17.578
  182.500   49.878    0.424    0.302   16.597
  182.750   54.768    0.433    0.304   15.676
  183.000   62.734    0.439    0.310   15.089
  183.250   66.390    0.436    0.316   13.472
  183.500   69.441    0.430    0.311   13.205
  183.750   73.702    0.430    0.302   13.181
  184.000   76.123    0.432    0.289   13.166
  184.250   76.075    0.435    0.280   13.146
  184.500   76.027    0.437    0.285   13.127
  184.750   77.213    0.445    0.289   13.597
  185.000   78.400    0.447    0.286   13.587
  185.250   79.598    0.451    0.283   13.562
  185.500   82.613    0.452    0.279   13.546
  185.750   85.046    0.457    0.273   13.273
  186.000   88.085    0.459    0.269   12.307
  186.250   89.295    0.462    0.265   11.206
  186.500   94.803    0.470    0.260    9.648
  186.750  103.398    0.486    0.249    8.304
  187.000  110.141    0.504    0.223    7.419
  187.250  116.872    0.517    0.216    7.008
  187.500  117.441    0.523    0.199    6.869
  187.750  116.775    0.522    0.200    6.856
  188.000  116.715    0.518    0.201    6.977
  188.250  116.691    0.511    0.206    7.364
  188.500  116.643    0.497    0.237    9.184
  188.750  114.742    0.473    0.256   10.639
  189.000  112.842    0.462    0.267   12.320
  189.250  110.942    0.460    0.273   13.242
  189.500  108.412    0.463    0.274   12.742
  189.750  107.129    0.465    0.270   12.260
  190.000  106.476    0.474    0.269   11.576
  190.250  105.774    0.471    0.264   11.351
  190.500  105.738    0.463    0.261   11.326
  190.750  105.084    0.456    0.258   11.313
  191.000  104.419    0.454    0.258   11.723
  191.250  103.124    0.453    0.260   12.846
  191.500  100.618    0.450    0.264   14.340
  191.750   96.854    0.446    0.269   15.419
  192.000   93.731    0.444    0.275   16.276
  192.250   87.509    0.442    0.280   16.550
  192.500   80.040    0.438    0.287   16.840
  192.750   73.201    0.436    0.298   17.123
  193.000   65.745    0.428    0.304   17.098
  193.250   60.758    0.427    0.310   16.765
