~VERSION INFORMATION
 VERS.                 2.0:   CWLS LOG ASCII STANDARD -VERSION 2.0
 WRAP.                  NO:   ONE LINE PER DEPTH STEP
~WELL INFORMATION BLOCK
#MNEM.UNIT           DATA                    DESCRIPTION OF MNEMONIC
#---------    -------------------            -------------------------------
# Generated from Intellog Unique Number	CW_70_72/WELL/1066
NULL.         -999.25                        : NULL_VALUE
WELL.         LARIO ET AL MITSUE 12-20       : Well_name    - WELL              
LOC .         12-20-071-03W5                 : Location     - LOCATION          
UWI .         00/12-20-071-03W5/0            : Uwi          - UNIQUE WELL ID    
ENTR.         JAYE                           : Entered      - ENTERED BY        
SRVC.         SCHLUMBERGER                   : Scn          - SERVICE COMPANY   
DATE.         9 JAN 82                       : Date         - LOG DATE          
STRT.M        475                            : top_depth    - START DEPTH       
STOP.M        740                            : bot_depth    - STOP DEPTH        
STEP.M        0.25                           : increment    - STEP LENGTH       
~CURVE INFORMATION BLOCK
#MNEM UNIT       ERCB CURVE CODE    CURVE DESCRIPTION
#-----------   ------------------   ----------------------------------
DEPT.M        00 001 00 00         : DEPTH        - DEPTH                       
DPHI.V/V      00 890 00 00         : PHID         - DENSITY POROSITY (SANDSTONE)
NPHI.V/V      00 330 00 00         : PHIN         - NEUTRON POROSITY (SANDSTONE)
GR  .API      00 310 00 00         : GR           - GAMMA RAY                   
CALI.MM       00 280 01 00         : CAL          - CALIPER                     
ILD .OHMM     00 120 00 00         : RESD         - DEEP RESISTIVITY (DIL)      
~PARAMETER INFORMATION       
#MNEM.UNIT           DATA             DESCRIPTION OF MNEMONIC
#---------         -----------     ------------------------------
GL  .M        676                  : gl           - GROUND LEVEL ELEVATION      
EREF.M        679.9                : kb           - ELEVATION OF DEPTH REFERENCE
DATM.M        676                  : datum        - DATUM ELEVATION             
TDD .M        750                  : tdd          - TOTAL DEPTH DRILLER         
RUN .         ONE                  : Run          - RUN NUMBER                  
ENG .         BOHN                 : Engineer     - RECORDING ENGINEER          
WIT .         MYERS                : Witness      - WITNESSED BY                
BASE.         EDSON                : Branch       - HOME BASE OF LOGGING UNIT   
MUD .         GEL CHEM             : Mud_type     - MUD TYPE                    
MATR.         SANDSTONE            : Logunit      - NEUTRON MATRIX              
TMAX.C        31.1                 : BHT          - MAXIMUM RECORDED TEMPERATURE
BHTD.M        749                  : BHTDEP       - MAXIMUM RECORDED TEMPERATURE
RMT .C        30.5                 : MDTP         - TEMPERATURE OF MUD          
MUDD.KG/M     1200                 : MWT          - MUD DENSITY                 
NEUT.         1                    : NEUTRON      - NEUTRON TYPE                
RESI.         0                    : RESIST       - RESISTIVITY TYPE            
RM  .OHMM     3.19                 : RM           - RESISTIVITY OF MUD          
RMC .OHMM     0                    : RMC          - RESISTIVITY OF MUD CAKE     
RMF .OHMM     2.52                 : RMF          - RESISTIVITY OF MUD FILTRATE 
SUFT.C        0                    : SUFT         - SURFACE TEMPERATURE         
~A  DEPTH     PHID     PHIN       GR      CAL     RESD
  475.000    0.173    0.430  111.574  201.243    3.505
  475.250    0.171    0.435  111.486  200.681    3.401
  475.500    0.172    0.476  106.424  199.497    3.197
  475.750    0.182    0.494   94.962  198.213    2.868
  476.000    0.219    0.408   62.489  197.858    2.392
  476.250    0.241    0.370   27.217  197.402    2.036
  476.500    0.258    0.330   19.794  197.042    1.844
  476.750    0.270    0.303   17.033  197.413    1.682
  477.000    0.284    0.310   19.369  197.369    1.535
  477.250    0.291    0.318   24.502  197.526    1.445
  477.500    0.274    0.334   28.827  197.801    1.408
  477.750    0.274    0.335   23.890  197.965    1.423
  478.000    0.274    0.311   28.151  198.129    1.477
  478.250    0.252    0.301   40.061  198.399    1.556
  478.500    0.233    0.315   51.657  198.869    1.705
  478.750    0.215    0.367   58.532  198.930    1.925
  479.000    0.221    0.391   52.725  198.778    2.098
  479.250    0.213    0.363   44.554  198.637    2.185
  479.500    0.202    0.338   39.244  198.693    2.214
  479.750    0.183    0.343   33.376  198.956    2.156
  480.000    0.214    0.346   29.683  199.128    2.092
  480.250    0.243    0.314   29.030  199.082    2.072
  480.500    0.237    0.299   29.382  199.349    2.049
  480.750    0.220    0.293   32.336  199.513    2.014
  481.000    0.229    0.314   35.669  199.661    1.984
  481.250    0.238    0.312   32.223  199.832    1.947
  481.500    0.232    0.281   38.102  199.588    1.921
  481.750    0.200    0.350   45.288  199.546    1.910
  482.000    0.230    0.388   39.728  199.492    1.913
  482.250    0.251    0.332   24.659  199.661    1.917
  482.500    0.235    0.303   28.177  199.613    1.920
  482.750    0.206    0.307   44.622  199.367    2.015
  483.000    0.170    0.360   72.317  199.535    2.229
  483.250    0.189    0.412   78.943  199.589    2.442
  483.500    0.201    0.435   81.837  199.227    2.696
  483.750    0.201    0.435   76.465  199.392    2.937
  484.000    0.207    0.412   70.660  199.146    2.898
  484.250    0.216    0.391   64.417  198.779    2.850
  484.500    0.230    0.410   60.600  198.645    2.765
  484.750    0.238    0.409   56.842  198.595    2.713
  485.000    0.218    0.394   56.630  198.661    2.703
  485.250    0.202    0.374   58.283  198.620    2.784
  485.500    0.207    0.378   57.263  198.873    2.928
  485.750    0.202    0.380   61.151  199.150    3.096
  486.000    0.201    0.373   67.092  199.419    3.336
  486.250    0.227    0.383   73.159  199.583    3.514
  486.500    0.256    0.400   75.494  199.739    3.560
  486.750    0.249    0.414   73.914  200.317    3.586
  487.000    0.233    0.401   75.129  200.800    3.572
  487.250    0.220    0.392   77.838  201.998    3.525
  487.500    0.208    0.407   82.164  202.993    3.472
  487.750    0.197    0.426   87.420  203.882    3.401
  488.000    0.189    0.435   86.336  204.651    3.306
  488.250    0.183    0.437   83.823  205.026    3.226
  488.500    0.180    0.437   88.585  205.194    3.119
  488.750    0.179    0.443   90.175  205.361    3.055
  489.000    0.181    0.459   89.587  205.726    2.992
  489.250    0.161    0.471   90.494  206.300    2.925
  489.500    0.165    0.480   91.153  206.575    2.865
  489.750    0.180    0.478   91.126  206.531    2.822
  490.000    0.191    0.458   90.480  206.486    2.774
  490.250    0.197    0.460   86.848  206.445    2.728
  490.500    0.196    0.464   89.493  206.507    2.682
  490.750    0.189    0.457   93.011  206.568    2.622
  491.000    0.191    0.450   95.657  206.823    2.558
  491.250    0.198    0.438   93.020  206.892    2.506
  491.500    0.210    0.446   88.081  206.948    2.441
  491.750    0.213    0.478   89.050  207.011    2.408
  492.000    0.209    0.488   90.454  207.269    2.377
  492.250    0.198    0.469   90.492  207.235    2.337
  492.500    0.188    0.494   94.692  207.189    2.289
  492.750    0.196    0.506   96.157  207.037    2.233
  493.000    0.214    0.524   96.314  207.101    2.175
  493.250    0.226    0.557   96.536  207.372    2.075
  493.500    0.238    0.555   96.698  207.426    1.995
  493.750    0.238    0.532   96.422  207.381    1.943
  494.000    0.236    0.537   96.335  207.339    1.865
  494.250    0.229    0.552   96.681  207.289    1.833
  494.500    0.241    0.564   96.841  207.461    1.809
  494.750    0.255    0.538   96.754  207.616    1.815
  495.000    0.250    0.513   96.164  207.679    1.822
  495.250    0.229    0.532   96.765  207.641    1.818
  495.500    0.232    0.555   94.501  207.599    1.814
  495.750    0.234    0.561   90.805  207.658    1.811
  496.000    0.232    0.514   87.859  207.819    1.817
  496.250    0.227    0.532   85.843  208.294    1.841
  496.500    0.216    0.545   88.428  208.554    1.865
  496.750    0.205    0.566   92.318  209.030    1.910
  497.000    0.206    0.556   94.591  209.710    1.960
  497.250    0.201    0.559   95.621  210.086    1.975
  497.500    0.194    0.541   94.908  210.456    2.031
  497.750    0.196    0.533   94.444  210.519    2.104
  498.000    0.207    0.529   94.048  210.680    2.167
  498.250    0.211    0.524   94.273  210.737    2.258
  498.500    0.209    0.517   95.614  210.384    2.352
  498.750    0.209    0.522   97.449  209.613    2.414
  499.000    0.204    0.526   97.177  208.330    2.427
  499.250    0.194    0.513   97.831  206.938    2.417
  499.500    0.185    0.493  101.103  206.380    2.385
  499.750    0.186    0.498  105.428  205.915    2.363
  500.000    0.195    0.528  104.654  205.977    2.336
  500.250    0.206    0.536  100.652  206.249    2.331
  500.500    0.198    0.507   94.657  206.722    2.344
  500.750    0.186    0.517   91.462  207.815    2.374
  501.000    0.182    0.536   97.341  208.806    2.410
  501.250    0.194    0.543   97.252  209.896    2.414
  501.500    0.190    0.550   96.105  210.478    2.386
  501.750    0.197    0.556   99.934  210.230    2.346
  502.000    0.193    0.558  105.752  209.252    2.337
  502.250    0.184    0.469  100.441  208.069    2.367
  502.500    0.188    0.454   95.068  206.991    2.457
  502.750    0.191    0.464   94.173  205.905    2.555
  503.000    0.184    0.462   94.893  205.342    2.632
  503.250    0.177    0.457   96.170  204.579    2.732
  503.500    0.182    0.452   91.048  203.503    2.894
  503.750    0.204    0.441   78.776  202.109    3.159
  504.000    0.202    0.419   69.985  200.099    3.520
  504.250    0.160    0.355   60.138  197.463    3.807
  504.500    0.109    0.322   58.620  196.282    4.087
  504.750    0.164    0.357   64.061  195.098    4.313
  505.000    0.209    0.393   70.875  194.740    4.217
  505.250    0.207    0.418   75.633  197.079    3.934
  505.500    0.200    0.448   79.525  199.527    3.497
  505.750    0.194    0.475   85.712  202.280    3.155
  506.000    0.195    0.505   89.728  203.064    2.726
  506.250    0.242    0.524   85.100  202.606    2.396
  506.500    0.239    0.502   76.307  201.510    2.308
  506.750    0.238    0.466   72.865  201.173    2.472
  507.000    0.275    0.432   64.821  200.712    2.828
  507.250    0.306    0.362   56.156  200.455    3.598
  507.500    0.309    0.311   52.211  199.791    5.112
  507.750    0.296    0.324   53.986  199.127    6.173
  508.000    0.282    0.349   57.630  198.976    6.035
  508.250    0.278    0.365   61.459  198.936    5.394
  508.500    0.274    0.378   63.108  199.303    4.767
  508.750    0.270    0.389   64.137  199.884    4.229
  509.000    0.245    0.400   60.758  200.255    4.073
  509.250    0.085    0.381   51.779  200.422    4.275
  509.500    0.090    0.379   60.954  200.587    4.387
  509.750    0.192    0.434   74.105  200.644    4.346
  510.000    0.256    0.452   76.377  200.898    4.217
  510.250    0.244    0.430   77.656  201.064    4.046
  510.500    0.223    0.403   80.925  201.134    3.868
  510.750    0.212    0.464   88.297  201.089    3.677
  511.000    0.198    0.479   93.864  201.042    3.450
  511.250    0.204    0.469   90.791  200.791    3.249
