~VERSION INFORMATION
 VERS.                 2.0:   CWLS LOG ASCII STANDARD -VERSION 2.0
 WRAP.                  NO:   ONE LINE PER DEPTH STEP
~WELL INFORMATION BLOCK
#MNEM.UNIT           DATA                    DESCRIPTION OF MNEMONIC
#---------    -------------------            -------------------------------
# Generated from Intellog Unique Number	CW_70_72/WELL/1033
NULL.         -999.25                        : NULL_VALUE
WELL.         CHIEFCO ET AL SMITH 10-09      : Well_name    - WELL              
LOC .         10-09-071-26W4                 : Location     - LOCATION          
UWI .         00/10-09-071-26W4/0            : Uwi          - UNIQUE WELL ID    
ENTR.         JAYE                           : Entered      - ENTERED BY        
SRVC.         SCHLUMBERGER                   : Scn          - SERVICE COMPANY   
DATE.         7 JAN 76                       : Date         - LOG DATE          
STRT.M        432.816                        : top_depth    - START DEPTH       
STOP.M        691.816                        : bot_depth    - STOP DEPTH        
STEP.M        0.25                           : increment    - STEP LENGTH       
~CURVE INFORMATION BLOCK
#MNEM UNIT       ERCB CURVE CODE    CURVE DESCRIPTION
#-----------   ------------------   ----------------------------------
DEPT.M        00 001 00 00         : DEPTH        - DEPTH                       
DPHI.V/V      00 890 00 00         : PHID         - DENSITY POROSITY (SANDSTONE)
NPHI.V/V      00 330 00 00         : PHIN         - NEUTRON POROSITY (SANDSTONE)
GR  .API      00 310 00 00         : GR           - GAMMA RAY                   
CALI.MM       00 280 01 00         : CAL          - CALIPER                     
ILD .OHMM     00 120 00 00         : RESD         - DEEP RESISTIVITY (DLL)      
~PARAMETER INFORMATION       
#MNEM.UNIT           DATA             DESCRIPTION OF MNEMONIC
#---------         -----------     ------------------------------
GL  .M        622.365              : gl           - GROUND LEVEL ELEVATION      
EREF.M        625.45               : kb           - ELEVATION OF DEPTH REFERENCE
DATM.M        622.365              : datum        - DATUM ELEVATION             
TDD .M        708.965              : tdd          - TOTAL DEPTH DRILLER         
RUN .         ONE                  : Run          - RUN NUMBER                  
ENG .         MCDONALD             : Engineer     - RECORDING ENGINEER          
WIT .         GARDINER             : Witness      - WITNESSED BY                
BASE.         EDM                  : Branch       - HOME BASE OF LOGGING UNIT   
MUD .         GEL CHEM             : Mud_type     - MUD TYPE                    
MATR.         SANDSTONE            : Logunit      - NEUTRON MATRIX              
TMAX.C        28.3333              : BHT          - MAXIMUM RECORDED TEMPERATURE
BHTD.M        709.27               : BHTDEP       - MAXIMUM RECORDED TEMPERATURE
RMT .C        21.6667              : MDTP         - TEMPERATURE OF MUD          
MUDD.KG/M     0                    : MWT          - MUD DENSITY                 
NEUT.         1                    : NEUTRON      - NEUTRON TYPE                
RESI.         1                    : RESIST       - RESISTIVITY TYPE            
RM  .OHMM     3.34                 : RM           - RESISTIVITY OF MUD          
RMC .OHMM     2.63                 : RMC          - RESISTIVITY OF MUD CAKE     
RMF .OHMM     2.81                 : RMF          - RESISTIVITY OF MUD FILTRATE 
SUFT.C        0                    : SUFT         - SURFACE TEMPERATURE         
~A  DEPTH     PHID     PHIN       GR      CAL     RESD
# ...
  469.316    0.202    0.375   70.165  169.036    2.746
  469.566    0.201    0.384   68.828  168.934    2.760
  469.816    0.200    0.402   67.978  169.038    2.773
  470.066    0.225    0.422   68.708  169.348    2.782
  470.316    0.230    0.440   72.294  169.966    2.775
  470.566    0.240    0.410   76.185  171.202    2.738
  470.816    0.227    0.396   80.622  173.262    2.732
  471.066    0.239    0.418   86.336  176.762    2.775
  471.316    0.228    0.444   92.049  188.907    2.845
  471.566    0.190    0.463   91.199  207.227    2.895
  471.816    0.198    0.497   84.514  205.582    2.931
  472.066    0.228    0.503   77.951  184.588    2.950
  472.316    0.238    0.470   74.122  171.621    2.959
  472.566    0.252    0.449   73.454  168.638    2.963
  472.816    0.265    0.454   74.792  169.050    2.983
  473.066    0.257    0.494   80.627  169.051    3.058
  473.316    0.235    0.453   85.369  169.052    3.221
  473.566    0.204    0.463   87.618  169.259    3.326
  473.816    0.209    0.467   84.580  169.466    3.409
  474.066    0.204    0.459   78.867  169.673    3.426
  474.316    0.221    0.451   73.276  169.365    3.406
  474.566    0.237    0.434   69.083  169.366    3.259
  474.816    0.228    0.432   65.863  169.367    3.018
  475.066    0.242    0.428   62.217  169.368    2.815
  475.316    0.238    0.416   56.261  169.369    2.598
  475.566    0.266    0.404   53.040  169.782    2.423
  475.816    0.247    0.397   52.859  170.092    2.306
  476.066    0.243    0.411   57.174  170.505    2.255
  476.316    0.236    0.416   63.010  170.608    2.283
  476.566    0.232    0.424   67.508  170.506    2.489
  476.816    0.231    0.434   69.514  170.816    2.684
  477.066    0.213    0.396   65.990  170.920    2.927
  477.316    0.205    0.349   71.096  173.597    3.267
  477.566    0.188    0.321   79.909  176.788    3.627
  477.816    0.162    0.302   87.081  175.040    3.719
  478.066    0.301    0.288   79.546  171.542    3.315
  478.316    0.280    0.274   72.192  170.308    3.026
  478.566    0.250    0.450   70.065  171.338    2.895
  478.816    0.245    0.437   80.824  173.809    2.857
  479.066    0.238    0.422   87.571  177.515    2.923
  479.316    0.204    0.423   93.710  181.221    3.041
  479.566    0.162    0.445   97.843  185.339    3.180
  479.816    0.157    0.460   96.750  189.971    3.374
  480.066    0.147    0.450   97.237  189.972    3.497
  480.316    0.169    0.454  100.945  189.664    3.578
  480.566    0.147    0.471  102.100  190.077    3.628
  480.816    0.137    0.488  101.614  190.593    3.653
  481.066    0.155    0.476  100.400  190.697    3.664
  481.316    0.153    0.477   99.367  190.389    3.642
  481.566    0.146    0.489   99.124  189.669    3.646
  481.816    0.132    0.469  100.705  188.127    3.664
  482.066    0.157    0.469  103.562  186.378    3.729
  482.316    0.161    0.473  106.480  183.806    3.851
  482.566    0.154    0.447   99.370  181.543    3.961
  482.816    0.149    0.440   98.033  181.956    4.032
  483.066    0.150    0.432   98.703  184.427    4.096
  483.316    0.146    0.428   97.548  187.309    4.138
  483.566    0.132    0.436   94.814  189.472    4.173
  483.816    0.126    0.448   95.665  191.840    4.186
  484.066    0.143    0.452  100.042  194.414    4.214
  484.316    0.146    0.469  101.137  197.605    4.250
  484.566    0.146    0.487   95.424  199.665    4.248
  484.816    0.228    0.493   92.690  202.547    4.199
  485.066    0.225    0.487   91.171  213.252    4.151
  485.316    0.198    0.502   93.846  200.079    4.097
  485.566    0.198    0.501   95.609  191.332    4.005
  485.816    0.172    0.473   97.190  186.187    3.945
  486.066    0.155    0.468   97.798  182.381    3.900
  486.316    0.197    0.458   93.058  179.706    3.870
  486.566    0.180    0.437   82.483  176.310    3.812
  486.816    0.196    0.439   67.715  173.842    3.783
  487.066    0.243    0.431   71.301  174.151    3.794
  487.316    0.238    0.432   75.617  174.976    3.826
  487.566    0.242    0.454   79.325  176.418    3.859
  487.816    0.246    0.454   81.696  177.859    3.892
  488.066    0.252    0.441   85.647  179.507    3.862
  488.316    0.244    0.435   90.510  178.993    3.797
  488.566    0.249    0.441   97.439  180.024    3.693
  488.816    0.247    0.453  109.231  182.186    3.651
  489.066    0.215    0.466  102.911  184.142    3.635
  489.316    0.194    0.482   92.579  182.703    3.747
  489.566    0.238    0.510   87.292  178.999    3.862
  489.816    0.291    0.568   82.430  175.706    3.902
  490.066    0.289    0.493   79.210  173.546    3.829
  490.316    0.251    0.448   76.840  172.003    3.611
  490.566    0.244    0.423   74.896  170.975    3.443
  490.816    0.246    0.424   74.106  170.873    3.200
  491.066    0.241    0.433   72.405  170.771    3.090
  491.316    0.259    0.444   70.643  170.772    2.957
  491.566    0.275    0.443   69.671  170.773    2.829
  491.816    0.245    0.436   68.699  170.775    2.732
  492.066    0.240    0.425   66.451  170.570    2.657
  492.316    0.247    0.419   62.562  170.571    2.612
  492.566    0.260    0.419   62.745  170.572    2.615
  492.816    0.283    0.433   63.293  170.264    2.686
  493.066    0.271    0.437   63.232  169.956    2.744
  493.316    0.261    0.439   62.929  169.854    2.802
  493.566    0.246    0.446   63.659  170.061    2.868
  493.816    0.237    0.459   65.665  170.371    2.972
  494.066    0.269    0.464   65.666  170.784    3.074
  494.316    0.279    0.460   65.302  170.784    3.151
  494.566    0.288    0.449   65.242  170.992    3.132
  494.816    0.288    0.427   65.607  170.993    3.091
  495.066    0.276    0.412   65.547  170.993    3.039
  495.316    0.274    0.405   66.459  170.892    2.994
  495.566    0.269    0.413   67.858  170.584    2.976
  495.816    0.256    0.426   70.228  169.967    3.012
  496.066    0.240    0.427   73.207  169.865    3.082
  496.316    0.222    0.429   75.760  171.513    3.171
  496.566    0.204    0.433   79.468  176.145    3.263
  496.816    0.191    0.438   71.325  175.014    3.350
  497.066    0.197    0.441   60.142  171.002    3.391
  497.316    0.208    0.421   52.971  169.459    3.377
  497.566    0.224    0.403   47.016  169.254    3.284
  497.816    0.215    0.394   48.535  169.461    3.160
  498.066    0.200    0.383   48.962  169.874    3.040
  498.316    0.193    0.387   48.172  169.154    2.946
  498.566    0.219    0.394   45.742  169.052    2.902
  498.816    0.227    0.383   43.676  168.744    2.762
  499.066    0.193    0.371   46.715  168.334    2.765
  499.316    0.174    0.376   51.578  167.820    2.684
  499.566    0.198    0.393   53.767  167.821    2.658
  499.816    0.234    0.409   51.579  167.720    2.666
  500.066    0.230    0.404   48.541  167.618    2.670
  500.316    0.209    0.393   46.353  167.310    2.654
  500.566    0.197    0.390   46.293  167.414    2.647
  500.816    0.215    0.396   48.117  167.106    2.665
  501.066    0.228    0.392   50.610  166.696    2.673
  501.316    0.230    0.386   52.920  166.594    2.701
  501.566    0.228    0.389   55.352  166.594    2.734
  501.816    0.217    0.391   58.452  165.978    2.787
  502.066    0.216    0.381   61.005  166.596    2.826
  502.316    0.226    0.389   64.166  167.730    2.898
  502.566    0.227    0.389   67.388  168.039    3.008
  502.816    0.218    0.392   70.063  168.040    3.106
  503.066    0.199    0.398   69.760  168.144    3.225
  503.316    0.205    0.397   68.788  168.454    3.318
  503.566    0.206    0.394   68.059  168.558    3.401
  503.816    0.192    0.385   65.932  168.868    3.462
  504.066    0.188    0.377   61.557  168.766    3.459
  504.316    0.189    0.395   62.044  168.458    3.451
  504.566    0.200    0.415   64.111  167.842    3.449
  504.816    0.219    0.419   68.062  167.740    3.491
  505.066    0.217    0.425   73.350  168.461    3.540
  505.316    0.205    0.423   75.843  169.080    3.649
  505.566    0.209    0.438   71.589  169.801    3.851
