~VERSION INFORMATION
 VERS.                 2.0:   CWLS LOG ASCII STANDARD -VERSION 2.0
 WRAP.                  NO:   ONE LINE PER DEPTH STEP
~WELL INFORMATION BLOCK
#MNEM.UNIT           DATA                    DESCRIPTION OF MNEMONIC
#---------    -------------------            -------------------------------
# Generated from Intellog Unique Number	CC_84_87/WELL/2338
NULL.         -999.25                        : NULL_VALUE
WELL.         NOVALTA NEWBY                  : Well_name    - WELL              
LOC .         12-05-084-05W4                 : Location     - LOCATION          
UWI .         00/12-05-084-05W400            : Uwi          - UNIQUE WELL ID    
ENTR.         JHS                            : Entered      - ENTERED BY        
SRVC.         SCHLUMBERGER                   : Scn          - SERVICE COMPANY   
DATE.         12 FEB 85                      : Date         - LOG DATE
STRT.M        64                             : top_depth    - START DEPTH       
STOP.M        324.999                        : bot_depth    - STOP DEPTH        
STEP.M        0.3                            : increment    - STEP LENGTH       
~CURVE INFORMATION BLOCK
#MNEM UNIT       ERCB CURVE CODE    CURVE DESCRIPTION
#-----------   ------------------   ----------------------------------
DEPT.M        00 001 00 00         : DEPTH        - DEPTH                       
DPHI.V/V      00 890 00 00         : PHID         - DENSITY POROSITY (LIMESTONE)
NPHI.V/V      00 330 00 00         : PHIN         - NEUTRON POROSITY (LIMESTONE)
GR  .API      00 310 00 00         : GR           - GAMMA RAY                   
ILD .OHMM     00 120 00 00         : RESD         - DEEP RESISTIVITY (DIL)      
~PARAMETER INFORMATION       
#MNEM.UNIT           DATA             DESCRIPTION OF MNEMONIC
#---------         -----------     ------------------------------
GL  .M        490                  : gl           - GROUND LEVEL ELEVATION      
EREF.M        493                  : kb           - ELEVATION OF DEPTH REFERENCE
DATM.M        493                  : datum        - DATUM ELEVATION             
TDD .M        335                  : tdd          - TOTAL DEPTH DRILLER         
RUN .         ONE                  : Run          - RUN NUMBER                  
ENG .         BILL                 : Engineer     - RECORDING ENGINEER          
WIT .         JIM                  : Witness      - WITNESSED BY                
MUD .         GEL                  : Mud_type     - MUD TYPE                    
MATR.         LIMESTONE            : Logunit      - NEUTRON MATRIX              
TMAX.C        25                   : BHT          - MAXIMUM RECORDED TEMPERATURE
BHTD.M        335                  : BHTDEP       - MAXIMUM RECORDED TEMPERATURE
MATR.         1                    : LOGUNIT      - NEUTRON MATRIX              
RMT .C        25                   : MDTP         - TEMPERATURE OF MUD          
NEUT.         1                    : NEUTRON      - NEUTRON TYPE                
RESI.         0                    : RESIST       - RESISTIVITY TYPE            
RMC .OHMM     0.25                 : RMC          - RESISTIVITY OF MUD CAKE     
RMF .OHMM     0.25                 : RMF          - RESISTIVITY OF MUD FILTRATE 
SUFT.C        15                   : SUFT         - SURFACE TEMPERATURE         
~A  DEPTH     PHID     PHIN       GR     RESD
# ...
  168.401    0.326    0.416   59.579   14.648
  168.701    0.326    0.440   57.102   14.642
  169.001    0.331    0.437   59.584   14.363
  169.301    0.335    0.429   60.825   14.089
  169.601    0.334    0.430   58.967   14.085
  169.901    0.324    0.424   58.350   14.349
  170.201    0.324    0.413   58.971   14.617
  170.501    0.331    0.406   60.833   14.612
  170.801    0.338    0.409   63.934   14.607
  171.101    0.340    0.420   67.035   14.329
  171.401    0.338    0.441   64.558   14.056
  171.701    0.334    0.454   58.981   14.051
  172.001    0.325    0.464   60.223   13.525
  172.301    0.325    0.456   65.803   13.018
  172.601    0.330    0.429   61.467   12.770
  172.901    0.324    0.438   60.229   12.526
  173.201    0.315    0.440   60.231   12.522
  173.501    0.313    0.444   61.473   12.518
  173.801    0.324    0.419   61.474   12.754
  174.101    0.325    0.404   62.096   12.991
  174.401    0.323    0.412   61.479   13.236
  174.701    0.330    0.427   59.621   13.231
  175.001    0.328    0.404   55.904   13.480
  175.301    0.325    0.399   56.526   13.993
  175.601    0.323    0.402   60.247   13.991
  175.901    0.313    0.406   59.629   13.724
  176.201    0.307    0.427   59.011   13.209
  176.501    0.326    0.470   59.633   13.457
  176.801    0.342    0.469   59.635   13.453
  177.101    0.342    0.457   58.398   13.705
  177.401    0.331    0.417   57.160   13.700
  177.701    0.333    0.408   59.021   13.440
  178.001    0.321    0.420   63.982   12.936
  178.301    0.305    0.430   65.224   12.217
  178.601    0.299    0.438   62.746   11.759
  178.901    0.298    0.455   62.748   11.757
  179.201    0.309    0.450   61.510   11.753
  179.501    0.321    0.429   62.132   11.973
  179.801    0.319    0.427   65.234   11.745
  180.101    0.321    0.445   65.855   10.681
  180.401    0.319    0.449   67.097    9.713
  180.701    0.315    0.471   68.958    8.345
  181.001    0.302    0.497   75.779    6.904
  181.301    0.272    0.495   85.078    5.821
  181.601    0.262    0.472   66.485    5.002
  181.901    0.268    0.491   50.991    4.549
  182.201    0.264    0.519   57.811    4.216
  182.501    0.263    0.514   82.607    4.057
  182.801    0.267    0.492   90.047    3.980
  183.101    0.271    0.519   91.288    3.904
  183.401    0.277    0.520   91.910    3.903
  183.701    0.293    0.485   85.094    3.829
  184.001    0.288    0.502   86.336    3.685
  184.301    0.278    0.533   93.776    3.415
  184.601    0.287    0.555   96.257    3.106
  184.901    0.300    0.520   98.119    2.824
  185.201    0.303    0.519   98.121    2.718
  185.501    0.299    0.537   95.023    2.667
  185.801    0.304    0.545   94.406    2.717
  186.101    0.306    0.540   98.127    2.768
  186.401    0.294    0.524   91.310    2.984
  186.701    0.277    0.499   89.453    3.099
  187.001    0.272    0.480   91.935    3.536
  187.301    0.277    0.494   91.936    3.886
  187.601    0.278    0.482   90.079    4.270
  187.901    0.269    0.461   86.982    4.873
  188.201    0.269    0.442   84.504    5.457
  188.501    0.280    0.435   90.085    6.112
  188.801    0.271    0.438   84.508    6.844
  189.101    0.264    0.450   79.552    7.380
  189.401    0.280    0.460   80.793    7.519
  189.701    0.279    0.473   84.514    7.660
  190.001    0.277    0.483   79.557    7.804
  190.301    0.280    0.473   79.560    7.950
  190.601    0.294    0.466   80.801    8.099
  190.901    0.313    0.459   72.746    8.251
  191.201    0.331    0.442   70.888    8.566
  191.501    0.335    0.426   75.848    8.563
  191.801    0.299    0.430   83.288    8.724
  192.101    0.248    0.428   87.629    8.722
  192.401    0.257    0.423   88.251    8.885
  192.701    0.259    0.418   84.534    8.882
  193.001    0.223    0.430   82.057    9.049
  193.301    0.230    0.436   77.720    9.757
  193.601    0.285    0.425   81.441    9.042
  193.901    0.287    0.409   85.782    8.540
  194.201    0.274    0.429   82.065    8.066
  194.501    0.267    0.442   83.926    7.618
  194.801    0.274    0.441   83.309    7.473
  195.101    0.270    0.439   83.311    7.192
  195.401    0.258    0.431   88.271    7.056
  195.701    0.252    0.416   86.414    7.054
  196.001    0.259    0.436   85.796    7.051
  196.301    0.273    0.439   85.798    7.050
  196.601    0.273    0.434   85.180    6.914
  196.901    0.273    0.450   87.042    6.531
  197.201    0.275    0.452   89.523    5.719
  197.501    0.282    0.445   90.764    4.821
  197.801    0.283    0.479   90.147    4.554
  198.101    0.282    0.523   92.008    4.466
  198.401    0.280    0.530   92.630    4.465
  198.701    0.278    0.512   85.194    4.464
  199.001    0.273    0.494   80.857    4.548
  199.301    0.277    0.481   74.041    4.812
  199.601    0.316    0.441   74.663    5.189
  199.901    0.341    0.425   75.904    7.155
  200.201    0.333    0.436   77.146    7.019
  200.501    0.304    0.429   75.288    5.807
  200.801    0.290    0.448   76.531    4.539
  201.101    0.305    0.477   81.491    3.827
  201.401    0.301    0.505   92.031    3.683
  201.701    0.281    0.502   90.793    3.824
  202.001    0.273    0.465   83.356    4.202
  202.301    0.268    0.427   83.359    5.580
  202.601    0.254    0.397   83.360    7.991
  202.901    0.252    0.349   75.304   10.412
  203.201    0.199    0.272   61.670   13.826
  203.501    0.048    0.206   53.614   14.354
  203.801    0.069    0.242   49.278   13.304
  204.101    0.309    0.335   59.197   11.431
  204.401    0.342    0.418   69.736    9.637
  204.701    0.333    0.418   68.499    9.102
  205.001    0.311    0.422   66.021    9.449
  205.301    0.283    0.424   64.163   10.583
  205.601    0.192    0.398   58.587   10.380
  205.901    0.156    0.427   51.151    9.440
  206.201    0.197    0.452   49.293    8.748
  206.501    0.321    0.463   56.114    8.582
  206.801    0.342    0.469   62.934    8.418
  207.101    0.336    0.463   65.415    8.577
  207.401    0.332    0.442   67.896    9.074
  207.701    0.331    0.425   66.039    9.602
  208.001    0.242    0.416   64.801    9.242
  208.301    0.197    0.421   62.944    8.247
  208.601    0.244    0.461   67.904    7.086
  208.901    0.254    0.479   81.543    6.567
  209.201    0.255    0.492   84.024    6.321
  209.501    0.267    0.477   84.646    6.319
  209.801    0.275    0.467   87.127    6.813
  210.101    0.274    0.472   83.410    7.209
  210.401    0.263    0.451   80.933    7.628
  210.701    0.262    0.437   84.654    7.342
  211.001    0.270    0.434   88.375    6.804
  211.301    0.273    0.437   87.757    5.958
  211.602    0.265    0.447   85.280    4.157
  211.902    0.260    0.482   85.902    3.640
  212.202    0.276    0.531   86.523    3.188
  212.502    0.315    0.536   79.707    2.739
  212.802    0.326    0.521   74.131    2.687
  213.102    0.322    0.529   72.893    2.789
  213.402    0.299    0.524   74.755    3.008
  213.702    0.275    0.498   75.376    3.565
  214.002    0.263    0.471   74.139    4.146
  214.302    0.260    0.438   74.141    4.732
  214.602    0.257    0.401   74.763    5.200
  214.902    0.254    0.426   74.145    5.713
  215.202    0.274    0.448   79.105    5.821
  215.502    0.265    0.414   77.248    5.819
  215.802    0.252    0.440   64.853    5.000
  216.102    0.257    0.458   40.681    4.462
  216.402    0.260    0.476   45.642    4.135
  216.702    0.279    0.485   72.297    3.833
  217.002    0.273    0.493   96.473    3.485
  217.302    0.271    0.490   89.657    3.354
  217.602    0.273    0.488   89.039    3.291
  217.902    0.273    0.477   85.322    3.227
  218.202    0.278    0.474   84.085    3.227
  218.502    0.271    0.487   85.326    3.225
  218.802    0.260    0.492   86.568    3.286
  219.102    0.259    0.483   85.950    3.348
  219.402    0.265    0.478   83.472    3.476
  219.702    0.268    0.508   85.334    3.409
  220.002    0.266    0.537   85.956    3.344
  220.302    0.260    0.526   85.338    3.343
