~VERSION INFORMATION
 VERS.                 2.0:   CWLS LOG ASCII STANDARD -VERSION 2.0
 WRAP.                  NO:   ONE LINE PER DEPTH STEP
~WELL INFORMATION BLOCK
#MNEM.UNIT           DATA                    DESCRIPTION OF MNEMONIC
#---------    -------------------            -------------------------------
# Generated from Intellog Unique Number	CW_79_81/WELL/2468
WELL.         10-18-080-20W4                 : Well_name    - WELL
LOC .         00/10-18-080-20W4/0            : Location     - LOCATION
UWI .         00/10-18-080-20W4/0            : Uwi          - UNIQUE WELL ID
ENTR.         MAX                            : Entered      - ENTERED BY
SRVC.         SCHLUMBERGER                   : Scn          - SERVICE COMPANY
STRT.M        152.4                          : top_depth    - START DEPTH
STOP.M        408.15                         : bot_depth    - STOP DEPTH
STEP.M        0.25                           : increment    - STEP LENGTH
 NULL. -999.2500:NULL Value
~CURVE INFORMATION BLOCK
#MNEM UNIT       ERCB CURVE CODE    CURVE DESCRIPTION
#-----------   ------------------   ----------------------------------
DEPT.M        00 001 00 00         : DEPTH        - DEPTH
ILD .OHMM     00 120 00 00         : RESD         - DEEP RESISTIVITY (DIL)
NPHI.V/V      00 330 00 00         : PHIN         - NEUTRON POROSITY (SANDSTONE)
DPHI.V/V      00 890 00 00         : PHID         - DENSITY POROSITY (SANDSTONE)
GR  .API      00 310 00 00         : GR           - GAMMA RAY
CALI.MM       00 280 01 00         : CAL          - CALIPER
~PARAMETER INFORMATION
#MNEM.UNIT           DATA             DESCRIPTION OF MNEMONIC
#---------         -----------     ------------------------------
GL  .M        579.272              : gl           - GROUND LEVEL ELEVATION
EREF.M        582.778              : kb           - ELEVATION OF DEPTH REFERENCE
DATM.M        579.272              : datum        - DATUM ELEVATION
TDD .M        411.48               : tdd          - TOTAL DEPTH DRILLER
RUN .         ONE                  : Run          - RUN NUMBER
ENG .         BILL                 : Engineer     - RECORDING ENGINEER
WIT .         JIM                  : Witness      - WITNESSED BY
MUD .         GEL                  : Mud_type     - MUD TYPE
MATR.         SANDSTONE            : Logunit      - NEUTRON MATRIX
TMAX.C        23.3333              : BHT          - MAXIMUM RECORDED TEMPERATURE
BHTD.M        411.48               : BHTDEP       - MAXIMUM RECORDED TEMPERATURE
MATR.         1                    : LOGUNIT      - NEUTRON MATRIX
RMT .C        10                   : MDTP         - TEMPERATURE OF MUD
NEUT.         1                    : NEUTRON      - NEUTRON TYPE
RESI.         0                    : RESIST       - RESISTIVITY TYPE
RMC .OHMM     7.01                 : RMC          - RESISTIVITY OF MUD CAKE
RMF .OHMM     3.48                 : RMF          - RESISTIVITY OF MUD FILTRATE
SUFT.C        -15                  : SUFT         - SURFACE TEMPERATURE
~A  DEPTH     RESD     PHIN     PHID       GR      CAL
# ...
  334.900   12.997    0.488    0.204  105.404  205.238
  335.150   13.446    0.493    0.188  101.008  204.843
  335.400   13.759    0.480    0.178   98.038  204.855
  335.650   13.861    0.448    0.152   93.521  205.267
  335.900   13.736    0.410    0.136   95.252  205.981
  336.150   13.587    0.401    0.148  102.042  206.797
  336.400   13.563    0.424    0.187  109.604  207.511
  336.650   13.744    0.453    0.226  110.562  208.177
  336.900   13.641    0.459    0.219  110.567  209.446
  337.150   13.053    0.460    0.215  110.811  210.262
  337.400   12.915    0.460    0.214  111.234  211.078
  337.650   13.010    0.465    0.214  111.716  212.094
  337.900   13.156    0.474    0.214  112.316  213.514
  338.150   13.117    0.482    0.217  113.523  215.708
  338.400   12.920    0.481    0.224  114.768  216.559
  338.650   12.640    0.482    0.217  115.011  216.970
  338.900   12.504    0.480    0.212  114.541  217.382
  339.150   12.504    0.472    0.208  114.427  217.997
  339.400   12.620    0.465    0.208  114.908  218.712
  339.650   12.827    0.471    0.209  115.392  219.210
  339.900   12.926    0.475    0.194  115.398  219.640
  340.150   13.022    0.465    0.198  115.879  220.454
  340.400   12.976    0.455    0.199  116.360  220.969
  340.650   12.835    0.460    0.205  116.960  221.583
  340.900   12.697    0.479    0.214  117.026  222.397
  341.150   12.678    0.492    0.206  115.327  223.298
  341.400   12.584    0.497    0.208  116.325  223.729
  341.650   12.493    0.494    0.198  115.378  224.140
  341.900   12.403    0.487    0.193  115.502  224.553
  342.150   12.223    0.479    0.195  116.817  224.765
  342.400   11.959    0.470    0.203  118.012  224.773
  342.650   11.665    0.463    0.205  115.758  224.784
  342.900   11.490    0.475    0.192  112.789  224.795
  343.150   11.575    0.477    0.176  109.939  224.804
  343.400   11.725    0.470    0.181  110.658  223.605
  343.650   11.683    0.457    0.189  113.519  222.406
  343.900   11.366    0.450    0.194  117.868  221.811
  344.150   10.815    0.470    0.205  123.626  222.408
  344.400   10.492    0.469    0.201  122.641  225.357
  344.650   10.493    0.460    0.201  118.125  226.977
  344.900   10.609    0.455    0.196  116.286  226.483
  345.150   10.844    0.454    0.186  116.173  224.478
  345.400   11.127    0.459    0.178  117.308  221.566
  345.650   11.276    0.469    0.190  120.537  218.270
  345.900   11.191    0.472    0.197  124.758  217.860
  346.150   10.709    0.457    0.192  121.432  217.868
  346.400   10.480    0.452    0.195  118.462  215.763
  346.650   10.594    0.453    0.195  115.850  213.153
  346.900   11.067    0.459    0.194  113.178  210.642
  347.150   11.899    0.461    0.204  108.623  207.161
  347.400   12.269    0.448    0.180  103.671  203.814
  347.650   13.004    0.438    0.175  103.200  201.807
  347.900   13.566    0.432    0.197  103.623  201.312
  348.150   13.922    0.429    0.219  104.104  201.322
  348.400   14.204    0.429    0.230  104.169  201.334
  348.650   14.737    0.429    0.233  103.898  201.429
  348.900   14.738    0.422    0.222  104.895  201.855
  349.150   14.848    0.438    0.214  100.855  201.865
  349.400   15.286    0.420    0.203  100.027  202.178
  349.650   16.359    0.386    0.183  100.271  202.389
  349.900   18.196    0.348    0.149   99.265  202.398
  350.150   21.106    0.318    0.094   93.868  202.412
  350.400   24.831    0.316    0.090   90.651  202.421
  350.650   26.129    0.335    0.098   90.180  202.428
  350.900   25.324    0.348    0.100   91.494  202.438
  351.150   23.521    0.360    0.110   95.546  202.447
  351.400   21.470    0.375    0.134  100.313  202.456
  351.650   19.072    0.403    0.172  101.140  202.551
  351.900   17.553    0.430    0.182  102.882  202.981
  352.150   16.550    0.425    0.198  108.123  203.798
  352.400   16.050    0.439    0.213  112.472  204.310
  352.650   15.820    0.457    0.211  112.241  204.924
  352.900   15.848    0.465    0.191  109.331  205.538
  353.150   16.372    0.449    0.181  110.746  205.549
  353.400   16.625    0.449    0.217  108.272  205.559
  353.650   16.994    0.449    0.218  101.138  205.570
  353.900   17.278    0.425    0.196   96.681  204.974
  354.150   17.088    0.403    0.169   95.615  204.378
  354.400   16.840    0.397    0.153   96.692  204.186
  354.650   17.785    0.418    0.171   96.253  204.684
  354.900   18.060    0.429    0.201   94.027  205.114
  355.150   19.142    0.409    0.185   90.938  205.123
  355.400   21.052    0.376    0.130   83.566  205.436
  355.650   23.888    0.314    0.083   77.384  205.849
  355.900   27.949    0.255    0.066   75.188  206.160
  356.150   34.405    0.295    0.091   77.941  206.255
  356.400   36.868    0.346    0.139   82.161  206.683
  356.650   34.504    0.402    0.172   87.165  207.096
  356.900   30.134    0.430    0.202   89.670  207.207
  357.150   25.738    0.447    0.222   91.698  207.216
  357.400   21.995    0.459    0.232   93.607  207.225
  357.650   18.717    0.455    0.230   94.437  207.320
  357.900   17.752    0.459    0.213   96.178  207.750
  358.150   17.367    0.459    0.217   95.708  207.759
  358.400   17.274    0.443    0.202   91.132  208.071
  358.650   17.528    0.419    0.177   88.757  208.484
  358.900   18.146    0.403    0.162   89.953  208.896
  359.150   19.165    0.425    0.192   91.349  209.394
  359.400   19.461    0.450    0.198   92.346  209.824
  359.650   19.180    0.444    0.187   93.542  210.639
  359.900   18.903    0.441    0.186   94.380  211.153
  360.150   18.561    0.442    0.187   95.457  211.767
  360.400   18.092    0.449    0.189   97.189  212.482
  360.650   17.285    0.455    0.199   99.962  212.980
  360.900   16.517    0.450    0.205  100.711  213.408
  361.150   15.923    0.448    0.208  100.954  214.628
  361.400   15.265    0.445    0.212  103.339  215.544
  361.650   14.501    0.445    0.215  106.915  215.956
  361.900   13.760    0.451    0.218  110.431  215.965
  362.150   13.187    0.467    0.216  112.788  215.977
  362.400   12.793    0.469    0.201  115.025  215.987
  362.650   12.425    0.465    0.200  116.458  215.997
  362.900   12.201    0.467    0.186  117.535  216.308
  363.150   12.114    0.470    0.162  117.660  216.518
  363.400   12.115    0.472    0.133  117.368  216.629
  363.650   12.098    0.469    0.110  119.168  217.044
  363.900   12.007    0.472    0.118  123.389  217.053
  364.150   11.747    0.474    0.158  128.869  217.868
  364.400   11.302    0.471    0.178  130.600  219.591
  364.650   10.940    0.456    0.186  131.676  221.212
  364.900   10.763    0.436    0.188  132.694  221.726
  365.150   10.780    0.439    0.192  131.698  219.536
  365.400   10.864    0.460    0.193  131.456  216.607
  365.650   11.105    0.447    0.197  129.082  216.216
  365.900   11.537    0.426    0.192  124.566  214.010
  366.150   12.226    0.414    0.183  119.574  211.802
  366.400   13.225    0.411    0.167  114.226  210.300
  366.650   14.736    0.402    0.131  106.545  208.765
  366.900   15.668    0.385    0.090  103.824  207.096
  367.150   16.727    0.390    0.105  107.637  205.895
  367.400   17.767    0.403    0.151  110.559  204.997
  367.650   18.308    0.409    0.187  112.469  204.201
  367.900   17.966    0.405    0.200  113.069  203.304
  368.150   16.608    0.398    0.206  111.340  202.107
  368.400   16.113    0.391    0.205  108.618  202.116
  368.650   15.997    0.389    0.189  108.386  202.125
  368.900   16.409    0.384    0.179  107.618  202.134
  369.150   17.022    0.377    0.167  106.314  202.144
  369.400   17.690    0.373    0.150  104.357  202.255
  369.650   18.601    0.386    0.129  101.509  202.753
  369.900   19.180    0.394    0.152  101.514  203.183
  370.150   19.181    0.411    0.177  104.613  204.401
  370.400   19.183    0.423    0.195  108.070  204.410
  370.650   18.903    0.421    0.194  110.217  205.225
  370.900   18.326    0.410    0.175  110.521  206.745
  371.150   17.480    0.410    0.160  109.823  207.681
