~VERSION INFORMATION
 VERS.                 2.0:   CWLS LOG ASCII STANDARD -VERSION 2.0
 WRAP.                  NO:   ONE LINE PER DEPTH STEP
~WELL INFORMATION BLOCK
#MNEM.UNIT           DATA                    DESCRIPTION OF MNEMONIC
#---------    -------------------            -------------------------------
# Generated from Intellog Unique Number	CS_73_76/WELL/3272
WELL.         TOTAL PETROLEUM (N.A.) LTD     : Well_name    - WELL
LOC .         00/12-14-075-08W4/0            : Location     - LOCATION
UWI .         00/12-14-075-08W4/0            : Uwi          - UNIQUE WELL ID
ENTR.         SP                             : Entered      - ENTERED BY
SRVC.         SCHLUMBERGER                   : Scn          - SERVICE COMPANY
STRT.M        250                            : top_depth    - START DEPTH
STOP.M        495                            : bot_depth    - STOP DEPTH
STEP.M        0.25                           : increment    - STEP LENGTH
 NULL. -999.2500:NULL Value
~CURVE INFORMATION BLOCK
#MNEM UNIT       ERCB CURVE CODE    CURVE DESCRIPTION
#-----------   ------------------   ----------------------------------
DEPT.M        00 001 00 00         : DEPTH        - DEPTH
ILD .OHMM     00 120 00 00         : RESD         - DEEP RESISTIVITY (DIL)
DPHI.V/V      00 890 00 00         : PHID         - DENSITY POROSITY (LIMESTONE)
NPHI.V/V      00 330 00 00         : PHIN         - NEUTRON POROSITY (LIMESTONE)
GR  .API      00 310 00 00         : GR           - GAMMA RAY
~PARAMETER INFORMATION
#MNEM.UNIT           DATA             DESCRIPTION OF MNEMONIC
#---------         -----------     ------------------------------
GL  .M        668.17               : gl           - GROUND LEVEL ELEVATION
EREF.M        671.17               : kb           - ELEVATION OF DEPTH REFERENCE
DATM.M        668.17               : datum        - DATUM ELEVATION
TDD .M        504                  : tdd          - TOTAL DEPTH DRILLER
RUN .         ONE                  : Run          - RUN NUMBER
ENG .         BILL                 : Engineer     - RECORDING ENGINEER
WIT .         JIM                  : Witness      - WITNESSED BY
MUD .         GEL                  : Mud_type     - MUD TYPE
MATR.         LIMESTONE            : Logunit      - NEUTRON MATRIX
TMAX.C        23.5                 : BHT          - MAXIMUM RECORDED TEMPERATURE
BHTD.M        504                  : BHTDEP       - MAXIMUM RECORDED TEMPERATURE
MATR.         1                    : LOGUNIT      - NEUTRON MATRIX
RMT .C        25                   : MDTP         - TEMPERATURE OF MUD
NEUT.         1                    : NEUTRON      - NEUTRON TYPE
RESI.         0                    : RESIST       - RESISTIVITY TYPE
RMC .OHMM     0.25                 : RMC          - RESISTIVITY OF MUD CAKE
RMF .OHMM     0.25                 : RMF          - RESISTIVITY OF MUD FILTRATE
SUFT.C        15                   : SUFT         - SURFACE TEMPERATURE
~A  DEPTH     RESD     PHID     PHIN       GR
# ...
  424.000    3.324    0.251    0.546   88.615
  424.250    3.865    0.226    0.563   86.168
  424.500    4.328    0.205    0.517   86.169
  424.750    5.129    0.186    0.445   86.783
  425.000    5.636    0.225    0.439   87.397
  425.250    6.078    0.238    0.450   86.174
  425.500    6.432    0.237    0.456   84.951
  425.750    6.433    0.207    0.414   83.115
  426.000    6.082    0.165    0.394   83.117
  426.250    5.642    0.135    0.386   87.405
  426.500    5.333    0.186    0.409   91.079
  426.750    4.948    0.201    0.416   93.530
  427.000    4.856    0.202    0.429   92.919
  427.250    4.678    0.185    0.452   89.247
  427.500    4.506    0.207    0.475   88.025
  427.750    4.340    0.226    0.475   89.251
  428.000    4.181    0.238    0.469   91.701
  428.250    4.104    0.229    0.476   92.927
  428.500    4.028    0.221    0.485   92.928
  428.750    4.105    0.235    0.472   91.093
  429.000    4.774    0.230    0.468   89.870
  429.250    5.763    0.215    0.501   88.035
  429.500    9.950    0.215    0.525   86.812
  429.750   13.705    0.263    0.549   84.365
  430.000   17.842    0.312    0.454   81.305
  430.250   19.978    0.315    0.359   76.409
  430.500   21.546    0.289    0.365   73.961
  430.750   21.960    0.251    0.383   68.452
  431.000   21.964    0.232    0.386   62.331
  431.250   20.763    0.197    0.301   57.434
  431.500   19.628    0.081    0.274   62.334
  431.750   18.553    0.219    0.303   67.234
  432.000   17.871    0.240    0.391   72.133
  432.250   16.894    0.238    0.419   73.971
  432.500   16.583    0.235    0.438   73.974
  432.750   16.586    0.256    0.438   73.974
  433.000   16.590    0.264    0.451   74.589
  433.250   16.594    0.264    0.448   74.590
  433.500   16.912    0.269    0.445   73.367
  433.750   16.916    0.274    0.452   73.369
  434.000   17.241    0.276    0.457   73.982
  434.250   16.922    0.265    0.467   73.984
  434.500   16.302    0.255    0.457   70.924
  434.750   16.000    0.247    0.438   68.477
  435.000   15.412    0.232    0.438   66.641
  435.250   14.847    0.221    0.425   66.030
  435.500   14.850    0.229    0.402   68.481
  435.750   14.854    0.238    0.393   69.707
  436.000   15.426    0.230    0.381   69.096
  436.250   16.325    0.225    0.377   70.935
  436.500   20.084    0.220    0.397   72.773
  436.750   26.146    0.224    0.407   72.162
  437.000   31.566    0.222    0.400   64.817
  437.250   46.006    0.219    0.389   52.573
  437.500   72.295    0.253    0.398   43.391
  437.750   94.110    0.295    0.413   37.271
  438.000  111.500    0.303    0.404   35.435
  438.250  134.622    0.307    0.386   33.600
  438.500  153.611    0.304    0.376   30.540
  438.750  172.015    0.299    0.367   28.093
  439.000  185.515    0.302    0.363   26.258
  439.250  196.335    0.308    0.360   25.035
  439.500  203.903    0.312    0.361   23.811
  439.750  224.081    0.299    0.361   24.425
  440.000  250.921    0.297    0.363   26.264
  440.250  280.967    0.295    0.361   29.938
  440.500  326.687    0.295    0.359   30.553
  440.750  372.773    0.304    0.358   29.942
  441.000  402.019    0.304    0.367   29.943
  441.250  402.090    0.302    0.369   29.944
  441.500  314.891    0.299    0.360   28.721
  441.750  276.075    0.308    0.364   29.948
  442.000  237.540    0.310    0.364   31.174
  442.250  224.539    0.307    0.378   31.787
  442.500  242.160    0.309    0.391   30.564
  442.750  256.270    0.317    0.399   29.954
  443.000  281.631    0.312    0.389   29.955
  443.250  298.041    0.304    0.392   31.181
  443.500  242.363    0.301    0.387   31.183
  443.750  193.398    0.308    0.377   30.572
  444.000  151.454    0.308    0.370   32.410
  444.250  125.496    0.307    0.362   35.473
  444.500   98.280    0.309    0.372   35.475
  444.750   78.428    0.312    0.380   37.313
  445.000   68.758    0.313    0.383   42.213
  445.250   55.911    0.312    0.378   47.112
  445.500   46.332    0.295    0.387   53.236
  445.750   41.391    0.277    0.376   63.033
  446.000   36.288    0.273    0.365   70.382
  446.250   31.814    0.270    0.367   76.506
  446.500   27.893    0.263    0.376   80.793
  446.750   24.455    0.264    0.382   76.510
  447.000   21.041    0.262    0.392   74.062
  447.250   17.767    0.255    0.404   74.675
  447.500   15.872    0.259    0.385   75.289
  447.750   13.402    0.260    0.375   77.740
  448.000   11.531    0.240    0.376   86.313
  448.250   12.912    0.222    0.388   96.110
  448.500   15.591    0.231    0.398  105.908
  448.750   17.459    0.247    0.410   88.766
  449.000   18.827    0.270    0.384   78.972
  449.250   19.552    0.282    0.360   69.789
  449.500   17.468    0.279    0.358   62.444
  449.750   15.315    0.270    0.364   74.079
  450.000   13.945    0.196    0.307   76.520
  450.250   15.909    0.195    0.312   74.099
  450.500   16.519    0.217    0.335   72.284
  450.750   17.153    0.241    0.359   71.682
  451.000   17.811    0.262    0.383   68.655
  451.250   19.568    0.235    0.387   70.483
  451.500   20.705    0.214    0.377   72.309
  451.750   23.180    0.192    0.377   71.102
  452.000   25.468    0.234    0.380   63.213
  452.250   29.055    0.255    0.379   57.148
  452.500   30.169    0.269    0.360   51.688
  452.750   29.055    0.263    0.352   52.302
  453.000   15.321    0.252    0.338   58.382
  453.250   12.223    0.230    0.323   72.359
  453.500   10.515    0.191    0.312   82.081
  453.750    9.570    0.158    0.335   92.410
  454.000    9.392    0.131    0.354   97.276
  454.250   10.714    0.156    0.362   92.424
  454.500   12.934    0.193    0.368   79.071
  454.750   16.519    0.230    0.357   66.323
  455.000   22.324    0.241    0.360   56.008
  455.250   26.948    0.255    0.366   50.547
  455.500   34.418    0.267    0.378   48.732
  455.750   38.533    0.282    0.382   46.310
  456.000   41.546    0.294    0.388   43.281
  456.250   42.335    0.283    0.394   44.501
  456.500   36.417    0.278    0.388   50.581
  456.750   29.607    0.291    0.395   44.516
  457.000   19.203    0.299    0.376   40.269
  457.250   13.685    0.245    0.329   39.669
  457.500   11.126    0.187    0.318   77.936
  457.750    9.570    0.156    0.328   91.910
  458.000    9.217    0.140    0.360  101.027
  458.250    9.217    0.154    0.393  101.033
  458.500    9.045    0.165    0.395   87.682
  458.750    9.045    0.182    0.378   79.186
  459.000    9.217    0.203    0.357   73.725
  459.250    9.045    0.191    0.367   88.309
  459.500    9.217    0.163    0.378   94.389
  459.750    9.217    0.176    0.399   97.429
  460.000    9.752    0.181    0.395   88.936
  460.250    9.937    0.167    0.388   85.905
  460.500   10.319    0.153    0.382   84.090
  460.750   10.515    0.162    0.373   84.703
  461.000   11.126    0.185    0.378   85.925
  461.250   11.337    0.195    0.384   81.682
  461.500   11.772    0.203    0.379   79.257
  461.750   12.692    0.190    0.373   85.339
  462.000   12.934    0.206    0.391   81.095
  462.250   13.945    0.228    0.391   76.243
  462.500   14.210    0.247    0.380   76.249
  462.750   14.755    0.216    0.368   78.685
  463.000   15.612    0.218    0.370   77.476
  463.250   16.833    0.240    0.404   73.839
  463.500   17.479    0.247    0.387   72.024
  463.750   18.494    0.251    0.374   76.283
  464.000   18.494    0.244    0.385   75.682
  464.250   16.833    0.255    0.395   72.652
  464.500   14.480    0.261    0.368   86.018
  464.750   12.934    0.187    0.352  118.212
  465.000   11.337    0.170    0.359  131.579
  465.250   10.319    0.175    0.370  141.910
  465.500    9.937    0.181    0.365  143.131
  465.750    9.752    0.174    0.356  140.709
  466.000    9.752    0.167    0.350  137.072
  466.250    9.752    0.186    0.346  144.973
  466.500    9.937    0.195    0.348  138.302
  466.750   10.126    0.211    0.350  140.735
  467.000   10.515    0.189    0.348  146.816
  467.250   10.714    0.175    0.346  146.217
