~VERSION INFORMATION
 VERS.                 2.0:   CWLS LOG ASCII STANDARD -VERSION 2.0
 WRAP.                  NO:   ONE LINE PER DEPTH STEP
~WELL INFORMATION BLOCK
#MNEM.UNIT           DATA                    DESCRIPTION OF MNEMONIC
#---------    -------------------            -------------------------------
# Generated from Intellog Unique Number	CC_80_83/WELL/2357
NULL.         -999.25                        : NULL_VALUE
WELL.         PEX HOUSE                      : Well_name    - WELL
LOC .         10-18-080-16W4                 : Location     - LOCATION          
UWI .         00/10-18-080-16W4/0            : Uwi          - UNIQUE WELL ID    
ENTR.         DW                             : Entered      - ENTERED BY        
SRVC.         SCHLUMBERGER                   : Scn          - SERVICE COMPANY   
DATE.         30 JAN 82                      : Date         - LOG DATE
STRT.M        145                            : top_depth    - START DEPTH       
STOP.M        369.996                        : bot_depth    - STOP DEPTH        
STEP.M        0.3                            : increment    - STEP LENGTH       
~CURVE INFORMATION BLOCK
#MNEM UNIT       ERCB CURVE CODE    CURVE DESCRIPTION
#-----------   ------------------   ----------------------------------
DEPT.M        00 001 00 00         : DEPTH        - DEPTH                       
DPHI.V/V      00 890 00 00         : PHID         - DENSITY POROSITY (LIMESTONE)
NPHI.V/V      00 330 00 00         : PHIN         - NEUTRON POROSITY (LIMESTONE)
GR  .API      00 310 00 00         : GR           - GAMMA RAY                   
ILD .OHMM     00 120 00 00         : RESD         - DEEP RESISTIVITY (DIL)      
~PARAMETER INFORMATION       
#MNEM.UNIT           DATA             DESCRIPTION OF MNEMONIC
#---------         -----------     ------------------------------
GL  .M        556                  : gl           - GROUND LEVEL ELEVATION      
EREF.M        559.8                : kb           - ELEVATION OF DEPTH REFERENCE
DATM.M        559.8                : datum        - DATUM ELEVATION             
TDD .M        370                  : tdd          - TOTAL DEPTH DRILLER         
RUN .         ONE                  : Run          - RUN NUMBER                  
ENG .         BILL                 : Engineer     - RECORDING ENGINEER          
WIT .         JIM                  : Witness      - WITNESSED BY                
MUD .         GEL                  : Mud_type     - MUD TYPE                    
MATR.         LIMESTONE            : Logunit      - NEUTRON MATRIX              
TMAX.C        18.3                 : BHT          - MAXIMUM RECORDED TEMPERATURE
BHTD.M        370                  : BHTDEP       - MAXIMUM RECORDED TEMPERATURE
MATR.         1                    : LOGUNIT      - NEUTRON MATRIX              
RMT .C        25                   : MDTP         - TEMPERATURE OF MUD          
NEUT.         1                    : NEUTRON      - NEUTRON TYPE                
RESI.         0                    : RESIST       - RESISTIVITY TYPE            
RMC .OHMM     0.25                 : RMC          - RESISTIVITY OF MUD CAKE     
RMF .OHMM     0.25                 : RMF          - RESISTIVITY OF MUD FILTRATE 
SUFT.C        15                   : SUFT         - SURFACE TEMPERATURE         
~A  DEPTH     PHID     PHIN       GR     RESD
  145.000    0.268    0.530   93.703    2.967
  145.300    0.257    0.534   93.065    3.025
  145.600    0.251    0.538   91.180    3.083
  145.900    0.267    0.536   94.291    3.265
  146.200    0.263    0.523   98.027    3.392
  146.500    0.246    0.512   99.890    3.457
  146.800    0.241    0.509  101.125    3.524
  147.100    0.247    0.519  100.488    3.592
  147.400    0.232    0.556  100.481    3.524
  147.700    0.227    0.540   97.343    3.524
  148.000    0.248    0.518   97.332    3.524
  148.300    0.265    0.505   99.819    3.524
  148.600    0.257    0.537  100.432    3.662
  148.900    0.249    0.530   99.796    3.732
  149.200    0.241    0.518  101.659    3.878
  149.500    0.230    0.525  104.145    3.878
  149.800    0.240    0.552  101.635    3.733
  150.100    0.225    0.528   99.747    3.525
  150.400    0.240    0.508  100.363    3.393
  150.700    0.247    0.539  104.099    3.266
  151.000    0.221    0.563  101.589    3.393
  151.300    0.240    0.479   95.330    3.593
  151.600    0.266    0.497   92.195    3.733
  151.900    0.252    0.506  100.927    3.733
  152.200    0.241    0.509   93.420    3.663
  152.500    0.239    0.526   87.162    3.594
  152.800    0.245    0.496   89.648    3.526
  153.100    0.249    0.511   97.758    3.526
  153.400    0.249    0.539   99.621    4.187
  153.700    0.251    0.523   87.739    5.264
  154.000    0.269    0.438   85.228    7.144
  154.300    0.286    0.448   85.841    8.011
  154.600    0.302    0.448   79.583    9.332
  154.900    0.327    0.382   73.323   12.665
  155.200    0.316    0.362   72.062   14.201
  155.500    0.300    0.380   79.547   14.476
  155.800    0.310    0.412   83.283   13.934
  156.100    0.303    0.421   85.145   12.910
  156.400    0.280    0.411   90.132   11.962
  156.700    0.240    0.426   96.368   11.083
  157.000    0.239    0.420   97.606    8.815
  157.300    0.230    0.420   93.218    6.621
  157.600    0.229    0.461   87.587    5.793
  157.900    0.268    0.496   76.955    5.905
  158.200    0.308    0.432   64.449    6.496
  158.500    0.284    0.426   61.313    6.374
  158.800    0.255    0.459   73.796    5.368
  159.100    0.267    0.490   96.270    4.189
  159.400    0.217    0.507   96.886    3.396
  159.700    0.223    0.519   99.370    3.207
  160.000    0.269    0.544  100.610    3.029
  160.300    0.254    0.547   98.724    3.332
  160.600    0.247    0.524   90.592    4.190
  160.900    0.288    0.413   64.343    7.427
  161.200    0.304    0.404   61.209    8.819
  161.500    0.315    0.424   67.444    9.338
  161.800    0.323    0.436   61.810   10.673
  162.100    0.305    0.420   49.303   12.673
  162.400    0.140    0.414   51.166   15.048
  162.700    0.143    0.352   57.399   15.935
  163.000    0.228    0.393   61.137   15.049
  163.300    0.257    0.425   66.749   13.680
  163.600    0.241    0.448   72.983   11.970
  163.900    0.259    0.441   77.345   10.881
  164.200    0.249    0.427   80.455    9.521
  164.500    0.237    0.447   84.818    9.164
  164.800    0.249    0.465   89.801    7.867
  165.100    0.230    0.480   92.285    7.016
  165.400    0.226    0.480   92.278    6.884
  165.700    0.256    0.463   83.521    8.331
  166.000    0.327    0.404   62.893   15.053
  166.300    0.321    0.403   59.133   18.570
  166.600    0.232    0.417   55.373   20.823
  166.900    0.124    0.357   53.489   21.225
  167.200    0.215    0.396   69.094   17.538
  167.500    0.263    0.417   78.453   11.748
  167.800    0.226    0.386   88.436    9.344
  168.100    0.225    0.426   94.045    7.432
  168.400    0.238    0.446   95.281    6.886
  168.700    0.260    0.453   93.398    7.432
  169.000    0.291    0.452   83.391    9.345
  169.300    0.311    0.431   76.508   12.926
  169.600    0.300    0.416   80.868   14.774
  169.900    0.273    0.427   91.475   15.059
  170.200    0.269    0.438   92.714   14.775
  170.500    0.271    0.438   86.453   14.496
  170.800    0.297    0.423   84.565   14.496
  171.100    0.297    0.421   84.555   14.776
  171.400    0.289    0.431   85.796   15.061
  171.700    0.294    0.456   85.159   15.061
  172.000    0.292    0.451   88.271   14.498
  172.300    0.264    0.418   87.010   13.433
  172.600    0.277    0.423   72.631   12.930
  172.900    0.305    0.398   48.880   13.956
  173.200    0.290    0.372   36.375   14.225
  173.500    0.295    0.368   38.238   14.226
  173.800    0.259    0.401   63.837   13.694
  174.100    0.271    0.405   58.829   12.932
  174.400    0.297    0.387   57.567   12.213
  174.700    0.224    0.380   70.674   11.756
  175.000    0.216    0.377   81.903   11.102
  175.300    0.221    0.395   80.019   10.687
  175.600    0.219    0.422   78.135   11.103
  175.900    0.230    0.415   79.372   11.757
  176.200    0.260    0.380   79.985   11.758
  176.500    0.250    0.371   78.721   10.688
  176.800    0.222    0.384   89.331    8.028
  177.100    0.165    0.492   95.568    5.916
  177.400    0.187    0.507  101.803    5.078
  177.700    0.194    0.517  107.414    4.705
  178.000    0.173    0.547   99.280    4.529
  178.300    0.214    0.550  103.642    4.277
  178.600    0.233    0.503  111.750    4.117
  178.900    0.190    0.518  109.240    4.197
  179.200    0.188    0.526  102.356    4.278
  179.500    0.235    0.526  109.839    4.197
  179.800    0.254    0.552  113.575    3.535
  180.100    0.265    0.597  116.062    3.468
  180.400    0.248    0.593  115.428    4.118
  180.700    0.212    0.496  101.673    5.483
  181.000    0.245    0.446   94.164    7.730
  181.300    0.274    0.420   92.279    9.536
  181.600    0.258    0.431  100.387    9.536
  181.900    0.244    0.433  102.874    9.006
  182.200    0.242    0.423  102.240    8.669
  182.500    0.218    0.419   99.729    8.669
  182.800    0.224    0.420   97.217    8.506
  183.100    0.182    0.451  103.452    8.187
  183.400    0.187    0.490  109.688    7.028
  183.700    0.231    0.488  109.050    7.586
  184.000    0.266    0.458   96.546    8.670
  184.300    0.282    0.413   94.034   10.493
  184.600    0.306    0.445   94.023   11.767
  184.900    0.311    0.449   95.261   12.460
  185.200    0.279    0.450   92.751   12.701
  185.500    0.287    0.476   95.237   12.225
  185.800    0.286    0.467   98.349   11.113
  186.100    0.282    0.412   99.587   10.903
  186.400    0.319    0.428  100.824   12.226
  186.700    0.321    0.435   99.563   13.197
  187.000    0.270    0.418   97.053   12.947
  187.300    0.275    0.424   89.545   12.703
  187.600    0.297    0.430   75.789   12.948
  187.900    0.307    0.424   72.030   13.198
  188.200    0.312    0.412   66.395   13.453
  188.500    0.313    0.419   61.387   14.246
  188.800    0.316    0.441   58.877   15.085
  189.100    0.326    0.452   60.738   15.673
  189.400    0.322    0.419   63.226   15.975
  189.700    0.301    0.417   64.462   15.674
  190.000    0.263    0.408   62.577   15.378
  190.300    0.278    0.404   59.440   14.523
  190.600    0.290    0.431   58.806   13.979
  190.900    0.254    0.461   58.792   13.980
  191.200    0.282    0.448   60.657   13.716
  191.500    0.321    0.439   64.391   13.203
  191.800    0.327    0.441   66.880   12.468
  192.100    0.295    0.434   69.365   10.501
  192.400    0.269    0.433   71.852    9.365
  192.700    0.276    0.439   75.591    9.189
  193.000    0.270    0.430   80.576    9.015
  193.300    0.260    0.407   83.061    9.189
  193.600    0.276    0.398   79.926    9.189
  193.900    0.280    0.400   78.665    9.190
  194.201    0.271    0.403   80.528    9.190
  194.501    0.261    0.410   82.388    9.190
  194.801    0.234    0.423   82.379    8.846
  195.101    0.246    0.447   84.240    8.354
  195.401    0.241    0.450   83.604    7.890
  195.701    0.246    0.460   82.969    7.741
  196.001    0.245    0.483   87.331    7.310
  196.301    0.233    0.482   92.316    7.451
  196.601    0.254    0.430   86.058    7.891
  196.901    0.269    0.412   76.674    8.517
