~VERSION INFORMATION
 VERS.                 2.0:   CWLS LOG ASCII STANDARD -VERSION 2.0
 WRAP.                  NO:   ONE LINE PER DEPTH STEP
~WELL INFORMATION BLOCK
#MNEM.UNIT           DATA                    DESCRIPTION OF MNEMONIC
#---------    -------------------            -------------------------------
# Generated from Intellog Unique Number	CS_71_72/WELL/903
WELL.         BVX HOL UNIGAS NIXON           : Well_name    - WELL
LOC .         00/11-24-072-15W4/0            : Location     - LOCATION
UWI .         00/11-24-072-15W4/0            : Uwi          - UNIQUE WELL ID
ENTR.         SP                             : Entered      - ENTERED BY
SRVC.         SCHLUMBERGER                   : Scn          - SERVICE COMPANY
STRT.M        274.32                         : top_depth    - START DEPTH
STOP.M        469.82                         : bot_depth    - STOP DEPTH
STEP.M        0.25                           : increment    - STEP LENGTH
 NULL. -999.2500:NULL Value
~CURVE INFORMATION BLOCK
#MNEM UNIT       ERCB CURVE CODE    CURVE DESCRIPTION
#-----------   ------------------   ----------------------------------
DEPT.M        00 001 00 00         : DEPTH        - DEPTH
GR  .API      00 310 00 00         : GR           - GAMMA RAY
DPHI.V/V      00 890 00 00         : PHID         - DENSITY POROSITY (SANDSTONE)
NPHI.V/V      00 330 00 00         : PHIN         - NEUTRON POROSITY (SANDSTONE)
ILD .OHMM     00 120 00 00         : RESD         - DEEP RESISTIVITY (DIL)
~PARAMETER INFORMATION
#MNEM.UNIT           DATA             DESCRIPTION OF MNEMONIC
#---------         -----------     ------------------------------
GL  .M        601.98               : gl           - GROUND LEVEL ELEVATION
EREF.M        605.028              : kb           - ELEVATION OF DEPTH REFERENCE
DATM.M        601.98               : datum        - DATUM ELEVATION
TDD .M        472.745              : tdd          - TOTAL DEPTH DRILLER
RUN .         ONE                  : Run          - RUN NUMBER
ENG .         BILL                 : Engineer     - RECORDING ENGINEER
WIT .         JIM                  : Witness      - WITNESSED BY
MUD .         GEL                  : Mud_type     - MUD TYPE
MATR.         SANDSTONE            : Logunit      - NEUTRON MATRIX
TMAX.C        20.5556              : BHT          - MAXIMUM RECORDED TEMPERATURE
BHTD.M        472.745              : BHTDEP       - MAXIMUM RECORDED TEMPERATURE
MATR.         1                    : LOGUNIT      - NEUTRON MATRIX
RMT .C        25                   : MDTP         - TEMPERATURE OF MUD
NEUT.         1                    : NEUTRON      - NEUTRON TYPE
RESI.         0                    : RESIST       - RESISTIVITY TYPE
RMC .OHMM     0.25                 : RMC          - RESISTIVITY OF MUD CAKE
RMF .OHMM     0.25                 : RMF          - RESISTIVITY OF MUD FILTRATE
SUFT.C        15                   : SUFT         - SURFACE TEMPERATURE
~A  DEPTH       GR     PHID     PHIN     RESD
# ...
  317.820   98.574    0.280    0.445    6.613
  318.070  100.462    0.284    0.473    6.829
  318.320  103.867    0.294    0.490    6.844
  318.570  106.137    0.307    0.484    6.676
  318.820  107.480    0.299    0.469    6.368
  319.070  108.342    0.293    0.459    5.900
  319.320  107.697    0.311    0.476    5.472
  319.570  106.307    0.322    0.511    5.150
  319.820  105.332    0.330    0.547    4.886
  320.070  105.146    0.344    0.576    4.873
  320.320  105.166    0.346    0.553    5.033
  320.570  103.946    0.331    0.552    5.194
  320.820  102.574    0.322    0.569    5.233
  321.070   99.530    0.326    0.554    4.924
  321.320   94.499    0.351    0.546    4.663
  321.570   91.538    0.394    0.581    4.630
  321.820   94.140    0.431    0.593    4.894
  322.070   92.419    0.395    0.542    5.205
  322.320   92.075    0.317    0.497    5.467
  322.570   93.012    0.307    0.467    5.693
  322.820   94.808    0.313    0.469    6.044
  323.070   96.144    0.319    0.489    6.237
  323.320   98.848    0.310    0.513    6.307
  323.570   99.247    0.295    0.515    6.371
  323.820   98.980    0.287    0.502    6.368
  324.070   95.801    0.281    0.485    6.517
  324.320   91.967    0.279    0.476    6.511
  324.570   90.356    0.293    0.487    6.502
  324.820   85.223    0.302    0.501    6.641
  325.070   81.448    0.306    0.509    6.898
  325.320   78.613    0.300    0.502    7.103
  325.570   80.163    0.277    0.480    7.526
  325.820   85.408    0.227    0.491    7.740
  326.070   89.458    0.281    0.514    7.362
  326.320   91.451    0.305    0.505    7.150
  326.570   93.883    0.307    0.510    6.732
  326.820   95.569    0.292    0.521    6.337
  327.070   95.760    0.357    0.540    6.107
  327.320   95.802    0.392    0.544    5.934
  327.570   94.669    0.371    0.548    5.804
  327.820   90.341    0.342    0.536    5.703
  328.070   86.178    0.320    0.520    5.714
  328.320   82.696    0.320    0.489    5.740
  328.570   80.945    0.344    0.468    5.933
  328.820   79.322    0.338    0.491    6.257
  329.070   78.408    0.330    0.503    6.522
  329.320   77.797    0.326    0.504    6.526
  329.570   82.280    0.325    0.509    6.532
  329.820   86.114    0.325    0.497    6.537
  330.070   89.565    0.320    0.486    6.552
  330.320   91.213    0.315    0.498    6.378
  330.570   90.451    0.306    0.511    6.198
  330.820   90.887    0.296    0.500    6.040
  331.070   91.737    0.296    0.502    5.587
  331.320   91.691    0.309    0.543    5.280
  331.570   90.945    0.328    0.582    5.033
  331.820   89.745    0.340    0.564    4.916
  332.070   89.297    0.323    0.528    5.283
  332.320   90.117    0.312    0.498    5.495
  332.570   88.742    0.324    0.505    6.000
  332.820   89.368    0.329    0.492    6.370
  333.070   91.063    0.335    0.499    6.563
  333.320   93.623    0.349    0.509    6.761
  333.570   93.705    0.359    0.522    6.851
  333.820   92.711    0.331    0.510    7.030
  334.070   91.058    0.304    0.495    7.026
  334.320   87.639    0.295    0.486    6.808
  334.570   82.178    0.295    0.497    6.755
  334.820   76.972    0.316    0.505    6.675
  335.070   71.402    0.326    0.515    6.471
  335.320   66.418    0.337    0.509    6.425
  335.570   63.924    0.352    0.495    6.343
  335.820   67.079    0.362    0.491    6.216
  336.070   68.567    0.358    0.501    6.232
  336.320   69.751    0.356    0.508    6.340
  336.570   68.852    0.354    0.514    6.350
  336.820   68.612    0.354    0.510    6.494
  337.070   70.438    0.354    0.495    6.493
  337.320   73.254    0.351    0.477    6.508
  337.570   75.169    0.345    0.466    6.389
  337.820   77.593    0.337    0.491    6.210
  338.070   78.952    0.331    0.510    6.059
  338.320   77.805    0.325    0.527    5.961
  338.570   69.594    0.328    0.545    5.891
  338.820   63.565    0.350    0.513    5.981
  339.070   58.121    0.365    0.493    5.978
  339.320   56.904    0.375    0.480    6.041
  339.570   58.045    0.371    0.490    6.111
  339.820   59.942    0.356    0.498    6.203
  340.070   62.506    0.349    0.513    6.522
  340.320   64.502    0.339    0.516    6.711
  340.570   64.502    0.337    0.484    6.932
  340.820   64.476    0.337    0.512    6.961
  341.070   65.098    0.342    0.536    6.979
  341.320   66.078    0.354    0.546    6.645
  341.570   67.058    0.362    0.529    6.471
  341.820   68.047    0.368    0.518    6.175
  342.070   69.078    0.362    0.514    5.981
  342.320   69.321    0.357    0.511    5.936
  342.570   68.768    0.357    0.510    5.749
  342.820   68.017    0.358    0.507    5.748
  343.070   65.649    0.360    0.503    5.757
  343.320   63.582    0.361    0.503    5.863
  343.570   63.381    0.356    0.503    6.063
  343.820   63.370    0.343    0.485    6.323
  344.070   61.827    0.280    0.474    6.579
  344.320   59.029    0.162    0.462    7.125
  344.570   53.970    0.103    0.438    7.458
  344.820   55.955    0.101    0.366    7.854
  345.070   59.634    0.192    0.435    8.085
  345.320   64.440    0.312    0.453    7.824
  345.570   68.996    0.357    0.471    7.305
  345.820   71.309    0.345    0.485    6.825
  346.070   73.764    0.332    0.494    6.419
  346.320   73.974    0.322    0.504    6.170
  346.570   77.317    0.309    0.497    6.053
  346.820   84.162    0.291    0.488    6.043
  347.070   89.660    0.276    0.484    6.180
  347.320   92.604    0.278    0.480    6.296
  347.570   93.808    0.283    0.491    6.301
  347.820   94.376    0.289    0.507    6.309
  348.070   93.284    0.300    0.520    6.315
  348.320   90.253    0.306    0.507    6.325
  348.570   85.233    0.310    0.501    6.332
  348.820   82.316    0.304    0.500    6.244
  349.070   81.861    0.296    0.494    6.060
  349.320   83.201    0.296    0.486    5.879
  349.570   84.168    0.308    0.480    5.608
  349.820   84.794    0.332    0.497    5.417
  350.070   83.722    0.380    0.519    5.202
  350.320   82.210    0.387    0.543    5.111
  350.570   80.726    0.373    0.542    5.121
  350.820   80.203    0.356    0.536    5.129
  351.070   80.789    0.352    0.529    5.191
  351.320   81.359    0.336    0.533    5.236
  351.570   80.721    0.336    0.528    5.150
  351.820   85.829    0.336    0.549    5.070
  352.070   89.476    0.349    0.594    4.765
  352.320   93.687    0.372    0.607    4.429
  352.570   94.404    0.382    0.582    4.076
  352.820   92.678    0.346    0.566    3.850
  353.070   91.376    0.328    0.562    3.908
  353.320   88.465    0.322    0.571    4.021
  353.570   85.614    0.331    0.586    4.319
  353.820   76.833    0.340    0.591    4.472
  354.070   70.194    0.350    0.550    4.670
  354.320   63.309    0.359    0.514    4.906
  354.570   59.655    0.367    0.512    5.175
  354.820   56.877    0.369    0.510    5.344
  355.070   55.962    0.371    0.523    5.602
  355.320   56.086    0.372    0.531    5.794
  355.570   57.788    0.364    0.531    5.725
  355.820   58.724    0.360    0.512    5.656
  356.070   59.694    0.358    0.502    5.642
  356.320   60.671    0.358    0.491    5.645
  356.570   59.908    0.357    0.481    5.573
  356.820   61.407    0.357    0.486    5.524
  357.070   60.747    0.356    0.495    5.459
  357.320   58.879    0.353    0.499    5.366
  357.570   57.467    0.350    0.493    5.263
  357.820   57.571    0.350    0.493    5.279
  358.070   60.068    0.348    0.496    5.283
  358.320   63.309    0.349    0.499    5.287
  358.570   64.644    0.348    0.490    5.294
  358.820   65.490    0.345    0.489    5.308
  359.070   66.183    0.337    0.521    5.205
  359.320   70.165    0.338    0.532    5.144
  359.570   72.769    0.343    0.518    5.129
  359.820   76.833    0.351    0.514    5.129
  360.070   79.399    0.358    0.511    5.070
  360.320   81.251    0.369    0.512    5.031
  360.570   81.603    0.393    0.536    4.876
  360.820   81.605    0.416    0.561    4.695
  361.070   82.639    0.442    0.594    4.419
