~VERSION INFORMATION
 VERS.                 2.0:   CWLS LOG ASCII STANDARD -VERSION 2.0
 WRAP.                  NO:   ONE LINE PER DEPTH STEP
~WELL INFORMATION BLOCK
#MNEM.UNIT           DATA                    DESCRIPTION OF MNEMONIC
#---------    -------------------            -------------------------------
# Generated from Intellog Unique Number	CS_67_68/WELL/838
WELL.         FISHER CREEK                   : Well_name    - WELL
LOC .         00/11-16-068-05W4/0            : Location     - LOCATION
UWI .         00/11-16-068-05W4/0            : Uwi          - UNIQUE WELL ID
ENTR.         SP                             : Entered      - ENTERED BY
SRVC.         SCHLUMBERGER                   : Scn          - SERVICE COMPANY
STRT.M        335                            : top_depth    - START DEPTH
STOP.M        555                            : bot_depth    - STOP DEPTH
STEP.M        0.25                           : increment    - STEP LENGTH
 NULL. -999.2500:NULL Value
~CURVE INFORMATION BLOCK
#MNEM UNIT       ERCB CURVE CODE    CURVE DESCRIPTION
#-----------   ------------------   ----------------------------------
DEPT.M        00 001 00 00         : DEPTH        - DEPTH
ILD .OHMM     00 120 00 00         : RESD         - DEEP RESISTIVITY (DIL)
DPHI.V/V      00 890 00 00         : PHID         - DENSITY POROSITY (LIMESTONE)
NPHI.V/V      00 330 00 00         : PHIN         - NEUTRON POROSITY (LIMESTONE)
GR  .API      00 310 00 00         : GR           - GAMMA RAY
~PARAMETER INFORMATION
#MNEM.UNIT           DATA             DESCRIPTION OF MNEMONIC
#---------         -----------     ------------------------------
GL  .M        683.92               : gl           - GROUND LEVEL ELEVATION
EREF.M        687.58               : kb           - ELEVATION OF DEPTH REFERENCE
DATM.M        683.92               : datum        - DATUM ELEVATION
TDD .M        568                  : tdd          - TOTAL DEPTH DRILLER
RUN .         ONE                  : Run          - RUN NUMBER
ENG .         BILL                 : Engineer     - RECORDING ENGINEER
WIT .         JIM                  : Witness      - WITNESSED BY
MUD .         GEL                  : Mud_type     - MUD TYPE
MATR.         LIMESTONE            : Logunit      - NEUTRON MATRIX
TMAX.C        24                   : BHT          - MAXIMUM RECORDED TEMPERATURE
BHTD.M        568                  : BHTDEP       - MAXIMUM RECORDED TEMPERATURE
MATR.         1                    : LOGUNIT      - NEUTRON MATRIX
RMT .C        25                   : MDTP         - TEMPERATURE OF MUD
NEUT.         1                    : NEUTRON      - NEUTRON TYPE
RESI.         0                    : RESIST       - RESISTIVITY TYPE
RMC .OHMM     0.25                 : RMC          - RESISTIVITY OF MUD CAKE
RMF .OHMM     0.25                 : RMF          - RESISTIVITY OF MUD FILTRATE
SUFT.C        15                   : SUFT         - SURFACE TEMPERATURE
~A  DEPTH     RESD     PHID     PHIN       GR
  335.000    3.066    0.264    0.547   86.606
  335.250    3.160    0.249    0.531   82.789
  335.500    3.301    0.225    0.534   78.184
  335.750    3.358    0.203    0.518   75.518
  336.000    3.442    0.212    0.503   77.337
  336.250    3.502    0.234    0.496   78.974
  336.500    3.569    0.253    0.490   81.218
  336.750    3.597    0.244    0.483   83.097
  337.000    3.639    0.244    0.495   84.492
  337.250    3.620    0.259    0.521   84.796
  337.500    3.573    0.263    0.541   85.403
  337.750    3.501    0.256    0.556   87.949
  338.000    3.411    0.252    0.566   88.981
  338.250    3.305    0.256    0.568   89.769
  338.500    3.166    0.262    0.548   93.346
  338.750    3.149    0.262    0.542   91.044
  339.000    3.209    0.261    0.529   82.014
  339.250    3.352    0.256    0.506   76.379
  339.500    3.468    0.247    0.489   93.107
  339.750    3.575    0.248    0.497  106.259
  340.000    3.644    0.259    0.499  114.018
  340.250    3.666    0.257    0.497  104.685
  340.500    3.687    0.261    0.504   90.323
  340.750    3.633    0.264    0.518   81.899
  341.000    3.513    0.266    0.531   80.931
  341.250    3.385    0.259    0.540   80.386
  341.500    3.273    0.254    0.546   78.205
  341.750    3.225    0.269    0.542   78.448
  342.000    3.244    0.255    0.363   84.146
  342.250    3.531    0.123    0.330   71.178
  342.500    4.239    0.238    0.329   64.451
  342.750    5.234    0.301    0.336   54.755
  343.000    6.247    0.333    0.329   57.665
  343.250    8.651    0.352    0.316   59.121
  343.500    9.017    0.361    0.320   60.636
  343.750   10.425    0.342    0.356   62.819
  344.000   10.888    0.312    0.375   65.729
  344.250   10.490    0.270    0.391   66.336
  344.500    9.973    0.278    0.404   66.398
  344.750    8.713    0.282    0.412   64.035
  345.000    7.684    0.277    0.430   59.127
  345.250    6.931    0.303    0.446   55.916
  345.500    6.553    0.327    0.414   54.522
  345.750    6.373    0.338    0.407   54.402
  346.000    6.291    0.338    0.413   53.918
  346.250    6.269    0.342    0.423   52.162
  346.500    6.259    0.265    0.432   50.768
  346.750    6.343    0.097    0.406   57.557
  347.000    6.515    0.124    0.371   63.558
  347.250    6.628    0.206    0.377   67.074
  347.500    6.604    0.268    0.405   70.105
  347.750    6.532    0.299    0.418   72.167
  348.000    6.436    0.313    0.419   72.653
  348.250    6.390    0.298    0.432   73.926
  348.500    6.356    0.292    0.444   75.745
  348.750    6.345    0.298    0.454   78.049
  349.000    6.407    0.301    0.457   80.656
  349.250    6.531    0.296    0.455   83.566
  349.500    6.594    0.303    0.450   83.688
  349.750    6.535    0.319    0.450   80.659
  350.000    6.450    0.321    0.454   81.811
  350.250    6.226    0.291    0.459   83.630
  350.500    6.100    0.277    0.456   83.995
  350.750    6.136    0.262    0.453   82.481
  351.000    6.255    0.240    0.461   81.209
  351.250    6.412    0.220    0.471   82.179
  351.500    6.497    0.219    0.475   79.817
  351.750    6.685    0.237    0.438   76.484
  352.000    6.814    0.257    0.415   75.940
  352.250    6.958    0.246    0.425   76.971
  352.500    7.039    0.246    0.425   77.032
  352.750    7.134    0.269    0.410   76.973
  353.000    7.204    0.286    0.433   79.883
  353.250    7.246    0.297    0.449   85.096
  353.500    7.262    0.288    0.459   91.884
  353.750    7.264    0.269    0.455   99.885
  354.000    7.064    0.253    0.474   96.492
  354.250    6.218    0.241    0.504   93.523
  354.500    5.535    0.243    0.527   94.918
  354.750    5.021    0.247    0.546   90.616
  355.000    4.694    0.215    0.537   84.435
  355.250    4.573    0.240    0.524   79.769
  355.500    4.549    0.291    0.546   74.437
  355.750    4.671    0.324    0.518   69.711
  356.000    4.935    0.325    0.467   64.499
  356.250    5.311    0.310    0.481   68.500
  356.500    5.782    0.299    0.489   70.259
  356.750    5.960    0.293    0.463   70.745
  357.000    6.098    0.289    0.451   64.503
  357.250    6.157    0.327    0.464   56.928
  357.500    6.182    0.358    0.463   52.626
  357.750    6.126    0.374    0.457   51.960
  358.000    6.058    0.381    0.477   51.173
  358.250    5.925    0.382    0.495   49.902
  358.500    5.805    0.382    0.509   48.630
  358.750    5.667    0.379    0.501   47.237
  359.000    5.542    0.381    0.489   45.965
  359.250    5.471    0.386    0.495   45.481
  359.500    5.381    0.382    0.509   44.815
  359.750    5.312    0.378    0.503   44.331
  360.000    5.225    0.380    0.480   43.483
  360.250    5.225    0.384    0.459   42.393
  360.500    5.217    0.385    0.442   42.212
  360.750    5.239    0.382    0.443   43.122
  361.000    5.260    0.382    0.437   44.639
  361.250    5.271    0.384    0.429   45.548
  361.500    5.302    0.377    0.454   44.459
  361.750    5.333    0.377    0.465   46.884
  362.000    5.375    0.385    0.444   53.491
  362.250    5.417    0.385    0.443   58.825
  362.500    5.532    0.366    0.453   63.795
  362.750    5.638    0.355    0.445   66.887
  363.000    5.812    0.355    0.437   68.646
  363.250    5.935    0.360    0.445   70.162
  363.500    6.038    0.343    0.462   69.496
  363.750    6.143    0.324    0.466   68.891
  364.000    6.249    0.307    0.452   70.528
  364.250    6.370    0.299    0.457   68.650
  364.500    6.419    0.307    0.456   60.530
  364.750    6.543    0.313    0.438   54.167
  365.000    6.694    0.311    0.414   53.804
  365.250    6.797    0.302    0.432   62.169
  365.500    6.877    0.296    0.460   66.958
  365.750    6.878    0.290    0.461   68.534
  366.000    6.828    0.286    0.428   67.929
  366.250    6.703    0.296    0.412   64.354
  366.500    6.630    0.311    0.435   62.173
  366.750    6.570    0.332    0.453   60.659
  367.000    6.547    0.343    0.460   58.721
  367.250    6.524    0.347    0.467   57.328
  367.500    6.513    0.342    0.470   57.207
  367.750    6.455    0.337    0.461   58.602
  368.000    6.444    0.333    0.450   59.148
  368.250    6.421    0.326    0.459   58.907
  368.500    6.435    0.310    0.465   63.999
  368.750    6.449    0.282    0.463   67.091
  369.000    6.488    0.274    0.485   68.788
  369.250    6.502    0.284    0.503   67.638
  369.500    6.515    0.309    0.510   64.002
  369.750    6.554    0.326    0.486   62.306
  370.000    6.593    0.339    0.467   61.338
  370.250    6.632    0.337    0.454   60.611
  370.500    6.735    0.330    0.450   59.157
  370.750    6.774    0.322    0.471   64.249
  371.000    6.840    0.310    0.486   66.553
  371.250    6.868    0.305    0.497   63.948
  371.500    6.922    0.318    0.485   65.888
  371.750    6.949    0.324    0.479   68.919
  372.000    7.017    0.314    0.490   70.617
  372.250    7.006    0.319    0.495   67.588
  372.500    7.007    0.335    0.482   62.740
  372.750    7.010    0.346    0.472   59.044
  373.000    7.051    0.338    0.460   59.106
  373.250    7.066    0.330    0.450   59.167
  373.500    7.135    0.323    0.471   58.804
  373.750    7.204    0.323    0.496   61.290
  374.000    7.275    0.326    0.519   62.321
  374.250    7.318    0.337    0.512   61.656
  374.500    7.306    0.348    0.488   64.747
  374.750    7.226    0.344    0.471   66.748
  375.000    7.147    0.339    0.461   62.749
  375.250    7.082    0.338    0.473   59.841
  375.500    6.991    0.337    0.489   59.599
  375.750    6.953    0.330    0.501   65.237
  376.000    6.864    0.319    0.493   72.571
  376.250    6.802    0.316    0.492   77.541
  376.500    6.728    0.308    0.496   77.361
  376.750    6.667    0.287    0.502   72.937
  377.000    6.669    0.287    0.480   73.847
  377.250    6.645    0.300    0.473   77.060
  377.500    6.560    0.293    0.516   79.304
  377.750    6.488    0.279    0.527   79.062
  378.000    6.405    0.285    0.525   75.487
  378.250    6.335    0.297    0.523   74.761
