~VERSION INFORMATION
 VERS.                 2.0:   CWLS LOG ASCII STANDARD -VERSION 2.0
 WRAP.                  NO:   ONE LINE PER DEPTH STEP
~WELL INFORMATION BLOCK
#MNEM.UNIT           DATA                    DESCRIPTION OF MNEMONIC
#---------    -------------------            -------------------------------
# Generated from Intellog Unique Number	CW_82_90/WELL/3076
WELL.         PARA ET AL LIVOCK 11-16        : Well_name    - WELL
LOC .         00/11-16-085-20W4/0            : Location     - LOCATION
UWI .         00/11-16-085-20W4/0            : Uwi          - UNIQUE WELL ID
ENTR.         JAYE                           : Entered      - ENTERED BY
SRVC.         COMPUTALOG                     : Scn          - SERVICE COMPANY
DATE.         24 JAN 78                      : Date         - LOG DATE
STRT.M        198.12                         : top_depth    - START DEPTH
STOP.M        374.87                         : bot_depth    - STOP DEPTH
STEP.M        0.25                           : increment    - STEP LENGTH
 NULL. -999.2500:NULL Value
~CURVE INFORMATION BLOCK
#MNEM UNIT       ERCB CURVE CODE    CURVE DESCRIPTION
#-----------   ------------------   ----------------------------------
DEPT.M        00 001 00 00         : DEPTH        - DEPTH
ILD .OHMM     00 120 00 00         : RESD         - DEEP RESISTIVITY (DIL)
CALI.MM       00 280 01 00         : CAL          - CALIPER
GR  .API      00 310 00 00         : GR           - GAMMA RAY
NPHI.V/V      00 330 00 00         : PHIN         - NEUTRON POROSITY (SANDSTONE)
DPHI.V/V      00 890 00 00         : PHID         - DENSITY POROSITY (SANDSTONE)
COND.MMHO                          : COND         - DEEP CONDUCTIVITY (DIL)
~PARAMETER INFORMATION
#MNEM.UNIT           DATA             DESCRIPTION OF MNEMONIC
#---------         -----------     ------------------------------
GL  .M        623.621              : gl           - GROUND LEVEL ELEVATION
EREF.M        626.669              : kb           - ELEVATION OF DEPTH REFERENCE
DATM.M        623.621              : datum        - DATUM ELEVATION
TDD .M        377.952              : tdd          - TOTAL DEPTH DRILLER
RUN .         ONE                  : Run          - RUN NUMBER
ENG .         KING                 : Engineer     - RECORDING ENGINEER
MUD .         GEL CHEM SAWDUST     : Mud_type     - MUD TYPE
MATR.         SANDSTONE            : Logunit      - NEUTRON MATRIX
TMAX.C        16.1111              : BHT          - MAXIMUM RECORDED TEMPERATURE
BHTD.M        377.952              : BHTDEP       - MAXIMUM RECORDED TEMPERATURE
RMT .C        14.4444              : MDTP         - TEMPERATURE OF MUD
MUDD.KG/M     9400                 : MWT          - MUD DENSITY
NEUT.         1                    : NEUTRON      - NEUTRON TYPE
RESI.         0                    : RESIST       - RESISTIVITY TYPE
RM  .OHMM     4.35                 : RM           - RESISTIVITY OF MUD
RMC .OHMM     0                    : RMC          - RESISTIVITY OF MUD CAKE
RMF .OHMM     4.1                  : RMF          - RESISTIVITY OF MUD FILTRATE
SUFT.C        -17.7778             : SUFT         - SURFACE TEMPERATURE
~A  DEPTH     RESD      CAL       GR     PHIN     PHID     COND
# ...
  229.370   30.619  151.574   78.421    0.335    0.375   32.659
  229.620   30.578  151.828   79.740    0.424    0.382   32.703
  229.870   29.626  151.572   75.643    0.419    0.382   33.754
  230.120   28.555  150.902   77.339    0.420    0.386   35.020
  230.370   27.405  150.635   76.821    0.440    0.385   36.490
  230.620   26.226  150.488   78.694    0.452    0.384   38.131
  230.870   25.909  150.531   80.328    0.442    0.380   38.596
  231.120   26.017  150.585   74.134    0.426    0.377   38.437
  231.370   25.987  150.118   74.846    0.427    0.377   38.480
  231.620   25.561  150.169   76.971    0.418    0.375   39.122
  231.870   25.383  150.431   75.832    0.429    0.368   39.396
  232.120   24.858  150.794   69.943    0.423    0.366   40.228
  232.370   24.962  151.052   71.213    0.431    0.374   40.061
  232.620   25.172  150.907   73.889    0.410    0.373   39.726
  232.870   25.544  150.220   74.105    0.416    0.376   39.149
  233.120   26.334  150.272   73.462    0.423    0.378   37.974
  233.370   26.873  150.429   76.022    0.454    0.380   37.213
  233.620   27.439  150.804   79.070    0.446    0.382   36.444
  233.870   28.354  150.330   77.565    0.399    0.385   35.269
  234.120   28.812  149.347   76.914    0.334    0.388   34.707
  234.370   29.320  149.394   78.546    0.387    0.388   34.106
  234.620   29.080  149.860   79.258    0.419    0.388   34.388
  234.870   28.370  150.229   81.143    0.460    0.388   35.248
  235.120   27.389  150.489   83.016    0.454    0.386   36.511
  235.370   26.620  151.067   81.939    0.437    0.384   37.566
  235.620   26.310  151.639   76.979    0.425    0.378   38.008
  235.870   26.413  152.420   78.425    0.409    0.375   37.860
  236.120   26.969  152.794   79.384    0.400    0.378   37.080
  236.370   27.378  152.741   74.233    0.439    0.374   36.526
  236.620   27.815  152.477   70.751    0.441    0.368   35.952
  236.870   28.594  152.221   68.687    0.420    0.360   34.973
  237.120   29.763  152.692   65.759    0.425    0.350   33.598
  237.370   30.460  153.892   69.863    0.416    0.334   32.830
  237.620   29.498  154.254   66.745    0.384    0.320   33.900
  237.870   27.800  154.728   70.476    0.439    0.321   35.971
  238.120   26.863  153.636   74.639    0.462    0.353   37.226
  238.370   25.187  152.956   74.866    0.472    0.376   39.703
  238.620   23.469  152.798   74.948    0.468    0.373   42.609
  238.870   22.381  152.856   74.608    0.462    0.371   44.680
  239.120   22.473  154.049   68.477    0.424    0.367   44.497
  239.370   22.646  154.522   67.026    0.413    0.367   44.158
  239.620   22.831  155.101   70.386    0.457    0.359   43.799
  239.870   22.931  154.940   75.658    0.441    0.348   43.609
  240.120   22.786  153.847   77.912    0.409    0.331   43.886
  240.370   22.561  153.587   74.180    0.398    0.315   44.325
  240.620   22.854  153.842   71.994    0.397    0.269   43.755
  240.870   23.713  153.380   68.758    0.396    0.233   42.170
  241.120   23.908  151.237   69.526    0.426    0.326   41.827
  241.370   23.553  150.352   72.215    0.433    0.380   42.457
  241.620   23.192  150.304   76.308    0.454    0.369   43.117
  241.870   22.741  150.352   73.689    0.444    0.371   43.974
  242.120   22.614  150.723   71.130    0.453    0.375   44.220
  242.370   22.381  151.083   73.691    0.461    0.380   44.682
  242.620   21.965  151.135   76.126    0.456    0.378   45.526
  242.870   21.745  150.571   77.205    0.441    0.384   45.988
  243.120   21.444  150.194   83.338    0.419    0.379   46.633
  243.370   20.703  150.254   84.541    0.413    0.381   48.301
  243.620   20.770  150.513   86.359    0.416    0.381   48.146
  243.870   20.936  149.630   84.233    0.438    0.373   47.764
  244.120   20.914  149.368   80.073    0.412    0.366   47.815
  244.370   20.982  149.111   77.087    0.420    0.363   47.660
  244.620   20.694  149.056   76.684    0.429    0.354   48.324
  244.870   20.503  149.105   74.744    0.420    0.347   48.774
  245.120   20.486  147.904   75.206    0.399    0.339   48.814
  245.370   20.383  148.801   75.115    0.365    0.330   49.061
  245.620   20.114  149.270   76.135    0.330    0.315   49.717
  245.870   19.936  151.198   76.654    0.258    0.254   50.160
  246.120   20.077  151.987   73.049    0.205    0.170   49.809
  246.370   20.821  151.304   72.104    0.013    0.113   48.028
  246.620   22.022  149.377   72.992   -0.021    0.102   45.408
  246.870   23.459  147.444   72.712   -0.045    0.156   42.628
  247.120   22.073  146.552   74.158    0.034    0.189   45.304
  247.370   18.558  144.833   77.950    0.369    0.298   53.886
  247.620   15.703  144.048   88.773    0.445    0.359   63.682
  247.870   14.750  142.540   93.365    0.436    0.370   67.796
  248.120   12.658  140.500   90.006    0.422    0.366   79.002
  248.370   10.960  136.796   90.962    0.403    0.371   91.240
  248.620    9.978  139.771   93.274    0.427    0.378  100.223
  248.870   10.642  144.213   94.849    0.475    0.373   93.967
  249.120   10.478  146.671   97.713    0.476    0.356   95.436
  249.370    9.167  148.180   94.723    0.484    0.341  109.092
  249.620    9.079  148.543   94.947    0.483    0.338  110.147
  249.870    9.606  146.717   98.361    0.459    0.348  104.105
  250.120    8.923  145.520   99.008    0.432    0.328  112.070
  250.370    7.903  150.375  104.835    0.435    0.319  126.534
  250.620    7.763  152.522  111.462    0.460    0.312  128.811
  250.870    7.860  150.703  114.143    0.457    0.319  127.223
  251.120    7.796  149.813  110.791    0.450    0.327  128.266
  251.370    7.917  149.340  105.699    0.435    0.331  126.310
  251.620    8.429  148.768  103.141    0.448    0.323  118.636
  251.870    8.398  150.169  104.533    0.461    0.318  119.070
  252.120    7.616  151.370  101.786    0.479    0.324  131.304
  252.370    6.802  151.015  103.550    0.493    0.330  147.005
  252.620    5.875  151.162  107.211    0.481    0.331  170.206
  252.870    5.231  151.840  111.007    0.464    0.343  191.173
  253.120    4.604  157.427  118.186    0.458    0.361  217.226
  253.370    4.339  168.132  114.088    0.496    0.357  230.483
  253.620    4.270  176.639   98.768    0.510    0.375  234.186
  253.870    4.475  160.929   95.408    0.457    0.371  223.450
  254.120    5.116  151.067   91.123    0.385    0.352  195.458
  254.370    6.173  143.076   82.896    0.373    0.308  161.986
  254.620    7.685  140.314   73.555    0.366    0.329  130.127
  254.870   10.072  135.876   75.990    0.352    0.333   99.288
  255.120   12.559  135.199   75.344    0.346    0.330   79.623
  255.370   14.821  137.548   74.512    0.349    0.336   67.472
  255.620   15.177  145.113   72.453    0.394    0.333   65.887
  255.870   14.892  148.514   72.418    0.407    0.326   67.150
  256.120   14.659  149.715   73.927    0.423    0.322   68.217
  256.370   14.826  149.896   80.370    0.416    0.318   67.448
  256.620   15.232  150.133   81.696    0.405    0.321   65.652
  256.870   15.708  150.498   79.694    0.374    0.342   63.661
  257.120   16.487  150.547   80.465    0.370    0.344   60.654
  257.370   17.281  150.298   79.759    0.372    0.345   57.866
  257.620   17.968  150.345   82.070    0.376    0.353   55.656
  257.870   18.280  150.708   85.243    0.387    0.357   54.703
  258.120   18.469  150.764   89.466    0.391    0.353   54.146
  258.370   18.460  150.499   90.917    0.406    0.352   54.170
  258.620   18.303  149.412   90.577    0.417    0.348   54.635
  258.870   17.029  149.038   93.135    0.438    0.346   58.722
  259.120   15.861  149.509   93.846    0.437    0.329   63.050
  259.370   13.881  150.292   95.725    0.422    0.311   72.041
  259.620   13.170  151.289   95.510    0.448    0.319   75.932
  259.870   12.183  153.320   89.992    0.449    0.312   82.081
  260.120   11.057  155.677   90.090    0.441    0.301   90.444
  260.370   11.227  156.149   89.074    0.422    0.310   89.070
