~VERSION INFORMATION
 VERS.                 2.0:   CWLS LOG ASCII STANDARD -VERSION 2.0
 WRAP.                  NO:   ONE LINE PER DEPTH STEP
~WELL INFORMATION BLOCK
#MNEM.UNIT           DATA                    DESCRIPTION OF MNEMONIC
#---------    -------------------            -------------------------------
# Generated from Intellog Unique Number	nealta/WELL/2359
WELL.         HB MARTEN HILLS 10-34          : Well_name    - WELL              
LOC .         10-34-074-01W5                 : Location     - LOCATION          
UWI .         00/10-34-074-01W5/0            : Uwi          - UNIQUE WELL ID    
ENTR.         JAYE                           : Entered      - ENTERED BY        
SRVC.         SCHLUMBERGER                   : Scn          - SERVICE COMPANY   
DATE.         27 MAR 74                      : Date         - LOG DATE          
STRT.M        454.152                        : top_depth    - START DEPTH       
STOP.M        655.402                        : bot_depth    - STOP DEPTH        
STEP.M        0.25                           : increment    - STEP LENGTH       
NULL.         -999.250                       : null         - NULL VALUE       
~CURVE INFORMATION BLOCK
#MNEM UNIT       ERCB CURVE CODE    CURVE DESCRIPTION
#-----------   ------------------   ----------------------------------
DEPT.M        00 001 00 00         : DEPTH        - DEPTH                       
DPHI.V/V      00 890 00 00         : PHID         - DENSITY POROSITY (SANDSTONE)
CALI.MM       00 280 01 00         : CAL          - CALIPER                     
GR  .API      00 310 00 00         : GR           - GAMMA RAY                   
ILD .OHMM     00 120 00 00         : RESD         - DEEP RESISTIVITY (DIL)      
NPHI.V/V      00 330 00 00         : PHIN         - NEUTRON POROSITY (SANDSTONE)
~PARAMETER INFORMATION       
#MNEM.UNIT           DATA             DESCRIPTION OF MNEMONIC
#---------         -----------     ------------------------------
GL  .M        721.766              : gl           - GROUND LEVEL ELEVATION      
EREF.M        725.119              : kb           - ELEVATION OF DEPTH REFERENCE
DATM.M        721.766              : datum        - DATUM ELEVATION             
TDD .M        685.8                : tdd          - TOTAL DEPTH DRILLER         
RUN .         ONE                  : Run          - RUN NUMBER                  
ENG .         SIROIS/SMILEY        : Engineer     - RECORDING ENGINEER          
WIT .         FILLO/JASTER         : Witness      - WITNESSED BY                
BASE.         EDM                  : Branch       - HOME BASE OF LOGGING UNIT   
MUD .         GEL CHEM             : Mud_type     - MUD TYPE                    
MATR.         SANDSTONE            : Logunit      - NEUTRON MATRIX              
TMAX.C        26.6667              : BHT          - MAXIMUM RECORDED TEMPERATURE
BHTD.M        685.8                : BHTDEP       - MAXIMUM RECORDED TEMPERATURE
RMT .C        -12.3889             : MDTP         - TEMPERATURE OF MUD          
MUDD.KG/M     7800                 : MWT          - MUD DENSITY                 
NEUT.         1                    : NEUTRON      - NEUTRON TYPE                
RESI.         0                    : RESIST       - RESISTIVITY TYPE            
RM  .OHMM     4.1                  : RM           - RESISTIVITY OF MUD          
RMC .OHMM     2.5                  : RMC          - RESISTIVITY OF MUD CAKE     
RMF .OHMM     2.13                 : RMF          - RESISTIVITY OF MUD FILTRATE 
SUFT.C        -17.7778             : SUFT         - SURFACE TEMPERATURE         
~A  DEPTH     PHID      CAL       GR     RESD     PHIN
# ...
  527.152    0.138  217.273   92.316    3.699    0.556
  527.402    0.146  217.955   95.423    3.700    0.513
  527.652    0.146  216.247   97.368    3.735    0.475
  527.902    0.129  217.144   97.709    3.784    0.546
  528.152    0.121  220.953   96.950    3.855    0.544
  528.402    0.132  222.574   96.246    3.877    0.483
  528.652    0.130  220.245   90.569    3.921    0.464
  528.902    0.129  214.693   89.933    3.950    0.427
  529.152    0.127  214.332   93.717    3.987    0.449
  529.402    0.131  215.959   96.153    4.025    0.489
  529.652    0.148  217.060   95.939    4.055    0.504
  529.902    0.165  216.917   92.351    4.108    0.532
  530.152    0.215  212.199   90.424    4.155    0.542
  530.402    0.229  208.826   89.969    4.194    0.486
  530.652    0.219  207.326   89.332    4.125    0.451
  530.902    0.192  206.051   88.508    3.990    0.465
  531.152    0.195  205.580   88.482    3.860    0.474
  531.402    0.170  206.369   89.991    3.707    0.463
  531.652    0.183  208.198   91.013    3.659    0.470
  531.902    0.177  209.506   93.077    3.640    0.483
  532.152    0.155  211.344   94.403    3.627    0.500
  532.402    0.139  212.552   94.501    3.640    0.466
  532.652    0.138  213.338   94.782    3.688    0.469
  532.902    0.142  214.435   94.948    3.737    0.485
  533.152    0.137  214.394   94.856    3.807    0.495
  533.402    0.139  213.214   94.955    3.915    0.483
  533.652    0.147  211.710   93.516    4.055    0.466
  533.902    0.154  209.798   92.879    4.240    0.502
  534.152    0.176  207.155   90.457    4.515    0.526
  534.402    0.197  205.863   84.599    4.818    0.470
  534.652    0.202  205.513   78.248    5.227    0.459
  534.902    0.209  204.961   75.702    5.567    0.475
  535.152    0.178  204.698   77.520    5.940    0.467
  535.402    0.185  204.763   77.065    6.234    0.453
  535.652    0.183  204.825   76.549    6.457    0.514
  535.902    0.203  204.993   77.200    6.702    0.538
  536.152    0.246  205.478   71.401    6.994    0.517
  536.402    0.251  205.748   66.032    7.272    0.492
  536.652    0.247  206.224   63.246    7.449    0.470
  536.902    0.235  206.279   61.929    7.395    0.467
  537.152    0.225  206.449   58.894    7.075    0.462
  537.402    0.224  206.513   55.429    6.744    0.456
  537.652    0.224  206.779   59.766    6.463    0.481
  537.902    0.233  206.957   65.887    6.126    0.492
  538.152    0.223  206.804   71.574    5.732    0.486
  538.402    0.209  206.660   70.136    5.384    0.475
  538.652    0.192  206.515   67.227    5.384    0.468
  538.902    0.178  206.373   63.083    5.863    0.506
  539.152    0.165  205.817   57.836    6.187    0.486
  539.402    0.147  205.571   56.585    6.362    0.451
  539.652    0.140  205.116   59.449    6.398    0.413
  539.902    0.146  204.761   62.370    6.247    0.466
  540.152    0.178  204.401   65.048    5.976    0.477
  540.402    0.201  204.037   69.325    5.728    0.480
  540.652    0.213  203.995   67.948    5.572    0.475
  540.902    0.194  204.265   65.901    5.440    0.459
  541.152    0.177  204.535   65.626    5.360    0.414
  541.402    0.165  204.799   62.038    5.401    0.405
  541.652    0.178  205.074   62.873    5.502    0.403
  541.902    0.188  205.454   67.088    5.817    0.412
  542.152    0.181  205.608   68.168    6.561    0.405
  542.402    0.165  206.194   64.951    7.319    0.391
  542.652    0.157  206.884   63.880    8.179    0.371
  542.902    0.141  207.980   63.489    8.923    0.355
  543.152    0.113  209.195   61.806    8.809    0.334
  543.402    0.115  208.531   60.612    8.258    0.317
  543.652    0.124  207.546   63.414    7.571    0.345
  543.902    0.141  205.732   68.980    6.615    0.378
  544.152    0.159  207.360   73.746    5.769    0.396
  544.402    0.192  206.066   79.066    4.151    0.479
  544.652    0.218  204.885   82.418    3.567    0.491
  544.902    0.233  205.260   83.317    3.271    0.501
  545.152    0.230  206.251   83.907    3.413    0.520
  545.402    0.216  208.403   82.529    3.635    0.553
  545.652    0.193  208.881   85.514    3.822    0.560
  545.902    0.169  209.247   86.964    3.966    0.461
  546.152    0.149  209.317   83.992    4.033    0.418
  546.402    0.124  207.505   82.430    3.859    0.404
  546.652    0.099  205.794   83.696    3.838    0.390
  546.902    0.113  205.034   87.788    3.618    0.458
  547.152    0.132  204.370   91.696    3.397    0.463
  547.402    0.148  205.150   92.959    3.417    0.492
  547.652    0.160  206.260   89.804    3.411    0.509
  547.902    0.167  207.248   90.452    3.355    0.499
  548.152    0.166  209.507   93.132    3.337    0.462
  548.402    0.167  210.605   96.362    3.313    0.485
  548.652    0.160  211.816   97.935    3.276    0.498
  548.902    0.139  212.595   93.672    3.241    0.513
  549.152    0.148  212.970   93.219    3.247    0.518
  549.402    0.149  213.139   94.175    3.241    0.527
  549.652    0.162  211.948   96.733    3.212    0.505
  549.902    0.167  211.083   97.382    3.171    0.516
  550.152    0.165  212.285   92.012    3.073    0.529
  550.402    0.165  216.620   92.909    3.051    0.547
  550.652    0.160  219.173   95.344    3.051    0.560
  550.902    0.156  220.586   93.412    3.057    0.544
  551.152    0.165  220.340   91.424    3.149    0.545
  551.402    0.172  219.363   94.411    3.226    0.566
  551.652    0.163  217.654   92.850    3.324    0.583
  551.902    0.162  214.487   85.514    3.355    0.525
  552.152    0.174  210.284   83.218    3.393    0.478
  552.402    0.161  207.746   82.884    3.508    0.475
  552.652    0.155  208.749   88.080    3.574    0.496
  552.902    0.163  212.133   88.920    3.648    0.491
  553.152    0.145  215.012   86.926    3.723    0.487
  553.402    0.160  214.339   88.067    3.744    0.504
  553.652    0.146  212.218   85.036    3.745    0.518
  553.902    0.177  208.328   79.602    3.745    0.539
  554.152    0.202  204.233   71.530    3.802    0.532
  554.402    0.188  203.254   69.662    3.767    0.491
  554.652    0.187  203.106   69.948    3.698    0.519
  554.902    0.182  204.519   70.967    3.584    0.513
  555.152    0.205  207.289   71.251    3.578    0.519
  555.402    0.220  207.666   69.504    3.632    0.540
  555.652    0.212  205.853   67.880    3.727    0.525
  555.902    0.186  205.712   70.684    3.985    0.495
  556.152    0.154  208.055   69.429    4.355    0.447
  556.402    0.116  209.886   64.368    5.183    0.379
  556.652    0.080  210.780   58.999    6.145    0.269
  556.902   -0.009  210.536   52.892    6.717    0.257
  557.152   -0.007  210.178   44.086    6.473    0.245
  557.402    0.024  210.029   50.078    5.615    0.250
  557.652    0.130  209.575   56.751    4.736    0.311
  557.902    0.177  210.156   62.439    4.123    0.429
  558.152    0.194  212.194   67.329    3.697    0.509
  558.402    0.202  212.990   71.728    3.434    0.530
  558.652    0.215  212.120   74.956    3.316    0.506
  558.902    0.219  211.135   77.696    3.347    0.483
  559.152    0.212  210.362   78.225    3.423    0.494
  559.402    0.219  209.389   75.500    3.539    0.508
  559.652    0.199  208.618   75.779    3.666    0.477
  559.902    0.196  209.419   76.921    3.833    0.458
  560.152    0.178  210.927   78.310    3.992    0.476
  560.402    0.154  212.657   79.885    4.098    0.507
  560.652    0.181  213.555   82.992    4.495    0.541
  560.902    0.210  212.260   78.115    4.977    0.529
  561.152    0.254  209.926   71.639    5.511    0.535
  561.402    0.255  208.120   65.656    5.913    0.556
  561.652    0.259  206.827   63.114    6.159    0.491
  561.902    0.271  206.066   61.308    5.991    0.486
  562.152    0.277  205.908   59.933    5.026    0.461
  562.402    0.257  205.664   59.721    4.433    0.430
  562.652    0.265  205.624   60.310    4.280    0.467
  562.902    0.276  205.576   60.962    4.297    0.477
  563.152    0.274  205.433   61.305    4.353    0.472
  563.402    0.265  204.975   60.979    4.410    0.456
