~VERSION INFORMATION
 VERS.                 2.0:   CWLS LOG ASCII STANDARD -VERSION 2.0
 WRAP.                  NO:   ONE LINE PER DEPTH STEP
~WELL INFORMATION BLOCK
#MNEM.UNIT           DATA                    DESCRIPTION OF MNEMONIC
#---------    -------------------            -------------------------------
# Generated from Intellog Unique Number	CC_80_83/WELL/2377
NULL.         -999.25                        : NULL_VALUE
WELL.         ARCO ET AL PICKFORD            : Well_name    - WELL              
LOC .         10-27-080-06W4                 : Location     - LOCATION          
UWI .         00/10-27-080-06W400            : Uwi          - UNIQUE WELL ID    
ENTR.         RJA                            : Entered      - ENTERED BY        
SRVC.         SCHLUMBERGER                   : Scn          - SERVICE COMPANY   
DATE.         23 FEB 70                      : Date         - LOG DATE
STRT.M        103.632                        : top_depth    - START DEPTH       
STOP.M        312.115                        : bot_depth    - STOP DEPTH        
STEP.M        0.305                          : increment    - STEP LENGTH       
~CURVE INFORMATION BLOCK
#MNEM UNIT       ERCB CURVE CODE    CURVE DESCRIPTION
#-----------   ------------------   ----------------------------------
DEPT.M        00 001 00 00         : DEPTH        - DEPTH                       
NPHI.V/V      00 330 00 00         : PHIN         - NEUTRON POROSITY (LIMESTONE)
DPHI.V/V      00 890 00 00         : PHID         - DENSITY POROSITY (LIMESTONE)
GR  .API      00 310 00 00         : GR           - GAMMA RAY                   
ILD .OHMM     00 120 00 00         : RESD         - DEEP RESISTIVITY (DIL)      
~PARAMETER INFORMATION       
#MNEM.UNIT           DATA             DESCRIPTION OF MNEMONIC
#---------         -----------     ------------------------------
GL  .M        508.955              : gl           - GROUND LEVEL ELEVATION      
EREF.M        512.064              : kb           - ELEVATION OF DEPTH REFERENCE
DATM.M        512.064              : datum        - DATUM ELEVATION             
TDD .M        319.126              : tdd          - TOTAL DEPTH DRILLER         
RUN .         ONE                  : Run          - RUN NUMBER                  
ENG .         BILL                 : Engineer     - RECORDING ENGINEER          
WIT .         JIM                  : Witness      - WITNESSED BY                
MUD .         GEL                  : Mud_type     - MUD TYPE                    
MATR.         LIMESTONE            : Logunit      - NEUTRON MATRIX              
TMAX.C        22.2222              : BHT          - MAXIMUM RECORDED TEMPERATURE
BHTD.M        319.126              : BHTDEP       - MAXIMUM RECORDED TEMPERATURE
MATR.         1                    : LOGUNIT      - NEUTRON MATRIX              
RMT .C        25                   : MDTP         - TEMPERATURE OF MUD          
NEUT.         0                    : NEUTRON      - NEUTRON TYPE                
RESI.         0                    : RESIST       - RESISTIVITY TYPE            
RMC .OHMM     0.25                 : RMC          - RESISTIVITY OF MUD CAKE     
RMF .OHMM     0.25                 : RMF          - RESISTIVITY OF MUD FILTRATE 
SUFT.C        4                    : SUFT         - SURFACE TEMPERATURE         
~A  DEPTH     PHIN     PHID       GR     RESD
  103.632    0.423    0.282   70.896   21.851
  103.937    0.439    0.315   67.760   19.701
  104.242    0.405    0.319   75.845   24.387
  104.546    0.404    0.332   71.518   24.007
  104.851    0.371    0.295   66.497   22.228
  105.156    0.324    0.304   63.419   22.691
  105.461    0.312    0.317   62.535   24.387
  105.766    0.318    0.309   65.484   25.036
  106.070    0.347    0.298   71.556   19.859
  106.375    0.322    0.295   70.683   15.633
  106.680    0.317    0.286   73.369   11.336
  106.985    0.332    0.275   80.699    7.836
  107.290    0.357    0.250   87.975    7.038
  107.594    0.382    0.209  114.612    5.845
  107.899    0.353    0.178  109.329    4.826
  108.204    0.355    0.146  104.888    4.326
  108.509    0.403    0.158  110.206    3.782
  108.814    0.428    0.213  108.082    3.604
  109.118    0.396    0.205  112.278    3.911
  109.423    0.393    0.189  112.024    4.944
  109.728    0.341    0.216  109.009    6.532
  110.033    0.303    0.242  100.598    9.155
  110.338    0.313    0.243   88.561   14.363
  110.642    0.310    0.251   71.554   19.118
  110.947    0.308    0.274   57.399   21.596
  111.252    0.312    0.302   45.108   24.342
  111.557    0.316    0.294   51.678   24.380
  111.862    0.335    0.291   53.625   23.587
  112.166    0.361    0.298   57.881   22.693
  112.471    0.358    0.307   62.519   21.958
  112.776    0.354    0.291   55.855   21.864
  113.081    0.347    0.306   52.170   21.937
  113.386    0.335    0.316   56.678   22.178
  113.690    0.336    0.293   60.750   22.900
  113.995    0.344    0.282   61.305   23.916
  114.300    0.318    0.269   64.809   25.027
  114.605    0.317    0.249   62.928   25.546
  114.910    0.286    0.239   63.427   24.907
  115.214    0.284    0.204   64.991   22.842
  115.519    0.323    0.254   66.231   21.768
  115.824    0.323    0.294   66.296   20.743
  116.129    0.317    0.273   60.534   20.258
  116.434    0.300    0.267   59.963   20.406
  116.738    0.296    0.260   60.519   20.397
  117.043    0.322    0.271   63.213   18.458
  117.348    0.305    0.268   67.581   16.834
  117.653    0.320    0.279   73.738   16.134
  117.958    0.318    0.274   89.283   17.506
  118.262    0.288    0.276  117.496   21.138
  118.567    0.309    0.303  113.288   22.462
  118.872    0.306    0.330   90.772   22.971
  119.177    0.315    0.323   70.833   22.872
  119.482    0.316    0.309   61.237   22.471
  119.786    0.350    0.305   59.106   22.806
  120.091    0.330    0.296   63.055   22.883
  120.396    0.326    0.292   64.618   21.805
  120.701    0.321    0.286   64.799   19.065
  121.006    0.339    0.278   79.144   17.025
  121.311    0.355    0.282   90.247   15.976
  121.615    0.333    0.252   94.369   15.398
  121.920    0.322    0.264   87.975   15.246
  122.225    0.357    0.270   90.795   15.326
  122.530    0.326    0.271  101.887   15.823
  122.835    0.326    0.257   97.427   16.527
  123.139    0.320    0.254   87.580   17.560
  123.444    0.313    0.268   80.439   18.271
  123.749    0.305    0.274   79.180   18.473
  124.054    0.311    0.284   76.672   18.963
  124.359    0.324    0.271   62.188   19.919
  124.663    0.319    0.291   53.841   21.489
  124.968    0.309    0.276   51.768   22.657
  125.273    0.304    0.294   53.767   22.910
  125.578    0.318    0.305   57.830   22.986
  125.883    0.314    0.290   61.911   21.407
  126.187    0.323    0.292   66.990   16.501
  126.492    0.348    0.267   66.674   12.598
  126.797    0.345    0.233   77.077   11.250
  127.102    0.345    0.213   85.663   11.704
  127.407    0.355    0.229   84.710   12.725
  127.711    0.344    0.252   79.200   14.236
  128.016    0.319    0.246   74.933   15.301
  128.321    0.312    0.247   83.142   15.499
  128.626    0.317    0.221   85.206   15.227
  128.931    0.310    0.214   92.343   14.020
  129.235    0.318    0.239  100.120   11.708
  129.540    0.336    0.227  107.200   10.257
  129.845    0.360    0.235  100.962    8.849
  130.150    0.337    0.231  100.218    8.164
  130.454    0.324    0.187  102.108    7.706
  130.759    0.332    0.184  111.444    7.746
  131.064    0.333    0.174  116.838    8.535
  131.369    0.331    0.189  109.739    9.883
  131.674    0.319    0.200  103.287   11.443
  131.978    0.311    0.230   96.445   12.533
  132.283    0.311    0.213   95.947   12.722
  132.588    0.293    0.215   91.926   12.237
  132.893    0.285    0.211   95.563   11.595
  133.198    0.306    0.202  108.269   11.008
  133.502    0.324    0.195  113.108   10.310
  133.807    0.305    0.195  109.643    9.825
  134.112    0.304    0.194  107.138    9.525
  134.417    0.300    0.184  107.204    9.321
  134.722    0.326    0.204  113.088    9.810
  135.026    0.355    0.218  116.476   11.017
  135.331    0.340    0.221  113.832   12.162
  135.636    0.337    0.229  109.446   13.529
  135.941    0.326    0.244   98.719   14.596
  136.246    0.311    0.256   94.582   15.898
  136.550    0.304    0.241   87.413   16.572
  136.855    0.286    0.240   84.101   16.376
  137.160    0.275    0.242   92.302   15.604
  137.465    0.324    0.209  102.210   14.700
  137.770    0.332    0.201  110.988   13.743
  138.074    0.353    0.194  116.122   12.774
  138.379    0.351    0.192  109.721   12.010
  138.684    0.340    0.202  101.875   13.644
  138.989    0.323    0.222   93.040   17.216
  139.294    0.309    0.259   71.651   20.991
  139.598    0.321    0.286   59.612   24.026
  139.903    0.337    0.278   51.402   23.788
  140.208    0.301    0.235   66.566   19.086
  140.513    0.318    0.167   78.099   15.139
  140.818    0.340    0.196   84.044   12.477
  141.122    0.328    0.247   91.007   10.888
  141.427    0.333    0.231   89.187   10.376
  141.732    0.311    0.239  101.408   10.077
  142.037    0.281    0.232  112.624   10.015
  142.341    0.267    0.232  105.888   10.068
  142.646    0.273    0.209  102.716   10.160
  142.951    0.296    0.197   97.131   10.469
  143.256    0.290    0.203   91.163   11.018
  143.561    0.304    0.217   81.882   13.055
  143.865    0.311    0.228   84.835   15.407
  144.170    0.325    0.249   74.923   21.554
  144.475    0.357    0.276   59.311   24.485
  144.780    0.327    0.294   54.280   27.289
  145.085    0.330    0.305   52.278   28.015
  145.389    0.323    0.303   50.456   27.470
  145.694    0.305    0.308   53.716   26.833
  145.999    0.304    0.311   53.831   26.516
  146.304    0.327    0.306   52.955   26.147
  146.609    0.341    0.311   63.781   25.741
  146.913    0.328    0.306   63.785   25.579
  147.218    0.344    0.311   60.719   25.717
  147.523    0.323    0.313   59.713   25.851
  147.828    0.327    0.323   59.269   26.487
  148.133    0.315    0.315   58.195   26.934
  148.437    0.314    0.318   53.904   27.233
  148.742    0.326    0.309   52.602   27.374
  149.047    0.328    0.322   54.045   26.947
  149.352    0.307    0.312   52.717   26.425
  149.657    0.322    0.311   57.929   25.663
  149.961    0.364    0.319   56.977   24.923
  150.266    0.345    0.312   55.282   24.726
  150.571    0.321    0.319   57.541   24.292
  150.876    0.321    0.328   62.241   23.912
  151.181    0.325    0.319   62.482   23.584
  151.485    0.319    0.319   63.722   23.170
  151.790    0.315    0.316   65.105   22.983
  152.095    0.322    0.321   66.237   22.107
  152.400    0.341    0.310   66.294   21.434
  152.704    0.355    0.286   65.659   19.886
  153.009    0.359    0.284   61.202   18.626
  153.314    0.356    0.296   58.636   21.118
  153.619    0.338    0.304   59.755   23.002
  153.924    0.338    0.312   60.195   24.116
  154.228    0.340    0.306   59.315   24.196
  154.533    0.357    0.307   64.380   24.047
  154.838    0.358    0.311   59.177   23.043
  155.143    0.353    0.320   57.104   22.728
  155.448    0.366    0.320   58.926   22.631
  155.752    0.346    0.326   57.731   22.966
  156.057    0.342    0.311   62.411   23.578
  156.362    0.348    0.316   64.549   23.793
