~VERSION INFORMATION
 VERS.                 2.0:   CWLS LOG ASCII STANDARD -VERSION 2.0
 WRAP.                  NO:   ONE LINE PER DEPTH STEP
~WELL INFORMATION BLOCK
#MNEM.UNIT           DATA                    DESCRIPTION OF MNEMONIC
#---------    -------------------            -------------------------------
# Generated from Intellog Unique Number	CS_77_79/WELL/3301
WELL.         TRITON CANADA RESOURCES LTD.   : Well_name    - WELL
LOC .         00/10-29-079-10W4/0            : Location     - LOCATION
UWI .         00/10-29-079-10W4/0            : Uwi          - UNIQUE WELL ID
ENTR.         JOETTE                         : Entered      - ENTERED BY
SRVC.         SCHLUMBERGER                   : Scn          - SERVICE COMPANY
DATE.         08/24/92                       : Date         - LOG DATE
STRT.M        250                            : top_depth    - START DEPTH
STOP.M        465                            : bot_depth    - STOP DEPTH
STEP.M        0.25                           : increment    - STEP LENGTH
 NULL. -999.2500:NULL Value
~CURVE INFORMATION BLOCK
#MNEM UNIT       ERCB CURVE CODE    CURVE DESCRIPTION
#-----------   ------------------   ----------------------------------
DEPT.M        00 001 00 00         : DEPTH        - DEPTH
GR  .API      00 310 00 00         : GR           - GAMMA RAY
NPHI.V/V      00 330 00 00         : PHIN         - NEUTRON POROSITY (SANDSTONE)
DPHI.V/V      00 890 00 00         : PHID         - DENSITY POROSITY (SANDSTONE)
ILD .OHMM     00 120 00 00         : RESD         - DEEP RESISTIVITY (DIL)
~PARAMETER INFORMATION
#MNEM.UNIT           DATA             DESCRIPTION OF MNEMONIC
#---------         -----------     ------------------------------
GL  .M        664.8                : gl           - GROUND LEVEL ELEVATION
EREF.M        666.5                : kb           - ELEVATION OF DEPTH REFERENCE
DATM.M        666.5                : datum        - DATUM ELEVATION
TDD .M        473                  : tdd          - TOTAL DEPTH DRILLER
RUN .         ONE                  : Run          - RUN NUMBER
ENG .         BILL                 : Engineer     - RECORDING ENGINEER
WIT .         JIM                  : Witness      - WITNESSED BY
MUD .         GEL                  : Mud_type     - MUD TYPE
MATR.         SANDSTONE            : Logunit      - NEUTRON MATRIX
TMAX.C        25                   : BHT          - MAXIMUM RECORDED TEMPERATURE
BHTD.M        473                  : BHTDEP       - MAXIMUM RECORDED TEMPERATURE
MATR.         1                    : LOGUNIT      - NEUTRON MATRIX
RMT .C        4.44                 : MDTP         - TEMPERATURE OF MUD
NEUT.         1                    : NEUTRON      - NEUTRON TYPE
RESI.         0                    : RESIST       - RESISTIVITY TYPE
RMC .OHMM     5.98                 : RMC          - RESISTIVITY OF MUD CAKE
RMF .OHMM     6.46                 : RMF          - RESISTIVITY OF MUD FILTRATE
SUFT.C        15                   : SUFT         - SURFACE TEMPERATURE
~A  DEPTH       GR     PHIN     PHID     RESD
# ...
  424.000   58.780    0.344    0.311   43.630
  424.250   51.777    0.340    0.318   54.489
  424.500   41.833    0.335    0.318   59.797
  424.750   36.007    0.336    0.319   64.427
  425.000   37.828    0.347    0.320   66.891
  425.250   40.237    0.358    0.326   65.735
  425.500   39.117    0.349    0.326   58.922
  425.750   37.408    0.338    0.325   52.815
  426.000   42.170    0.328    0.316   50.028
  426.250   49.887    0.327    0.305   61.310
  426.500   48.767    0.335    0.299  104.686
  426.750   43.529    0.351    0.308  157.035
  427.000   37.703    0.362    0.317  188.941
  427.250   32.451    0.356    0.329  268.333
  427.500   27.227    0.354    0.338  294.547
  427.750   25.504    0.374    0.346  264.084
  428.000   30.280    0.401    0.352  250.024
  428.250   35.042    0.393    0.354  224.165
  428.500   40.981    0.383    0.349  212.283
  428.750   44.580    0.401    0.344  212.283
  429.000   41.681    0.408    0.339  237.638
  429.250   39.972    0.396    0.335  183.764
  429.500   39.440    0.395    0.329  161.716
  429.750   39.511    0.402    0.325  144.955
  430.000   40.169    0.411    0.318  122.954
  430.250   41.430    0.425    0.314   90.040
  430.500   42.046    0.417    0.316   74.963
  430.750   43.867    0.409    0.321   68.458
  431.000   45.085    0.396    0.327   72.395
  431.250   45.141    0.396    0.336   80.944
  431.500   41.080    0.404    0.337   82.507
  431.750   44.679    0.409    0.332   63.834
  432.000   49.441    0.409    0.327   57.218
  432.250   54.791    0.403    0.321   61.678
  432.500   49.554    0.403    0.328   66.420
  432.750   43.139    0.401    0.330  101.534
  433.000   43.783    0.396    0.328  141.569
  433.250   45.618    0.391    0.326  155.324
  433.500   46.851    0.386    0.326  180.174
  433.750   46.907    0.393    0.328  216.780
  434.000   45.199    0.401    0.331  242.318
  434.250   42.299    0.406    0.332  281.017
  434.500   38.252    0.407    0.332  344.391
  434.750   35.941    0.406    0.328   56.794
  435.000   33.658    0.390    0.312   45.587
  435.250   34.289    0.372    0.293   35.269
  435.500   79.078    0.359    0.272   32.209
  435.750   76.782    0.392    0.260   31.075
  436.000   59.191    0.393    0.247   33.481
  436.250   56.894    0.387    0.261   35.407
  436.500   55.774    0.378    0.281   41.062
  436.750   57.594    0.378    0.291   41.896
  437.000   63.533    0.383    0.308   38.952
  437.250   70.648    0.390    0.300   40.451
  437.500   74.275    0.396    0.296   42.788
  437.750   73.715    0.413    0.310   44.435
  438.000   68.477    0.427    0.319   41.333
  438.250   62.049    0.380    0.311   33.776
  438.500   60.354    0.340    0.284   18.760
  438.750   70.410    0.355    0.248   13.242
  439.000   78.113    0.381    0.219   14.532
  439.250   82.889    0.384    0.249   17.166
  439.500   77.651    0.385    0.247   17.187
  439.750   81.825    0.384    0.241   17.518
  440.000   82.469    0.382    0.242   18.531
  440.250   80.173    0.405    0.275   20.341
  440.500   66.097    0.403    0.291   24.022
  440.750   60.859    0.406    0.305   38.805
  441.000   52.092    0.405    0.306   51.188
  441.250   45.089    0.398    0.314   54.145
  441.500   41.616    0.393    0.335   59.421
  441.750   39.922    0.387    0.347   67.654
  442.000   39.375    0.426    0.355   94.354
  442.250   39.446    0.426    0.357   99.805
  442.500   40.664    0.421    0.356   78.631
  442.750   43.087    0.417    0.355   65.481
  443.000   48.437    0.408    0.349   52.560
  443.250   53.199    0.381    0.340   50.722
  443.500   55.020    0.376    0.331   52.675
  443.750   53.325    0.385    0.316   56.753
  444.000   54.558    0.409    0.304   61.132
  444.250   49.908    0.415    0.309   65.865
  444.500   48.200    0.404    0.319   75.010
  444.750   45.301    0.395    0.315   86.989
  445.000   34.181    0.409    0.322  108.586
  445.250   28.354    0.413    0.342  145.896
  445.500   30.175    0.414    0.351  263.190
  445.750   32.584    0.406    0.355  322.543
  446.000   39.125    0.400    0.355   74.092
  446.250   46.240    0.409    0.350   70.165
  446.500   53.943    0.404    0.342   55.293
  446.750   65.189    0.392    0.335   41.233
  447.000   81.716    0.389    0.327   34.974
  447.250   56.478    0.388    0.319   30.778
  447.500   60.652    0.361    0.314   27.588
  447.750   69.531    0.353    0.304   26.132
  448.000   83.719    0.406    0.282   23.859
  448.250   86.716    0.405    0.248   21.001
  448.500   79.714    0.394    0.277   23.042
  448.750   74.476    0.373    0.288   27.218
  449.000   69.826    0.358    0.300   27.244
  449.250   65.176    0.368    0.291   24.874
  449.500   61.115    0.390    0.279   23.573
  449.750   59.980    0.404    0.272   24.468
  450.000   72.992    0.382    0.269   27.872
  450.250   57.166    0.384    0.265   30.030
  450.500   49.561    0.385    0.271   30.610
  450.750   41.382    0.363    0.286   24.122
  451.000   47.320    0.362    0.334   17.338
  451.250   63.861    0.385    0.324   15.258
  451.500   83.931    0.392    0.296   13.424
  451.750   89.295    0.404    0.241   12.036
  452.000   90.513    0.396    0.233   12.737
  452.250   88.217    0.371    0.260   12.737
  452.500   90.052    0.365    0.259   17.130
  452.750   90.108    0.353    0.258   15.636
  453.000   87.222    0.382    0.265   14.544
  453.250   86.102    0.395    0.277   13.770
  453.500   99.127    0.411    0.272   11.053
  453.750   99.744    0.413    0.260    9.549
  454.000  105.696    0.407    0.239    8.562
  454.250  103.988    0.398    0.240    8.108
  454.500  105.220    0.396    0.240    7.684
  454.750  108.820    0.399    0.239    7.547
  455.000  112.391    0.403    0.234    7.557
  455.250  117.167    0.404    0.225    7.703
  455.500  111.341    0.398    0.219    8.301
  455.750  104.913    0.386    0.228    9.451
  456.000   93.204    0.390    0.264   12.240
  456.250   82.084    0.384    0.287   14.730
  456.500   76.846    0.374    0.307   16.161
  456.750   72.770    0.362    0.305   17.412
  457.000   75.782    0.350    0.304   16.804
  457.250   80.544    0.342    0.302   15.059
  457.500   85.894    0.368    0.230   14.004
  457.750   87.126    0.388    0.284   14.546
  458.000   77.771    0.399    0.304   14.561
  458.250   67.827    0.392    0.269   11.904
  458.500   64.354    0.359    0.228   10.290
  458.750   75.586    0.344    0.243    9.747
  459.000   70.936    0.353    0.259    9.064
  459.250   59.228    0.349    0.266    8.741
  459.500   52.813    0.352    0.266    8.280
  459.750   52.870    0.360    0.270    7.700
  460.000   53.528    0.373    0.286    7.164
  460.250   51.231    0.373    0.302    6.787
  460.500   47.744    0.366    0.312    6.667
  460.750   43.108    0.358    0.308    6.200
  461.000   42.576    0.350    0.305    5.873
  461.250   43.206    0.341    0.302    5.770
  461.500   45.644    0.328    0.300    5.672
  461.750   47.436    0.328    0.302    5.575
  462.000   49.845    0.334    0.311    5.477
  462.250   50.490    0.350    0.320    5.483
  462.500   48.207    0.352    0.322    5.489
  462.750   47.087    0.346    0.323    5.598
  463.000   50.686    0.336    0.318    5.705
  463.250   51.330    0.319    0.215    6.148
  463.500   49.034    0.399    0.166    6.872
  463.750   47.311    0.405    0.162    7.682
  464.000   46.779    0.399    0.157    8.428
  464.250   46.835    0.326    0.127   10.523
  464.500   46.905    0.277    0.026   12.431
  464.750   46.961    0.239    0.000   14.153
  465.000   47.017    0.228    0.034   16.718
