~VERSION INFORMATION
 VERS.                 2.0:   CWLS LOG ASCII STANDARD -VERSION 2.0
 WRAP.                  NO:   ONE LINE PER DEPTH STEP
~WELL INFORMATION BLOCK
#MNEM.UNIT           DATA                    DESCRIPTION OF MNEMONIC
#---------    -------------------            -------------------------------
# Generated from Intellog Unique Number	CS_71_72/WELL/889
WELL.         BVX ET AL CALL                 : Well_name    - WELL
LOC .         00/11-08-071-16W4/0            : Location     - LOCATION
UWI .         00/11-08-071-16W4/0            : Uwi          - UNIQUE WELL ID
ENTR.         SP                             : Entered      - ENTERED BY
SRVC.         SCHLUMBERGER                   : Scn          - SERVICE COMPANY
STRT.M        285                            : top_depth    - START DEPTH
STOP.M        479                            : bot_depth    - STOP DEPTH
STEP.M        0.25                           : increment    - STEP LENGTH
 NULL. -999.2500:NULL Value
~CURVE INFORMATION BLOCK
#MNEM UNIT       ERCB CURVE CODE    CURVE DESCRIPTION
#-----------   ------------------   ----------------------------------
DEPT.M        00 001 00 00         : DEPTH        - DEPTH
ILD .OHMM     00 120 00 00         : RESD         - DEEP RESISTIVITY (DIL)
DPHI.V/V      00 890 00 00         : PHID         - DENSITY POROSITY (LIMESTONE)
NPHI.V/V      00 330 00 00         : PHIN         - NEUTRON POROSITY (LIMESTONE)
GR  .API      00 310 00 00         : GR           - GAMMA RAY
~PARAMETER INFORMATION
#MNEM.UNIT           DATA             DESCRIPTION OF MNEMONIC
#---------         -----------     ------------------------------
GL  .M        576                  : gl           - GROUND LEVEL ELEVATION
EREF.M        579.6                : kb           - ELEVATION OF DEPTH REFERENCE
DATM.M        576                  : datum        - DATUM ELEVATION
TDD .M        486                  : tdd          - TOTAL DEPTH DRILLER
RUN .         ONE                  : Run          - RUN NUMBER
ENG .         BILL                 : Engineer     - RECORDING ENGINEER
WIT .         JIM                  : Witness      - WITNESSED BY
MUD .         GEL                  : Mud_type     - MUD TYPE
MATR.         LIMESTONE            : Logunit      - NEUTRON MATRIX
TMAX.C        22                   : BHT          - MAXIMUM RECORDED TEMPERATURE
BHTD.M        486                  : BHTDEP       - MAXIMUM RECORDED TEMPERATURE
MATR.         1                    : LOGUNIT      - NEUTRON MATRIX
RMT .C        25                   : MDTP         - TEMPERATURE OF MUD
NEUT.         1                    : NEUTRON      - NEUTRON TYPE
RESI.         0                    : RESIST       - RESISTIVITY TYPE
RMC .OHMM     0.25                 : RMC          - RESISTIVITY OF MUD CAKE
RMF .OHMM     0.25                 : RMF          - RESISTIVITY OF MUD FILTRATE
SUFT.C        15                   : SUFT         - SURFACE TEMPERATURE
~A  DEPTH     RESD     PHID     PHIN       GR
# ...
  328.500    7.162    0.295    0.353   88.648
  328.750    6.110    0.276    0.376   88.962
  329.000    5.424    0.257    0.392   90.135
  329.250    5.038    0.237    0.411   92.598
  329.500    4.869    0.222    0.417   94.507
  329.750    4.767    0.214    0.407   95.802
  330.000    4.713    0.215    0.398   98.330
  330.250    4.676    0.218    0.389   99.193
  330.500    4.674    0.220    0.398  100.304
  330.750    4.700    0.218    0.400  101.355
  331.000    4.761    0.213    0.398  102.038
  331.250    4.859    0.216    0.404  103.333
  331.500    4.932    0.225    0.412  103.649
  331.750    5.015    0.234    0.425  102.185
  332.000    5.109    0.234    0.435   99.249
  332.250    5.166    0.226    0.435   99.013
  332.500    5.213    0.225    0.418   99.450
  332.750    5.242    0.238    0.399  100.440
  333.000    5.240    0.247    0.405  100.202
  333.250    5.170    0.260    0.406   92.974
  333.500    5.120    0.263    0.394   88.567
  333.750    5.023    0.244    0.384   86.183
  334.000    4.955    0.238    0.385   91.959
  334.250    4.926    0.231    0.392   95.337
  334.500    4.953    0.221    0.382  100.191
  334.750    5.055    0.209    0.388  101.855
  335.000    5.112    0.200    0.399  101.005
  335.250    5.149    0.196    0.408  101.565
  335.500    5.118    0.199    0.400  102.064
  335.750    5.050    0.204    0.404   99.619
  336.000    4.917    0.217    0.413  101.284
  336.250    4.672    0.240    0.428  104.665
  336.500    4.405    0.276    0.446  107.678
  336.750    4.201    0.306    0.459  109.525
  337.000    4.106    0.337    0.467  110.331
  337.250    4.036    0.277    0.474  108.193
  337.500    4.088    0.243    0.460  105.135
  337.750    4.268    0.222    0.434   99.747
  338.000    4.498    0.226    0.413   95.707
  338.250    4.804    0.236    0.399   92.343
  338.500    5.073    0.251    0.394   88.243
  338.750    5.346    0.276    0.397   83.896
  339.000    5.603    0.318    0.406   78.999
  339.250    5.752    0.359    0.422   71.341
  339.500    5.937    0.420    0.459   63.009
  339.750    6.037    0.508    0.489   58.909
  340.000    6.002    0.602    0.460   63.026
  340.250    5.767    0.622    0.404   66.591
  340.500    5.397    0.340    0.378   70.280
  340.750    4.910    0.320    0.376   72.434
  341.000    4.509    0.326    0.379   74.529
  341.250    4.133    0.332    0.375   73.554
  341.500    3.760    0.335    0.370   73.624
  341.750    3.559    0.334    0.367   75.288
  342.000    3.446    0.328    0.370   76.707
  342.250    3.393    0.323    0.379   76.838
  342.500    3.373    0.319    0.387   74.270
  342.750    3.391    0.319    0.392   73.052
  343.000    3.410    0.329    0.393   72.694
  343.250    3.409    0.337    0.384   72.823
  343.500    3.389    0.342    0.375   72.954
  343.750    3.388    0.345    0.369   72.962
  344.000    3.387    0.346    0.365   70.824
  344.250    3.386    0.347    0.370   69.177
  344.500    3.385    0.348    0.379   69.001
  344.750    3.384    0.350    0.384   69.746
  345.000    3.402    0.352    0.375   70.245
  345.250    3.401    0.353    0.369   71.541
  345.500    3.406    0.349    0.374   73.204
  345.750    3.406    0.341    0.385   75.668
  346.000    3.418    0.336    0.388   76.471
  346.250    3.417    0.329    0.397   74.333
  346.500    3.429    0.328    0.411   72.196
  346.750    3.441    0.332    0.402   71.406
  347.000    3.453    0.335    0.397   71.537
  347.250    3.465    0.327    0.400   72.097
  347.500    3.471    0.322    0.399   72.474
  347.750    3.483    0.327    0.391   72.175
  348.000    3.482    0.336    0.387   73.165
  348.250    3.487    0.343    0.384   76.731
  348.500    3.486    0.346    0.382   78.393
  348.750    3.485    0.347    0.381   78.158
  349.000    3.478    0.347    0.382   76.142
  349.250    3.464    0.345    0.385   74.432
  349.500    3.456    0.343    0.390   74.196
  349.750    3.430    0.339    0.398   75.124
  350.000    3.429    0.335    0.403   75.194
  350.250    3.454    0.332    0.403   72.994
  350.500    3.453    0.331    0.400   71.224
  350.750    3.452    0.334    0.394   70.988
  351.000    3.438    0.339    0.392   72.957
  351.250    3.443    0.339    0.396   74.744
  351.500    3.469    0.336    0.396   75.181
  351.750    3.487    0.331    0.394   72.001
  352.000    3.506    0.330    0.392   70.782
  352.250    3.518    0.334    0.395   71.037
  352.500    3.537    0.333    0.402   70.309
  352.750    3.556    0.331    0.399   70.378
  353.000    3.596    0.330    0.401   72.411
  353.250    3.629    0.323    0.403   74.382
  353.500    3.690    0.310    0.403   75.677
  353.750    3.731    0.297    0.397   76.544
  354.000    3.780    0.290    0.392   74.713
  354.250    3.829    0.287    0.387   71.286
  354.500    3.857    0.295    0.384   67.860
  354.750    3.892    0.315    0.380   71.181
  355.000    3.906    0.328    0.384   73.092
  355.250    3.927    0.327    0.390   73.405
  355.500    3.956    0.329    0.396   73.045
  355.750    3.992    0.331    0.393   70.416
  356.000    4.014    0.324    0.387   71.161
  356.250    4.035    0.318    0.382   73.192
  356.500    4.057    0.310    0.377   74.305
  356.750    4.079    0.306    0.376   73.393
  357.000    4.109    0.307    0.377   74.078
  357.250    4.154    0.306    0.380   75.374
  357.500    4.224    0.300    0.385   76.118
  357.750    4.279    0.297    0.390   75.327
  358.000    4.393    0.294    0.395   72.392
  358.250    4.492    0.290    0.398   73.811
  358.500    4.576    0.289    0.393   75.905
  358.750    4.636    0.292    0.391   78.492
  359.000    4.661    0.295    0.394   79.785
  359.250    4.686    0.299    0.391   81.632
  359.500    4.658    0.305    0.386   82.683
  359.750    4.570    0.308    0.382   79.870
  360.000    4.433    0.304    0.380   77.303
  360.250    4.316    0.298    0.380   76.698
  360.500    4.210    0.297    0.386   78.362
  360.750    4.123    0.296    0.399   78.923
  361.000    4.091    0.296    0.414   77.642
  361.250    4.090    0.298    0.432   74.830
  361.500    4.065    0.298    0.407   75.022
  361.750    4.064    0.297    0.392   77.055
  362.000    4.063    0.297    0.389   77.860
  362.250    4.062    0.300    0.388   77.868
  362.500    4.061    0.306    0.388   76.958
  362.750    4.052    0.301    0.383   75.803
  363.000    4.036    0.298    0.381   75.564
  363.250    4.035    0.293    0.377   75.513
  363.500    4.033    0.292    0.396   76.012
  363.750    4.055    0.291    0.411   77.123
  364.000    4.070    0.292    0.415   79.091
  364.250    4.076    0.293    0.412   83.026
  364.500    4.098    0.295    0.412   87.204
  364.750    4.074    0.303    0.425   90.462
  365.000    4.004    0.313    0.442   93.537
  365.250    3.870    0.326    0.446   95.692
  365.500    3.683    0.332    0.437   97.049
  365.750    3.415    0.336    0.432   97.056
  366.000    3.202    0.345    0.444   94.059
  366.250    3.071    0.359    0.450   92.780
  366.500    3.099    0.375    0.443   93.463
  366.750    3.335    0.389    0.443   93.165
  367.000    3.575    0.380    0.429   92.745
  367.250    3.890    0.305    0.399   91.403
  367.500    4.346    0.267    0.382   88.774
  367.750    4.429    0.275    0.381   86.758
  368.000    4.650    0.281    0.383   84.989
  368.250    4.773    0.289    0.386   82.790
  368.500    4.853    0.299    0.392   83.105
  368.750    4.870    0.312    0.398   85.382
  369.000    4.869    0.329    0.400   86.862
  369.250    4.859    0.340    0.392   87.422
  369.500    4.848    0.348    0.391   86.633
  369.750    4.856    0.335    0.392   82.471
  370.000    4.827    0.315    0.392   78.677
  370.250    4.826    0.315    0.392   76.355
  370.500    4.807    0.327    0.399   74.156
  370.750    4.796    0.338    0.406   72.385
  371.000    4.741    0.334    0.403   73.927
  371.250    4.695    0.325    0.397   77.124
  371.500    4.597    0.320    0.390   78.911
  371.750    4.485    0.317    0.383   79.165
