~VERSION INFORMATION
 VERS.                 2.0:   CWLS LOG ASCII STANDARD -VERSION 2.0
 WRAP.                  NO:   ONE LINE PER DEPTH STEP
~WELL INFORMATION BLOCK
#MNEM.UNIT           DATA                    DESCRIPTION OF MNEMONIC
#---------    -------------------            -------------------------------
# Generated from Intellog Unique Number	CS_77_79/WELL/1014
WELL.         ICGR CHARD                     : Well_name    - WELL
LOC .         00/12-20-079-05W4/0            : Location     - LOCATION
UWI .         00/12-20-079-05W4/0            : Uwi          - UNIQUE WELL ID
ENTR.         JHS                            : Entered      - ENTERED BY
SRVC.         SCHLUMBERGER                   : Scn          - SERVICE COMPANY
STRT.M        105                            : top_depth    - START DEPTH
STOP.M        325                            : bot_depth    - STOP DEPTH
STEP.M        0.25                           : increment    - STEP LENGTH
 NULL. -999.2500:NULL Value
~CURVE INFORMATION BLOCK
#MNEM UNIT       ERCB CURVE CODE    CURVE DESCRIPTION
#-----------   ------------------   ----------------------------------
DEPT.M        00 001 00 00         : DEPTH        - DEPTH
DPHI.V/V      00 890 00 00         : PHID         - DENSITY POROSITY (LIMESTONE)
NPHI.V/V      00 330 00 00         : PHIN         - NEUTRON POROSITY (LIMESTONE)
GR  .API      00 310 00 00         : GR           - GAMMA RAY
ILD .OHMM     00 120 00 00         : RESD         - DEEP RESISTIVITY (DIL)
RHOB.KG/M3    00 350 00 00         : DENS         - BULK DENSITY
~PARAMETER INFORMATION
#MNEM.UNIT           DATA             DESCRIPTION OF MNEMONIC
#---------         -----------     ------------------------------
GL  .M        478.6                : gl           - GROUND LEVEL ELEVATION
EREF.M        481.6                : kb           - ELEVATION OF DEPTH REFERENCE
DATM.M        481.6                : datum        - DATUM ELEVATION
TDD .M        335                  : tdd          - TOTAL DEPTH DRILLER
RUN .         ONE                  : Run          - RUN NUMBER
ENG .         BILL                 : Engineer     - RECORDING ENGINEER
WIT .         JIM                  : Witness      - WITNESSED BY
MUD .         GEL                  : Mud_type     - MUD TYPE
MATR.         LIMESTONE            : Logunit      - NEUTRON MATRIX
TMAX.C        25                   : BHT          - MAXIMUM RECORDED TEMPERATURE
BHTD.M        335                  : BHTDEP       - MAXIMUM RECORDED TEMPERATURE
MATR.         1                    : LOGUNIT      - NEUTRON MATRIX
RMT .C        25                   : MDTP         - TEMPERATURE OF MUD
NEUT.         1                    : NEUTRON      - NEUTRON TYPE
RESI.         0                    : RESIST       - RESISTIVITY TYPE
RMC .OHMM     0.25                 : RMC          - RESISTIVITY OF MUD CAKE
RMF .OHMM     0.25                 : RMF          - RESISTIVITY OF MUD FILTRATE
SUFT.C        15                   : SUFT         - SURFACE TEMPERATURE
~A  DEPTH     PHID     PHIN       GR     RESD     DENS
# ...
  287.500    0.314    0.383   37.074    3.194 2172.240
  287.750    0.335    0.371   34.685    3.137 2136.820
  288.000    0.334    0.360   38.347    3.081 2139.020
  288.250    0.320    0.389   45.636    3.083 2162.100
  288.500    0.311    0.406   48.689    3.085 2178.910
  288.750    0.309    0.394   39.649    3.145 2181.100
  289.000    0.324    0.380   33.626    3.089 2156.130
  289.250    0.335    0.367   27.611    3.091 2137.420
  289.500    0.305    0.360   27.653    3.092 2187.680
  289.750    0.277    0.413   37.348    3.274 2235.840
  290.000    0.270    0.417   56.737    3.400 2248.480
  290.250    0.298    0.397   47.694    3.599 2200.510
  290.500    0.302    0.372   42.888    3.669 2194.340
  290.750    0.273    0.418   53.806    3.671 2242.510
  291.000    0.273    0.400   49.600    3.605 2242.610
  291.250    0.317    0.375   38.145    3.608 2167.500
  291.500    0.289    0.361   51.485    3.610 2215.650
  291.750    0.271    0.384   60.585    3.612 2247.090
  292.000    0.268    0.386   58.796    3.547 2251.390
  292.250    0.319    0.359   45.528    3.616 2163.730
  292.500    0.334    0.350   35.270    3.551 2138.740
  292.750    0.314    0.366   38.331    3.620 2172.320
  293.000    0.307    0.351   35.339    3.556 2184.930
  293.250    0.301    0.356   39.598    3.558 2195.460
  293.500    0.309    0.383   44.467    3.628 2180.970
  293.750    0.303    0.373   40.871    3.630 2191.510
  294.000    0.281    0.363   46.347    3.701 2229.220
  294.250    0.266    0.372   49.401    3.773 2254.380
  294.500    0.266    0.400   50.637    3.775 2254.500
  294.750    0.301    0.424   43.411    3.639 2196.090
  295.000    0.325    0.406   32.558    3.507 2154.410
  295.250    0.311    0.382   31.377    3.444 2177.490
  295.500    0.291    0.397   45.924    3.383 2213.120
  295.750    0.277    0.402   49.582    3.385 2236.200
  296.000    0.301    0.383   37.527    3.386 2194.510
  296.250    0.322    0.360   32.109    3.388 2159.100
  296.500    0.312    0.378   38.184    3.520 2175.910
  296.750    0.273    0.382   57.577    3.726 2242.860
  297.000    0.223    0.405   69.094    3.943 2328.640
  297.250    0.205    0.431   80.012    4.498 2360.100
  297.500    0.196    0.442   89.112    5.035 2374.840
  297.750    0.187    0.446   98.216    5.964 2389.530
  298.000    0.179    0.419   87.968    6.313 2404.270
  298.250    0.201    0.419   63.198    5.971 2366.770
  298.500    0.281    0.443   43.873    5.440 2228.950
  298.750    0.348    0.408   30.598    4.349 2114.150
  299.000    0.324    0.357   22.164    3.476 2156.050
  299.250    0.318    0.337   19.176    3.167 2166.570
  299.500    0.325    0.376   22.234    3.110 2154.150
  299.750    0.316    0.392   24.073    3.055 2168.880
  300.000    0.305    0.387   22.293    3.057 2187.780
  300.250    0.313    0.369   21.114    3.117 2175.360
  300.500    0.305    0.349   22.953    3.178 2187.980
  300.750    0.313    0.338   27.821    3.239 2175.570
  301.000    0.354    0.420   30.888    3.181 2104.610
  301.250    0.359    0.420   29.697    3.067 2096.360
  301.500    0.339    0.392   20.054    3.012 2129.880
  301.750    0.329    0.371   17.059    2.957 2146.700
  302.000    0.327    0.360   17.704    2.904 2150.990
  302.250    0.312    0.345   14.710    2.906 2176.170
  302.500    0.299    0.343   12.919    2.749 2199.250
  302.750    0.296    0.384   12.349    2.699 2203.540
  303.000    0.316    0.379   15.404    2.652 2170.200
  303.250    0.328    0.371   17.252    2.653 2149.420
  303.500    0.323    0.373   16.669    2.655 2157.860
  303.750    0.326    0.367   14.891    2.656 2151.710
  304.000    0.333    0.375   15.523    2.708 2141.350
  304.250    0.315    0.381   16.768    2.710 2170.720
  304.500    0.296    0.362   17.400    2.763 2204.250
  304.750    0.302    0.347   19.862    2.816 2193.920
  305.000    0.310    0.329   48.784    3.095 2179.380
  305.250    0.287    0.304   58.570    3.337 2219.190
  305.500    0.254    0.330   64.088    4.103 2275.700
  305.750    0.216    0.344   65.337    4.859 2340.580
  306.000    0.193    0.336   61.093    5.439 2380.380
  306.250    0.176    0.339   53.807    5.977 2409.730
  306.500    0.180    0.351   50.175    5.980 2401.460
  306.750    0.226    0.340   48.376    5.657 2324.250
  307.000    0.216    0.331   48.405    5.253 2341.080
  307.250    0.225    0.335   45.996    4.786 2324.500
  307.500    0.238    0.351   43.584    4.445 2303.680
  307.750    0.255    0.350   43.620    4.447 2274.530
  308.000    0.250    0.336   46.689    4.450 2282.980
  308.250    0.235    0.324   52.208    4.622 2308.160
  308.500    0.221    0.318   54.678    4.801 2331.250
  308.750    0.201    0.319   52.269    5.082 2366.870
  309.000    0.192    0.329   49.860    5.278 2381.600
  309.250    0.203    0.328   48.052    5.282 2362.890
  309.500    0.224    0.335   49.912    4.636 2327.490
  309.750    0.248    0.358   44.452    4.069 2285.800
  310.000    0.280    0.396   35.944    3.505 2231.560
  310.250    0.325    0.377   34.439    2.964 2154.360
  310.500    0.360    0.401   19.953    2.601 2093.860
  310.750    0.344    0.369   19.391    2.415 2121.130
  311.000    0.324    0.353   23.041    2.416 2156.760
  311.250    0.314    0.343   33.357    2.510 2173.570
  311.500    0.339    0.450   41.860    2.973 2129.790
  311.750    0.248    0.447   49.152    3.587 2286.630
  312.000    0.213    0.415   50.986    4.578 2345.210
  312.250    0.200    0.421   54.048    5.222 2368.290
  312.500    0.201    0.405   60.125    5.738 2366.310
  312.750    0.191    0.398   61.965    6.073 2383.140
  313.000    0.025    0.410   58.977    6.193 2667.410
  313.250    0.011    0.426   51.141    6.314 2690.490
  313.500    0.006    0.444   38.474    6.436 2698.950
  313.750    0.307    0.451   40.314    6.812 2185.050
  314.000    0.285    0.473   43.383    6.817 2222.750
  314.250    0.214    0.494   42.202    6.212 2344.040
  314.500    0.097    0.468   38.592    5.767 2544.720
  314.750    0.087    0.419   30.766    5.157 2561.550
  315.000    0.204    0.347   27.163    4.527 2361.050
  315.250    0.252    0.318   27.807    4.203 2279.680
  315.500    0.265    0.316   32.073    4.051 2256.790
  315.750    0.283    0.320   31.494    3.978 2225.550
  316.000    0.302    0.369   32.125    3.907 2194.320
  316.250    0.310    0.410   30.945    3.836 2179.780
  316.500    0.338    0.385   26.750    3.768 2131.820
  316.750    0.361    0.381   26.173    3.771 2092.230
  317.000    0.312    0.432   28.022    3.773 2175.940
  317.250    0.295    0.395   29.262    3.846 2205.260
  317.500    0.265    0.361   28.684    4.148 2257.610
  317.750    0.271    0.351   27.502    4.309 2247.290
  318.000    0.267    0.348   35.400    4.393 2253.650
  318.250    0.246    0.362   36.645    4.395 2289.250
  318.500    0.186    0.310   34.854    5.304 2391.740
  318.750    0.120    0.156   25.210    6.769    0.000
  319.000    0.021    0.136   42.182    8.639    0.000
  319.250    0.077    0.247   54.306   11.026    0.000
  319.500    0.083    0.251   57.355   14.074    0.000
  319.750    0.000    0.182   48.919   16.355    0.000
  320.000    0.000    0.155   30.805   21.272    0.000
  320.250    0.000    0.127   24.787   25.665    0.000
  320.500    0.000    0.106   22.409   32.757    0.000
  320.750    0.000    0.105   25.462   41.033    0.000
  321.000    0.000    0.123   31.535   44.251    0.000
  321.250    0.000    0.174   40.644   43.454    0.000
  321.500    0.002    0.196   45.505   38.142    0.000
  321.750    0.020    0.196   48.565   34.767    0.000
  322.000    0.001    0.165   43.151   34.780    0.000
  322.250    0.000    0.147   35.316   36.809    0.000
  322.500    0.000    0.148   33.545   41.218    0.000
  322.750    0.000    0.148   33.571   43.620    0.000
  323.000    0.007    0.142   32.388   47.035    0.000
  323.250    0.009    0.145   30.607   47.065    0.000
  323.500    0.005    0.159   37.293   44.535    0.000
  323.750    0.010    0.179   37.924   46.256    0.000
