~VERSION INFORMATION
 VERS.                 2.0:   CWLS LOG ASCII STANDARD -VERSION 2.0
 WRAP.                  NO:   ONE LINE PER DEPTH STEP
~WELL INFORMATION BLOCK
#MNEM.UNIT           DATA                    DESCRIPTION OF MNEMONIC
#---------    -------------------            -------------------------------
# Generated from Intellog Unique Number	CS_71_72/WELL/927
WELL.         ET AL SCHELTENS                : Well_name    - WELL
LOC .         00/16-13-071-01W4/0            : Location     - LOCATION
UWI .         00/16-13-071-01W4/0            : Uwi          - UNIQUE WELL ID
ENTR.         SP                             : Entered      - ENTERED BY
SRVC.         SCHLUMBERGER                   : Scn          - SERVICE COMPANY
STRT.M        365                            : top_depth    - START DEPTH
STOP.M        620                            : bot_depth    - STOP DEPTH
STEP.M        0.25                           : increment    - STEP LENGTH
 NULL. -999.2500:NULL Value
~CURVE INFORMATION BLOCK
#MNEM UNIT       ERCB CURVE CODE    CURVE DESCRIPTION
#-----------   ------------------   ----------------------------------
DEPT.M        00 001 00 00         : DEPTH        - DEPTH
ILD .OHMM     00 120 00 00         : RESD         - DEEP RESISTIVITY (DIL)
DPHI.V/V      00 890 00 00         : PHID         - DENSITY POROSITY (LIMESTONE)
NPHI.V/V      00 330 00 00         : PHIN         - NEUTRON POROSITY (LIMESTONE)
GR  .API      00 310 00 00         : GR           - GAMMA RAY
~PARAMETER INFORMATION
#MNEM.UNIT           DATA             DESCRIPTION OF MNEMONIC
#---------         -----------     ------------------------------
GL  .M        708.9                : gl           - GROUND LEVEL ELEVATION
EREF.M        713.2                : kb           - ELEVATION OF DEPTH REFERENCE
DATM.M        708.9                : datum        - DATUM ELEVATION
TDD .M        825                  : tdd          - TOTAL DEPTH DRILLER
RUN .         ONE                  : Run          - RUN NUMBER
ENG .         BILL                 : Engineer     - RECORDING ENGINEER
WIT .         JIM                  : Witness      - WITNESSED BY
MUD .         GEL                  : Mud_type     - MUD TYPE
MATR.         LIMESTONE            : Logunit      - NEUTRON MATRIX
TMAX.C        23                   : BHT          - MAXIMUM RECORDED TEMPERATURE
BHTD.M        825                  : BHTDEP       - MAXIMUM RECORDED TEMPERATURE
MATR.         1                    : LOGUNIT      - NEUTRON MATRIX
RMT .C        25                   : MDTP         - TEMPERATURE OF MUD
NEUT.         1                    : NEUTRON      - NEUTRON TYPE
RESI.         0                    : RESIST       - RESISTIVITY TYPE
RMC .OHMM     0.25                 : RMC          - RESISTIVITY OF MUD CAKE
RMF .OHMM     0.25                 : RMF          - RESISTIVITY OF MUD FILTRATE
SUFT.C        15                   : SUFT         - SURFACE TEMPERATURE
~A  DEPTH     RESD     PHID     PHIN       GR
# ...
  408.500   20.609    0.330    0.421   60.259
  408.750   18.436    0.329    0.429   61.579
  409.000   15.852    0.314    0.435   62.291
  409.250   14.235    0.290    0.438   62.270
  409.500   13.732    0.271    0.447   61.885
  409.750   15.607    0.224    0.447   63.875
  410.000   20.242    0.168    0.458   65.806
  410.250   25.473    0.123    0.416   63.532
  410.500   30.810    0.083    0.343   57.841
  410.750   32.721    0.125    0.216   59.285
  411.000   31.625    0.152    0.190   64.995
  411.250   23.254    0.212    0.382   71.250
  411.500   16.685    0.251    0.423   75.499
  411.750   14.185    0.292    0.445   78.832
  412.000   14.398    0.305    0.464   81.370
  412.250   16.519    0.289    0.477   77.266
  412.500   17.379    0.241    0.491   69.443
  412.750   18.147    0.172    0.407   64.062
  413.000   17.974    0.226    0.357   60.203
  413.250   16.666    0.245    0.354   68.224
  413.500   14.713    0.264    0.422   72.170
  413.750   13.063    0.276    0.445   75.623
  414.000   12.625    0.283    0.460   77.980
  414.250   13.009    0.288    0.474   78.874
  414.500   13.205    0.301    0.471   77.513
  414.750   13.633    0.321    0.462   75.238
  415.000   13.996    0.338    0.458   75.095
  415.250   13.914    0.324    0.446   76.476
  415.500   13.272    0.315    0.452   79.198
  415.750   12.399    0.308    0.461   81.619
  416.000   11.781    0.313    0.461   84.702
  416.250   11.647    0.304    0.468   86.268
  416.500   11.844    0.293    0.468   86.982
  416.750   12.531    0.289    0.442   85.865
  417.000   13.134    0.319    0.432   81.152
  417.250   13.714    0.319    0.451   81.681
  417.500   14.239    0.311    0.441   85.132
  417.750   14.672    0.308    0.438   84.993
  418.000   14.977    0.321    0.445   77.903
  418.250   15.117    0.328    0.458   72.275
  418.500   15.143    0.333    0.454   70.732
  418.750   14.774    0.328    0.433   72.904
  419.000   13.828    0.324    0.424   75.381
  419.250   13.339    0.318    0.421   76.884
  419.500   13.187    0.304    0.431   77.600
  419.750   13.410    0.286    0.458   76.483
  420.000   14.650    0.273    0.472   75.792
  420.250   15.559    0.267    0.447   76.196
  420.500   16.277    0.266    0.424   77.578
  420.750   16.428    0.268    0.412   78.533
  421.000   15.907    0.278    0.411   78.942
  421.250   15.403    0.296    0.417   77.338
  421.500   15.400    0.309    0.424   74.331
  421.750   15.840    0.319    0.434   72.482
  422.000   16.445    0.327    0.451   71.487
  422.250   17.269    0.332    0.435   68.173
  422.500   17.862    0.332    0.423   66.266
  422.750   18.302    0.324    0.419   65.576
  423.000   18.403    0.312    0.441   67.258
  423.250   17.989    0.265    0.446   68.157
  423.500   17.093    0.243    0.406   66.795
  423.750   15.582    0.238    0.387   66.227
  424.000   13.298    0.257    0.377   68.949
  424.250   11.630    0.276    0.393   72.402
  424.500   10.522    0.287    0.411   74.090
  424.750   11.582    0.276    0.423   75.411
  425.000   13.339    0.270    0.433   73.987
  425.250   14.963    0.276    0.447   71.103
  425.500   16.224    0.291    0.472   71.144
  425.750   17.100    0.307    0.453   74.722
  426.000   17.489    0.323    0.438   64.462
  426.250   17.818    0.335    0.451   49.144
  426.500   17.849    0.357    0.444   44.431
  426.750   17.813    0.364    0.450   45.812
  427.000   18.147    0.368    0.461   47.923
  427.250   18.352    0.366    0.458   51.074
  427.500   18.947    0.351    0.447   55.318
  427.750   19.524    0.339    0.433   58.468
  428.000   19.892    0.327    0.423   60.828
  428.250   19.926    0.319    0.415   61.051
  428.500   19.886    0.318    0.411   56.703
  428.750   19.696    0.323    0.407   51.986
  429.000   19.398    0.332    0.397   49.898
  429.250   19.104    0.342    0.398   48.353
  429.500   18.851    0.345    0.409   50.041
  429.750   18.777    0.348    0.400   52.396
  430.000   18.738    0.340    0.403   54.633
  430.250   18.665    0.326    0.427   56.439
  430.500   18.556    0.314    0.450   57.517
  430.750   18.345    0.305    0.438   56.889
  431.000   17.864    0.310    0.425   56.563
  431.250   16.563    0.319    0.433   56.784
  431.500   15.099    0.325    0.444   57.681
  431.750   13.869    0.319    0.459   60.888
  432.000   12.835    0.309    0.442   63.309
  432.250   11.991    0.296    0.426   65.424
  432.500   11.287    0.285    0.428   66.985
  432.750   10.806    0.275    0.450   69.588
  433.000   10.764    0.266    0.456   72.798
  433.250   10.947    0.259    0.450   74.302
  433.500   11.132    0.274    0.446   75.561
  433.750   10.263    0.284    0.438   76.943
  434.000    9.112    0.294    0.432   78.202
  434.250    8.465    0.293    0.439   79.585
  434.500    7.864    0.282    0.460   81.819
  434.750    8.211    0.272    0.475   83.750
  435.000    8.836    0.265    0.485   81.231
  435.250    9.366    0.263    0.490   76.397
  435.500    9.761    0.263    0.454   73.023
  435.750    9.834    0.260    0.435   78.428
  436.000    9.776    0.252    0.426   84.746
  436.250    9.738    0.247    0.422   88.869
  436.500    9.700    0.249    0.430   89.459
  436.750    9.864    0.254    0.428   88.769
  437.000   10.069    0.262    0.418   81.436
  437.250   10.494    0.292    0.440   73.555
  437.500   10.834    0.317    0.437   65.549
  437.750   10.976    0.347    0.423   61.630
  438.000   10.871    0.349    0.413   65.630
  438.250   10.747    0.332    0.422   69.997
  438.500   10.827    0.313    0.428   74.186
  438.750   11.094    0.293    0.412   78.797
  439.000   11.475    0.277    0.424   81.033
  439.250   11.758    0.274    0.462   64.252
  439.500   12.002    0.348    0.452   52.713
  439.750   12.206    0.363    0.424   49.158
  440.000   12.412    0.364    0.425   47.611
  440.250   12.551    0.363    0.446   46.737
  440.500   12.573    0.360    0.443   46.111
  440.750   12.547    0.358    0.444   45.837
  441.000   12.357    0.358    0.442   45.888
  441.250   12.011    0.360    0.433   47.080
  441.500   11.652    0.364    0.426   48.525
  441.750   11.390    0.365    0.418   50.336
  442.000   11.175    0.367    0.411   51.171
  442.250   11.047    0.368    0.432   50.298
  442.500   10.942    0.370    0.462   47.840
  442.750   10.879    0.373    0.449   44.711
  443.000   10.795    0.376    0.436   43.835
  443.250   10.652    0.378    0.430   44.788
  443.500   10.550    0.378    0.421   45.196
  443.750   10.449    0.373    0.420   45.605
  444.000   10.369    0.368    0.434   46.316
  444.250   10.328    0.367    0.441   46.597
  444.500   10.288    0.365    0.434   46.333
  444.750   10.248    0.367    0.423   45.526
  445.000   10.226    0.369    0.434   50.746
  445.250   10.167    0.368    0.432   58.284
  445.500   10.127    0.364    0.432   63.748
  445.750   10.222    0.348    0.453   67.874
  446.000   10.692    0.324    0.482   71.753
  446.250   10.813    0.308    0.472   72.893
  446.500   11.375    0.312    0.455   60.499
  446.750   11.568    0.327    0.436   53.467
  447.000   11.943    0.341    0.420   49.550
  447.250   12.145    0.348    0.431   48.190
  447.500   12.351    0.349    0.439   48.778
  447.750   12.466    0.349    0.443   48.934
  448.000   12.582    0.346    0.444   48.980
  448.250   12.675    0.344    0.425   48.220
  448.500   12.697    0.342    0.417   47.598
  448.750   12.695    0.342    0.420   46.056
  449.000   12.693    0.344    0.431   45.060
  449.250   12.643    0.345    0.423   44.861
  449.500   12.523    0.346    0.411   45.327
  449.750   12.333    0.347    0.410   47.014
  450.000   12.124    0.349    0.418   49.005
  450.250   11.761    0.353    0.432   51.300
  450.500   11.518    0.356    0.446   53.527
  450.750   11.259    0.362    0.440   53.696
  451.000   11.068    0.370    0.430   52.399
  451.250   10.921    0.376    0.470   48.783
  451.500   10.775    0.377    0.477   48.824
  451.750   10.733    0.374    0.463   49.045
