~VERSION INFORMATION
 VERS.                 2.0:   CWLS LOG ASCII STANDARD -VERSION 2.0
 WRAP.                  NO:   ONE LINE PER DEPTH STEP
~WELL INFORMATION BLOCK
#MNEM.UNIT           DATA                    DESCRIPTION OF MNEMONIC
#---------    -------------------            -------------------------------
# Generated from Intellog Unique Number	CC_80_83/WELL/2442
NULL.         -999.25                        : NULL_VALUE
WELL.         GULF RESDELN                   : Well_name    - WELL              
LOC .         16-03-083-07W4                 : Location     - LOCATION          
UWI .         00/16-03-083-07W4/0            : Uwi          - UNIQUE WELL ID    
ENTR.         DW                             : Entered      - ENTERED BY        
SRVC.         SCHLUMBERGER                   : Scn          - SERVICE COMPANY   
DATE.         08 MAR 81                      : Date         - LOG DATE
STRT.M        210                            : top_depth    - START DEPTH       
STOP.M        459.892                        : bot_depth    - STOP DEPTH        
STEP.M        0.3                            : increment    - STEP LENGTH       
~CURVE INFORMATION BLOCK
#MNEM UNIT       ERCB CURVE CODE    CURVE DESCRIPTION
#-----------   ------------------   ----------------------------------
DEPT.M        00 001 00 00         : DEPTH        - DEPTH                       
DPHI.V/V      00 890 00 00         : PHID         - DENSITY POROSITY (LIMESTONE)
NPHI.V/V      00 330 00 00         : PHIN         - NEUTRON POROSITY (LIMESTONE)
GR  .API      00 310 00 00         : GR           - GAMMA RAY                   
ILD .OHMM     00 120 00 00         : RESD         - DEEP RESISTIVITY (DIL)      
~PARAMETER INFORMATION       
#MNEM.UNIT           DATA             DESCRIPTION OF MNEMONIC
#---------         -----------     ------------------------------
GL  .M        670.8                : gl           - GROUND LEVEL ELEVATION      
EREF.M        675.45               : kb           - ELEVATION OF DEPTH REFERENCE
DATM.M        675.45               : datum        - DATUM ELEVATION             
TDD .M        505                  : tdd          - TOTAL DEPTH DRILLER         
RUN .         ONE                  : Run          - RUN NUMBER                  
ENG .         BILL                 : Engineer     - RECORDING ENGINEER          
WIT .         JIM                  : Witness      - WITNESSED BY                
MUD .         GEL                  : Mud_type     - MUD TYPE                    
MATR.         LIMESTONE            : Logunit      - NEUTRON MATRIX              
TMAX.C        18                   : BHT          - MAXIMUM RECORDED TEMPERATURE
BHTD.M        505                  : BHTDEP       - MAXIMUM RECORDED TEMPERATURE
MATR.         1                    : LOGUNIT      - NEUTRON MATRIX              
RMT .C        25                   : MDTP         - TEMPERATURE OF MUD          
NEUT.         1                    : NEUTRON      - NEUTRON TYPE                
RESI.         0                    : RESIST       - RESISTIVITY TYPE            
RMC .OHMM     0.25                 : RMC          - RESISTIVITY OF MUD CAKE     
RMF .OHMM     0.25                 : RMF          - RESISTIVITY OF MUD FILTRATE 
SUFT.C        4                    : SUFT         - SURFACE TEMPERATURE         
~A  DEPTH     PHID     PHIN       GR     RESD
# ...
  366.596    0.188    0.496   83.661    5.987
  366.896    0.232    0.505   81.827    6.580
  367.196    0.226    0.510   81.850    7.661
  367.496    0.242    0.505   83.109    8.747
  367.796    0.268    0.476   84.991    8.731
  368.096    0.253    0.470   88.731    6.174
  368.396    0.262    0.465   93.090    4.449
  368.696    0.235    0.456   93.731    3.666
  368.996    0.228    0.456   88.180    3.591
  369.296    0.225    0.494   81.389    3.872
  369.596    0.251    0.536   80.795    4.960
  369.896    0.236    0.558   80.817    6.862
  370.196    0.271    0.555   81.459    7.987
  370.496    0.236    0.473   80.240    9.291
  370.796    0.262    0.451   75.926    9.826
  371.096    0.245    0.457   72.234   10.008
  371.396    0.290    0.479   70.398    9.991
  371.696    0.282    0.478   69.179    9.783
  371.996    0.276    0.492   69.201   10.147
  372.296    0.260    0.486   68.604   10.133
  372.596    0.265    0.472   65.532   10.118
  372.896    0.288    0.486   63.696    9.724
  373.196    0.252    0.480   64.955    9.342
  373.496    0.201    0.478   68.076    9.507
  373.796    0.146    0.459   70.575    9.676
  374.096    0.243    0.457   71.220    9.852
  374.396    0.278    0.463   69.385   10.618
  374.696    0.272    0.458   68.787   11.018
  374.996    0.248    0.458   70.668   11.427
  375.296    0.192    0.465   75.025   10.771
  375.596    0.179    0.460   81.242    9.403
  375.896    0.218    0.461   86.841    8.369
  376.196    0.223    0.455   90.584    7.307
  376.496    0.181    0.449   92.464    6.257
  376.796    0.179    0.451   94.348    6.013
  377.096    0.189    0.495   94.986    5.888
  377.396    0.192    0.470   93.770    6.110
  377.696    0.195    0.471   92.556    7.108
  377.996    0.194    0.462   93.197    7.522
  378.296    0.214    0.440   93.216    8.267
  378.595    0.194    0.411   92.618    8.254
  378.895    0.195    0.434   89.547    7.931
  379.195    0.195    0.448   88.330    7.193
  379.495    0.191    0.450   89.593    6.279
  379.795    0.186    0.460   82.182    5.078
  380.095    0.234    0.467   81.586    2.641
  380.395    0.279    0.486   82.225    2.396
  380.695    0.272    0.516   82.251    2.346
  380.995    0.261    0.560   82.269    2.482
  381.295    0.245    0.587   81.060    3.002
  381.595    0.237    0.562   81.080    3.773
  381.895    0.222    0.500   81.099    4.226
  382.195    0.212    0.507   79.885    5.209
  382.495    0.218    0.489   79.284    5.949
  382.795    0.227    0.459   79.927    6.537
  383.095    0.216    0.437   83.665    6.912
  383.395    0.215    0.449   91.742    6.640
  383.695    0.198    0.467   93.627    5.910
  383.995    0.186    0.450   93.027    5.064
  384.295    0.194    0.425   90.578    3.648
  384.595    0.214    0.439   89.356    3.309
  384.895    0.202    0.474   89.381    3.240
  385.195    0.220    0.487   90.018    3.237
  385.495    0.212    0.512   90.665    3.358
  385.795    0.198    0.515   91.930    3.551
  386.095    0.225    0.496   93.187    3.613
  386.395    0.234    0.499   95.071    3.538
  386.695    0.219    0.513   95.714    3.535
  386.995    0.219    0.531   96.970    3.528
  387.295    0.218    0.506   97.614    3.731
  387.595    0.208    0.511   97.641    3.871
  387.895    0.190    0.526   97.045    3.867
  388.195    0.200    0.536   95.206    3.643
  388.495    0.190    0.524   93.368    3.639
  388.795    0.204    0.519   90.912    3.776
  389.095    0.200    0.524   89.076    4.478
  389.395    0.194    0.521   87.240    5.314
  389.695    0.194    0.483   84.163    5.952
  389.995    0.177    0.441   79.850    6.058
  390.295    0.205    0.446   71.824    5.936
  390.595    0.189    0.478   72.466    5.704
  390.895    0.150    0.475   74.345    6.513
  391.195    0.050    0.438   76.842    8.030
  391.495    0.106    0.392   81.206    8.822
  391.795    0.191    0.385   83.703    8.811
  392.095    0.203    0.422   84.966    7.546
  392.395    0.208    0.434   73.836    5.542
  392.695    0.208    0.444   73.858    5.427
  392.995    0.234    0.470   77.598    5.629
  393.295    0.243    0.479   88.154    5.731
  393.595    0.228    0.443   90.651    5.199
  393.895    0.223    0.444   92.533    4.539
  394.195    0.234    0.479   93.797    3.671
  394.495    0.220    0.502   91.961    3.460
  394.795    0.208    0.499   92.602    3.729
  395.095    0.198    0.462  101.915    4.178
  395.395    0.183    0.430  105.656    6.869
  395.695    0.175    0.381  104.442    8.308
  395.995    0.145    0.375  102.604    9.305
  396.295    0.147    0.384  103.865    9.116
  396.595    0.166    0.412  110.085    8.426
  396.895    0.168    0.417  112.585    8.096
  397.195    0.159    0.406  113.233    7.782
  397.495    0.163    0.442  113.251    7.770
  397.795    0.149    0.477   97.785    7.905
  398.095    0.160    0.484   97.190    7.599
  398.395    0.137    0.476   97.832    7.295
  398.695    0.170    0.444   99.092    7.290
  398.995    0.157    0.394  100.353    7.855
  399.295    0.152    0.394  100.999    8.471
  399.595    0.142    0.417  100.396    8.954
  399.895    0.132    0.433  103.153    7.759
  400.195    0.146    0.450  103.105    8.214
  400.495    0.150    0.429  103.055    8.370
  400.795    0.156    0.423  101.749    8.367
  401.095    0.176    0.430   95.472    8.525
  401.395    0.163    0.411   86.708    8.855
  401.695    0.145    0.415   78.569    9.374
  401.995    0.169    0.434   72.291    9.371
  402.295    0.204    0.432   73.472    9.189
  402.595    0.262    0.429   88.954    8.840
  402.895    0.137    0.378   95.733    8.668
  403.194    0.140    0.370   92.556    8.832
  403.494    0.158    0.419   85.641    9.531
  403.794    0.195    0.441   83.115    9.901
  404.094    0.151    0.426   79.928   10.481
  404.394    0.169    0.380   79.259   10.886
  404.694    0.166    0.397   80.442   10.881
  404.994    0.185    0.410   82.242   10.671
  405.294    0.198    0.427   85.907   10.667
  405.594    0.170    0.396   92.694   10.868
  405.894    0.144    0.393  100.085   10.456
  406.194    0.141    0.372  100.034    9.497
  406.494    0.122    0.373   95.617    8.964
  406.794    0.142    0.387   92.436    8.460
  407.094    0.104    0.417   91.762    8.456
  407.394    0.129    0.430   92.955    8.953
  407.694    0.156    0.422   97.234    9.298
  407.994    0.148    0.412   97.799    9.295
  408.294    0.159    0.407   85.930    9.115
  408.594    0.169    0.413   80.277    9.648
  408.894    0.144    0.424   80.210   10.022
  409.194    0.164    0.379   81.386   10.816
  409.494    0.158    0.378   82.567   11.898
  409.794    0.202    0.389   83.752   13.088
  410.094    0.185    0.409   84.307   13.082
  410.394    0.196    0.395   85.487   12.586
  410.694    0.182    0.388   84.820   11.879
  410.994    0.156    0.387   80.415   11.649
  411.294    0.172    0.391   64.191   12.813
  411.594    0.248    0.434   51.693   15.512
  411.894    0.254    0.451   40.449   21.887
  412.194    0.241    0.438   44.113   31.479
  412.494    0.272    0.449   46.539   44.412
  412.794    0.256    0.384   43.989   46.132
  413.094    0.238    0.383   43.933   38.811
  413.394    0.268    0.389   53.819   36.629
  413.694    0.269    0.421   51.894   43.499
  413.994    0.244    0.390   45.618   47.853
  414.294    0.270    0.429   53.636   41.041
  414.594    0.294    0.435   62.273   29.624
  414.894    0.291    0.410   63.462   28.498
  415.194    0.207    0.400   57.804   30.753
  415.494    0.232    0.405   37.227   37.233
  415.794    0.284    0.432   33.440   66.106
  416.094    0.319    0.458   32.755  102.645
  416.394    0.288    0.436   34.567  100.651
  416.694    0.295    0.400   35.743  117.271
  416.994    0.289    0.401   35.057  134.038
  417.294    0.285    0.425   35.603  133.963
  417.594    0.289    0.419   36.786  131.394
  417.894    0.289    0.403   37.989  117.085
  418.194    0.310    0.395   43.523   98.503
  418.494    0.310    0.405   52.164   82.881
