~VERSION INFORMATION
 VERS.                 2.0:   CWLS LOG ASCII STANDARD -VERSION 2.0
 WRAP.                  NO:   ONE LINE PER DEPTH STEP
~WELL INFORMATION BLOCK
#MNEM.UNIT           DATA                    DESCRIPTION OF MNEMONIC
#---------    -------------------            -------------------------------
# Generated from Intellog Unique Number	CS_69_70/WELL/879
WELL.         GULF CANADA LIMITED            : Well_name    - WELL
LOC .         00/10-34-069-15W4/0            : Location     - LOCATION
UWI .         00/10-34-069-15W4/0            : Uwi          - UNIQUE WELL ID
ENTR.         SP                             : Entered      - ENTERED BY
SRVC.         SCHLUMBERGER                   : Scn          - SERVICE COMPANY
STRT.M        250                            : top_depth    - START DEPTH
STOP.M        465                            : bot_depth    - STOP DEPTH
STEP.M        0.25                           : increment    - STEP LENGTH
 NULL. -999.2500:NULL Value
~CURVE INFORMATION BLOCK
#MNEM UNIT       ERCB CURVE CODE    CURVE DESCRIPTION
#-----------   ------------------   ----------------------------------
DEPT.M        00 001 00 00         : DEPTH        - DEPTH
ILD .OHMM     00 120 00 00         : RESD         - DEEP RESISTIVITY (DIL)
DPHI.V/V      00 890 00 00         : PHID         - DENSITY POROSITY (LIMESTONE)
NPHI.V/V      00 330 00 00         : PHIN         - NEUTRON POROSITY (LIMESTONE)
GR  .API      00 310 00 00         : GR           - GAMMA RAY
~PARAMETER INFORMATION
#MNEM.UNIT           DATA             DESCRIPTION OF MNEMONIC
#---------         -----------     ------------------------------
GL  .M        559.6                : gl           - GROUND LEVEL ELEVATION
EREF.M        563.41               : kb           - ELEVATION OF DEPTH REFERENCE
DATM.M        559.6                : datum        - DATUM ELEVATION
TDD .M        465                  : tdd          - TOTAL DEPTH DRILLER
RUN .         ONE                  : Run          - RUN NUMBER
ENG .         BILL                 : Engineer     - RECORDING ENGINEER
WIT .         JIM                  : Witness      - WITNESSED BY
MUD .         GEL                  : Mud_type     - MUD TYPE
MATR.         LIMESTONE            : Logunit      - NEUTRON MATRIX
TMAX.C        18                   : BHT          - MAXIMUM RECORDED TEMPERATURE
BHTD.M        465                  : BHTDEP       - MAXIMUM RECORDED TEMPERATURE
MATR.         1                    : LOGUNIT      - NEUTRON MATRIX
RMT .C        25                   : MDTP         - TEMPERATURE OF MUD
NEUT.         1                    : NEUTRON      - NEUTRON TYPE
RESI.         0                    : RESIST       - RESISTIVITY TYPE
RMC .OHMM     0.25                 : RMC          - RESISTIVITY OF MUD CAKE
RMF .OHMM     0.25                 : RMF          - RESISTIVITY OF MUD FILTRATE
SUFT.C        15                   : SUFT         - SURFACE TEMPERATURE
~A  DEPTH     RESD     PHID     PHIN       GR
# ...
  424.000    5.708    0.190    0.442   92.544
  424.250    5.421    0.175    0.427   94.906
  424.500    5.273    0.158    0.417   96.354
  424.750    5.179    0.147    0.409   94.394
  425.000    5.104    0.143    0.406   97.791
  425.250    4.892    0.163    0.407  101.186
  425.500    4.671    0.184    0.409  103.121
  425.750    4.411    0.199    0.422  103.840
  426.000    4.205    0.200    0.438  103.829
  426.250    4.030    0.191    0.458  103.998
  426.500    3.965    0.185    0.470  104.291
  426.750    3.929    0.180    0.471  104.157
  427.000    3.887    0.179    0.462  102.137
  427.250    3.838    0.165    0.455   99.689
  427.500    3.755    0.157    0.452   99.981
  427.750    3.633    0.185    0.478  101.732
  428.000    3.508    0.176    0.493  101.966
  428.250    3.381    0.161    0.489   98.058
  428.500    3.277    0.186    0.500   98.227
  428.750    3.218    0.201    0.511  100.406
  429.000    3.183    0.196    0.515  103.254
  429.250    3.184    0.203    0.520  104.949
  429.500    3.179    0.211    0.507  106.698
  429.750    3.169    0.194    0.490  107.540
  430.000    3.123    0.173    0.476  108.138
  430.250    3.089    0.179    0.477  108.857
  430.500    3.022    0.188    0.497  109.270
  430.750    2.919    0.173    0.514  106.762
  431.000    2.855    0.173    0.531  104.680
  431.250    2.762    0.194    0.529  106.067
  431.500    2.707    0.172    0.530  107.394
  431.750    2.688    0.174    0.522  108.296
  432.000    2.704    0.188    0.514  109.318
  432.250    2.766    0.203    0.507  109.550
  432.500    2.793    0.189    0.508  106.128
  432.750    2.825    0.186    0.502  103.986
  433.000    2.789    0.173    0.489  107.200
  433.250    2.644    0.148    0.467  110.291
  433.500    2.502    0.158    0.478  111.923
  433.750    2.447    0.192    0.504  110.571
  434.000    2.416    0.214    0.517  110.012
  434.250    2.462    0.216    0.530  110.182
  434.500    2.939    0.226    0.535  107.675
  434.750    3.475    0.210    0.509   99.871
  435.000    4.147    0.189    0.481   92.188
  435.250    4.778    0.144    0.426   84.811
  435.500    5.353    0.094    0.398   80.355
  435.750    5.736    0.071    0.368   85.821
  436.000    5.611    0.109    0.374   90.435
  436.250    5.182    0.161    0.402   93.345
  436.500    4.903    0.188    0.416   93.455
  436.750    4.859    0.208    0.426   91.675
  437.000    5.054    0.195    0.415   88.743
  437.250    5.406    0.178    0.400   83.982
  437.500    5.858    0.178    0.385   80.195
  437.750    6.442    0.182    0.376   76.653
  438.000    7.032    0.195    0.370   73.657
  438.250    7.662    0.214    0.367   71.273
  438.500    8.442    0.223    0.365   68.885
  438.750    9.337    0.224    0.365   67.353
  439.000    9.986    0.224    0.368   69.044
  439.250   10.982    0.216    0.372   69.885
  439.500   11.923    0.202    0.368   67.741
  439.750   12.471    0.180    0.364   68.946
  440.000   12.544    0.157    0.360   72.039
  440.250   11.957    0.149    0.356   75.314
  440.500   10.482    0.153    0.352   79.746
  440.750    9.190    0.144    0.348   90.934
  441.000    7.835    0.142    0.343  104.800
  441.250    6.718    0.153    0.341  112.702
  441.500    5.978    0.149    0.380  118.168
  441.750    5.469    0.158    0.415  120.591
  442.000    5.461    0.166    0.425  116.621
  442.250    5.586    0.168    0.423  112.163
  442.500    6.031    0.180    0.412  109.475
  442.750    6.670    0.170    0.400  110.498
  443.000    7.173    0.173    0.422  105.676
  443.250    7.845    0.196    0.422   93.612
  443.500    8.516    0.211    0.399   80.634
  443.750    8.907    0.240    0.380   79.464
  444.000    9.044    0.214    0.368   80.609
  444.250    8.897    0.188    0.356   82.300
  444.500    8.496    0.169    0.345   85.088
  444.750    7.964    0.159    0.360   86.843
  445.000    7.719    0.164    0.355   88.412
  445.250    7.538    0.155    0.348   96.314
  445.500    7.415    0.147    0.340  106.589
  445.750    7.281    0.139    0.338  115.342
  446.000    7.229    0.157    0.344  120.687
  446.250    7.179    0.161    0.345  123.840
  446.500    7.288    0.147    0.357  119.750
  446.750    7.524    0.161    0.364  111.822
  447.000    7.812    0.145    0.357  105.113
  447.250    8.309    0.124    0.345   99.503
  447.500    8.772    0.136    0.332   94.500
  447.750    9.312    0.188    0.324   89.070
  448.000    9.905    0.203    0.323   86.441
  448.250   10.188    0.187    0.322   96.287
  448.500   10.306    0.158    0.340  101.025
  448.750   10.601    0.166    0.339  106.309
  449.000   11.233    0.173    0.335  111.592
  449.250   12.194    0.179    0.343  111.641
  449.500   13.386    0.194    0.356  100.976
  449.750   14.450    0.209    0.369   91.773
  450.000   15.198    0.214    0.383   80.012
  450.250   13.855    0.203    0.387   81.947
  450.500   12.351    0.189    0.378   82.423
  450.750   11.176    0.181    0.363   79.975
  451.000   10.495    0.196    0.362   77.894
  451.250   10.363    0.223    0.359   76.055
  451.500   10.900    0.253    0.324   73.303
  451.750   12.534    0.282    0.290   67.751
  452.000   22.058    0.306    0.263   62.444
  452.250   31.175    0.318    0.232   56.832
  452.500   39.048    0.324    0.205   50.855
  452.750   45.238    0.318    0.193   46.764
  453.000   48.384    0.322    0.190   43.221
  453.250   32.340    0.319    0.217   40.286
  453.500    7.524    0.309    0.252   39.665
  453.750    4.774    0.300    0.291   41.234
  454.000    3.399    0.289    0.329   44.204
  454.250    2.813    0.278    0.359   45.899
  454.500    2.480    0.268    0.380   49.112
  454.750    2.377    0.270    0.375   54.273
  455.000    2.432    0.272    0.367   59.862
  455.250    2.655    0.262    0.361   65.694
  455.500    3.019    0.243    0.357   73.291
  455.750    3.753    0.215    0.354   88.435
  456.000    4.571    0.188    0.350  101.024
  456.250    5.476    0.176    0.346  112.577
  456.500    6.045    0.163    0.348  122.547
  456.750    6.513    0.138    0.354  133.005
  457.000    6.800    0.127    0.355  142.307
  457.250    6.904    0.137    0.367  148.442
  457.500    6.630    0.145    0.377  152.144
  457.750    6.355    0.132    0.367  154.140
  458.000    6.113    0.136    0.355  154.554
  458.250    5.970    0.155    0.350  154.112
  458.500    5.917    0.170    0.356  153.372
  458.750    5.985    0.181    0.358  152.873
  459.000    6.111    0.173    0.357  152.374
  459.250    6.250    0.162    0.356  151.997
  459.500    6.406    0.167    0.361  151.985
  459.750    6.650    0.173    0.362  152.582
  460.000    6.982    0.153    0.361  150.560
  460.250    7.523    0.135    0.363  150.730
  460.500    8.166    0.127    0.369  150.658
  460.750    8.915    0.121    0.374  148.576
  461.000    9.678    0.114    0.380  132.007
  461.250   10.370    0.106    0.375  126.760
  461.500   10.667    0.093    0.372  122.669
  461.750   10.810    0.114    0.371  115.230
  462.000    9.781    0.151    0.377  114.486
  462.250    8.900    0.199    0.385  116.910
  462.500    8.143    0.242    0.384  119.271
  462.750    7.493    0.251    0.382  120.841
  463.000    7.115    0.237    0.382  121.985
  463.250    7.053    0.222    0.385  123.192
  463.500    7.081    0.213    0.391  125.005
  463.750    7.149    0.210    0.398  127.063
  464.000    7.192    0.226    0.404  129.360
  464.250    7.221    0.222    0.407  130.447
  464.500    7.223    0.256    0.410  131.044
  464.750    7.199    0.275    0.410  130.605
  465.000    7.175    0.289    0.407  131.142
