~VERSION INFORMATION
 VERS.                 2.0:   CWLS LOG ASCII STANDARD -VERSION 2.0
 WRAP.                  NO:   ONE LINE PER DEPTH STEP
~WELL INFORMATION BLOCK
#MNEM.UNIT           DATA                    DESCRIPTION OF MNEMONIC
#---------    -------------------            -------------------------------
# Generated from Intellog Unique Number	CS_77_79/WELL/996
WELL.         NORTHSTAR ET AL THORNBURY      : Well_name    - WELL
LOC .         00/11-18-079-12W4/0            : Location     - LOCATION
UWI .         00/11-18-079-12W4/0            : Uwi          - UNIQUE WELL ID
ENTR.         JHS                            : Entered      - ENTERED BY
SRVC.         SCHLUMBERGER                   : Scn          - SERVICE COMPANY
STRT.M        275                            : top_depth    - START DEPTH
STOP.M        520                            : bot_depth    - STOP DEPTH
STEP.M        0.25                           : increment    - STEP LENGTH
 NULL. -999.2500:NULL Value
~CURVE INFORMATION BLOCK
#MNEM UNIT       ERCB CURVE CODE    CURVE DESCRIPTION
#-----------   ------------------   ----------------------------------
DEPT.M        00 001 00 00         : DEPTH        - DEPTH
DPHI.V/V      00 890 00 00         : PHID         - DENSITY POROSITY (LIMESTONE)
NPHI.V/V      00 330 00 00         : PHIN         - NEUTRON POROSITY (LIMESTONE)
GR  .API      00 310 00 00         : GR           - GAMMA RAY
ILD .OHMM     00 120 00 00         : RESD         - DEEP RESISTIVITY (DIL)
RHOB.KG/M3    00 350 00 00         : DENS         - BULK DENSITY
~PARAMETER INFORMATION
#MNEM.UNIT           DATA             DESCRIPTION OF MNEMONIC
#---------         -----------     ------------------------------
GL  .M        707.3                : gl           - GROUND LEVEL ELEVATION
EREF.M        711.3                : kb           - ELEVATION OF DEPTH REFERENCE
DATM.M        711.3                : datum        - DATUM ELEVATION
TDD .M        526.6                : tdd          - TOTAL DEPTH DRILLER
RUN .         ONE                  : Run          - RUN NUMBER
ENG .         BILL                 : Engineer     - RECORDING ENGINEER
WIT .         JIM                  : Witness      - WITNESSED BY
MUD .         GEL                  : Mud_type     - MUD TYPE
MATR.         LIMESTONE            : Logunit      - NEUTRON MATRIX
TMAX.C        25.1                 : BHT          - MAXIMUM RECORDED TEMPERATURE
BHTD.M        526.6                : BHTDEP       - MAXIMUM RECORDED TEMPERATURE
MATR.         1                    : LOGUNIT      - NEUTRON MATRIX
RMT .C        25                   : MDTP         - TEMPERATURE OF MUD
NEUT.         1                    : NEUTRON      - NEUTRON TYPE
RESI.         0                    : RESIST       - RESISTIVITY TYPE
RMC .OHMM     0.25                 : RMC          - RESISTIVITY OF MUD CAKE
RMF .OHMM     0.25                 : RMF          - RESISTIVITY OF MUD FILTRATE
SUFT.C        15                   : SUFT         - SURFACE TEMPERATURE
~A  DEPTH     PHID     PHIN       GR     RESD     DENS
# ...
  457.500    0.197    0.423   91.944    5.352 2372.890
  457.750    0.201    0.405   90.641    5.655 2366.390
  458.000    0.216    0.394   89.958    5.759 2341.030
  458.250    0.220    0.412   89.895    5.540 2334.530
  458.500    0.199    0.431   91.661    5.136 2369.830
  458.750    0.193    0.452   94.632    4.498 2380.020
  459.000    0.204    0.473   92.119    4.329 2360.970
  459.250    0.176    0.487   89.606    4.324 2408.810
  459.500    0.153    0.444   88.909    4.835 2448.270
  459.750    0.137    0.400   86.390    5.826 2475.230
  460.000    0.169    0.376   83.888    6.274 2420.600
  460.250    0.197    0.394   83.196    6.153 2372.280
  460.500    0.209    0.435   89.858    5.701 2353.120
  460.750    0.216    0.456   96.503    4.721 2340.340
  461.000    0.224    0.468   98.848    4.215 2327.620
  461.250    0.216    0.484  100.018    3.490 2339.920
  461.500    0.223    0.487  104.238    3.234 2329.180
  461.750    0.205    0.487  109.040    3.054 2360.290
  462.000    0.208    0.493  108.980    3.050 2353.770
  462.250    0.222    0.492  106.463    3.049 2330.510
  462.500    0.210    0.492  101.501    3.161 2351.220
  462.750    0.190    0.497  102.022    3.279 2384.420
  463.000    0.204    0.496  100.726    3.531 2361.100
  463.250    0.207    0.481  100.638    3.731 2356.750
  463.500    0.204    0.468  101.815    3.799 2360.670
  463.750    0.207    0.478  104.142    3.796 2356.210
  464.000    0.194    0.465  104.110    3.652 2379.010
  464.250    0.184    0.474  102.192    3.580 2395.450
  464.500    0.136    0.485  100.283    3.712 2476.780
  464.750    0.128    0.497   97.753    3.852 2491.110
  465.000    0.138    0.500   97.704    4.070 2474.200
  465.250    0.160    0.458  103.136    4.067 2436.280
  465.500    0.204    0.433  111.002    4.062 2360.790
  465.750    0.226    0.459  110.331    4.215 2322.880
  466.000    0.212    0.482  105.974    4.624 2347.750
  466.250    0.224    0.448  101.619    5.170 2326.530
  466.500    0.228    0.418   94.813    6.348 2319.990
  466.750    0.171    0.392   88.022    7.371 2418.090
  467.000    0.157    0.401   86.085    8.882 2440.830
  467.250    0.187    0.378   84.823    9.747 2390.420
  467.500    0.221    0.339   81.057   10.898 2331.590
  467.750    0.258    0.302   77.325   11.732 2268.590
  468.000    0.270    0.271   72.366   11.944 2247.460
  468.250    0.290    0.263   68.020   11.711 2213.720
  468.500    0.221    0.300   68.559   10.854 2332.710
  468.750    0.224    0.350   78.869   10.251 2326.110
  469.000    0.232    0.397   86.108    9.499 2313.390
  469.250    0.217    0.408   88.496    9.137 2338.200
  469.500    0.193    0.402   89.644    9.128 2379.810
  469.750    0.182    0.395   90.205    9.470 2398.330
  470.000    0.173    0.373   96.235    9.639 2414.860
  470.250    0.168    0.373  104.110    9.275 2422.970
  470.500    0.173    0.386  110.772    8.926 2414.380
  470.750    0.189    0.414  114.360    8.584 2386.930
  471.000    0.212    0.426  113.683    8.743 2346.950
  471.250    0.211    0.418  108.700    9.775 2348.760
  471.500    0.228    0.418  104.364   12.460 2319.270
  471.750    0.252    0.426   99.383   14.742 2279.290
  472.000    0.230    0.405   91.984   17.436 2316.690
  472.250    0.205    0.345   83.964   19.494 2360.300
  472.500    0.221    0.323   80.821   20.217 2332.900
  472.750    0.240    0.326   81.982   19.457 2299.220
  473.000    0.199    0.359   85.576   16.726 2370.040
  473.250    0.184    0.375   89.143   15.494 2394.880
  473.500    0.198    0.385   90.931   15.486 2371.640
  473.750    0.221    0.369   92.088   16.675 2331.600
  474.000    0.228    0.363   88.328   18.645 2320.910
  474.250    0.235    0.366   83.988   21.637 2308.120
  474.500    0.251    0.365   78.416   23.741 2280.750
  474.750    0.239    0.355   72.225   24.635 2301.410
  475.000    0.229    0.354   69.076   27.027 2317.790
  475.250    0.234    0.349   68.373   29.104 2309.260
  475.500    0.225    0.345   69.549   31.344 2325.730
  475.750    0.258    0.358   72.526   33.750 2269.050
  476.000    0.281    0.388   73.694   35.013 2229.050
  476.250    0.257    0.396   77.284   34.968 2270.630
  476.500    0.246    0.399   77.217   32.406 2289.120
  476.750    0.238    0.392   78.363   28.394 2303.570
  477.000    0.222    0.382   83.783   23.072 2330.490
  477.250    0.209    0.366   88.005   19.468 2353.290
  477.500    0.190    0.359   92.201   17.055 2384.380
  477.750    0.193    0.364   93.362   17.363 2379.890
  478.000    0.214    0.362   92.679   19.050 2344.140
  478.250    0.235    0.333   89.547   23.396 2308.360
  478.500    0.255    0.307   84.576   28.728 2274.640
  478.750    0.283    0.287   77.160   32.127 2226.310
  479.000    0.312    0.284   72.209   39.445 2175.900
  479.250    0.305    0.298   70.284   44.108 2188.170
  479.500    0.296    0.298   70.817   49.322 2204.670
  479.750    0.308    0.305   67.706   55.146 2183.490
  480.000    0.329    0.326   58.456   61.630 2147.710
  480.250    0.335    0.340   54.713   65.149 2136.980
  480.500    0.308    0.359   54.024   71.489 2182.720
  480.750    0.291    0.372   57.008   81.435 2211.780
  481.000    0.274    0.388   58.155   94.543 2240.810
  481.250    0.276    0.397   55.647  125.168 2238.460
  481.500    0.297    0.406   50.677  153.700 2202.690
  481.750    0.312    0.392   46.936  162.436 2177.330
  482.000    0.302    0.380   45.645  134.512 2193.820
  482.250    0.296    0.395   45.576   71.001 2204.020
  482.500    0.284    0.385   49.170   55.575 2224.640
  482.750    0.289    0.381   57.041   45.161 2216.030
  483.000    0.274    0.377   67.363   37.405 2240.900
  483.250    0.285    0.383   74.627   28.731 2221.810
  483.500    0.261    0.405   82.506   25.644 2263.370
  483.750    0.245    0.418   87.302   27.093 2290.370
  484.000    0.239    0.419   82.345   29.183 2300.540
  484.250    0.257    0.412   76.171   33.251 2271.000
  484.500    0.273    0.417   71.790   35.810 2243.620
  484.750    0.295    0.417   70.494   35.101 2205.710
  485.000    0.284    0.412   73.499   31.342 2224.280
  485.250    0.265    0.404   80.742   25.470 2257.470
  485.500    0.262    0.392   83.133   19.564 2261.300
  485.750    0.259    0.388   85.510   16.511 2267.420
  486.000    0.231    0.392   92.166   13.168 2315.270
  486.250    0.202    0.398   98.813   10.902 2365.260
  486.500    0.172    0.384  104.228    9.918 2415.200
  486.750    0.171    0.372  108.429    9.187 2417.020
  487.000    0.189    0.378  110.215    9.182 2387.480
  487.250    0.169    0.411  108.898    9.522 2420.720
  487.500    0.185    0.419  106.391    9.689 2393.270
  487.750    0.187    0.383  105.701    9.681 2390.910
  488.000    0.178    0.370  107.472    9.496 2405.320
  488.250    0.177    0.363  111.664    9.136 2407.170
  488.500    0.170    0.372  111.604    8.627 2419.480
  488.750    0.166    0.384  113.369    8.783 2425.520
  489.000    0.173    0.393  112.680    9.281 2414.780
  489.250    0.173    0.399  108.939   10.374 2414.490
  489.500    0.162    0.403  102.137   11.598 2433.080
  489.750    0.149    0.404   95.338   12.034 2455.850
  490.000    0.140    0.385   92.823   12.481 2470.270
  490.250    0.223    0.348   97.026   12.701 2327.830
  490.500    0.203    0.359   98.165   12.935 2363.130
  490.750    0.176    0.371   96.891   13.666 2408.840
  491.000    0.179    0.377   91.287   14.721 2404.440
  491.250    0.216    0.359   86.349   16.153 2341.430
  491.500    0.236    0.311   75.869   17.393 2305.670
  491.750    0.278    0.278   68.461   17.707 2234.320
  492.000    0.269    0.261   65.940   15.803 2250.790
  492.250    0.261    0.263   71.355   15.497 2263.090
  492.500    0.231    0.315   73.131   16.071 2315.120
  492.750    0.204    0.339   71.839   16.987 2360.900
  493.000    0.190    0.349   63.816   18.984 2385.750
  493.250    0.219    0.350   56.402   19.333 2335.300
  493.500    0.240    0.337   53.285   19.312 2299.480
  493.750    0.252    0.332   58.103   18.585 2278.320
