~VERSION INFORMATION
 VERS.                 2.0:   CWLS LOG ASCII STANDARD -VERSION 2.0
 WRAP.                  NO:   ONE LINE PER DEPTH STEP
~WELL INFORMATION BLOCK
#MNEM.UNIT           DATA                    DESCRIPTION OF MNEMONIC
#---------    -------------------            -------------------------------
# Generated from Intellog Unique Number	CW_70_72/WELL/3035
NULL.         -999.25                        : NULL_VALUE
WELL.         PALOMA MITSUE 11-33            : Well_name    - WELL              
LOC .         11-33-070-03W5                 : Location     - LOCATION          
UWI .         00/11-33-070-03W5/0            : Uwi          - UNIQUE WELL ID    
ENTR.         JAYE                           : Entered      - ENTERED BY        
SRVC.         SCHLUMBERGER                   : Scn          - SERVICE COMPANY   
DATE.         7 AUG 84                       : Date         - LOG DATE          
STRT.M        495                            : top_depth    - START DEPTH       
STOP.M        700                            : bot_depth    - STOP DEPTH        
STEP.M        0.25                           : increment    - STEP LENGTH       
~CURVE INFORMATION BLOCK
#MNEM UNIT       ERCB CURVE CODE    CURVE DESCRIPTION
#-----------   ------------------   ----------------------------------
DEPT.M        00 001 00 00         : DEPTH        - DEPTH                       
ILD .OHMM     00 120 00 00         : RESD         - DEEP RESISTIVITY (DIL)      
CALI.MM       00 280 01 00         : CAL          - CALIPER                     
GR  .API      00 310 00 00         : GR           - GAMMA RAY                   
NPHI.V/V      00 330 00 00         : PHIN         - NEUTRON POROSITY (SANDSTONE)
DPHI.V/V      00 890 00 00         : PHID         - DENSITY POROSITY (SANDSTONE)
~PARAMETER INFORMATION       
#MNEM.UNIT           DATA             DESCRIPTION OF MNEMONIC
#---------         -----------     ------------------------------
GL  .M        654.6                : gl           - GROUND LEVEL ELEVATION      
EREF.M        660.3                : kb           - ELEVATION OF DEPTH REFERENCE
DATM.M        654.6                : datum        - DATUM ELEVATION             
TDD .M        1723                 : tdd          - TOTAL DEPTH DRILLER         
RUN .         ONE                  : Run          - RUN NUMBER                  
ENG .         CSIKOS/CORNISH       : Engineer     - RECORDING ENGINEER          
WIT .         KELLY                : Witness      - WITNESSED BY                
BASE.         EDM                  : Branch       - HOME BASE OF LOGGING UNIT   
MUD .         GEL                  : Mud_type     - MUD TYPE                    
MATR.         SANDSTONE            : Logunit      - NEUTRON MATRIX              
TMAX.C        50                   : BHT          - MAXIMUM RECORDED TEMPERATURE
BHTD.M        1725.7               : BHTDEP       - MAXIMUM RECORDED TEMPERATURE
RMT .C        22.7                 : MDTP         - TEMPERATURE OF MUD          
MUDD.KG/M     1100                 : MWT          - MUD DENSITY                 
NEUT.         1                    : NEUTRON      - NEUTRON TYPE                
RESI.         0                    : RESIST       - RESISTIVITY TYPE            
RM  .OHMM     1.17                 : RM           - RESISTIVITY OF MUD          
RMC .OHMM     0.25                 : RMC          - RESISTIVITY OF MUD CAKE     
RMF .OHMM     0.89                 : RMF          - RESISTIVITY OF MUD FILTRATE 
SUFT.C        0                    : SUFT         - SURFACE TEMPERATURE         
~A  DEPTH     RESD      CAL       GR     PHIN     PHID
# ...
  531.500    3.075  198.126   78.412    0.388    0.240
  531.750    3.095  198.368   81.352    0.400    0.244
  532.000    3.091  199.439   88.278    0.385    0.238
  532.250    3.081  200.506   85.251    0.396    0.226
  532.500    3.061  202.824   81.540    0.409    0.214
  532.750    3.062  205.659   82.614    0.410    0.207
  533.000    3.076  208.391   88.111    0.413    0.206
  533.250    3.061  210.495   90.435    0.428    0.212
  533.500    3.045  212.919   90.641    0.457    0.224
  533.750    2.991  214.193   89.538    0.431    0.221
  534.000    2.977  214.953   90.679    0.428    0.210
  534.250    2.973  215.090   91.882    0.446    0.202
  534.500    2.958  214.704   91.095    0.435    0.218
  534.750    2.922  213.084   88.562    0.429    0.233
  535.000    2.880  211.048   84.599    0.446    0.227
  535.250    2.808  210.453   79.830    0.455    0.215
  535.500    2.768  209.351   82.213    0.450    0.203
  535.750    2.704  208.859   86.470    0.443    0.200
  536.000    2.598  207.656   84.742    0.440    0.217
  536.250    2.500  207.164   86.323    0.456    0.228
  536.500    2.419  205.332   85.841    0.475    0.223
  536.750    2.328  203.913   82.004    0.452    0.216
  537.000    2.220  202.294   76.861    0.418    0.221
  537.250    2.066  201.595   72.710    0.439    0.243
  537.500    1.963  201.418   68.126    0.436    0.256
  537.750    1.967  201.658   67.585    0.394    0.270
  538.000    2.028  202.217   68.356    0.383    0.268
  538.250    2.098  203.288   68.126    0.406    0.260
  538.500    2.163  204.460   67.024    0.417    0.260
  538.750    2.209  206.674   65.989    0.400    0.254
  539.000    2.231  208.983   68.187    0.405    0.241
  539.250    2.261  211.507   72.746    0.414    0.223
  539.500    2.238  212.885   78.553    0.439    0.218
  539.750    2.170  213.853   76.334    0.459    0.234
  540.000    2.065  212.855   70.567    0.438    0.238
  540.250    1.911  211.540   64.241    0.421    0.226
  540.500    1.789  211.878   62.206    0.417    0.223
  540.750    1.728  215.232   70.759    0.408    0.222
  541.000    1.682  218.070   73.696    0.429    0.235
  541.250    1.673  215.091   74.774    0.439    0.269
  541.500    1.699  208.905   68.198    0.411    0.310
  541.750    1.768  205.832   61.315    0.392    0.316
  542.000    1.819  203.901   63.386    0.392    0.304
  542.250    1.882  202.475   61.789    0.410    0.288
  542.500    1.933  202.093   55.338    0.401    0.263
  542.750    1.960  201.398   52.124    0.381    0.264
  543.000    1.983  200.707   51.706    0.392    0.288
  543.250    1.995  200.022   53.718    0.388    0.292
  543.500    2.007  199.635   55.980    0.374    0.281
  543.750    2.005  199.661   55.688    0.396    0.270
  544.000    2.017  199.700   52.846    0.407    0.266
  544.250    2.068  200.047   52.180    0.412    0.275
  544.500    2.155  201.535   53.879    0.412    0.271
  544.750    2.293  203.845   58.193    0.396    0.261
  545.000    2.355  205.533   56.725    0.414    0.263
  545.250    2.387  207.018   56.803    0.409    0.260
  545.500    2.406  208.409   54.893    0.363    0.255
  545.750    2.355  207.711   50.932    0.346    0.222
  546.000    2.287  205.269   48.151    0.370    0.107
  546.250    2.289  204.674   46.804    0.393    0.069
  546.500    2.312  203.972   47.944    0.393    0.143
  546.750    2.369  201.835   50.575    0.378    0.251
  547.000    2.460  200.727   56.135    0.388    0.269
  547.250    2.546  199.926   60.945    0.421    0.275
  547.500    2.624  199.541   61.469    0.438    0.278
  547.750    2.730  199.472   60.425    0.419    0.254
  548.000    2.998  199.611   64.489    0.402    0.252
  548.250    3.378  199.334   74.465    0.375    0.289
  548.500    4.002  199.468   84.006    0.418    0.284
  548.750    4.867  199.614   90.934    0.441    0.259
  549.000    6.350  199.639   91.140    0.431    0.239
  549.250    8.441  199.880   85.744    0.414    0.216
  549.500   11.668  203.136   77.738    0.437    0.250
  549.750   15.801  205.652   70.232    0.283    0.154
  550.000   14.436  207.142   64.214    0.234    0.077
  550.250    9.983  208.003   56.832    0.195    0.029
  550.500    7.046  207.829   51.567    0.155    0.009
  550.750    5.407  207.239   49.032    0.175    0.037
  551.000    3.968  204.055   46.748    0.213    0.124
  551.250    3.334  198.179   64.439    0.271    0.208
  551.500    3.018  196.245   81.198    0.338    0.245
  551.750    2.921  197.622   90.240    0.373    0.243
  552.000    2.956  202.540   95.921    0.386    0.219
  552.250    3.162  205.678   89.470    0.402    0.196
  552.500    3.187  209.340   82.585    0.423    0.195
  552.750    3.136  214.245   85.716    0.440    0.269
  553.000    3.058  215.011   85.361    0.458    0.291
  553.250    3.015  209.960   81.462    0.429    0.243
  553.500    3.005  208.542   79.991    0.399    0.216
  553.750    3.013  211.164   81.260    0.386    0.215
  554.000    3.049  212.760   82.207    0.378    0.228
  554.250    3.102  213.308   84.093    0.368    0.214
  554.500    3.227  213.242   88.034    0.348    0.196
  554.750    3.402  212.963   92.098    0.383    0.196
  555.000    3.532  213.095   94.671    0.409    0.185
  555.250    3.641  213.442   92.698    0.420    0.174
  555.500    3.732  213.994   89.483    0.428    0.157
  555.750    3.791  215.169   88.572    0.455    0.158
  556.000    3.779  215.928   90.707    0.473    0.175
  556.250    3.684  217.006   95.269    0.433    0.165
  556.500    3.559  217.134   97.154    0.442    0.232
  556.750    3.406  216.546   85.540    0.522    0.386
  557.000    3.260  210.043   78.093    0.576    0.399
  557.250    3.149  198.157   71.892    0.393    0.352
  557.500    3.098  192.586   70.480    0.358    0.302
  557.750    3.141  193.353   67.017    0.385    0.248
  558.000    3.207  194.732   70.645    0.356    0.249
  558.250    3.270  195.389   79.687    0.360    0.248
  558.500    3.290  195.732   81.201    0.384    0.246
  558.750    3.256  192.444   72.260    0.376    0.242
  559.000    3.162  189.574   63.135    0.393    0.241
  559.250    3.100  188.370   63.341    0.378    0.251
  559.500    3.017  188.085   64.543    0.369    0.259
  559.750    2.986  187.915   66.248    0.369    0.269
  560.000    2.987  188.158   71.178    0.353    0.252
  560.250    3.011  188.194   78.044    0.364    0.241
  560.500    3.041  188.533   81.115    0.377    0.229
  560.750    3.101  189.292   81.629    0.383    0.244
  561.000    3.202  190.155   82.395    0.382    0.256
  561.250    3.356  190.498   83.913    0.377    0.261
  561.500    3.447  190.953   84.119    0.368    0.247
  561.750    3.526  191.708   83.582    0.354    0.241
  562.000    3.662  192.462   83.161    0.366    0.236
  562.250    3.810  194.057   83.620    0.385    0.224
  562.500    3.891  195.856   84.882    0.384    0.211
  562.750    3.974  197.436   89.322    0.370    0.197
  563.000    4.058  201.514   93.821    0.355    0.188
  563.250    4.106  203.311   99.939    0.341    0.176
  563.500    4.109  204.181  101.515    0.393    0.165
  563.750    4.058  207.116   99.170    0.415    0.165
  564.000    3.891  208.911   97.073    0.430    0.197
  564.250    3.608  210.088   94.727    0.433    0.200
  564.500    3.352  210.639   96.676    0.443    0.171
  564.750    3.172  215.024  101.363    0.497    0.227
  565.000    2.991  220.661  101.818    0.487    0.263
  565.250    2.831  213.430   93.564    0.467    0.237
  565.500    2.760  226.946   88.982    0.482    0.256
  565.750    2.798  239.009   88.876    0.492    0.285
  566.000    2.927  244.434   91.882    0.497    0.273
  566.250    3.172  247.789   94.453    0.492    0.251
  566.500    3.451  250.109   93.665    0.482    0.258
  566.750    3.782  251.593   90.014    0.479    0.266
  567.000    4.046  251.519   87.109    0.465    0.259
  567.250    4.178  243.877   83.709    0.433    0.237
  567.500    4.251  223.274   81.117    0.372    0.217
  567.750    4.137  217.814   79.456    0.394    0.208
