~VERSION INFORMATION
 VERS.                 2.0:   CWLS LOG ASCII STANDARD -VERSION 2.0
 WRAP.                  NO:   ONE LINE PER DEPTH STEP
~WELL INFORMATION BLOCK
#MNEM.UNIT           DATA                    DESCRIPTION OF MNEMONIC
#---------    -------------------            -------------------------------
# Generated from Intellog Unique Number	CW_73_75/WELL/1035
WELL.         ANADARKO ER AL FRANCIS 11-08   : Well_name    - WELL
LOC .         00/11-08-074-21W4/0            : Location     - LOCATION
UWI .         00/11-08-074-21W4/0            : Uwi          - UNIQUE WELL ID
ENTR.         JAYE                           : Entered      - ENTERED BY
SRVC.         SCHLUMBERGER                   : Scn          - SERVICE COMPANY
DATE.         9 FEB 79                       : Date         - LOG DATE
STRT.M        380                            : top_depth    - START DEPTH
STOP.M        595                            : bot_depth    - STOP DEPTH
STEP.M        0.25                           : increment    - STEP LENGTH
 NULL. -999.2500:NULL Value
~CURVE INFORMATION BLOCK
#MNEM UNIT       ERCB CURVE CODE    CURVE DESCRIPTION
#-----------   ------------------   ----------------------------------
DEPT.M        00 001 00 00         : DEPTH        - DEPTH
DPHI.V/V      00 890 00 00         : PHID         - DENSITY POROSITY (SANDSTONE)
NPHI.V/V      00 330 00 00         : PHIN         - NEUTRON POROSITY (SANDSTONE)
GR  .API      00 310 00 00         : GR           - GAMMA RAY
CALI.MM       00 280 01 00         : CAL          - CALIPER
ILD .OHMM     00 120 00 00         : RESD         - DEEP RESISTIVITY (DIL)
~PARAMETER INFORMATION
#MNEM.UNIT           DATA             DESCRIPTION OF MNEMONIC
#---------         -----------     ------------------------------
GL  .M        689                  : gl           - GROUND LEVEL ELEVATION
EREF.M        692.8                : kb           - ELEVATION OF DEPTH REFERENCE
DATM.M        689                  : datum        - DATUM ELEVATION
TDD .M        633                  : tdd          - TOTAL DEPTH DRILLER
RUN .         ONE                  : Run          - RUN NUMBER
ENG .         GRSY                 : Engineer     - RECORDING ENGINEER
WIT .         ROGERS               : Witness      - WITNESSED BY
BASE.         EDMONTON             : Branch       - HOME BASE OF LOGGING UNIT
MUD .         GEL CHEM             : Mud_type     - MUD TYPE
MATR.         SANDSTONE            : Logunit      - NEUTRON MATRIX
TMAX.C        32                   : BHT          - MAXIMUM RECORDED TEMPERATURE
BHTD.M        632                  : BHTDEP       - MAXIMUM RECORDED TEMPERATURE
RMT .C        16.11                : MDTP         - TEMPERATURE OF MUD
MUDD.KG/M     1090                 : MWT          - MUD DENSITY
NEUT.         1                    : NEUTRON      - NEUTRON TYPE
RESI.         0                    : RESIST       - RESISTIVITY TYPE
RM  .OHMM     4.11                 : RM           - RESISTIVITY OF MUD
RMC .OHMM     0                    : RMC          - RESISTIVITY OF MUD CAKE
RMF .OHMM     3.86                 : RMF          - RESISTIVITY OF MUD FILTRATE
SUFT.C        0                    : SUFT         - SURFACE TEMPERATURE
~A  DEPTH     PHID     PHIN       GR      CAL     RESD
# ...
  416.500    0.226    0.459   79.606  174.553    4.697
  416.750    0.204    0.461   76.387  174.233    4.680
  417.000    0.187    0.467   78.976  173.501    4.733
  417.250    0.207    0.484   81.441  177.817    5.089
  417.500    0.270    0.491   82.115  172.347    5.883
  417.750    0.210    0.467   80.193  162.758    7.097
  418.000    0.206    0.436   77.838  154.505    8.054
  418.250    0.185    0.403   76.657  154.495    8.236
  418.500    0.157    0.390   78.011  156.442    8.100
  418.750    0.240    0.430   80.415  157.771    7.937
  419.000    0.244    0.473   79.049  159.717    7.605
  419.250    0.240    0.480   76.262  161.252    7.383
  419.500    0.228    0.469   74.710  161.344    7.248
  419.750    0.248    0.487   75.507  160.819    7.101
  420.000    0.263    0.479   76.737  160.601    6.868
  420.250    0.239    0.455   78.028  160.591    6.618
  420.500    0.245    0.436   80.433  160.787    6.307
  420.750    0.202    0.445   84.876  161.084    5.823
  421.000    0.222    0.464   86.230  161.797    5.366
  421.250    0.227    0.478   84.307  162.609    5.076
  421.500    0.205    0.494   86.896  162.702    4.964
  421.750    0.235    0.496   86.766  162.484    4.955
  422.000    0.274    0.457   88.738  162.166    4.993
  422.250    0.234    0.447   92.502  161.538    5.086
  422.500    0.206    0.457   92.434  163.690    5.309
  422.750    0.236    0.454   89.832  166.563    5.562
  423.000    0.201    0.457   90.752  167.171    5.709
  423.250    0.188    0.468   95.010  168.293    5.741
  423.500    0.217    0.480   96.240  169.210    5.646
  423.750    0.186    0.473   96.234  172.083    5.491
  424.000    0.199    0.465   96.969  174.443    5.451
  424.250    0.162    0.468   97.704  176.388    5.502
  424.500    0.180    0.487   95.102  176.790    5.637
  424.750    0.208    0.492   87.494  173.587    5.829
  425.000    0.288    0.471   76.858  164.923    6.039
  425.250    0.298    0.456   75.677  160.793    6.062
  425.500    0.295    0.489   80.492  159.443    5.734
  425.750    0.284    0.521   85.059  161.699    5.756
  426.000    0.261    0.547   80.232  162.410    6.223
  426.250    0.279    0.570   69.286  161.162    7.115
  426.500    0.280    0.475   57.599  160.534    8.680
  426.750    0.287    0.413   44.923  159.803   13.408
  427.000    0.261    0.362   41.580  159.381   19.516
  427.250    0.273    0.348   39.039  159.781   25.790
  427.500    0.255    0.359   42.494  160.493   29.048
  427.750    0.232    0.381   44.280  160.688   25.890
  428.000    0.253    0.373   39.082  158.308   21.462
  428.250    0.264    0.375   38.025  155.001   16.609
  428.500    0.247    0.372   38.637  153.754   13.465
  428.750    0.264    0.373   36.653  154.878   11.017
  429.000    0.247    0.376   36.337  157.133    8.998
  429.250    0.252    0.382   38.494  159.492    8.277
  429.500    0.270    0.396   40.095  159.686    8.293
  429.750    0.265    0.384   37.678  158.233    8.356
  430.000    0.265    0.365   36.807  157.606    8.279
  430.250    0.270    0.346   36.800  158.213    8.264
  430.500    0.281    0.370   39.204  159.335    8.083
  430.750    0.288    0.421   42.844  159.529    7.964
  431.000    0.282    0.420   45.063  159.417    7.746
  431.250    0.284    0.394   42.708  157.553    7.422
  431.500    0.307    0.415   42.640  158.263    7.219
  431.750    0.315    0.415   45.538  158.767    7.034
  432.000    0.319    0.438   48.560  159.580    6.918
  432.250    0.292    0.446   50.717  160.292    7.342
  432.500    0.228    0.379   47.373  161.724    8.957
  432.750    0.189    0.272   46.564  162.640   12.354
  433.000    0.142    0.215   48.535  163.145   16.693
  433.250   -0.029    0.175   53.411  167.254   19.587
  433.500   -0.032    0.159   57.855  167.656   22.309
  433.750   -0.005    0.146   64.832  167.337   21.738
  434.000   -0.006    0.130   74.344  167.324   17.138
  434.250   -0.006    0.116   59.381  167.624   13.689
  434.500    0.020    0.191   41.637  166.687   10.873
  434.750    0.107    0.217   29.517  162.967    9.216
  435.000    0.199    0.262   31.241  161.618    8.184
  435.250    0.107    0.296   35.562  160.886    8.478
  435.500    0.080    0.235   40.376  160.566   10.004
  435.750    0.075    0.210   38.886  160.144   11.650
  436.000    0.105    0.257   38.076  159.413   11.892
  436.250    0.188    0.307   38.194  159.092   11.082
  436.500    0.183    0.346   42.204  159.391   10.062
  436.750    0.254    0.399   47.081  159.793    8.657
  437.000    0.307    0.418   50.350  159.782    7.284
  437.250    0.308    0.414   49.726  159.567    6.813
  437.500    0.313    0.412   49.286  159.452    6.801
  437.750    0.289    0.412   50.393  159.751    6.903
  438.000    0.292    0.402   52.117  159.637    7.033
  438.250    0.293    0.425   50.812  159.421    7.126
  438.500    0.267    0.428   48.519  159.204    7.179
  438.750    0.249    0.407   45.238  158.988    7.207
  439.000    0.291    0.396   42.821  158.668    7.207
  439.250    0.314    0.413   43.371  158.554    7.208
  439.500    0.289    0.439   45.404  158.441    7.235
  439.750    0.269    0.454   44.595  158.431    7.263
  440.000    0.285    0.449   43.290  158.524    7.304
  440.250    0.311    0.438   44.335  159.027    7.331
  440.500    0.316    0.425   44.143  159.223    7.359
  440.750    0.301    0.438   43.580  159.314    7.346
  441.000    0.301    0.444   44.254  159.511    7.292
  441.250    0.309    0.456   45.916  159.911    7.185
  441.500    0.284    0.466   47.455  159.903    7.093
  441.750    0.290    0.460   47.820  159.994    7.106
  442.000    0.295    0.449   47.195  159.984    7.200
  442.250    0.282    0.441   45.458  159.871    7.281
  442.500    0.289    0.444   43.845  159.757    7.391
  442.750    0.284    0.453   43.654  159.540    7.446
  443.000    0.298    0.451   46.058  159.530    7.461
  443.250    0.310    0.462   46.483  159.210    7.406
  443.500    0.299    0.454   44.747  159.096    7.338
  443.750    0.305    0.446   42.515  158.880    7.284
  444.000    0.277    0.454   41.829  158.664    7.204
  444.250    0.281    0.454   41.082  158.035    7.125
  444.500    0.295    0.447   39.530  156.892    7.033
  444.750    0.299    0.460   36.001  156.057    6.956
  445.000    0.313    0.462   34.574  155.738    6.854
  445.250    0.279    0.453   34.814  155.212    6.728
  445.500    0.287    0.457   35.550  155.407    6.604
  445.750    0.290    0.461   36.532  155.912    6.447
  446.000    0.298    0.457   37.205  156.003    6.271
  446.250    0.301    0.452   37.632  155.890    6.099
  446.500    0.309    0.447   37.626  155.984    5.931
  446.750    0.309    0.449   37.372  156.282    5.823
  447.000    0.317    0.453   36.810  156.271    5.748
  447.250    0.308    0.447   37.173  155.848    5.716
  447.500    0.309    0.443   37.415  155.633    5.770
  447.750    0.303    0.447   36.791  155.930    5.814
  448.000    0.316    0.456   36.413  156.023    5.868
  448.250    0.314    0.451   37.581  155.908    5.934
  448.500    0.309    0.444   39.305  155.900    5.957
  448.750    0.305    0.440   40.164  155.992    5.870
  449.000    0.300    0.435   41.331  156.599    5.881
  449.250    0.313    0.440   42.315  157.824    5.870
  449.500    0.315    0.444   42.556  158.843    5.904
  449.750    0.308    0.442   42.364  159.246    5.948
  450.000    0.296    0.443   42.296  159.749    5.993
  450.250    0.306    0.455   43.649  160.563    6.049
  450.500    0.318    0.461   44.507  160.963    6.016
  450.750    0.318    0.458   45.243  160.954    5.983
  451.000    0.309    0.457   47.400  160.839    5.950
  451.250    0.311    0.454   49.743  160.830    5.951
  451.500    0.311    0.455   50.478  160.613    5.929
  451.750    0.305    0.454   49.792  160.088    5.940
  452.000    0.312    0.452   48.549  159.666    5.919
  452.250    0.307    0.454   47.491  159.037    5.986
  452.500    0.319    0.452   46.929  158.820    6.031
  452.750    0.317    0.474   46.738  158.707    6.076
