~VERSION INFORMATION
 VERS.                 2.0:   CWLS LOG ASCII STANDARD -VERSION 2.0
 WRAP.                  NO:   ONE LINE PER DEPTH STEP
~WELL INFORMATION BLOCK
#MNEM.UNIT           DATA                    DESCRIPTION OF MNEMONIC
#---------    -------------------            -------------------------------
# Generated from Intellog Unique Number	CC_84_87/WELL/2330
NULL.         -999.25                        : NULL_VALUE
WELL.         PETROREP ET AL GRANOR          : Well_name    - WELL
LOC .         11-18-085-16W4                 : Location     - LOCATION          
UWI .         00/11-18-085-16W400            : Uwi          - UNIQUE WELL ID    
ENTR.         DW                             : Entered      - ENTERED BY        
SRVC.         SCHLUMBERGER                   : Scn          - SERVICE COMPANY   
DATE.         26 MAR 80                      : Date         - LOG DATE
STRT.M        100                            : top_depth    - START DEPTH       
STOP.M        277.901                        : bot_depth    - STOP DEPTH        
STEP.M        0.3                            : increment    - STEP LENGTH       
~CURVE INFORMATION BLOCK
#MNEM UNIT       ERCB CURVE CODE    CURVE DESCRIPTION
#-----------   ------------------   ----------------------------------
DEPT.M        00 001 00 00         : DEPTH        - DEPTH                       
DPHI.V/V      00 890 00 00         : PHID         - DENSITY POROSITY (LIMESTONE)
NPHI.V/V      00 330 00 00         : PHIN         - NEUTRON POROSITY (LIMESTONE)
GR  .API      00 310 00 00         : GR           - GAMMA RAY                   
ILD .OHMM     00 120 00 00         : RESD         - DEEP RESISTIVITY (DIL)      
~PARAMETER INFORMATION       
#MNEM.UNIT           DATA             DESCRIPTION OF MNEMONIC
#---------         -----------     ------------------------------
GL  .M        510                  : gl           - GROUND LEVEL ELEVATION      
EREF.M        515.3                : kb           - ELEVATION OF DEPTH REFERENCE
DATM.M        515.3                : datum        - DATUM ELEVATION             
TDD .M        278                  : tdd          - TOTAL DEPTH DRILLER         
RUN .         ONE                  : Run          - RUN NUMBER                  
ENG .         BILL                 : Engineer     - RECORDING ENGINEER          
WIT .         JIM                  : Witness      - WITNESSED BY                
MUD .         GEL                  : Mud_type     - MUD TYPE                    
MATR.         LIMESTONE            : Logunit      - NEUTRON MATRIX              
TMAX.C        20                   : BHT          - MAXIMUM RECORDED TEMPERATURE
BHTD.M        278                  : BHTDEP       - MAXIMUM RECORDED TEMPERATURE
MATR.         1                    : LOGUNIT      - NEUTRON MATRIX              
RMT .C        25                   : MDTP         - TEMPERATURE OF MUD          
NEUT.         1                    : NEUTRON      - NEUTRON TYPE                
RESI.         0                    : RESIST       - RESISTIVITY TYPE            
RMC .OHMM     0.25                 : RMC          - RESISTIVITY OF MUD CAKE     
RMF .OHMM     0.25                 : RMF          - RESISTIVITY OF MUD FILTRATE 
SUFT.C        15                   : SUFT         - SURFACE TEMPERATURE         
~A  DEPTH     PHID     PHIN       GR     RESD
  100.000    0.312    0.425   53.702   16.521
  100.300    0.306    0.432   49.376   25.126
  100.600    0.324    0.444   49.370   28.704
  100.900    0.312    0.419   51.834   29.246
  101.200    0.311    0.413   51.829   29.797
  101.500    0.304    0.424   50.589   29.784
  101.800    0.309    0.435   50.585   28.658
  102.100    0.321    0.422   53.665   26.541
  102.400    0.332    0.440   56.747   21.922
  102.700    0.356    0.477   59.211   18.105
  103.000    0.381    0.544   57.354   16.142
  103.300    0.426    0.543   58.583   13.079
  103.600    0.432    0.574   67.220   10.010
  103.900    0.344    0.589   80.795    6.576
  104.200    0.281    0.564   83.259    5.129
  104.500    0.251    0.543   79.549    5.226
  104.800    0.226    0.485   77.692    5.970
  105.100    0.242    0.463   78.923    7.361
  105.400    0.243    0.469   83.856    8.249
  105.700    0.222    0.449   84.468    8.406
  106.000    0.214    0.438   78.290    8.243
  106.300    0.222    0.437   79.519    8.084
  106.600    0.226    0.409   77.662    8.394
  106.900    0.226    0.419   70.250    8.717
  107.200    0.216    0.436   77.034    8.550
  107.500    0.216    0.427   81.967    7.622
  107.800    0.211    0.426   85.665    6.666
  108.100    0.209    0.459   86.278    6.292
  108.400    0.214    0.446   83.185    5.828
  108.700    0.250    0.443   79.477    5.295
  109.000    0.294    0.479   78.237    4.811
  109.300    0.301    0.469   80.701    4.456
  109.600    0.260    0.482   81.930    4.287
  109.900    0.225    0.482   80.074    4.369
  110.200    0.200    0.454   69.575    5.596
  110.500    0.211    0.336   65.249    8.842
  110.800    0.239    0.326   65.244   13.447
  111.100    0.363    0.401   68.941   13.966
  111.400    0.325    0.451   70.789   11.317
  111.700    0.290    0.532   72.636   10.088
  112.000    0.291    0.548   70.161   10.884
  112.300    0.311    0.516   65.216   13.942
  112.600    0.299    0.480   67.681   16.235
  112.900    0.287    0.468   71.997   19.265
  113.200    0.295    0.487   71.992   20.006
  113.500    0.299    0.490   70.135   19.248
  113.800    0.283    0.473   73.833   19.244
  114.100    0.283    0.465   76.296   19.236
  114.400    0.290    0.461   75.675   18.860
  114.700    0.316    0.470   69.497   18.857
  115.000    0.313    0.462   64.553   17.801
  115.300    0.305    0.452   65.781   13.364
  115.600    0.316    0.448   66.395   10.228
  115.900    0.304    0.452   65.156    8.448
  116.200    0.304    0.458   68.236    8.282
  116.500    0.306    0.462   69.466    8.767
  116.800    0.326    0.466   65.757    9.643
  117.100    0.336    0.460   58.962   12.118
  117.400    0.344    0.464   58.339   14.658
  117.700    0.354    0.474   64.505   15.516
  118.000    0.333    0.484   65.737   15.510
  118.300    0.319    0.487   63.879   14.921
  118.600    0.316    0.490   60.787   14.634
  118.900    0.334    0.490   59.548   13.810
  119.200    0.344    0.486   59.542   13.545
  119.500    0.345    0.459   62.623   13.541
  119.800    0.338    0.442   65.085   13.535
  120.100    0.320    0.455   65.700   13.531
  120.400    0.311    0.451   65.078   13.783
  120.700    0.314    0.450   59.516   13.779
  121.000    0.315    0.456   57.042   14.039
  121.300    0.318    0.474   57.653   14.860
  121.600    0.318    0.490   58.884   15.729
  121.900    0.300    0.515   64.434   16.025
  122.200    0.294    0.494   73.070   16.020
  122.500    0.300    0.450   74.918   15.412
  122.800    0.318    0.428   65.036   14.273
  123.100    0.323    0.426   57.622   13.999
  123.400    0.320    0.443   57.002   13.730
  123.700    0.319    0.451   56.996   13.464
  124.000    0.320    0.441   58.842   13.716
  124.300    0.332    0.436   61.304   13.976
  124.600    0.330    0.431   61.918   13.969
  124.900    0.315    0.423   61.913   13.964
  125.200    0.312    0.424   60.672   13.435
  125.500    0.314    0.444   60.048   13.431
  125.800    0.329    0.460   60.045   13.424
  126.100    0.327    0.483   61.893   13.420
  126.400    0.310    0.461   67.443   13.935
  126.700    0.304    0.456   71.142   13.928
  127.000    0.302    0.468   65.581   13.921
  127.300    0.306    0.468   56.933   13.652
  127.600    0.309    0.454   60.014   13.389
  127.900    0.316    0.445   62.478   13.383
  128.200    0.328    0.470   63.708   13.378
  128.500    0.337    0.465   61.234   13.120
  128.800    0.343    0.453   59.375   13.116
  129.100    0.343    0.453   61.222   13.109
  129.400    0.333    0.472   63.069   13.105
  129.700    0.332    0.488   63.065   12.369
  130.000    0.347    0.469   61.825   12.132
  130.300    0.332    0.450   64.289   12.127
  130.600    0.294    0.438   64.900   11.893
  130.900    0.287    0.447   64.279   12.117
  131.200    0.329    0.442   62.421   12.825
  131.500    0.316    0.386   59.329   13.838
  131.800    0.117    0.192   57.474   17.062
  132.100    0.061    0.147   53.147   25.951
  132.400    0.011    0.140   50.672   34.533
  132.700    0.016    0.141   48.816   37.257
  133.000    0.025    0.150   50.044   37.242
  133.300    0.038    0.159   52.508   29.608
  133.600    0.085    0.175   54.356   22.657
  133.900    0.151    0.200   58.670   18.715
  134.200    0.263    0.282   62.985   14.880
  134.500    0.325    0.414   63.598   12.526
  134.800    0.340    0.463   61.741   11.823
  135.100    0.335    0.489   59.267   11.596
  135.400    0.335    0.494   58.644   11.592
  135.700    0.340    0.477   59.255   11.807
  136.000    0.340    0.467   59.252   12.031
  136.300    0.341    0.463   59.864   12.495
  136.600    0.347    0.458   59.241   13.741
  136.900    0.332    0.458   59.236   15.107
  137.200    0.338    0.476   59.231   15.991
  137.500    0.346    0.489   59.844   16.290
  137.800    0.347    0.493   58.602   15.977
  138.100    0.345    0.494   56.746   15.972
  138.400    0.331    0.489   57.358   15.366
  138.700    0.328    0.478   58.588   15.071
  139.000    0.331    0.469   58.583   14.224
  139.300    0.343    0.459   56.109   13.950
  139.600    0.326    0.454   54.251   13.422
  139.900    0.324    0.446   55.481   12.915
  140.200    0.338    0.437   57.328   12.667
  140.500    0.341    0.431   58.557   12.185
  140.800    0.337    0.442   59.785   12.183
  141.100    0.334    0.463   59.779   12.409
  141.400    0.334    0.481   58.540   12.406
  141.700    0.337    0.484   57.919   12.640
  142.000    0.345    0.487   57.297   13.125
  142.300    0.335    0.466   57.291   13.373
  142.600    0.337    0.458   58.519   13.116
  142.900    0.335    0.501   56.664   12.860
  143.200    0.327    0.493   54.806   12.855
  143.500    0.329    0.487   57.270   12.850
  143.800    0.331    0.462   61.585   13.092
  144.100    0.339    0.447   62.197   13.087
  144.400    0.329    0.445   60.959   13.082
  144.700    0.327    0.453   59.101   13.078
  145.000    0.332    0.472   60.331   13.073
  145.300    0.335    0.463   59.706   12.818
  145.600    0.335    0.477   57.849   12.813
  145.900    0.330    0.473   57.846   12.809
  146.200    0.323    0.461   57.224   12.560
  146.500    0.345    0.459   58.453   12.317
  146.800    0.338    0.496   59.066   12.313
  147.100    0.320    0.503   59.060   12.077
  147.400    0.309    0.493   57.202   11.844
  147.700    0.313    0.472   59.049   11.838
  148.000    0.325    0.464   62.131   11.610
  148.300    0.326    0.476   63.360   11.169
  148.600    0.324    0.484   63.353   11.165
  148.900    0.320    0.489   63.967   10.950
  149.201    0.311    0.487   64.579   10.739
  149.501    0.319    0.450   65.807   10.735
  149.801    0.316    0.449   65.185   10.934
  150.101    0.313    0.465   65.797   10.931
  150.401    0.321    0.467   68.261   11.138
  150.701    0.325    0.470   69.491   11.133
  151.001    0.325    0.477   69.486   10.711
  151.301    0.329    0.457   67.012   10.506
  151.601    0.300    0.452   64.536   10.106
  151.901    0.312    0.469   63.915    9.912
