~VERSION INFORMATION
 VERS.                 2.0:   CWLS LOG ASCII STANDARD -VERSION 2.0
 WRAP.                  NO:   ONE LINE PER DEPTH STEP
~WELL INFORMATION BLOCK
#MNEM.UNIT           DATA                    DESCRIPTION OF MNEMONIC
#---------    -------------------            -------------------------------
# Generated from Intellog Unique Number	CN_94_101/WELL/3721
WELL.         14-09-096-15W4                 : Well_name    - WELL
LOC .         00/14-09-096-15W4/0            : Location     - LOCATION
UWI .         00/14-09-096-15W400            : Uwi          - UNIQUE WELL ID
ENTR.         JOETTE                         : Entered      - ENTERED BY
SRVC.         SCHLUMBERGER                   : Scn          - SERVICE COMPANY
DATE.         08/10/92                       : Date         - LOG DATE
STRT.M        125                            : top_depth    - START DEPTH
STOP.M        335                            : bot_depth    - STOP DEPTH
STEP.M        0.25                           : increment    - STEP LENGTH
 NULL. -999.2500:NULL Value
~CURVE INFORMATION BLOCK
#MNEM UNIT       ERCB CURVE CODE    CURVE DESCRIPTION
#-----------   ------------------   ----------------------------------
DEPT.M        00 001 00 00         : DEPTH        - DEPTH
ILD .OHMM     00 120 00 00         : RESD         - DEEP RESISTIVITY (DIL)
GR  .API      00 310 00 00         : GR           - GAMMA RAY
NPHI.V/V      00 330 00 00         : PHIN         - NEUTRON POROSITY (SANDSTONE)
DPHI.V/V      00 890 00 00         : PHID         - DENSITY POROSITY (SANDSTONE)
~PARAMETER INFORMATION
#MNEM.UNIT           DATA             DESCRIPTION OF MNEMONIC
#---------         -----------     ------------------------------
GL  .M        587.8                : gl           - GROUND LEVEL ELEVATION
EREF.M        591.15               : kb           - ELEVATION OF DEPTH REFERENCE
DATM.M        591.15               : datum        - DATUM ELEVATION
TDD .M        293                  : tdd          - TOTAL DEPTH DRILLER
RUN .         ONE                  : Run          - RUN NUMBER
ENG .         BILL                 : Engineer     - RECORDING ENGINEER
WIT .         JIM                  : Witness      - WITNESSED BY
MUD .         GEL                  : Mud_type     - MUD TYPE
MATR.         SANDSTONE            : Logunit      - NEUTRON MATRIX
TMAX.C        40                   : BHT          - MAXIMUM RECORDED TEMPERATURE
BHTD.M        293                  : BHTDEP       - MAXIMUM RECORDED TEMPERATURE
RMT .C        13                   : MDTP         - TEMPERATURE OF MUD
MUDD.KG/M     1110                 : MWT          - MUD DENSITY
NEUT.         1                    : NEUTRON      - NEUTRON TYPE
RESI.         0                    : RESIST       - RESISTIVITY TYPE
RM  .OHMM     0.304                : RM           - RESISTIVITY OF MUD
RMC .OHMM     0.304                : RMC          - RESISTIVITY OF MUD CAKE
RMF .OHMM     0.614                : RMF          - RESISTIVITY OF MUD FILTRATE
SUFT.C        4                    : SUFT         - SURFACE TEMPERATURE
~A  DEPTH     RESD       GR     PHIN     PHID
# ...
  168.500    9.898   79.523    0.470    0.299
  168.750    9.380   86.403    0.471    0.292
  169.000    8.112   90.173    0.481    0.292
  169.250    7.016   93.337    0.496    0.284
  169.500    6.177   93.391    0.489    0.277
  169.750    5.345   90.968    0.498    0.274
  170.000    5.065   90.403    0.519    0.274
  170.250    4.894   92.315    0.518    0.273
  170.500    4.816   93.607    0.515    0.271
  170.750    4.736   91.803    0.520    0.269
  171.000    4.742   90.619    0.507    0.264
  171.250    4.665   90.673    0.514    0.259
  171.500    4.674   88.237    0.528    0.253
  171.750    4.772   83.956    0.527    0.255
  172.000    4.871   81.532    0.531    0.258
  172.250    4.971   80.967    0.531    0.268
  172.500    5.265   84.118    0.517    0.282
  172.750    5.575   89.140    0.500    0.294
  173.000    5.795   92.290    0.491    0.289
  173.250    5.911   94.202    0.493    0.288
  173.500    5.709   93.018    0.494    0.295
  173.750    5.314   91.214    0.496    0.295
  174.000    5.039   91.268    0.506    0.284
  174.250    5.051   95.671    0.517    0.273
  174.500    5.157   98.821    0.526    0.271
  174.750    5.258  101.352    0.532    0.261
  175.000    5.172  103.870    0.527    0.257
  175.250    4.815  103.318    0.517    0.265
  175.500    4.565   99.024    0.509    0.262
  175.750    4.574   94.137    0.500    0.264
  176.000    4.585   93.572    0.499    0.261
  176.250    4.768   96.103    0.500    0.257
  176.500    4.952   98.634    0.506    0.269
  176.750    5.053   98.688    0.518    0.276
  177.000    4.971   96.898    0.532    0.278
  177.250    4.462   95.067    0.549    0.281
  177.500    4.002   88.928    0.563    0.281
  177.750    3.592   81.551    0.580    0.278
  178.000    3.342   76.651    0.525    0.269
  178.250    3.411   72.370    0.487    0.260
  178.500    4.422   68.089    0.473    0.246
  178.750    5.524   66.904    0.441    0.210
  179.000    7.164   70.688    0.427    0.182
  179.250    8.788   73.232    0.414    0.159
  179.500    9.833   75.117    0.422    0.171
  179.750   10.411   80.126    0.477    0.231
  180.000   10.624   85.767    0.489    0.267
  180.250    7.645   88.931    0.506    0.299
  180.500    6.256   88.352    0.512    0.283
  180.750    5.027   85.310    0.488    0.280
  181.000    5.624   82.887    0.484    0.288
  181.250    6.529   82.941    0.490    0.300
  181.500    7.305   87.343    0.502    0.291
  181.750    7.319   89.874    0.509    0.274
  182.000    6.813   91.800    0.504    0.261
  182.250    6.342   92.446    0.495    0.268
  182.500    6.013   91.262    0.483    0.277
  182.750    6.140   87.614    0.473    0.269
  183.000    6.869   84.558    0.471    0.271
  183.250    7.405   77.800    0.477    0.288
  183.500    7.564   69.816    0.474    0.330
  183.750    7.433   71.715    0.450    0.339
  184.000    7.312   70.544    0.445    0.320
  184.250    7.196   67.488    0.460    0.311
  184.500    6.574   63.840    0.485    0.330
  184.750    8.067   62.655    0.478    0.350
  185.000    8.862   66.425    0.467    0.340
  185.250    8.717   70.814    0.462    0.315
  185.500    8.905   75.203    0.462    0.292
  185.750    9.424   77.748    0.463    0.287
  186.000   10.163   78.394    0.472    0.287
  186.250   10.960   79.068    0.488    0.288
  186.500   10.197   82.232    0.510    0.281
  186.750    8.500   86.621    0.524    0.276
  187.000    7.086   90.391    0.524    0.276
  187.250    6.596   92.303    0.517    0.266
  187.500    6.143   90.499    0.515    0.253
  187.750    5.825   84.979    0.506    0.245
  188.000    5.836   80.093    0.492    0.270
  188.250    6.291   75.798    0.463    0.283
  188.500    7.038   77.104    0.458    0.279
  188.750    8.021   77.172    0.484    0.287
  189.000    9.488   76.579    0.499    0.302
  189.250    9.507   78.492    0.491    0.290
  189.500    7.921   84.119    0.499    0.276
  189.750    6.606   89.128    0.506    0.272
  190.000    6.263   94.769    0.480    0.276
  190.250    6.049   94.836    0.483    0.276
  190.500    5.525   97.381    0.502    0.268
  190.750    4.779  100.505    0.509    0.262
  191.000    4.133  104.894    0.508    0.258
  191.250    3.918  108.664    0.515    0.263
  191.500    3.997  109.970    0.522    0.267
  191.750    4.234  108.166    0.533    0.263
  192.000    4.323  106.968    0.538    0.259
  192.250    4.253  105.783    0.541    0.255
  192.500    4.181  107.709    0.550    0.256
  192.750    4.040  108.382    0.546    0.257
  193.000    3.972  107.817    0.537    0.258
  193.250    3.838  106.027    0.514    0.248
  193.500    3.777  104.209    0.518    0.238
  193.750    3.781  105.502    0.534    0.244
  194.000    3.790  107.414    0.562    0.262
  194.250    3.866  109.326    0.580    0.264
  194.500    3.949  107.522    0.598    0.266
  194.750    3.953  108.815    0.573    0.273
  195.000    3.965  108.869    0.560    0.279
  195.250    3.896  107.698    0.547    0.271
  195.500    3.763  105.275    0.543    0.267
  195.750    3.569  102.852    0.553    0.267
  196.000    3.447  102.286    0.587    0.262
  196.250    3.392  102.960    0.596    0.258
  196.500    3.462  102.395    0.571    0.261
  196.750    3.465  100.591    0.563    0.268
  197.000    3.474   99.393    0.569    0.264
  197.250    3.479   96.997    0.570    0.258
  197.500    3.486   96.404    0.543    0.259
  197.750    3.559   94.601    0.530    0.266
  198.000    3.632   93.430    0.501    0.266
  198.250    3.705   92.259    0.491    0.266
  198.500    3.851   92.286    0.498    0.266
  198.750    3.930   93.578    0.507    0.266
  199.000    4.086   95.504    0.518    0.262
  199.250    4.172   96.796    0.512    0.261
  199.500    4.101   97.470    0.507    0.267
  199.750    3.961   96.285    0.498    0.255
  200.000    3.969   95.720    0.503    0.241
  200.250    4.364   97.632    0.513    0.223
  200.500    4.214  102.654    0.504    0.229
  200.750    3.709  108.268    0.520    0.246
  201.000    2.926  113.276    0.543    0.273
  201.250    2.828  110.234    0.563    0.290
  201.500    2.886  105.953    0.579    0.283
  201.750    2.889  104.769    0.581    0.289
  202.000    2.843  106.075    0.583    0.302
  202.250    2.847  105.523    0.570    0.304
  202.500    2.751  104.931    0.576    0.298
  202.750    2.706  106.856    0.583    0.300
  203.000    2.661  108.149    0.567    0.299
  203.250    2.619  107.584    0.545    0.294
  203.500    2.625  107.018    0.532    0.292
  203.750    2.676  106.440    0.531    0.297
  204.000    2.733  106.494    0.535    0.298
  204.250    2.787  107.167    0.542    0.293
  204.500    2.846  109.093    0.553    0.282
  204.750    2.959  111.018    0.554    0.277
  205.000    3.021  111.072    0.547    0.267
  205.250    3.140  108.030    0.541    0.262
  205.500    3.203  104.368    0.543    0.271
  205.750    3.209  101.312    0.549    0.265
  206.000    3.158   98.876    0.565    0.277
  206.250    3.050   94.608    0.570    0.287
  206.500    2.999   90.946    0.540    0.291
  206.750    3.006   85.413    0.524    0.288
  207.000    3.125   79.275    0.517    0.274
  207.250    3.247   73.755    0.514    0.246
  207.500    3.566   67.010    0.508    0.219
  207.750    3.992   65.179    0.458    0.137
  208.000    4.305   62.756    0.366    0.089
  208.250    4.643   71.494    0.364    0.145
  208.500    5.292   78.360    0.451    0.191
  208.750    6.859   82.130    0.461    0.229
  209.000    9.233   82.817    0.453    0.241
  209.250    8.591   81.000    0.446    0.253
  209.500    6.529   82.912    0.461    0.266
  209.750    4.964   89.805    0.476    0.264
  210.000    5.261   92.956    0.473    0.258
  210.250    5.671   94.867    0.467    0.249
  210.500    5.895   96.160    0.463    0.253
  210.750    5.904   96.214    0.465    0.256
  211.000    5.600   93.172    0.471    0.263
  211.250    5.216   89.497    0.479    0.266
  211.500    5.125   82.738    0.480    0.260
  211.750    5.042   76.600    0.481    0.255
