~VERSION INFORMATION
 VERS.                 2.0:   CWLS LOG ASCII STANDARD -VERSION 2.0
 WRAP.                  NO:   ONE LINE PER DEPTH STEP
~WELL INFORMATION BLOCK
#MNEM.UNIT           DATA                    DESCRIPTION OF MNEMONIC
#---------    -------------------            -------------------------------
# Generated from Intellog Unique Number	CW_82_90/WELL/3075
WELL.         TEXACO WOODEN                  : Well_name    - WELL
LOC .         00/11-12-087-22W4/0            : Location     - LOCATION
UWI .         00/11-12-087-22W4/0            : Uwi          - UNIQUE WELL ID
ENTR.         MAX                            : Entered      - ENTERED BY
SRVC.         SCHLUMBERGER                   : Scn          - SERVICE COMPANY
STRT.M        145                            : top_depth    - START DEPTH
STOP.M        330                            : bot_depth    - STOP DEPTH
STEP.M        0.25                           : increment    - STEP LENGTH
 NULL. -999.2500:NULL Value
~CURVE INFORMATION BLOCK
#MNEM UNIT       ERCB CURVE CODE    CURVE DESCRIPTION
#-----------   ------------------   ----------------------------------
DEPT.M        00 001 00 00         : DEPTH        - DEPTH
ILD .OHMM     00 120 00 00         : RESD         - DEEP RESISTIVITY (DIL)
NPHI.V/V      00 330 00 00         : PHIN         - NEUTRON POROSITY (SANDSTONE)
DPHI.V/V      00 890 00 00         : PHID         - DENSITY POROSITY (SANDSTONE)
CALI.MM       00 280 01 00         : CAL          - CALIPER
GR  .API      00 310 00 00         : GR           - GAMMA RAY
~PARAMETER INFORMATION
#MNEM.UNIT           DATA             DESCRIPTION OF MNEMONIC
#---------         -----------     ------------------------------
GL  .M        559.47               : gl           - GROUND LEVEL ELEVATION
EREF.M        562.92               : kb           - ELEVATION OF DEPTH REFERENCE
DATM.M        559.47               : datum        - DATUM ELEVATION
TDD .M        337                  : tdd          - TOTAL DEPTH DRILLER
RUN .         ONE                  : Run          - RUN NUMBER
ENG .         BILL                 : Engineer     - RECORDING ENGINEER
WIT .         JIM                  : Witness      - WITNESSED BY
MUD .         GEL                  : Mud_type     - MUD TYPE
MATR.         SANDSTONE            : Logunit      - NEUTRON MATRIX
TMAX.C        22.2                 : BHT          - MAXIMUM RECORDED TEMPERATURE
BHTD.M        337                  : BHTDEP       - MAXIMUM RECORDED TEMPERATURE
MATR.         1                    : LOGUNIT      - NEUTRON MATRIX
RMT .C        20                   : MDTP         - TEMPERATURE OF MUD
NEUT.         1                    : NEUTRON      - NEUTRON TYPE
RESI.         0                    : RESIST       - RESISTIVITY TYPE
RMC .OHMM     5.06                 : RMC          - RESISTIVITY OF MUD CAKE
RMF .OHMM     3.27                 : RMF          - RESISTIVITY OF MUD FILTRATE
SUFT.C        -10                  : SUFT         - SURFACE TEMPERATURE
~A  DEPTH     RESD     PHIN     PHID      CAL       GR
# ...
  181.500   26.117    0.406    0.323  221.373   40.757
  181.750   26.836    0.401    0.330  222.331   39.828
  182.000   27.572    0.387    0.331  222.291   38.912
  182.250   27.814    0.375    0.336  222.745   38.290
  182.500   28.058    0.376    0.345  223.204   37.667
  182.750   28.306    0.387    0.336  223.159   38.239
  183.000   28.552    0.389    0.335  221.622   40.014
  183.250   28.016    0.390    0.334  222.081   38.792
  183.500   28.271    0.386    0.334  222.540   37.864
  183.750   27.747    0.382    0.334  222.505   38.439
  184.000   27.234    0.385    0.326  222.465   39.313
  184.250   26.731    0.392    0.312  222.415   39.283
  184.500   26.967    0.396    0.312  221.886   39.265
  184.750   27.203    0.405    0.332  221.836   40.442
  185.000   27.192    0.399    0.326  221.802   41.017
  185.250   27.431    0.396    0.327  221.762   41.292
  185.500   27.421    0.395    0.335  221.712   40.669
  185.750   27.408    0.396    0.348  221.682   39.741
  186.000   27.150    0.392    0.344  221.637   39.717
  186.250   26.891    0.385    0.346  221.602   40.588
  186.500   26.636    0.383    0.346  221.557   41.468
  186.750   26.384    0.391    0.336  221.023   42.340
  187.000   26.132    0.401    0.342  220.479   43.513
  187.250   25.882    0.416    0.338  220.439   44.989
  187.500   25.640    0.402    0.345  220.888   45.564
  187.750   25.395    0.409    0.342  220.848   45.540
  188.000   25.154    0.435    0.343  220.813   43.717
  188.250   24.915    0.446    0.338  220.279   43.693
  188.500   24.455    0.423    0.324  220.239   43.968
  188.750   24.222    0.414    0.314  220.194   44.540
  189.000   23.771    0.398    0.330  220.159   44.812
  189.250   23.765    0.390    0.346  220.109   45.088
  189.500   23.540    0.392    0.359  220.069   45.663
  189.750   23.316    0.395    0.345  220.533   45.941
  190.000   23.093    0.405    0.337  220.494   46.516
  190.250   23.086    0.411    0.350  219.950   47.393
  190.500   22.867    0.423    0.357  220.409   49.465
  190.750   21.835    0.415    0.356  220.374   52.728
  191.000   21.432    0.404    0.354  220.334   55.395
  191.250   20.279    0.419    0.340  220.783   58.670
  191.500   16.427    0.434    0.207  220.748   63.439
  191.750   11.493    0.448    0.174  221.207   72.097
  192.000    8.191    0.451    0.142  222.165   80.156
  192.250    6.166    0.439    0.114  222.125   86.419
  192.500    5.041    0.445    0.119  222.085   90.886
  192.750    4.556    0.449    0.105  222.534   93.855
  193.000    4.554    0.440    0.166  223.003   99.519
  193.250    4.636    0.435    0.203  222.958  102.489
  193.500    4.720    0.464    0.219  222.913  103.962
  193.750    4.806    0.498    0.198  223.866  104.235
  194.000    4.893    0.471    0.178  224.335  104.513
  194.250    4.936    0.453    0.181  225.787  104.190
  194.500    4.979    0.446    0.199  226.750  103.265
  194.750    4.977    0.467    0.216  227.708  102.639
  195.000    4.840    0.482    0.205  228.661  103.513
  195.250    4.751    0.481    0.211  229.624  104.686
  195.500    4.663    0.505    0.223  229.584  104.962
  195.750    4.618    0.519    0.223  229.040  104.941
  196.000    4.533    0.508    0.212  227.498  104.917
  196.250    4.531    0.492    0.207  226.465  105.189
  196.500    4.529    0.480    0.213  225.427  104.869
  196.750    4.569    0.472    0.209  225.382  102.148
  197.000    4.568    0.470    0.197  225.347  101.824
  197.250    4.566    0.476    0.205  225.297  102.100
  197.500    4.522    0.505    0.205  224.768  100.878
  197.750    4.479    0.512    0.200  224.225  100.854
  198.000    4.437    0.499    0.206  224.180  102.025
  198.250    4.435    0.492    0.218  223.646  100.205
  198.500    4.353    0.484    0.232  223.601   95.684
  198.750    4.233    0.476    0.233  223.067   94.768
  199.000    4.232    0.477    0.224  223.017   95.938
  199.250    4.230    0.479    0.216  222.982   95.918
  199.500    4.229    0.488    0.222  223.446   91.403
  199.750    4.227    0.495    0.245  223.900   87.783
  200.000    4.303    0.457    0.249  223.860   85.664
  200.250    4.503    0.448    0.239  224.309   82.344
  200.500    4.584    0.447    0.239  224.773   81.122
  200.750    4.753    0.443    0.237  224.733   81.401
  201.000    4.883    0.455    0.253  224.194   81.670
  201.250    5.017    0.462    0.262  223.655   79.550
  201.500    5.202    0.460    0.250  223.116   77.733
  201.750    5.544    0.455    0.240  222.572   75.611
  202.000    5.855    0.434    0.246  221.530   73.195
  202.250    6.239    0.420    0.245  221.495   68.980
  202.500    7.024    0.411    0.230  220.956   64.462
  202.750    8.278    0.447    0.203  220.916   66.234
  203.000    9.845    0.427    0.258  220.881   71.599
  203.250   10.491    0.421    0.283  220.831   76.365
  203.500    9.658    0.457    0.296  220.796   82.029
  203.750    8.892    0.471    0.288  220.756   89.193
  204.000    6.634    0.468    0.228  221.709   92.459
  204.250    5.275    0.471    0.148  222.667   94.234
  204.500    4.682    0.470    0.150  223.131   96.600
  204.750    4.431    0.469    0.174  223.590   99.869
  205.000    4.349    0.472    0.202  224.049   98.348
  205.250    4.115    0.492    0.224  224.004   95.629
  205.500    4.002    0.502    0.225  224.468   95.007
  205.750    3.787    0.492    0.210  224.423   93.782
  206.000    3.616    0.477    0.239  224.383   91.369
  206.250    3.421    0.470    0.267  223.844   86.552
  206.500    3.237    0.466    0.266  223.799   84.133
  206.750    3.207    0.455    0.267  223.265   82.014
  207.000    3.295    0.440    0.280  222.716   79.592
  207.250    3.675    0.423    0.243  222.681   77.475
  207.500    4.176    0.419    0.226  222.646   76.850
  207.750    4.966    0.421    0.237  222.108   76.826
  208.000    5.390    0.414    0.237  222.063   77.098
  208.250    5.959    0.410    0.231  222.013   76.775
  208.500    6.409    0.419    0.224  221.978   74.957
  208.750    7.083    0.417    0.242  221.439   73.736
  209.000    7.481    0.413    0.274  221.399   71.314
  209.250    8.345    0.413    0.270  221.354   68.596
  209.500    9.225    0.406    0.248  221.823   67.674
  209.750    9.565    0.394    0.233  222.776   66.452
  210.000   10.100    0.403    0.255  223.729   64.632
  210.250   10.377    0.397    0.281  224.188   67.000
  210.500   10.565    0.393    0.279  225.136   69.973
  210.750   10.755    0.399    0.261  225.605   70.847
  211.000   10.751    0.415    0.206  226.069   69.922
  211.250   10.845    0.424    0.193  227.017   69.895
  211.500   10.842    0.396    0.196  228.484   68.973
  211.750   10.738    0.382    0.210  229.437   67.754
  212.000   10.443    0.400    0.226  227.406   67.727
  212.250    9.974    0.415    0.249  225.859   69.802
  212.500    8.456    0.427    0.239  225.824   73.667
  212.750    6.787    0.439    0.223  225.784   76.939
  213.000    6.191    0.432    0.216  225.739   78.412
  213.250    5.445    0.442    0.238  226.203   78.385
  213.500    5.493    0.451    0.256  226.163   75.667
  213.750    5.800    0.459    0.271  225.619   73.245
  214.000    6.069    0.443    0.280  225.579   71.424
  214.250    6.293    0.425    0.288  225.534   69.604
  214.500    6.466    0.440    0.295  224.995   68.981
  214.750    6.582    0.446    0.297  224.951   71.050
  215.000    6.701    0.447    0.298  225.420   71.332
  215.250    6.948    0.446    0.291  225.380   66.814
  215.500    7.271    0.429    0.290  225.839   63.796
  215.750    7.819    0.424    0.285  226.298   61.970
  216.000    8.565    0.413    0.269  226.258   61.051
  216.250    9.642    0.398    0.245  226.213   60.132
  216.500   10.182    0.398    0.256  226.173   59.809
  216.750   10.655    0.399    0.272  226.128   59.482
  217.000   10.748    0.401    0.300  225.594   60.353
  217.250   10.843    0.407    0.291  225.549   61.227
  217.500   11.139    0.412    0.282  225.514   62.105
  217.750   11.238    0.417    0.281  226.467   63.874
