~VERSION INFORMATION
 VERS.                 2.0:   CWLS LOG ASCII STANDARD -VERSION 2.0
 WRAP.                  NO:   ONE LINE PER DEPTH STEP
~WELL INFORMATION BLOCK
#MNEM.UNIT           DATA                    DESCRIPTION OF MNEMONIC
#---------    -------------------            -------------------------------
# Generated from Intellog Unique Number	cxy/WELL/1154
WELL.         HB MISTEMAE                    : Well_name    - WELL
LOC .         00/10-27-079-01W5/0            : Location     - LOCATION
UWI .         00/10-27-079-01W5/0            : Uwi          - UNIQUE WELL ID
ENTR.         T                              : Entered      - ENTERED BY
SRVC.         SCHLUMBERGER                   : Scn          - SERVICE COMPANY
STRT.F        950                            : top_depth    - START DEPTH
STOP.F        1799.74                        : bot_depth    - STOP DEPTH
STEP.F        0.82                           : increment    - STEP LENGTH
 NULL. -999.2500:NULL Value
~CURVE INFORMATION BLOCK
#MNEM UNIT       ERCB CURVE CODE    CURVE DESCRIPTION
#-----------   ------------------   ----------------------------------
DEPT.F        00 001 00 00         : DEPTH        - DEPTH
CALI.IN       00 280 01 00         : CAL          - CALIPER
GR  .API      00 310 00 00         : GR           - GAMMA RAY
NPHI.V/V      00 330 00 00         : PHIN         - NEUTRON POROSITY (SANDSTONE)
ILD .OHMM     00 120 00 00         : RESD         - DEEP RESISTIVITY (DIL)
DPHI.V/V      00 890 00 00         : PHID         - DENSITY POROSITY (SANDSTONE)
~PARAMETER INFORMATION
#MNEM.UNIT           DATA             DESCRIPTION OF MNEMONIC
#---------         -----------     ------------------------------
GL  .F        1965                 : gl           - GROUND LEVEL ELEVATION
EREF.F        1978                 : kb           - ELEVATION OF DEPTH REFERENCE
DATM.F        1978                 : datum        - DATUM ELEVATION
TDD .F        1810                 : tdd          - TOTAL DEPTH DRILLER
RUN .         ONE                  : Run          - RUN NUMBER
ENG .         BILL                 : Engineer     - RECORDING ENGINEER
WIT .         JIM                  : Witness      - WITNESSED BY
MUD .         GEL                  : Mud_type     - MUD TYPE
MATR.         SANDSTONE            : Logunit      - NEUTRON MATRIX
TMAX.F        78                   : BHT          - MAXIMUM RECORDED TEMPERATURE
BHTD.F        1810                 : BHTDEP       - MAXIMUM RECORDED TEMPERATURE
MATR.         1                    : LOGUNIT      - NEUTRON MATRIX
RMT .F        77                   : MDTP         - TEMPERATURE OF MUD
NEUT.         1                    : NEUTRON      - NEUTRON TYPE
RESI.         5.67                 : RESIST       - RESISTIVITY TYPE
RMC .OHMM     5.67                 : RMC          - RESISTIVITY OF MUD CAKE
RMF .OHMM     5.67                 : RMF          - RESISTIVITY OF MUD FILTRATE
SUFT.F        4                    : SUFT         - SURFACE TEMPERATURE
~A  DEPTH      CAL       GR     PHIN     RESD     PHID
# ...
 1189.500    7.663   77.170    0.521    7.266    0.239
 1190.320    7.664   75.995    0.509    6.510    0.255
 1191.140    7.664   76.000    0.501    5.520    0.253
 1191.960    7.665   77.190    0.478    4.856    0.237
 1192.780    7.665   78.969    0.475    4.194    0.228
 1193.600    7.665   78.387    0.519    4.195    0.214
 1194.420    7.626   78.394    0.546    4.434    0.222
 1195.240    7.627   80.173    0.565    4.951    0.233
 1196.060    7.588   81.952    0.594    5.428    0.255
 1196.880    7.548   83.142    0.566    6.174    0.248
 1197.700    7.549   84.330    0.553    6.894    0.228
 1198.520    7.549   84.927    0.529    7.559    0.222
 1199.340    7.550   86.706    0.521    7.844    0.222
 1200.160    7.550   87.894    0.519    8.139    0.227
 1200.980    7.551   88.492    0.519    8.140    0.232
 1201.800    7.591   89.680    0.516    8.293    0.237
 1202.620    7.631   90.278    0.508    8.449    0.244
 1203.440    7.631   90.876    0.508    8.452    0.235
 1204.270    7.671   90.885    0.510    8.610    0.223
 1205.090    7.672   91.482    0.504    8.613    0.220
 1205.910    7.672   92.080    0.507    8.615    0.217
 1206.730    7.672   92.677    0.521    8.460    0.213
 1207.550    7.673   95.638    0.516    8.462    0.209
 1208.370    7.674   98.009    0.514    8.311    0.205
 1209.190    7.674   98.017    0.514    8.162    0.200
 1210.010    7.674   96.843    0.517    8.164    0.199
 1210.830    7.675   95.079    0.521    8.166    0.201
 1211.650    7.675   92.723    0.525    8.168    0.207
 1212.470    7.676   92.140    0.536    8.169    0.212
 1213.290    7.676   92.149    0.545    8.172    0.217
 1214.110    7.677   92.156    0.548    8.326    0.218
 1214.930    7.677   92.163    0.533    8.482    0.214
 1215.750    7.677   89.808    0.527    8.484    0.223
 1216.570    7.678   88.043    0.527    8.487    0.225
 1217.390    7.678   86.867    0.523    8.645    0.223
 1218.210    7.718   88.059    0.516    8.647    0.217
 1219.030    7.758   89.838    0.507    8.810    0.211
 1219.850    7.838   89.845    0.509    8.812    0.202
 1220.670    7.838   89.852    0.511    8.814    0.200
 1221.490    7.839   91.040    0.510    8.344    0.199
 1222.310    7.839   92.819    0.513    7.756    0.201
 1223.130    7.840   92.828    0.522    7.077    0.207
 1223.950    7.840   92.242    0.526    6.701    0.214
 1224.770    7.841   91.068    0.556    7.212    0.213
 1225.590    7.801   88.124    0.559    8.203    0.206
 1226.410    7.802   86.360    0.561    9.502    0.208
 1227.230    7.763   85.776    0.541   10.418    0.214
 1228.050    7.763   85.194    0.520   10.614    0.221
 1228.870    7.764   84.022    0.513   10.424    0.217
 1229.690    7.764   82.844    0.509   10.237    0.206
 1230.510    7.765   79.310    0.479   10.053    0.178
 1231.330    7.726   76.954    0.443    9.694    0.156
 1232.150    7.726   77.554    0.413    9.009    0.120
 1232.970    7.726   79.923    0.501    8.374    0.101
 1233.790    7.727   82.293    0.517    8.376    0.191
 1234.610    7.727   84.662    0.528    8.693    0.189
 1235.430    7.728   87.031    0.526    8.855    0.188
 1236.250    7.728   88.222    0.518    9.359    0.188
 1237.070    7.729   90.589    0.513    9.711    0.189
 1237.890    7.729   90.006    0.514   10.263    0.190
 1238.710    7.730   88.832    0.524   10.847    0.191
 1239.530    7.730   86.478    0.523   11.256    0.195
 1240.350    7.730   85.304    0.506   11.258    0.202
 1241.170    7.731   82.950    0.506   11.261    0.213
 1241.990    7.771   82.957    0.514   10.857    0.232
 1242.810    7.771   82.965    0.520   10.279    0.245
 1243.640    7.811   82.972    0.514    9.555    0.256
 1244.460    7.812   84.751    0.500    9.384    0.254
 1245.280    7.812   87.712    0.499    9.385    0.226
 1246.100    7.813   87.721    0.499    9.217    0.220
 1246.920    7.813   87.726    0.500    9.052    0.213
 1247.740    7.814   87.732    0.501    9.053    0.211
 1248.560    7.814   88.333    0.506    8.892    0.214
 1249.380    7.814   90.701    0.512    8.894    0.223
 1250.200    7.815   92.481    0.518    8.736    0.232
 1251.020    7.815   92.488    0.525    8.737    0.216
 1251.840    7.816   91.906    0.532    8.579    0.208
 1252.660    7.856   90.732    0.536    8.582    0.205
 1253.480    7.856   90.149    0.533    8.584    0.203
 1254.300    7.857   88.975    0.530    8.586    0.202
 1255.120    7.857   87.210    0.522    8.433    0.204
 1255.940    7.858   85.445    0.512    8.434    0.203
 1256.760    7.858   84.271    0.518    8.437    0.203
 1257.580    7.858   86.050    0.521    8.439    0.203
 1258.400    7.859   86.057    0.514    8.441    0.208
 1259.220    7.859   85.474    0.503    8.599    0.212
 1260.040    7.860   84.890    0.500    8.761    0.214
 1260.860    7.900   82.537    0.490    9.259    0.215
 1261.680    7.940   81.953    0.490   10.152    0.216
 1262.500    7.940   80.779    0.495   10.533    0.217
 1263.320    7.862   78.424    0.496   11.981    0.226
 1264.140    7.822   74.887    0.494   12.897    0.240
 1264.960    7.744   71.351    0.485   14.402    0.247
 1265.780    7.705   68.996    0.486   15.220    0.259
 1266.600    7.705   68.414    0.492   16.086    0.266
 1267.420    7.666   67.240    0.501   16.691    0.270
 1268.240    7.666   67.247    0.507   17.319    0.271
 1269.060    7.667   67.254    0.509   17.644    0.271
 1269.880    7.667   66.671    0.515   18.309    0.269
 1270.700    7.668   67.862    0.522   18.652    0.268
 1271.520    7.668   67.277    0.525   19.003    0.262
 1272.340    7.669   65.516    0.527   19.720    0.254
 1273.160    7.669   64.929    0.522   20.090    0.253
 1273.980    7.669   63.755    0.505   19.728    0.273
 1274.800    7.670   64.943    0.491   18.339    0.279
 1275.620    7.670   66.136    0.491   17.359    0.272
 1276.440    7.671   66.140    0.491   15.554    0.265
 1277.260    7.711   66.738    0.492   13.682    0.247
 1278.080    7.711   70.879    0.484   12.718    0.235
 1278.900    7.712   74.429    0.484   12.490    0.222
 1279.720    7.712   78.574    0.493   13.692    0.213
 1280.540    7.713   79.762    0.501   16.155    0.213
 1281.360    7.713   78.588    0.505   18.374    0.242
 1282.190    7.713   76.231    0.515   20.900    0.262
 1283.010    7.714   72.104    0.520   22.497    0.273
 1283.830    7.715   66.207    0.509   22.503    0.285
 1284.650    7.715   63.854    0.500   21.698    0.297
 1285.470    7.755   62.680    0.490   20.919    0.300
 1286.290    7.755   62.094    0.486   20.544    0.294
 1287.110    7.756   62.105    0.485   23.368    0.280
 1287.930    7.756   60.929    0.478   26.576    0.279
 1288.750    7.757   60.346    0.469   30.786    0.279
 1289.570    7.757   59.173    0.463   43.639    0.276
 1290.390    7.797   59.178    0.456   45.281    0.264
 1291.210    7.797   59.189    0.442   47.858    0.238
 1292.030    7.798   58.602    0.354   50.583    0.214
 1292.850    7.798   56.841    0.335   53.462    0.190
 1293.670    7.799   55.667    0.325   53.471    0.143
 1294.490    7.799   54.495    0.304   54.472    0.113
 1295.310    7.800   53.911    0.282   54.492    0.088
 1296.130    7.800   53.324    0.251   52.538    0.082
 1296.950    7.801   52.152    0.244   50.657    0.070
 1297.770    7.801   51.568    0.220   46.227    0.056
 1298.590    7.802   52.166    0.209   39.926    0.041
 1299.410    7.802   53.945    0.276   33.240    0.034
 1300.230    7.842   53.953    0.308   25.248    0.044
 1301.050    7.843   54.553    0.357   20.639    0.071
 1301.870    7.882   55.151    0.382   18.494    0.120
 1302.690    7.883   56.339    0.406   17.831    0.186
 1303.510    7.883   56.935    0.432   17.513    0.195
 1304.330    7.884   58.715    0.462   17.515    0.252
 1305.150    7.884   59.905    0.485   18.511    0.280
 1305.970    7.885   59.910    0.499   19.563    0.272
 1306.790    7.885   60.508    0.479   20.302    0.264
 1307.610    7.885   60.517    0.481   20.308    0.264
 1308.430    7.886   61.705    0.485   19.944    0.265
