~VERSION INFORMATION
 VERS.                 2.0:   CWLS LOG ASCII STANDARD -VERSION 2.0
 WRAP.                  NO:   ONE LINE PER DEPTH STEP
~WELL INFORMATION BLOCK
#MNEM.UNIT           DATA                    DESCRIPTION OF MNEMONIC
#---------    -------------------            -------------------------------
# Generated from Intellog Unique Number	CS_77_79/WELL/1001
WELL.         PCI PCEJ CHARD                 : Well_name    - WELL
LOC .         00/11-28-079-06W4/0            : Location     - LOCATION
UWI .         00/11-28-079-06W4/0            : Uwi          - UNIQUE WELL ID
ENTR.         JHS                            : Entered      - ENTERED BY
SRVC.         SCHLUMBERGER                   : Scn          - SERVICE COMPANY
STRT.M        70                             : top_depth    - START DEPTH
STOP.M        335                            : bot_depth    - STOP DEPTH
STEP.M        0.25                           : increment    - STEP LENGTH
 NULL. -999.2500:NULL Value
~CURVE INFORMATION BLOCK
#MNEM UNIT       ERCB CURVE CODE    CURVE DESCRIPTION
#-----------   ------------------   ----------------------------------
DEPT.M        00 001 00 00         : DEPTH        - DEPTH
DPHI.V/V      00 890 00 00         : PHID         - DENSITY POROSITY (LIMESTONE)
NPHI.V/V      00 330 00 00         : PHIN         - NEUTRON POROSITY (LIMESTONE)
GR  .API      00 310 00 00         : GR           - GAMMA RAY
ILD .OHMM     00 120 00 00         : RESD         - DEEP RESISTIVITY (DIL)
RHOB.KG/M3    00 350 00 00         : DENS         - BULK DENSITY
~PARAMETER INFORMATION
#MNEM.UNIT           DATA             DESCRIPTION OF MNEMONIC
#---------         -----------     ------------------------------
GL  .M        513.8                : gl           - GROUND LEVEL ELEVATION
EREF.M        516.9                : kb           - ELEVATION OF DEPTH REFERENCE
DATM.M        516.9                : datum        - DATUM ELEVATION
TDD .M        341                  : tdd          - TOTAL DEPTH DRILLER
RUN .         ONE                  : Run          - RUN NUMBER
ENG .         BILL                 : Engineer     - RECORDING ENGINEER
WIT .         JIM                  : Witness      - WITNESSED BY
MUD .         GEL                  : Mud_type     - MUD TYPE
MATR.         LIMESTONE            : Logunit      - NEUTRON MATRIX
TMAX.C        18                   : BHT          - MAXIMUM RECORDED TEMPERATURE
BHTD.M        341                  : BHTDEP       - MAXIMUM RECORDED TEMPERATURE
MATR.         1                    : LOGUNIT      - NEUTRON MATRIX
RMT .C        25                   : MDTP         - TEMPERATURE OF MUD
NEUT.         1                    : NEUTRON      - NEUTRON TYPE
RESI.         0                    : RESIST       - RESISTIVITY TYPE
RMC .OHMM     0.25                 : RMC          - RESISTIVITY OF MUD CAKE
RMF .OHMM     0.25                 : RMF          - RESISTIVITY OF MUD FILTRATE
SUFT.C        15                   : SUFT         - SURFACE TEMPERATURE
~A  DEPTH     PHID     PHIN       GR     RESD     DENS
   70.000    0.328    0.528   97.772    3.223    0.000
   70.250    0.323    0.552   94.732    3.165    0.000
   70.500    0.325    0.561   96.551    3.167    0.000
   70.750    0.335    0.567   96.549    3.169    0.000
   71.000    0.339    0.589   95.940    3.172    0.000
   71.250    0.328    0.563   98.366    3.174    0.000
   71.500    0.339    0.566   95.934    3.176    0.000
   71.750    0.339    0.585   92.288    3.178    0.000
   72.000    0.328    0.581   89.249    3.180    0.000
   72.250    0.323    0.567   88.639    3.182    0.000
   72.500    0.324    0.566   92.280    3.245    0.000
   72.750    0.330    0.545   95.314    3.248    0.000
   73.000    0.340    0.533   95.312    3.249    0.000
   73.250    0.357    0.601   92.272    3.252    0.000
   73.500    0.356    0.584   93.485    3.193    0.000
   73.750    0.335    0.573   95.304    3.136    0.000
   74.000    0.335    0.592   95.302    3.079    0.000
   74.250    0.341    0.592   93.477    3.082    0.000
   74.500    0.337    0.579   91.653    3.025    0.000
   74.750    0.339    0.571   89.221    2.916    0.000
   75.000    0.340    0.599   86.183    2.863    0.000
   75.250    0.337    0.614   83.751    2.864    0.000
   75.500    0.344    0.616   85.570    2.813    0.000
   75.750    0.348    0.615   89.818    2.762    0.000
   76.000    0.355    0.603   91.030    2.713    0.000
   76.250    0.361    0.582   91.635    2.715    0.000
   76.500    0.368    0.579   92.240    2.665    0.000
   76.750    0.367    0.609   92.845    2.667    0.000
   77.000    0.351    0.615   91.021    2.620    0.000
   77.250    0.352    0.616   86.767    2.621    0.000
   77.500    0.367    0.615   86.764    2.623    0.000
   77.750    0.372    0.612   87.369    2.625    0.000
   78.000    0.373    0.603   87.974    2.626    0.000
   78.250    0.363    0.584   87.972    2.628    0.000
   78.500    0.358    0.579   89.184    2.630    0.000
   78.750    0.367    0.587   90.396    2.682    0.000
   79.000    0.364    0.578   86.142    2.683    0.000
   79.250    0.344    0.551   86.747    2.686    0.000
   79.500    0.331    0.548   87.959    2.688    0.000
   79.750    0.333    0.579   85.527    2.690    0.000
   80.000    0.341    0.586   88.561    2.691    0.000
   80.250    0.339    0.601   92.810    2.693    0.000
   80.500    0.349    0.613   94.022    2.695    0.000
   80.750    0.351    0.600   92.197    2.697    0.000
   81.000    0.333    0.573   94.017    2.698    0.000
   81.250    0.335    0.575   92.800    2.700    0.000
   81.500    0.358    0.591   87.938    2.702    0.000
   81.750    0.336    0.586   87.329    2.756    0.000
   82.000    0.322    0.569   86.719    2.810    0.000
   82.250    0.311    0.561   85.502    2.920    0.000
   82.500    0.308    0.597   90.965    2.978    0.000
   82.750    0.318    0.615   92.177    3.037    0.000
   83.000    0.308    0.578   91.567    3.096    0.000
   83.250    0.299    0.493   92.780    3.158    0.000
   83.500    0.319    0.515   93.384    3.281    0.000
   83.750    0.314    0.554   87.309    3.346    0.000
   84.000    0.303    0.534   87.914    3.412    0.000
   84.250    0.307    0.543   95.198    3.480    0.000
   84.500    0.323    0.580   96.410    3.549    0.000
   84.750    0.318    0.554   92.157    3.551    0.000
   85.000    0.310    0.537   89.118    3.552    0.000
   85.250    0.308    0.556   91.545    3.623    0.000
   85.500    0.299    0.580   94.578    3.695    0.000
   85.750    0.307    0.564   96.397    3.698    0.000
   86.000    0.308    0.537   93.966    3.770    0.000
   86.250    0.285    0.519   90.320    3.845    0.000
   86.500    0.278    0.541   90.924    3.921    0.000
   86.750    0.282    0.547   90.922    3.998    0.000
   87.000    0.264    0.543   86.669    4.315    0.000
   87.250    0.238    0.556   67.234    4.569    0.000
   87.500    0.207    0.505   52.656    4.930    0.000
   87.750    0.247    0.438   47.795    5.422    0.000
   88.000    0.334    0.439   50.221    6.076    0.000
   88.250    0.352    0.429   47.183    7.071    0.000
   88.500    0.338    0.426   45.966    8.075    0.000
   88.750    0.426    0.530   58.716    8.880    0.000
   89.000    0.454    0.564   70.859    7.499    0.000
   89.250    0.411    0.549   84.217    6.213    0.000
   89.500    0.310    0.564   89.072    5.148    0.000
   89.750    0.285    0.550   87.248    4.347    0.000
   90.000    0.278    0.553   83.602    4.350    0.000
   90.250    0.267    0.532   74.491    4.967    0.000
   90.500    0.293    0.464   62.343    6.851    0.000
   90.750    0.311    0.440   58.089    9.272    0.000
   91.000    0.285    0.428   61.123   12.549    0.000
   91.250    0.296    0.421   67.193   14.605    0.000
   91.500    0.316    0.458   74.478   14.894    0.000
   91.750    0.322    0.471   84.799   13.562    0.000
   92.000    0.269    0.441   83.582   12.351    0.000
   92.250    0.305    0.444   70.220   12.126    0.000
   92.500    0.381    0.485   61.108   12.365    0.000
   92.750    0.406    0.480   67.178   13.094    0.000
   93.000    0.310    0.466   76.891   12.859    0.000
   93.250    0.299    0.459   81.748   11.932    0.000
   93.500    0.289    0.471   85.389   10.267    0.000
   93.750    0.277    0.502   88.423    8.833    0.000
   94.000    0.269    0.510   93.278    7.601    0.000
   94.250    0.272    0.476   92.061    7.464    0.000
   94.500    0.294    0.459   86.593    7.613    0.000
   94.750    0.318    0.503   78.696    8.215    0.000
   95.000    0.343    0.505   75.657    9.381    0.000
   95.250    0.356    0.502   78.084   10.513    0.000
   95.500    0.360    0.491   77.474   11.561    0.000
   95.750    0.354    0.488   73.828   12.477    0.000
   96.000    0.349    0.486   66.538   12.724    0.000
   96.250    0.348    0.470   63.499   13.221    0.000
   96.500    0.356    0.464   64.711   14.268    0.000
   96.750    0.355    0.448   62.887   15.399    0.000
   97.000    0.295    0.421   63.491   15.700    0.000
   97.250    0.285    0.420   64.703   16.317    0.000
   97.500    0.314    0.438   62.272   16.638    0.000
   97.750    0.306    0.454   58.625   16.965    0.000
   98.000    0.261    0.437   59.837   17.302    0.000
   98.250    0.240    0.416   62.264   17.315    0.000
   98.500    0.253    0.438   61.654   17.326    0.000
   98.750    0.337    0.486   59.830   17.337    0.000
   99.000    0.371    0.502   59.219   18.016    0.000
   99.250    0.396    0.515   59.218   18.721    0.000
   99.500    0.388    0.532   61.644   19.825    0.000
   99.750    0.347    0.455   65.286   20.220    0.000
  100.000    0.328    0.454   68.319   20.233    0.000
  100.250    0.347    0.508   66.494   19.869    0.000
  100.500    0.443    0.548   64.063   19.507    0.000
  100.750    0.359    0.553   61.024   18.446    0.000
  101.000    0.317    0.464   57.378   18.112    0.000
  101.250    0.317    0.446   53.732   18.127    0.000
  101.500    0.336    0.440   53.122   18.836    0.000
  101.750    0.336    0.413   57.978   19.575    0.000
  102.000    0.310    0.380   59.797   20.732    0.000
  102.250    0.301    0.378   59.188   21.544    0.000
  102.500    0.299    0.397   58.578   21.966    0.000
  102.750    0.266    0.415   59.182   22.399    0.000
  103.000    0.242    0.391   62.824   22.415    0.000
  103.250    0.270    0.399   68.287   22.010    0.000
  103.500    0.294    0.416   71.928   20.045    0.000
  103.750    0.289    0.435   83.464   18.252    0.000
  104.000    0.288    0.435   85.890   16.003    0.000
  104.250    0.288    0.429   86.494   14.297    0.000
  104.500    0.288    0.432   88.314   13.020    0.000
  104.750    0.272    0.453   96.206   12.082    0.000
  105.000    0.243    0.478   98.633   11.423    0.000
  105.250    0.249    0.447   97.416   11.008    0.000
  105.500    0.245    0.415   93.162   10.608    0.000
  105.750    0.327    0.408   87.087   10.818    0.000
  106.000    0.350    0.459   77.975   11.674    0.000
  106.250    0.366    0.519   68.864   12.837    0.000
