~VERSION INFORMATION
 VERS.                 2.0:   CWLS LOG ASCII STANDARD -VERSION 2.0
 WRAP.                  NO:   ONE LINE PER DEPTH STEP
~WELL INFORMATION BLOCK
#MNEM.UNIT           DATA                    DESCRIPTION OF MNEMONIC
#---------    -------------------            -------------------------------
# Generated from Intellog Unique Number	CS_77_79/WELL/989
WELL.         PARAMOUNT RESOURCES LTD.       : Well_name    - WELL
LOC .         00/11-06-077-09W4/0            : Location     - LOCATION
UWI .         00/11-06-077-09W4/0            : Uwi          - UNIQUE WELL ID
ENTR.         SP                             : Entered      - ENTERED BY
SRVC.         SCHLUMBERGER                   : Scn          - SERVICE COMPANY
STRT.M        210                            : top_depth    - START DEPTH
STOP.M        425                            : bot_depth    - STOP DEPTH
STEP.M        0.25                           : increment    - STEP LENGTH
 NULL. -999.2500:NULL Value
~CURVE INFORMATION BLOCK
#MNEM UNIT       ERCB CURVE CODE    CURVE DESCRIPTION
#-----------   ------------------   ----------------------------------
DEPT.M        00 001 00 00         : DEPTH        - DEPTH
ILD .OHMM     00 120 00 00         : RESD         - DEEP RESISTIVITY (DIL)
GR  .API      00 310 00 00         : GR           - GAMMA RAY
NPHI.V/V      00 330 00 00         : PHIN         - NEUTRON POROSITY (LIMESTONE)
DPHI.V/V      00 890 00 00         : PHID         - DENSITY POROSITY (LIMESTONE)
~PARAMETER INFORMATION
#MNEM.UNIT           DATA             DESCRIPTION OF MNEMONIC
#---------         -----------     ------------------------------
GL  .M        627.96               : gl           - GROUND LEVEL ELEVATION
EREF.M        631                  : kb           - ELEVATION OF DEPTH REFERENCE
DATM.M        627.96               : datum        - DATUM ELEVATION
TDD .M        431                  : tdd          - TOTAL DEPTH DRILLER
RUN .         ONE                  : Run          - RUN NUMBER
ENG .         BILL                 : Engineer     - RECORDING ENGINEER
WIT .         JIM                  : Witness      - WITNESSED BY
MUD .         GEL                  : Mud_type     - MUD TYPE
MATR.         LIMESTONE            : Logunit      - NEUTRON MATRIX
TMAX.C        21                   : BHT          - MAXIMUM RECORDED TEMPERATURE
BHTD.M        431                  : BHTDEP       - MAXIMUM RECORDED TEMPERATURE
MATR.         1                    : LOGUNIT      - NEUTRON MATRIX
RMT .C        25                   : MDTP         - TEMPERATURE OF MUD
NEUT.         1                    : NEUTRON      - NEUTRON TYPE
RESI.         0                    : RESIST       - RESISTIVITY TYPE
RMC .OHMM     0.25                 : RMC          - RESISTIVITY OF MUD CAKE
RMF .OHMM     0.25                 : RMF          - RESISTIVITY OF MUD FILTRATE
SUFT.C        15                   : SUFT         - SURFACE TEMPERATURE
~A  DEPTH     RESD       GR     PHIN     PHID
# ...
  253.500    7.682  119.766    0.469    0.234
  253.750    7.685  119.164    0.482    0.226
  254.000    8.332  116.738    0.489    0.228
  254.250    8.897  110.671    0.464    0.241
  254.500    9.865  107.030    0.447    0.240
  254.750   10.190  108.856    0.418    0.220
  255.000   10.113  114.933    0.401    0.210
  255.250    9.714  121.010    0.412    0.220
  255.500    8.996  127.087    0.422    0.222
  255.750    8.115  128.913    0.494    0.238
  256.000    7.717  121.023    0.517    0.245
  256.250    8.042  114.347    0.525    0.247
  256.500    8.768  108.885    0.505    0.233
  256.750    9.896  104.639    0.481    0.233
  257.000   11.747  101.606    0.460    0.236
  257.250   13.438   96.752    0.449    0.222
  257.500   13.763   98.579    0.444    0.226
  257.750   13.365  104.049    0.450    0.246
  258.000   12.967  108.306    0.454    0.250
  258.250   12.006  110.129    0.465    0.239
  258.500   10.965  111.350    0.469    0.231
  258.750   10.326  111.961    0.478    0.222
  259.000   10.008  111.357    0.473    0.239
  259.250    9.851  109.540    0.460    0.254
  259.500   10.337  108.328    0.444    0.271
  259.750   10.742  105.904    0.435    0.277
  260.000   11.227  103.479    0.434    0.272
  260.250   11.633  104.090    0.430    0.269
  260.500   11.797  104.702    0.417    0.280
  260.750   11.480  102.885    0.402    0.268
  261.000   11.082  103.496    0.393    0.255
  261.250   10.682  106.538    0.405    0.246
  261.500   10.043  108.363    0.423    0.241
  261.750    9.245  110.796    0.444    0.228
  262.000    9.006  112.015    0.453    0.229
  262.250    8.368  112.020    0.446    0.211
  262.500    7.809  114.453    0.446    0.199
  262.750    7.250  116.886    0.466    0.243
  263.000    6.771   99.279    0.506    0.276
  263.250    6.454   85.922    0.540    0.310
  263.500    6.619   74.388    0.571    0.350
  263.750    7.666   65.283    0.601    0.436
  264.000    9.115   54.964    0.626    0.497
  264.250   10.645   47.680    0.612    0.521
  264.500   12.977   54.972    0.577    0.521
  264.750   16.114   58.620    0.512    0.286
  265.000   17.965   59.231    0.448    0.292
  265.250   18.852   57.414    0.404    0.280
  265.500   20.221   57.419    0.416    0.282
  265.750   21.188   59.245    0.408    0.300
  266.000   21.674   61.071    0.408    0.310
  266.250   22.160   62.289    0.416    0.305
  266.500   22.484   60.472    0.420    0.316
  266.750   22.810   60.477    0.416    0.316
  267.000   22.973   61.698    0.405    0.311
  267.250   23.137   61.701    0.403    0.314
  267.500   23.221   62.311    0.403    0.320
  267.750   23.386   62.315    0.405    0.320
  268.000   23.550   62.319    0.399    0.324
  268.250   23.633   62.323    0.396    0.329
  268.500   23.717   62.935    0.404    0.328
  268.750   23.801   64.153    0.399    0.324
  269.000   23.724   64.765    0.397    0.324
  269.250   23.648   63.555    0.415    0.317
  269.500   23.410   63.558    0.431    0.320
  269.750   23.334   61.134    0.433    0.330
  270.000   23.337   59.316    0.418    0.337
  270.250   23.260   57.498    0.409    0.335
  270.500   23.264   56.288    0.410    0.341
  270.750   23.267   56.900    0.422    0.346
  271.000   23.191   56.903    0.430    0.336
  271.250   23.115   57.516    0.429    0.313
  271.500   23.118   57.520    0.419    0.315
  271.750   23.040   56.917    0.424    0.315
  272.000   23.044   57.528    0.425    0.303
  272.250   23.048   59.354    0.424    0.309
  272.500   22.972   63.004    0.428    0.315
  272.750   22.975   64.222    0.436    0.321
  273.000   22.978   64.832    0.448    0.322
  273.250   22.982   64.837    0.449    0.320
  273.500   22.985   64.234    0.443    0.317
  273.750   22.989   62.416    0.442    0.322
  274.000   23.073   61.205    0.443    0.305
  274.250   23.076   61.211    0.441    0.300
  274.500   23.079   61.821    0.437    0.309
  274.750   23.084   64.862    0.434    0.322
  275.000   23.086   66.080    0.443    0.335
  275.250   23.170   66.692    0.461    0.338
  275.500   23.173   64.875    0.471    0.330
  275.750   22.936   63.664    0.486    0.334
  276.000   22.699   61.847    0.472    0.339
  276.250   22.462   61.851    0.438    0.342
  276.500   22.305   60.640    0.415    0.346
  276.750   22.148   61.252    0.415    0.345
  277.000   22.071   62.470    0.421    0.340
  277.250   21.994   62.476    0.430    0.336
  277.500   21.918   61.873    0.441    0.328
  277.750   21.920   62.485    0.453    0.322
  278.000   21.844   63.095    0.455    0.330
  278.250   21.846   63.099    0.439    0.337
  278.500   21.689   64.319    0.433    0.339
  278.750   21.372   65.539    0.422    0.342
  279.000   21.215   65.542    0.415    0.348
  279.250   21.057   65.545    0.428    0.348
  279.500   20.900   65.550    0.443    0.347
  279.750   20.824   64.949    0.457    0.343
  280.000   20.747   64.951    0.450    0.348
  280.250   20.670   61.919    0.441    0.341
  280.500   20.593   63.745    0.433    0.335
  280.750   20.436   65.571    0.422    0.343
  281.000   20.359   67.397    0.417    0.336
  281.250   20.283   64.365    0.430    0.327
  281.500   20.205   64.370    0.439    0.327
  281.750   20.129   66.197    0.444    0.339
  282.000   20.052   67.415    0.448    0.341
  282.250   19.975   63.774    0.452    0.337
  282.500   19.979   61.957    0.448    0.337
  282.750   19.982   63.784    0.437    0.338
  283.000   19.905   66.217    0.420    0.347
  283.250   19.829   67.434    0.411    0.348
  283.500   19.832   64.403    0.413    0.343
  283.750   19.515   62.585    0.426    0.338
  284.000   19.277   65.627    0.439    0.335
  284.250   19.121   66.237    0.440    0.331
  284.500   19.044   66.848    0.438    0.339
  284.750   19.047   64.425    0.443    0.341
  285.000   19.051   63.213    0.449    0.339
  285.250   19.054   59.574    0.442    0.329
  285.500   18.977   63.222    0.436    0.328
  285.750   18.980   69.300    0.433    0.338
  286.000   18.824   69.304    0.437    0.343
  286.250   18.828   67.486    0.444    0.342
  286.500   18.830   68.705    0.450    0.344
  286.750   18.754   67.494    0.458    0.350
  287.000   18.758   63.249    0.467    0.347
  287.250   18.841   63.252    0.468    0.339
  287.500   18.925   64.471    0.468    0.335
  287.750   19.090   65.083    0.465    0.339
  288.000   19.174   65.086    0.456    0.337
  288.250   19.257   63.877    0.444    0.334
  288.500   19.340   62.666    0.438    0.333
  288.750   19.504   61.456    0.439    0.339
  289.000   19.590   59.032    0.455    0.349
  289.250   19.672   58.427    0.459    0.343
  289.500   19.756   59.647    0.469    0.352
  289.750   19.759   59.650    0.475    0.343
  290.000   19.764   57.226    0.480    0.343
  290.250   19.687   56.016    0.467    0.348
  290.500   19.610   56.627    0.450    0.338
  290.750   19.452   57.847    0.445    0.329
  291.000   19.135   59.064    0.450    0.331
  291.250   18.899   62.106    0.452    0.335
  291.500   18.820   63.324    0.450    0.333
  291.750   18.582   65.150    0.447    0.332
  292.000   18.345   66.368    0.450    0.332
  292.250   18.108   68.195    0.453    0.332
  292.500   17.709   69.414    0.454    0.328
  292.750   12.090   71.848    0.458    0.326
  293.000    9.282   74.281    0.471    0.325
  293.250    7.277   78.535    0.480    0.331
  293.500    6.398   84.613    0.475    0.308
  293.750    6.481   89.475    0.471    0.289
  294.000    7.288   88.872    0.497    0.320
  294.250   10.826   84.018    0.502    0.322
  294.500   17.416   79.772    0.431    0.321
  294.750   18.224   79.168    0.442    0.315
  295.000   18.709   76.136    0.447    0.305
  295.250   18.953   73.711    0.447    0.323
  295.500   18.314   72.501    0.441    0.327
  295.750   17.595   71.897    0.450    0.317
  296.000   16.393   71.902    0.460    0.318
  296.250   15.513   71.907    0.463    0.303
  296.500   14.553   71.910    0.472    0.309
  296.750   14.075   71.307    0.459    0.309
