~VERSION INFORMATION
 VERS.                 2.0:   CWLS LOG ASCII STANDARD -VERSION 2.0
 WRAP.                  NO:   ONE LINE PER DEPTH STEP
~WELL INFORMATION BLOCK
#MNEM.UNIT           DATA                    DESCRIPTION OF MNEMONIC
#---------    -------------------            -------------------------------
# Generated from Intellog Unique Number	CC_80_83/WELL/2363
NULL.         -999.25                        : NULL_VALUE
WELL.         SHELL HOUSE CREEK OV           : Well_name    - WELL
LOC .         10-23-080-13W4                 : Location     - LOCATION          
UWI .         00/10-23-080-13W4/0            : Uwi          - UNIQUE WELL ID    
ENTR.         JHS                            : Entered      - ENTERED BY        
SRVC.         SCHLUMBERGER                   : Scn          - SERVICE COMPANY   
DATE.         01 JAN 93                      : Date         - LOG DATE
STRT.M        320.04                         : top_depth    - START DEPTH       
STOP.M        515.118                        : bot_depth    - STOP DEPTH        
STEP.M        0.305                          : increment    - STEP LENGTH       
~CURVE INFORMATION BLOCK
#MNEM UNIT       ERCB CURVE CODE    CURVE DESCRIPTION
#-----------   ------------------   ----------------------------------
DEPT.M        00 001 00 00         : DEPTH        - DEPTH                       
DPHI.V/V      00 890 00 00         : PHID         - DENSITY POROSITY (LIMESTONE)
GR  .API      00 310 00 00         : GR           - GAMMA RAY                   
ILD .OHMM     00 120 00 00         : RESD         - DEEP RESISTIVITY (DIL)      
~PARAMETER INFORMATION       
#MNEM.UNIT           DATA             DESCRIPTION OF MNEMONIC
#---------         -----------     ------------------------------
GL  .M        696.773              : gl           - GROUND LEVEL ELEVATION      
EREF.M        699.821              : kb           - ELEVATION OF DEPTH REFERENCE
DATM.M        699.821              : datum        - DATUM ELEVATION             
TDD .M        525.17               : tdd          - TOTAL DEPTH DRILLER         
RUN .         ONE                  : Run          - RUN NUMBER                  
ENG .         BILL                 : Engineer     - RECORDING ENGINEER          
WIT .         JIM                  : Witness      - WITNESSED BY                
MUD .         GEL                  : Mud_type     - MUD TYPE                    
MATR.         LIMESTONE            : Logunit      - NEUTRON MATRIX              
TMAX.C        20                   : BHT          - MAXIMUM RECORDED TEMPERATURE
BHTD.M        525.17               : BHTDEP       - MAXIMUM RECORDED TEMPERATURE
MATR.         1                    : LOGUNIT      - NEUTRON MATRIX              
RMT .C        25                   : MDTP         - TEMPERATURE OF MUD          
NEUT.         1                    : NEUTRON      - NEUTRON TYPE                
RESI.         0                    : RESIST       - RESISTIVITY TYPE            
RMC .OHMM     0.25                 : RMC          - RESISTIVITY OF MUD CAKE     
RMF .OHMM     0.25                 : RMF          - RESISTIVITY OF MUD FILTRATE 
SUFT.C        15                   : SUFT         - SURFACE TEMPERATURE         
~A  DEPTH     PHID       GR     RESD
# ...
  452.327    0.191   56.216    3.066
  452.632    0.193   56.649    3.126
  452.937    0.217   57.083    3.129
  453.242    0.223   57.958    3.191
  453.547    0.212   59.725    3.253
  453.851    0.215   57.490    3.378
  454.156    0.227   53.036    3.780
  454.461    0.238   45.913    4.641
  454.766    0.249   42.346    5.289
  455.071    0.258   43.222    6.142
  455.375    0.258   40.101    6.871
  455.680    0.263   39.644    7.547
  455.985    0.256   43.630    7.987
  456.290    0.231   42.288    8.143
  456.595    0.202   36.053    8.001
  456.900    0.182   25.820    8.006
  457.204    0.175   28.474    8.319
  457.509    0.169   35.130    8.172
  457.814    0.222   42.229    7.736
  458.119    0.244   41.772    7.323
  458.424    0.240   41.760    6.933
  458.728    0.218   49.749    6.939
  459.033    0.213   55.070    7.075
  459.338    0.236   59.502    7.486
  459.643    0.242   59.935    8.069
  459.948    0.229   56.811    9.028
  460.252    0.212   50.134   10.680
  460.557    0.185   42.122   12.173
  460.862    0.183   38.110   13.125
  461.167    0.203   37.655   12.657
  461.472    0.238   39.421   12.434
  461.776    0.244   39.408   13.158
  462.081    0.253   34.064   13.922
  462.386    0.250   33.606   15.011
  462.691    0.237   39.373   15.023
  462.996    0.214   42.916   14.488
  463.301    0.202   42.014   13.216
  463.605    0.189   42.447   12.280
  463.910    0.191   46.882   11.200
  464.215    0.182   51.314   10.603
  464.520    0.169   48.190   10.419
  464.825    0.183   48.624   10.621
  465.129    0.236   41.500   12.334
  465.434    0.230   32.601   14.057
  465.739    0.202   32.590   15.156
  466.044    0.190   45.022   15.451
  466.349    0.189   49.899   14.628
  466.653    0.206   45.885   13.847
  466.958    0.221   37.876   13.602
  467.263    0.221   34.308   13.618
  467.568    0.247   38.740   13.882
  467.873    0.238   40.062   13.895
  468.177    0.255   36.493   14.703
  468.482    0.278   32.039   17.392
  468.787    0.274   22.694   24.772
  469.092    0.279   14.682   33.372
  469.397    0.288   15.114   40.969
  469.702    0.293   16.437   44.993
  470.006    0.284   19.536   46.735
  470.311    0.274   22.636   43.431
  470.616    0.273   30.179   38.883
  470.921    0.267   37.276   29.455
  471.226    0.258   41.266   21.501
  471.530    0.236   48.364   16.289
  471.835    0.226   51.907   13.047
  472.140    0.240   51.008   11.899
  472.445    0.245   48.329   11.265
  472.750    0.237   44.761   11.068
  473.054    0.238   42.527   10.876
  473.359    0.240   41.184   10.682
  473.664    0.222   43.837   10.302
  473.969    0.193   49.159    9.573
  474.274    0.189   57.146    9.064
  474.578    0.192   56.245    8.739
  474.883    0.200   50.013    8.586
  475.188    0.203   46.444    8.435
  475.493    0.195   52.655    8.287
  475.798    0.192   60.199    7.702
  476.103    0.192   65.076    7.291
  476.407    0.196   66.397    7.716
  476.712    0.219   65.053    8.013
  477.017    0.227   52.153    8.801
  477.322    0.235   47.252    9.847
  477.627    0.225   50.352   11.225
  477.931    0.223   50.340   11.878
  478.236    0.207   50.327   12.569
  478.541    0.193   49.872   12.813
  478.846    0.176   40.083   13.065
  479.151    0.172   30.737   12.836
  479.455    0.218   33.392   12.849
  479.760    0.237   38.269   13.100
  480.065    0.243   35.590   13.863
  480.370    0.249   31.135   14.671
  480.675    0.247   27.568   15.239
  480.979    0.233   26.666   14.971
  481.284    0.227   31.988   14.708
  481.589    0.227   37.309   14.186
  481.894    0.240   36.408   14.195
  482.199    0.242   33.286   14.474
  482.504    0.246   30.607   14.757
  482.808    0.250   32.818   14.232
  483.113    0.242   32.361   12.981
  483.418    0.234   31.905   11.200
  483.723    0.199   34.116   10.216
  484.028    0.173   43.882    9.319
  484.332    0.180   47.426    8.660
  484.637    0.200   49.635    8.666
  484.942    0.204   51.401    9.343
  485.247    0.222   49.168   10.648
  485.552    0.268   35.823   12.832
  485.856    0.274   31.367   15.181
  486.161    0.245   33.133   15.479
  486.466    0.214   40.677   14.652
  486.771    0.191   47.330   12.407
  487.076    0.174   50.874    9.939
  487.380    0.174   48.196    9.946
  487.685    0.197   45.074   10.525
  487.990    0.233   41.505   12.221
  488.295    0.232   40.161   12.934
  488.600    0.220   41.925   12.708
  488.905    0.221   45.915   12.031
  489.209    0.220   47.682   11.386
  489.514    0.227   49.891   10.387
  489.819    0.225   48.990    9.833
  490.124    0.231   44.534   10.214
  490.429    0.247   41.855   10.808
  490.733    0.259   40.067   11.436
  491.038    0.262   42.720   11.879
  491.343    0.252   41.822   11.456
  491.648    0.223   44.472   10.449
  491.953    0.202   43.574    9.015
  492.257    0.208   43.120    8.378
  492.562    0.218   45.329    8.079
  492.867    0.213   43.095    7.937
  493.172    0.216   41.751    7.944
  493.477    0.191   46.182    7.804
  493.781    0.156   51.949    7.812
  494.086    0.126   58.603    7.965
  494.391    0.118   55.923    8.273
  494.696    0.115   48.802    8.920
  495.001    0.125   47.902    9.264
  495.306    0.154   53.223    9.101
  495.610    0.143   60.766    8.302
  495.915    0.143   63.865    8.156
  496.220    0.151   66.076    8.317
  496.525    0.196   58.510    8.802
  496.830    0.210   49.609    9.141
  497.134    0.223   46.931    9.856
  497.439    0.222   52.697   10.049
  497.744    0.204   60.684    9.874
  498.049    0.204   66.005    9.881
  498.354    0.205   62.439   10.456
  498.658    0.203   49.983   10.860
  498.963    0.158   39.303   10.870
  499.268    0.128   41.513   10.100
  499.573    0.133   47.725    9.386
  499.878    0.151   70.380    9.051
  500.182    0.175   73.475    8.892
  500.487    0.185   70.800    8.576
  500.792    0.188   65.900    8.584
  501.097    0.178   63.663    8.919
  501.402    0.182   61.432    9.092
  501.707    0.184   52.531    8.931
  502.011    0.179   45.853    8.455
  502.316    0.170   43.174    8.306
  502.621    0.149   46.719    8.162
  502.926    0.138   54.704    8.170
  503.231    0.132   56.471    8.175
  503.535    0.135   54.239    8.185
  503.840    0.129   53.336    8.192
  504.145    0.145   52.437    8.197
  504.450    0.154   50.648    8.203
  504.755    0.158   49.303    8.365
  505.059    0.175   41.736    8.530
  505.364    0.190   32.836    8.697
  505.669    0.210   22.599    9.033
  505.974    0.233   22.590    9.210
  506.279    0.252   15.468    9.568
  506.583    0.267    7.012    9.577
  506.888    0.282    4.778    9.065
  507.193    0.281    4.320    8.423
  507.498    0.278    5.644    7.682
  507.803    0.263   10.076    7.835
  508.108    0.228   17.174    8.137
  508.412    0.193   21.604    8.611
  508.717    0.165   22.483    9.458
  509.022    0.178   22.028    9.642
  509.327    0.201   21.126    8.635
  509.632    0.214   22.449    8.173
  509.936    0.218   22.438    7.595
  510.241    0.224   22.869    7.189
  510.546    0.234   24.191    6.806
  510.851    0.254   22.844    6.687
  511.156    0.263   19.724    6.568
  511.460    0.263   15.267    5.774
  511.765    0.259   10.810    5.266
  512.070    0.268    6.800    4.628
  512.375    0.273    5.900    4.300
  512.680    0.286    6.328    4.226
  512.984    0.292    6.765    4.389
  513.289    0.292   10.751    4.821
  513.594    0.294   10.294    5.100
  513.899    0.284    9.396    4.919
  514.204    0.261   13.383    4.657
  514.508    0.235   31.592    4.575
  514.813    0.182   55.136    4.752
  515.118    0.082   60.458    5.029
