~VERSION INFORMATION
 VERS.                 2.0:   CWLS LOG ASCII STANDARD -VERSION 2.0
 WRAP.                  NO:   ONE LINE PER DEPTH STEP
~WELL INFORMATION BLOCK
#MNEM.UNIT           DATA                    DESCRIPTION OF MNEMONIC
#---------    -------------------            -------------------------------
# Generated from Intellog Unique Number	CS_73_76/WELL/3260
WELL.         BOW VALLEY INDUSTRIES LTD      : Well_name    - WELL
LOC .         00/11-10-076-14W4/0            : Location     - LOCATION
UWI .         00/11-10-076-14W4/0            : Uwi          - UNIQUE WELL ID
ENTR.         SP                             : Entered      - ENTERED BY
SRVC.         SCHLUMBERGER                   : Scn          - SERVICE COMPANY
STRT.M        315                            : top_depth    - START DEPTH
STOP.M        535                            : bot_depth    - STOP DEPTH
STEP.M        0.25                           : increment    - STEP LENGTH
 NULL. -999.2500:NULL Value
~CURVE INFORMATION BLOCK
#MNEM UNIT       ERCB CURVE CODE    CURVE DESCRIPTION
#-----------   ------------------   ----------------------------------
DEPT.M        00 001 00 00         : DEPTH        - DEPTH
ILD .OHMM     00 120 00 00         : RESD         - DEEP RESISTIVITY (DIL)
DPHI.V/V      00 890 00 00         : PHID         - DENSITY POROSITY (LIMESTONE)
NPHI.V/V      00 330 00 00         : PHIN         - NEUTRON POROSITY (LIMESTONE)
GR  .API      00 310 00 00         : GR           - GAMMA RAY
~PARAMETER INFORMATION
#MNEM.UNIT           DATA             DESCRIPTION OF MNEMONIC
#---------         -----------     ------------------------------
GL  .M        644.9                : gl           - GROUND LEVEL ELEVATION
EREF.M        648.3                : kb           - ELEVATION OF DEPTH REFERENCE
DATM.M        644.9                : datum        - DATUM ELEVATION
TDD .M        537                  : tdd          - TOTAL DEPTH DRILLER
RUN .         ONE                  : Run          - RUN NUMBER
ENG .         BILL                 : Engineer     - RECORDING ENGINEER
WIT .         JIM                  : Witness      - WITNESSED BY
MUD .         GEL                  : Mud_type     - MUD TYPE
MATR.         LIMESTONE            : Logunit      - NEUTRON MATRIX
TMAX.C        26                   : BHT          - MAXIMUM RECORDED TEMPERATURE
BHTD.M        537                  : BHTDEP       - MAXIMUM RECORDED TEMPERATURE
MATR.         1                    : LOGUNIT      - NEUTRON MATRIX
RMT .C        25                   : MDTP         - TEMPERATURE OF MUD
NEUT.         1                    : NEUTRON      - NEUTRON TYPE
RESI.         0                    : RESIST       - RESISTIVITY TYPE
RMC .OHMM     0.25                 : RMC          - RESISTIVITY OF MUD CAKE
RMF .OHMM     0.25                 : RMF          - RESISTIVITY OF MUD FILTRATE
SUFT.C        15                   : SUFT         - SURFACE TEMPERATURE
~A  DEPTH     RESD     PHID     PHIN       GR
  315.000    3.459    0.202    0.584   97.554
  315.250    3.865    0.199    0.582   94.501
  315.500    4.320    0.176    0.561   90.227
  315.750    4.241    0.190    0.532   95.707
  316.000    4.012    0.223    0.524  101.188
  316.250    3.591    0.251    0.522  104.230
  316.500    3.460    0.252    0.524  101.787
  316.750    3.461    0.239    0.531  101.165
  317.000    3.461    0.248    0.547  101.160
  317.250    3.461    0.215    0.563  101.154
  317.500    3.462    0.208    0.574  101.149
  317.750    3.398    0.222    0.583  101.755
  318.000    3.399    0.240    0.583  103.576
  318.250    3.336    0.251    0.580  104.182
  318.500    3.276    0.251    0.574  104.784
  318.750    3.216    0.251    0.551  104.779
  319.000    3.157    0.277    0.545  104.772
  319.250    3.157    0.245    0.543  102.325
  319.500    3.158    0.236    0.545  101.102
  319.750    3.158    0.239    0.551   98.656
  320.000    3.277    0.244    0.559   97.431
  320.250    3.595    0.256    0.563   96.815
  320.500    3.596    0.249    0.562   97.419
  320.750    3.596    0.239    0.522   98.022
  321.000    3.466    0.231    0.517   98.626
  321.250    3.340    0.227    0.539   94.352
  321.500    3.733    0.197    0.560   90.077
  321.750    4.662    0.189    0.579   86.412
  322.000    6.270    0.171    0.550   81.527
  322.250    7.273    0.161    0.447   78.473
  322.500    7.689    0.203    0.449   80.906
  322.750    7.833    0.236    0.460   82.727
  323.000    7.010    0.270    0.460   82.112
  323.250    6.510    0.295    0.462   81.497
  323.500    6.632    0.282    0.480   80.880
  323.750    7.142    0.293    0.495   81.485
  324.000    7.692    0.310    0.487   78.429
  324.250    7.983    0.330    0.474   77.813
  324.500    7.694    0.305    0.460   80.854
  324.750    7.278    0.272    0.456   83.288
  325.000    6.759    0.229    0.452   94.866
  325.250    6.277    0.231    0.459  102.177
  325.500    6.049    0.231    0.473  105.221
  325.750    5.618    0.221    0.477  105.214
  326.000    5.515    0.223    0.468  105.207
  326.250    5.516    0.241    0.470  105.202
  326.500    6.052    0.252    0.474  103.367
  326.750    6.517    0.270    0.462   99.091
  327.000    7.844    0.289    0.446   94.817
  327.250    9.098    0.306    0.411   89.323
  327.500    9.441    0.333    0.415   85.658
  327.750    9.798    0.322    0.446   85.044
  328.000    9.799    0.307    0.464   85.038
  328.250    9.800    0.288    0.458   90.518
  328.500    9.622    0.293    0.458   91.120
  328.750    9.622    0.304    0.463   91.116
  329.000    9.446    0.306    0.468   90.500
  329.250    9.274    0.310    0.473   92.322
  329.500    9.105    0.306    0.475   95.362
  329.750    8.938    0.306    0.482   96.578
  330.000    8.775    0.309    0.486   97.182
  330.250    8.614    0.293    0.481   95.954
  330.500    8.457    0.291    0.462   94.731
  330.750    8.303    0.289    0.428   91.676
  331.000    9.109    0.285    0.399   88.011
  331.250    9.993    0.285    0.373   80.077
  331.500   11.169    0.315    0.342   71.536
  331.750   12.483    0.333    0.236   61.165
  332.000   13.444    0.363    0.251   56.281
  332.250   13.198    0.397    0.291   52.614
  332.500   12.719    0.364    0.349   52.001
  332.750   12.258    0.300    0.382   50.773
  333.000   10.970    0.320    0.410   50.157
  333.250   10.377    0.326    0.421   49.542
  333.500   10.001    0.332    0.428   50.147
  333.750    9.288    0.326    0.434   55.017
  334.000    8.786    0.324    0.437   60.500
  334.250    8.160    0.296    0.433   76.346
  334.500    7.578    0.256    0.436   90.973
  334.750    7.037    0.210    0.446  104.991
  335.000    6.298    0.189    0.459  116.569
  335.250    5.636    0.175    0.483  118.392
  335.500    5.044    0.182    0.506  120.822
  335.750    4.684    0.189    0.506  122.038
  336.000    4.598    0.163    0.521  123.861
  336.250    4.599    0.158    0.536  124.462
  336.500    4.599    0.156    0.553  124.459
  336.750    4.685    0.111    0.564  120.792
  337.000    4.773    0.129    0.542  118.957
  337.250    4.600    0.156    0.550  121.390
  337.500    4.433    0.169    0.555  124.433
  337.750    4.117    0.176    0.546  124.425
  338.000    3.753    0.180    0.556  123.811
  338.250    3.422    0.189    0.567  123.803
  338.500    3.119    0.203    0.567  123.798
  338.750    3.120    0.210    0.555  121.963
  339.000    3.896    0.194    0.549  123.176
  339.250    4.777    0.235    0.550  122.560
  339.500    5.439    0.257    0.541  120.116
  339.750    6.308    0.260    0.512  115.841
  340.000    7.452    0.263    0.500  114.006
  340.250    8.176    0.258    0.476  110.948
  340.500    8.485    0.263    0.470  109.115
  340.750    8.645    0.250    0.475  105.450
  341.000    8.487    0.271    0.489  101.785
  341.250    8.488    0.285    0.501   98.121
  341.500    8.488    0.293    0.504   95.676
  341.750    8.333    0.296    0.489   95.669
  342.000    8.334    0.287    0.475  100.541
  342.250    8.031    0.277    0.473  104.805
  342.500    7.598    0.260    0.461  110.894
  342.750    7.188    0.244    0.467  115.766
  343.000    6.927    0.231    0.481  113.929
  343.250    7.057    0.239    0.489  111.484
  343.500    7.888    0.249    0.496  109.041
  343.750    8.654    0.259    0.476  105.375
  344.000    9.320    0.265    0.452  106.590
  344.250    9.495    0.278    0.451  109.021
  344.500    9.495    0.295    0.463  109.016
  344.750    8.818    0.301    0.470  107.786
  345.000    8.657    0.305    0.470  107.172
  345.250    8.190    0.295    0.466  106.558
  345.500    7.893    0.307    0.476  106.548
  345.750    7.607    0.308    0.480  107.155
  346.000    7.468    0.296    0.476  111.417
  346.250    7.331    0.294    0.464  112.630
  346.500    7.332    0.295    0.451  109.575
  346.750    7.332    0.290    0.464  102.250
  347.000    7.610    0.282    0.474   99.198
  347.250    8.195    0.293    0.483   93.094
  347.500    9.331    0.225    0.465   87.601
  347.750   10.237    0.267    0.453   80.277
  348.000   10.624    0.308    0.463   77.223
  348.250   11.026    0.329    0.480   74.779
  348.500   11.027    0.336    0.500   69.283
  348.750   10.825    0.346    0.497   65.009
  349.000   10.627    0.346    0.498   62.564
  349.250   10.628    0.341    0.498   63.777
  349.500   10.630    0.341    0.495   63.160
  349.750   10.630    0.333    0.491   61.936
  350.000   10.631    0.337    0.486   61.316
  350.250   10.437    0.341    0.477   61.920
  350.500   10.438    0.339    0.481   63.744
  350.750   10.439    0.336    0.481   66.788
  351.000   10.060    0.337    0.476   73.488
  351.250    9.342    0.345    0.465   78.360
  351.500    7.909    0.349    0.459   83.233
  351.750    6.820    0.360    0.467   89.324
  352.000    5.668    0.381    0.492   94.195
  352.250    5.072    0.405    0.527   97.848
  352.500    4.798    0.391    0.552  103.328
  352.750    4.711    0.324    0.570  105.762
  353.000    4.711    0.287    0.520  106.365
  353.250    5.074    0.292    0.531  105.750
  353.500    5.464    0.286    0.548  105.742
  353.750    5.777    0.284    0.552  108.785
  354.000    5.886    0.283    0.528  108.168
  354.250    5.672    0.297    0.499  108.164
  354.500    5.466    0.294    0.496  106.937
  354.750    5.673    0.281    0.495  105.712
  355.000    5.887    0.288    0.498  102.656
  355.250    6.224    0.282    0.505   98.991
  355.500    6.829    0.285    0.485   95.936
  355.750    7.354    0.283    0.479   94.713
  356.000    7.493    0.271    0.473   97.145
  356.250    7.493    0.283    0.478   98.358
  356.500    7.222    0.277    0.491   97.133
  356.750    7.090    0.262    0.503   95.904
  357.000    6.707    0.252    0.512   95.291
  357.250    6.584    0.238    0.519   94.673
  357.500    6.464    0.240    0.521   95.278
  357.750    6.346    0.267    0.521   94.052
  358.000    6.465    0.264    0.514   90.998
  358.250    7.093    0.259    0.519   84.285
