~VERSION INFORMATION
 VERS.                 2.0:   CWLS LOG ASCII STANDARD -VERSION 2.0
 WRAP.                  NO:   ONE LINE PER DEPTH STEP
~WELL INFORMATION BLOCK
#MNEM.UNIT           DATA                    DESCRIPTION OF MNEMONIC
#---------    -------------------            -------------------------------
# Generated from Intellog Unique Number	CX_WELLS/WELL/3883
WELL.         SUNCOD                         : Well_name    - WELL
LOC .         00/11-21-087-17W4/0            : Location     - LOCATION
UWI .         00/11-21-087-17W400            : Uwi          - UNIQUE WELL ID
ENTR.         TIM                            : Entered      - ENTERED BY
SRVC.         SCHLUMBERGER                   : Scn          - SERVICE COMPANY
STRT.M        50                             : top_depth    - START DEPTH
STOP.M        220                            : bot_depth    - STOP DEPTH
STEP.M        0.25                           : increment    - STEP LENGTH
 NULL. -999.2500:NULL Value
~CURVE INFORMATION BLOCK
#MNEM UNIT       ERCB CURVE CODE    CURVE DESCRIPTION
#-----------   ------------------   ----------------------------------
DEPT.M        00 001 00 00         : DEPTH        - DEPTH
GR  .API      00 310 00 00         : GR           - GAMMA RAY
NPHI.V/V      00 330 00 00         : PHIN         - NEUTRON POROSITY (SANDSTONE)
DPHI.V/V      00 890 00 00         : PHID         - DENSITY POROSITY (SANDSTONE)
ILD .OHMM     00 120 00 00         : RESD         - DEEP RESISTIVITY (DIL)
~PARAMETER INFORMATION
#MNEM.UNIT           DATA             DESCRIPTION OF MNEMONIC
#---------         -----------     ------------------------------
GL  .M        511                  : gl           - GROUND LEVEL ELEVATION
EREF.M        514.5                : kb           - ELEVATION OF DEPTH REFERENCE
DATM.M        514.5                : datum        - DATUM ELEVATION
TDD .M        220                  : tdd          - TOTAL DEPTH DRILLER
RUN .         ONE                  : Run          - RUN NUMBER
ENG .         BILL                 : Engineer     - RECORDING ENGINEER
WIT .         JIM                  : Witness      - WITNESSED BY
MUD .         GEL                  : Mud_type     - MUD TYPE
MATR.         SANDSTONE            : Logunit      - NEUTRON MATRIX
TMAX.C        20                   : BHT          - MAXIMUM RECORDED TEMPERATURE
BHTD.M        220                  : BHTDEP       - MAXIMUM RECORDED TEMPERATURE
MATR.         1                    : LOGUNIT      - NEUTRON MATRIX
RMT .C        20                   : MDTP         - TEMPERATURE OF MUD
NEUT.         1                    : NEUTRON      - NEUTRON TYPE
RESI.         7                    : RESIST       - RESISTIVITY TYPE
RMC .OHMM     7                    : RMC          - RESISTIVITY OF MUD CAKE
RMF .OHMM     7                    : RMF          - RESISTIVITY OF MUD FILTRATE
SUFT.C        4                    : SUFT         - SURFACE TEMPERATURE
~A  DEPTH       GR     PHIN     PHID     RESD
# ...
  180.500   74.692    0.426    0.218   13.273
  180.750   73.317    0.421    0.220   13.032
  181.000   72.631    0.413    0.216   13.277
  181.250   69.223    0.398    0.213   13.278
  181.500   65.820    0.376    0.200   13.779
  181.750   64.448    0.347    0.123   15.114
  182.000   69.171    0.323    0.091   16.577
  182.250   74.575    0.343    0.160   16.887
  182.500   79.305    0.373    0.196   16.278
  182.750   83.350    0.413    0.203   15.403
  183.000   84.689    0.426    0.203   14.576
  183.250   84.677    0.424    0.203   13.793
  183.500   83.983    0.418    0.203   12.125
  183.750   82.607    0.410    0.205   11.473
  184.000   81.918    0.402    0.205   11.059
  184.250   81.224    0.402    0.202   11.061
  184.500   78.498    0.398    0.190   11.479
  184.750   75.090    0.392    0.141   11.912
  185.000   71.008    0.386    0.080   12.135
  185.250   67.604    0.371    0.134   12.363
  185.500   69.621    0.345    0.192   11.698
  185.750   75.025    0.407    0.201   10.868
  186.000   79.747    0.416    0.204   10.096
  186.250   79.731    0.420    0.205    9.208
  186.500   80.388    0.427    0.206    8.094
  186.750   79.025    0.459    0.206    7.519
  187.000   74.262    0.476    0.201    6.985
  187.250   70.858    0.486    0.189    8.248
  187.500   68.136    0.454    0.069   11.082
  187.750   68.797    0.409    0.124   11.290
  188.000   74.870    0.385    0.175   10.488
  188.250   76.887    0.403    0.194    9.566
  188.500   76.870    0.430    0.202    8.886
  188.750   77.536    0.449    0.198    8.566
  189.000   78.874    0.439    0.185    8.410
  189.250   81.568    0.424    0.111    8.258
  189.500   83.585    0.431    0.138    8.259
  189.750   86.952    0.437    0.171    8.570
  190.000   88.972    0.444    0.187    8.894
  190.250   84.213    0.443    0.120    9.401
  190.500   78.100    0.407    0.076    9.756
  190.750   74.692    0.307    0.028    9.757
  191.000   79.418    0.371    0.055    9.581
  191.250   90.920    0.416    0.102    9.407
  191.500   93.618    0.428    0.146    9.584
  191.750   96.307    0.445    0.190   10.131
  192.000   90.867    0.437    0.204   10.908
  192.250   85.430    0.422    0.213   12.186
  192.500   80.676    0.411    0.181   13.615
  192.750   76.594    0.378    0.118   14.129
  193.000   71.831    0.356    0.088   13.619
  193.250   69.786    0.317    0.068   12.888
  193.500   75.190    0.347    0.117   12.889
  193.750   83.304    0.385    0.150   12.892
  194.000   85.998    0.393    0.184   13.882
  194.250   83.941    0.395    0.203   14.405
  194.500   83.252    0.400    0.204   14.948
  194.750   81.880    0.407    0.200   16.095
  195.000   78.468    0.412    0.200   17.983
  195.250   77.783    0.405    0.207   20.092
  195.500   75.056    0.379    0.226   20.849
  195.750   72.330    0.362    0.173   22.038
  196.000   70.955    0.356    0.091   21.244
  196.250   68.906    0.348    0.091   20.477
  196.500   67.535    0.330    0.116   19.377
  196.750   66.841    0.324    0.143   18.337
  197.000   68.175    0.331    0.166   17.674
  197.250   68.837    0.339    0.192   16.726
  197.500   69.506    0.353    0.207   16.728
  197.750   69.486    0.361    0.218   16.730
  198.000   68.784    0.367    0.218   16.732
  198.250   68.776    0.377    0.214   16.129
  198.500   70.107    0.386    0.213   15.547
  198.750   70.098    0.395    0.212   14.712
  199.000   71.433    0.411    0.207   13.922
  199.250   72.764    0.419    0.195   13.174
  199.500   73.433    0.429    0.186   12.239
  199.750   74.772    0.439    0.170   11.797
  200.000   75.437    0.449    0.099   10.759
  200.250   78.131    0.456    0.121   10.181
  200.500   80.825    0.460    0.181    9.459
  200.750   81.486    0.465    0.200    9.286
  201.000   76.727    0.468    0.202    9.118
  201.250   63.157    0.467    0.211   10.000
  201.500   51.618    0.454    0.242   12.950
  201.750   48.896    0.407    0.253   20.167
  202.000   43.460    0.381    0.292   27.600
  202.250   37.346    0.373    0.309   46.276
  202.500   32.587    0.374    0.311   70.748
  202.750   27.828    0.376    0.312   95.057
  203.000   25.779    0.383    0.314   96.841
  203.250   29.138    0.391    0.314   96.858
  203.500   31.163    0.408    0.317   95.101
  203.750   33.171    0.419    0.317   91.669
  204.000   34.514    0.418    0.318   83.600
  204.250   35.175    0.407    0.321   74.850
  204.500   36.514    0.392    0.324   69.535
  204.750   37.857    0.391    0.326   68.276
  205.000   38.518    0.397    0.327   68.283
  205.250   38.494    0.404    0.323   70.863
  205.500   37.808    0.417    0.318   74.909
  205.750   37.788    0.430    0.315   80.658
  206.000   37.776    0.424    0.313   85.261
  206.250   37.082    0.417    0.311   83.711
  206.500   35.711    0.410    0.306   77.772
  206.750   35.694    0.411    0.305   72.245
  207.000   39.731    0.411    0.306   63.501
  207.250   41.751    0.407    0.308   53.793
  207.500   46.474    0.394    0.310   44.736
  207.750   47.821    0.392    0.300   38.603
  208.000   49.159    0.403    0.289   33.933
  208.250   49.135    0.408    0.278   32.109
  208.500   49.123    0.396    0.268   30.949
  208.750   49.788    0.405    0.270   29.289
  209.000   52.478    0.415    0.273   29.291
  209.250   55.168    0.422    0.279   29.843
  209.500   56.511    0.431    0.284   29.845
  209.750   57.853    0.429    0.290   29.849
  210.000   61.898    0.428    0.294   26.238
  210.250   65.943    0.433    0.298   18.144
  210.500   67.290    0.438    0.299   16.547
  210.750   68.629    0.439    0.295   13.761
  211.000   67.931    0.434    0.288   11.030
  211.250   62.495    0.433    0.268    9.005
  211.500   57.736    0.434    0.241    6.829
  211.750   53.646    0.431    0.119    5.679
  212.000   53.634    0.430    0.155    4.811
  212.250   53.618    0.469    0.187    4.553
  212.500   53.602    0.506    0.219    4.813
  212.750   54.259    0.517    0.239    4.994
  213.000   54.928    0.513    0.253    5.088
  213.250   57.618    0.504    0.241    5.280
  213.500   58.953    0.494    0.225    5.379
  213.750   58.263    0.490    0.205    5.281
  214.000   57.573    0.474    0.181    5.186
  214.250   55.520    0.440    0.157    5.186
  214.500   54.149    0.431    0.141    5.187
  214.750   52.100    0.437    0.189    5.483
  215.000   48.692    0.442    0.202    6.014
  215.250   45.966    0.445    0.218    6.844
  215.500   44.595    0.445    0.231    8.700
  215.750   43.223    0.442    0.234   11.266
  216.000   41.852    0.442    0.238   14.322
  216.250   41.162    0.442    0.280   16.300
  216.500   40.469    0.445    0.271   17.230
  216.750   40.452    0.446    0.246   17.554
  217.000   41.105    0.446    0.235   17.555
  217.250   42.444    0.446    0.248   17.238
  217.500   44.461    0.447    0.260   17.241
  217.750   48.510    0.447    0.265   17.242
  218.000   54.595    0.446    0.267   16.930
  218.250   64.064    0.446    0.266   16.624
  218.500   82.341    0.446    0.266   16.625
  218.750  104.683    0.449    0.266   16.938
  219.000  112.793    0.450    0.272   18.238
  219.250  116.160    0.452    0.280   20.003
  219.500  113.438    0.453    0.288   22.348
  219.750  109.361    0.454    0.290   24.510
  220.000  105.275    0.454    0.266   26.391
