~V
VERS. 2.00: Ver 2.00
WRAP. NO:
VEND. PRIZM:GeoGraphix
~W
STRT.M 63.0000:START DEPTH
STOP.M 270.0000:STOP DEPTH
STEP.M 0.3000:STEP
NULL. -999.2500:NULL VALUE
WELL. 00/11-34-083-05W4/0 :WELL
COMP. :COMPANY
UWI. 00_11-34-083-05W4_0:UNIQUE WELL ID
FLD. :FIELD
CNTY. :COUNTY
STAT. :STATE
CTRY. :COUNTRY
PDAT. :PERMANENT DATUM
LMF. :LOG MEASURED FROM
DMF. :DRILLING MEASURED FROM
LOC1. :LOCATION LINE 1
LOC2. :LOCATION LINE 2
LOC3. :LOCATION LINE 3
SEC. :SECTION
TWP. :TOWNSHIP
RAN. :RANGE
SRVC. :Logging Company
BASE. :Logging Unit Location
ENG. :Logging Engineer
WITN. :Witnessed By
RUN. :Run No.
MUD_TYPE. :Type Fluid in Hole
MUDS. :Source of Mud Sample
RMFS. :Source of Mud Filtrate
RMCS. :Source of Mud Cake
LOC. :LOCATION
DATE. :LOG DATE
~C
DEPT.M :DEPTH
PHID. :Density Pososity
NPHI. :NPHI
RHOB.KGM3 :Bulk Density
GR.API :GR
ILD.Ohmm :ILD
~P
EKB. -999.2500:ELEVATION OF KELLY BUSHING
EDF. -999.2500:ELEVATION OF DRILLING FLOOR
EGL. -999.2500:ELEVATION OF GROUND LEVEL
EPD. -999.2500:ELEVATION OF PERMANENT DATUM
APD. -999.2500:LMF DISTANCE ABOVE PERMANENT DATUM
LAT. -999.2500:LATITUDE OF WELL LOCATION
LONG. -999.2500:LONGITUDE OF WELL LOCATION
TDD. -999.2500:Total Depth Driller
TDL. -999.2500:Total Depth Logger
LCSG1. -999.2500:Depth of Casing from Logger
CSIZE. -999.2500:Casing Size
CWT. -999.2500:Casing Weight
BS. -999.2500:Bit Size
TLI. 63.0000:Top Logged Interval
BLI. 270.0000:Bottom Logged Interval
MRT. 0.0000:Maximum Recorded Temperature
WMUD. -999.2500:Drilling Mud Density
DFV. -999.2500:Drilling Mud Viscosity
PH. -999.2500:Drilling Mud pH
DFL. -999.2500:Drilling Mud Fluid Loss
RM. -999.2500:Resistivity of Drilling Fluid
RMT. -999.2500:Measured Temp. of Drilling Fluid
RMF. -999.2500:Resistivity of Drilling Fluid Filtrate
RMFT. -999.2500:Measured Temp. of Drilling Fluid Filtrate
RMC. -999.2500:Resistivity of Mud Cake
RMCT. -999.2500:Measured Temp. of Mud Cake
PHImax.V/V 0.3900:Maximum allowable Porosity
RwBnd.OHMM 0.1500:Bound Water Resistivity
RhoHy.KG/MT 1000.0000:Hydrocarbon Bulk density
SwCutoff.V/V 0.7000:Water Saturation Cutoff
PHINsh.V/V 0.4800:New Description
Rw.OHMM 1.0000:Formation Water Resistivity
Rshl.OHMM 5.0000:Resistivity shale
Trw.DEGC 25.0000:Rw measured at Lab conditions
ShaleCutoff.V/V 0.4000:New Description
GRcln.API 45.0000:Gamma Ray clean
RhoM.KG/MT 2650.0000:Bulk Density Matrix
GRshl.API 90.0000:Gamma Ray shale
m. 2.0000:Archie "m"
n. 2.0000:Archie "n"
GasTol.V/V 0.0500:Gas Tollerance
BHTemp.DEGC 25.0000:Bottom Hole Temperature
BHTDepth.M 1000.0000:Bottom Hole Depth
PHIDsh.US/MT 0.1800:New Description
a. 1.0000:Archie "a"
Gas Tol.V/V 0.0500:Gas Tollerance
RhoF.KG/MT 1000.0000:Bulk Density Fluid
RhoShl.KG/MT 2300.0000:Bulk Density Shale
TarCutoff.V/V 0.0300:New Description
SurfTemp.DEGC 10.0000:New Description
HIshl.V/V 0.4000:Neutron Hydrogen Index shale
NULL. -999.2500:
~A
# ...
  135.0000     0.3191     0.3848  2123.4351    73.5854     5.5675 
  135.3000     0.3208     0.3941  2120.6738    75.1819     5.5468 
  135.6000     0.3218     0.4003  2119.0405    74.4881     5.5260 
  135.9000     0.3315     0.4165  2102.9900    73.7798     5.5052 
  136.2000     0.3323     0.4239  2101.7263    72.8473     5.4844 
  136.5000     0.3291     0.4118  2106.9158    71.6238     5.4590 
  136.8000     0.3267     0.3966  2111.0154    69.5671     5.4191 
  137.1000     0.3317     0.3936  2102.6494    68.0954     5.3792 
  137.4000     0.3342     0.3986  2098.5015    69.8020     5.3393 
  137.7000     0.3303     0.3903  2104.9993    72.2293     5.2994 
  138.0000     0.3357     0.3887  2096.0574    74.0015     5.2556 
  138.3000     0.3417     0.4029  2086.1929    75.1183     5.2112 
  138.6000     0.3414     0.4284  2086.6169    76.6452     5.1668 
  138.9000     0.3390     0.4425  2090.5857    74.7014     5.1774 
  139.2000     0.3351     0.4423  2097.0549    71.7724     5.1980 
  139.5000     0.3346     0.4334  2097.8618    71.7770     5.2185 
  139.8000     0.3373     0.4218  2093.5217    72.2222     5.1846 
  140.1000     0.3483     0.4237  2075.3020    72.6673     5.1481 
  140.4000     0.3539     0.4335  2066.0564    70.4743     5.1115 
  140.7000     0.3473     0.4465  2076.9656    69.2424     5.0908 
  141.0000     0.3397     0.4445  2089.4202    72.3596     5.0736 
  141.3000     0.3388     0.4441  2090.9395    74.9084     5.0563 
  141.6000     0.3359     0.4391  2095.7568    77.1273     5.0539 
  141.9000     0.3208     0.4185  2120.6436    75.2321     5.1195 
  142.2000     0.3172     0.4034  2126.6501    71.4561     5.1850 
  142.5000     0.3181     0.4027  2125.2083    67.3576     5.2505 
  142.8000     0.3207     0.3927  2120.8174    68.3435     5.1942 
  143.1000     0.3211     0.3858  2120.1204    73.2726     5.1021 
  143.4000     0.3190     0.3933  2123.5889    77.3579     5.0099 
  143.7000     0.3177     0.4085  2125.8574    77.0879     4.8043 
  144.0000     0.3287     0.4078  2107.5950    76.2351     4.4769 
  144.3000     0.3296     0.3996  2106.2046    77.2510     4.1938 
  144.6000     0.3272     0.4183  2110.1108    79.7351     3.9791 
  144.9000     0.3242     0.4245  2115.0261    82.1997     3.7645 
  145.2000     0.3162     0.4404  2128.3079    89.1434     3.5870 
  145.5000     0.3055     0.4634  2145.9658    96.7988     3.4396 
  145.8000     0.2933     0.4873  2166.0662    97.5354     3.4368 
  146.1000     0.3000     0.4863  2154.9951   100.0738     3.4762 
  146.4000     0.3037     0.4770  2148.9482   102.7605     3.3972 
  146.7000     0.3038     0.4854  2148.7109   105.0604     3.1231 
  147.0000     0.3106     0.4959  2137.5032   105.3055     3.0019 
  147.3000     0.3210     0.4997  2120.4036   105.5506     3.1308 
  147.6000     0.3271     0.5001  2110.3325   105.4696     3.1296 
  147.9000     0.3120     0.4908  2135.2385   105.2962     2.8242 
  148.2000     0.3050     0.4834  2146.7451   107.1025     2.5906 
  148.5000     0.3008     0.4816  2153.6147   109.9887     2.3800 
  148.8000     0.2994     0.4858  2155.9553   111.2357     2.1903 
  149.1000     0.3096     0.4870  2139.1045   111.8958     2.1737 
  149.4000     0.3198     0.4969  2122.2498   111.8903     2.1572 
  149.7000     0.3255     0.5190  2112.8762   109.2662     2.1937 
  150.0000     0.3218     0.5423  2119.1121   106.4810     2.3491 
  150.3000     0.3108     0.5388  2137.1829   106.4896     2.5045 
  150.6000     0.3034     0.5262  2149.3987   107.8616     2.6599 
  150.9000     0.2975     0.5175  2159.0750   105.5212     2.8584 
  151.2000     0.2966     0.5032  2160.5432   102.2104     3.0926 
  151.5000     0.2934     0.4811  2165.8391   100.2055     3.3269 
  151.8000     0.2859     0.4505  2178.2629   101.0334     3.4813 
  152.1000     0.2850     0.4578  2179.7588    99.9040     3.5405 
  152.4000     0.2922     0.4722  2167.8657    95.4746     3.5997 
  152.7000     0.2932     0.4644  2166.2961    96.0138     3.6589 
  153.0000     0.2876     0.4470  2175.5322    94.9070     3.6785 
  153.3000     0.2922     0.4465  2167.8203    94.9293     3.6697 
  153.6000     0.2903     0.4557  2170.9827    97.3829     3.6610 
  153.9000     0.2889     0.4513  2173.3496    97.9092     3.5885 
  154.2000     0.2930     0.4441  2166.5974    94.6057     3.4485 
  154.5000     0.3159     0.4523  2128.8118    90.9273     3.3085 
  154.8000     0.3365     0.4616  2094.8411    87.3124     3.0716 
  155.1000     0.3447     0.4651  2081.2456    87.6791     2.8310 
  155.4000     0.3408     0.4501  2087.6819    92.4882     2.8530 
  155.7000     0.3192     0.4494  2123.2520    98.7052     3.0541 
  156.0000     0.2907     0.4527  2170.2903   101.5990     3.3386 
  156.3000     0.2711     0.4418  2202.6968   103.4673     3.6445 
  156.6000     0.2711     0.4476  2202.6616    99.4103     3.7070 
  156.9000     0.2703     0.4358  2203.9932    95.4716     3.6772 
  157.2000     0.2498     0.4139  2237.8157    93.6890     3.6407 
  157.5000     0.2563     0.4146  2227.1760    92.8781     3.5609 
  157.8000     0.2879     0.4220  2174.8835    95.4456     3.4812 
  158.1000     0.2843     0.4444  2180.9495   101.3633     3.4014 
  158.4000     0.2920     0.4588  2168.2649   102.8528     3.3319 
  158.7000     0.2829     0.4435  2183.2119    99.3087     3.3079 
  159.0000     0.2775     0.4351  2192.1140   100.5973     3.2839 
  159.3000     0.2738     0.4457  2198.2957   101.2371     3.2599 
  159.6000     0.2738     0.4413  2198.2737   101.8769     3.2358 
  159.9000     0.2738     0.4449  2198.2517    99.3474     3.2429 
  160.2000     0.2752     0.4457  2195.9773    96.0200     3.2624 
  160.5000     0.2793     0.4450  2189.2234    94.4193     3.2819 
  160.8000     0.2863     0.4336  2177.5271    99.3624     3.3014 
  161.1000     0.2899     0.4228  2171.7307   106.9179     3.2795 
  161.4000     0.2929     0.4304  2166.7776   111.5726     3.1649 
  161.7000     0.2907     0.4540  2170.3591   111.8395     3.0504 
  162.0000     0.2790     0.4723  2189.7021   106.2896     2.9358 
  162.3000     0.2762     0.4796  2194.3474   101.5494     2.8686 
  162.6000     0.2865     0.4848  2177.2378   102.6858     2.8140 
  162.9000     0.2935     0.4903  2165.6450   102.0318     2.7593 
  163.2000     0.2952     0.4971  2162.9185    94.9576     2.7171 
  163.5000     0.3068     0.4740  2143.8345    84.5763     2.7598 
  163.8000     0.3119     0.4448  2135.4192    82.0762     2.8024 
  164.1000     0.3080     0.4190  2141.8442    86.1505     2.8450 
  164.4000     0.3009     0.4202  2153.4504    94.0816     2.8214 
  164.7000     0.3008     0.4323  2153.6946   103.5697     2.6908 
  165.0000     0.2993     0.4698  2156.1252   102.1550     2.5601 
  165.3000     0.2953     0.4991  2162.7573   101.6702     2.5043 
  165.6000     0.2765     0.5091  2193.7346   103.5854     2.4643 
  165.9000     0.2606     0.4535  2219.9341   106.2454     2.5181 
  166.2000     0.2705     0.4371  2203.6411   104.3200     2.7072 
  166.5000     0.2928     0.4456  2166.8320    91.9761     2.8946 
  166.8000     0.3201     0.4330  2121.7847    87.3209     2.8648 
  167.1000     0.3239     0.4259  2115.5176    85.9940     2.8029 
  167.4000     0.3176     0.4272  2125.8779    84.5018     2.5857 
  167.7000     0.3135     0.4253  2132.7646    81.9346     2.4578 
  168.0000     0.3069     0.4412  2143.6230    77.5437     2.4774 
  168.3000     0.2568     0.4579  2226.2002    67.3169     2.5569 
  168.6000     0.0767     0.2938  2523.5110    50.9342     2.8309 
  168.9000     0.0786     0.2310  2520.3455    50.4576     3.1489 
  169.2000     0.1191     0.2547  2453.4561    63.6966     3.5230 
  169.5000     0.2656     0.4094  2211.7898    74.8739     3.3946 
  169.8000     0.3091     0.4366  2139.9863    76.4939     3.0362 
  170.1000     0.3197     0.4304  2122.4541    77.5104     2.7899 
  170.4000     0.3210     0.4080  2120.3970    80.2112     2.5871 
  170.7000     0.3123     0.4101  2134.7124    83.7206     2.5736 
