~VERSION INFORMATION
 VERS.                 2.0:   CWLS LOG ASCII STANDARD -VERSION 2.0
 WRAP.                  NO:   ONE LINE PER DEPTH STEP
~WELL INFORMATION BLOCK
#MNEM.UNIT           DATA                    DESCRIPTION OF MNEMONIC
#---------    -------------------            -------------------------------
# Generated from Intellog Unique Number	CS_73_76/WELL/2205
WELL.         BOW VALLEY INDUSTRIES LTD      : Well_name    - WELL
LOC .         00/11-30-074-16W4/0            : Location     - LOCATION
UWI .         00/11-30-074-16W4/0            : Uwi          - UNIQUE WELL ID
ENTR.         SP                             : Entered      - ENTERED BY
SRVC.         SCHLUMBERGER                   : Scn          - SERVICE COMPANY
STRT.M        271.272                        : top_depth    - START DEPTH
STOP.M        444.772                        : bot_depth    - STOP DEPTH
STEP.M        0.25                           : increment    - STEP LENGTH
 NULL. -999.2500:NULL Value
~CURVE INFORMATION BLOCK
#MNEM UNIT       ERCB CURVE CODE    CURVE DESCRIPTION
#-----------   ------------------   ----------------------------------
DEPT.M        00 001 00 00         : DEPTH        - DEPTH
GR  .API      00 310 00 00         : GR           - GAMMA RAY
DPHI.V/V      00 890 00 00         : PHID         - DENSITY POROSITY (SANDSTONE)
NPHI.V/V      00 330 00 00         : PHIN         - NEUTRON POROSITY (SANDSTONE)
ILD .OHMM     00 120 00 00         : RESD         - DEEP RESISTIVITY (DIL)
~PARAMETER INFORMATION
#MNEM.UNIT           DATA             DESCRIPTION OF MNEMONIC
#---------         -----------     ------------------------------
GL  .M        620.116              : gl           - GROUND LEVEL ELEVATION
EREF.M        623.621              : kb           - ELEVATION OF DEPTH REFERENCE
DATM.M        620.116              : datum        - DATUM ELEVATION
TDD .M        454.762              : tdd          - TOTAL DEPTH DRILLER
RUN .         ONE                  : Run          - RUN NUMBER
ENG .         BILL                 : Engineer     - RECORDING ENGINEER
WIT .         JIM                  : Witness      - WITNESSED BY
MUD .         GEL                  : Mud_type     - MUD TYPE
MATR.         SANDSTONE            : Logunit      - NEUTRON MATRIX
TMAX.C        60                   : BHT          - MAXIMUM RECORDED TEMPERATURE
BHTD.M        454.762              : BHTDEP       - MAXIMUM RECORDED TEMPERATURE
MATR.         1                    : LOGUNIT      - NEUTRON MATRIX
RMT .C        25                   : MDTP         - TEMPERATURE OF MUD
NEUT.         1                    : NEUTRON      - NEUTRON TYPE
RESI.         0                    : RESIST       - RESISTIVITY TYPE
RMC .OHMM     0.25                 : RMC          - RESISTIVITY OF MUD CAKE
RMF .OHMM     0.25                 : RMF          - RESISTIVITY OF MUD FILTRATE
SUFT.C        15                   : SUFT         - SURFACE TEMPERATURE
~A  DEPTH       GR     PHID     PHIN     RESD
# ...
  358.272   93.764    0.251    0.470    6.329
  358.522   95.124    0.233    0.468    6.356
  358.772   96.505    0.217    0.466    5.781
  359.022   97.999    0.219    0.464    5.290
  359.272  100.655    0.214    0.462    4.831
  359.522  101.894    0.223    0.464    4.643
  359.772  102.269    0.206    0.467    4.489
  360.022  103.206    0.210    0.473    4.301
  360.272  102.548    0.219    0.479    4.319
  360.522  101.914    0.221    0.485    4.310
  360.772  102.094    0.204    0.489    4.403
  361.022  102.040    0.191    0.485    4.476
  361.272  101.053    0.213    0.479    4.516
  361.522  100.136    0.211    0.488    4.656
  361.772  102.252    0.217    0.495    4.651
  362.022  104.050    0.200    0.499    4.657
  362.272  105.687    0.203    0.482    4.556
  362.522  104.242    0.213    0.480    4.436
  362.772  101.738    0.213    0.489    4.096
  363.022  100.196    0.213    0.496    3.864
  363.272  100.290    0.212    0.509    3.701
  363.522   99.429    0.232    0.513    3.555
  363.772   98.434    0.255    0.508    3.397
  364.022   98.797    0.268    0.514    3.402
  364.272   99.080    0.264    0.507    3.325
  364.522  100.751    0.256    0.521    3.344
  364.772  102.341    0.254    0.537    3.092
  365.022  104.697    0.249    0.548    2.855
  365.272  106.901    0.245    0.550    2.691
  365.522  105.001    0.245    0.551    2.532
  365.772  102.719    0.237    0.560    2.382
  366.022  101.301    0.231    0.564    2.270
  366.272  100.246    0.232    0.572    2.214
  366.522  100.388    0.240    0.587    2.217
  366.772   95.096    0.244    0.568    2.236
  367.022   89.158    0.247    0.549    2.358
  367.272   82.412    0.301    0.529    2.467
  367.522   76.128    0.314    0.500    2.762
  367.772   75.435    0.317    0.489    3.593
  368.022   75.398    0.317    0.477    4.741
  368.272   75.148    0.314    0.462    5.307
  368.522   74.844    0.310    0.455    5.504
  368.772   74.421    0.303    0.458    5.683
  369.022   73.617    0.296    0.461    5.700
  369.272   73.007    0.290    0.451    5.702
  369.522   72.141    0.276    0.442    5.702
  369.772   69.533    0.265    0.443    5.702
  370.022   68.180    0.256    0.418    5.702
  370.272   68.882    0.236    0.388    5.693
  370.522   68.930    0.210    0.335    5.836
  370.772   66.630    0.108    0.219    6.008
  371.022   64.633    0.034    0.175    6.418
  371.272   61.934    0.001    0.148    8.123
  371.522   58.820   -0.000    0.145   10.319
  371.772   56.844    0.009    0.160   13.527
  372.022   57.982    0.019    0.177   16.501
  372.272   60.532    0.044    0.202   18.497
  372.522   62.246    0.075    0.222   19.553
  372.772   66.432    0.109    0.247   19.367
  373.022   69.914    0.148    0.277   17.311
  373.272   75.066    0.195    0.310   14.339
  373.522   78.466    0.259    0.405   11.042
  373.772   81.029    0.283    0.456    9.093
  374.022   85.119    0.297    0.481    7.692
  374.272   85.958    0.298    0.490    7.161
  374.522   86.098    0.302    0.488    6.635
  374.772   85.432    0.303    0.482    6.139
  375.022   84.991    0.306    0.476    5.967
  375.272   84.850    0.305    0.484    5.934
  375.522   85.513    0.301    0.491    5.807
  375.772   88.057    0.289    0.496    5.731
  376.022   89.665    0.258    0.490    5.651
  376.272   92.144    0.249    0.487    5.397
  376.522   93.580    0.252    0.494    5.227
  376.772   91.458    0.270    0.500    5.196
  377.022   90.948    0.271    0.483    5.281
  377.272   92.356    0.265    0.463    5.442
  377.522   93.078    0.265    0.459    5.599
  377.772   94.586    0.272    0.457    5.693
  378.022   96.523    0.267    0.459    5.584
  378.272   98.535    0.243    0.464    5.599
  378.522   98.796    0.235    0.463    5.519
  378.772   97.217    0.234    0.461    5.472
  379.022   95.388    0.223    0.461    5.295
  379.272   94.446    0.216    0.460    5.231
  379.522   93.853    0.209    0.455    5.194
  379.772   94.303    0.210    0.457    5.291
  380.022   90.647    0.226    0.466    5.351
  380.272   87.130    0.250    0.469    5.404
  380.522   85.154    0.255    0.450    5.590
  380.772   84.384    0.255    0.440    5.635
  381.022   83.456    0.251    0.457    5.814
  381.272   78.710    0.262    0.471    5.797
  381.522   74.642    0.273    0.462    5.926
  381.772   73.550    0.280    0.443    5.913
  382.022   72.715    0.284    0.433    5.879
  382.272   71.157    0.295    0.429    5.913
  382.522   70.491    0.305    0.436    5.917
  382.772   71.779    0.307    0.433    5.917
  383.022   72.458    0.302    0.432    5.917
  383.272   72.354    0.294    0.435    5.918
  383.522   73.075    0.293    0.442    5.928
  383.772   73.032    0.309    0.456    5.799
  384.022   73.032    0.308    0.461    5.819
  384.272   72.988    0.307    0.459    5.688
  384.522   73.690    0.301    0.450    5.695
  384.772   74.089    0.312    0.450    5.588
  385.022   75.180    0.318    0.452    5.559
  385.272   75.530    0.325    0.450    5.494
  385.522   76.493    0.318    0.446    5.386
  385.772   78.259    0.307    0.444    5.399
  386.022   78.618    0.305    0.452    5.300
  386.272   78.925    0.300    0.460    5.297
  386.522   79.974    0.300    0.460    5.294
  386.772   81.001    0.323    0.455    5.302
  387.022   82.317    0.324    0.442    5.188
  387.272   83.688    0.320    0.441    5.197
  387.522   84.797    0.315    0.452    5.198
  387.772   84.322    0.311    0.456    5.198
  388.022   82.893    0.314    0.448    5.198
  388.272   80.543    0.313    0.455    5.198
  388.522   81.469    0.309    0.464    5.198
  388.772   84.182    0.305    0.464    5.198
  389.022   85.609    0.293    0.462    5.197
  389.272   85.919    0.289    0.458    5.193
  389.522   84.934    0.285    0.454    5.287
  389.772   84.565    0.279    0.465    5.282
  390.022   85.001    0.275    0.465    5.402
  390.272   87.071    0.276    0.469    5.394
  390.522   89.993    0.267    0.485    5.407
  390.772   92.966    0.257    0.492    5.172
  391.022   95.443    0.243    0.506    4.669
  391.272   96.302    0.235    0.511    4.068
  391.522   95.909    0.249    0.508    3.652
  391.772   95.290    0.263    0.499    3.437
  392.022   95.532    0.244    0.492    3.330
  392.272   98.313    0.240    0.491    3.330
  392.522   99.630    0.249    0.494    3.389
  392.772  101.620    0.257    0.495    3.545
  393.022  102.632    0.271    0.487    3.642
  393.272  102.711    0.271    0.477    3.845
  393.522  102.818    0.266    0.482    3.877
  393.772  104.489    0.264    0.491    4.083
  394.022  104.498    0.252    0.501    4.151
  394.272  105.202    0.245    0.495    4.244
  394.522  104.775    0.233    0.479    4.467
  394.772  103.747    0.227    0.468    4.623
  395.022  103.373    0.214    0.463    4.825
  395.272  104.429    0.205    0.459    4.975
  395.522  104.524    0.194    0.464    5.126
  395.772  102.915    0.208    0.473    5.289
  396.022  100.596    0.229    0.458    5.293
  396.272  103.168    0.214    0.448    5.295
  396.522  105.556    0.209    0.454    5.295
  396.772  107.489    0.206    0.466    5.294
  397.022  107.776    0.189    0.470    5.293
  397.272  108.351    0.184    0.465    5.372
  397.522  109.394    0.189    0.465    5.393
  397.772  111.444    0.199    0.460    5.396
  398.022  112.852    0.207    0.448    5.491
  398.272  113.937    0.209    0.447    5.611
  398.522  113.334    0.197    0.457    5.594
  398.772  111.372    0.191    0.468    5.711
  399.022  109.538    0.186    0.465    5.703
  399.272  110.140    0.196    0.462    5.702
  399.522  111.891    0.198    0.454    5.699
  399.772  112.008    0.184    0.452    5.690
  400.022  109.496    0.175    0.459    5.592
  400.272  106.896    0.170    0.458    5.589
  400.522  106.005    0.182    0.459    5.711
  400.772  104.930    0.200    0.471    5.884
  401.022  104.381    0.213    0.466    6.058
  401.272  101.213    0.219    0.456    6.371
  401.522   99.819    0.220    0.450    6.561
