~VERSION INFORMATION
 VERS.                 2.0:   CWLS LOG ASCII STANDARD -VERSION 2.0
 WRAP.                  NO:   ONE LINE PER DEPTH STEP
~WELL INFORMATION BLOCK
#MNEM.UNIT           DATA                    DESCRIPTION OF MNEMONIC
#---------    -------------------            -------------------------------
# Generated from Intellog Unique Number	CC_80_83/WELL/2496
WELL.         CAVALIER CHEVRON ALGER         : Well_name    - WELL
LOC .         00/11-25-081-17W4/0            : Location     - LOCATION
UWI .         00/11-25-081-17W400            : Uwi          - UNIQUE WELL ID
ENTR.         DW                             : Entered      - ENTERED BY
SRVC.         SCHLUMBERGER                   : Scn          - SERVICE COMPANY
STRT.M        118.872                        : top_depth    - START DEPTH
STOP.M        301.622                        : bot_depth    - STOP DEPTH
STEP.M        0.25                           : increment    - STEP LENGTH
 NULL. -999.2500:NULL Value
~CURVE INFORMATION BLOCK
#MNEM UNIT       ERCB CURVE CODE    CURVE DESCRIPTION
#-----------   ------------------   ----------------------------------
DEPT.M        00 001 00 00         : DEPTH        - DEPTH
ILD .OHMM     00 120 00 00         : RESD         - DEEP RESISTIVITY (DIL)
NPHI.V/V      00 330 00 00         : PHIN         - NEUTRON POROSITY (SANDSTONE)
DPHI.V/V      00 890 00 00         : PHID         - DENSITY POROSITY (SANDSTONE)
GR  .API      00 310 00 00         : GR           - GAMMA RAY
~PARAMETER INFORMATION
#MNEM.UNIT           DATA             DESCRIPTION OF MNEMONIC
#---------         -----------     ------------------------------
GL  .M        539.496              : gl           - GROUND LEVEL ELEVATION
EREF.M        545.3                : kb           - ELEVATION OF DEPTH REFERENCE
DATM.M        545.3                : datum        - DATUM ELEVATION
TDD .M        303.581              : tdd          - TOTAL DEPTH DRILLER
RUN .         ONE                  : Run          - RUN NUMBER
ENG .         BILL                 : Engineer     - RECORDING ENGINEER
WIT .         JIM                  : Witness      - WITNESSED BY
MUD .         GEL                  : Mud_type     - MUD TYPE
MATR.         SANDSTONE            : Logunit      - NEUTRON MATRIX
TMAX.C        25                   : BHT          - MAXIMUM RECORDED TEMPERATURE
BHTD.M        303.581              : BHTDEP       - MAXIMUM RECORDED TEMPERATURE
MATR.         1                    : LOGUNIT      - NEUTRON MATRIX
RMT .C        25                   : MDTP         - TEMPERATURE OF MUD
NEUT.         1                    : NEUTRON      - NEUTRON TYPE
RESI.         0                    : RESIST       - RESISTIVITY TYPE
RMC .OHMM     0.25                 : RMC          - RESISTIVITY OF MUD CAKE
RMF .OHMM     0.25                 : RMF          - RESISTIVITY OF MUD FILTRATE
SUFT.C        15                   : SUFT         - SURFACE TEMPERATURE
~A  DEPTH     RESD     PHIN     PHID       GR
  118.872    3.103    0.534    0.239   99.795
  119.122    3.159    0.529    0.246   98.749
  119.372    3.297    0.499    0.245   98.307
  119.622    3.395    0.488    0.229   99.455
  119.872    3.458    0.497    0.223  101.929
  120.122    3.523    0.512    0.240  104.323
  120.372    3.523    0.534    0.248  104.845
  120.622    3.455    0.522    0.251  101.629
  120.872    3.435    0.510    0.233   98.517
  121.122    3.436    0.517    0.231   98.106
  121.372    3.455    0.525    0.251   98.493
  121.622    3.526    0.523    0.253   97.299
  121.872    3.577    0.514    0.251   95.856
  122.122    3.851    0.506    0.256   93.564
  122.372    4.259    0.495    0.221   90.655
  122.622    4.652    0.477    0.179   84.828
  122.872    5.425    0.455    0.187   80.200
  123.122    6.804    0.437    0.214   84.756
  123.372    7.449    0.417    0.240   87.365
  123.622    7.784    0.397    0.237   87.268
  123.872    8.577    0.418    0.277   82.486
  124.122    9.255    0.347    0.350   72.116
  124.372   10.574    0.148    0.380   60.641
  124.622   17.401    0.161    0.415   54.097
  124.872   30.851    0.183    0.426   55.787
  125.122   37.602    0.181    0.428   57.140
  125.372   37.340    0.193    0.432   55.788
  125.622   37.546    0.209    0.436   54.976
  125.872   37.527    0.219    0.437   54.488
  126.122   36.359    0.231    0.434   54.233
  126.372   34.196    0.256    0.428   55.842
  126.622   30.352    0.290    0.412   55.619
  126.872   23.891    0.345    0.379   53.241
  127.122   17.420    0.416    0.348   51.920
  127.372   15.786    0.442    0.340   50.881
  127.622   15.034    0.452    0.337   50.853
  127.872   14.361    0.456    0.335   53.247
  128.122   14.087    0.451    0.334   56.065
  128.372   13.991    0.442    0.332   57.930
  128.622   13.770    0.433    0.328   59.942
  128.872   13.035    0.417    0.313   61.006
  129.122   11.835    0.416    0.295   62.062
  129.372   10.812    0.442    0.272   64.930
  129.622    9.413    0.465    0.249   70.824
  129.872    7.484    0.457    0.243   78.518
  130.122    6.577    0.431    0.249   85.492
  130.372    5.907    0.433    0.250   93.219
  130.622    5.290    0.456    0.246  102.211
  130.872    4.894    0.481    0.244  108.861
  131.122    4.656    0.489    0.245  109.892
  131.372    4.301    0.480    0.249  107.698
  131.622    3.753    0.497    0.255  108.411
  131.872    3.412    0.512    0.255  111.246
  132.122    3.232    0.515    0.253  111.825
  132.372    3.169    0.514    0.252  110.180
  132.622    3.270    0.516    0.255  107.884
  132.872    3.539    0.513    0.262  102.303
  133.122    4.259    0.472    0.266   91.402
  133.372    5.430    0.438    0.278   78.815
  133.622    7.731    0.427    0.292   69.716
  133.872   10.040    0.425    0.304   61.772
  134.122   10.614    0.427    0.313   54.356
  134.372   10.702    0.429    0.300   57.773
  134.622   10.463    0.430    0.287   61.300
  134.872    9.558    0.431    0.280   62.735
  135.122    7.800    0.437    0.276   74.863
  135.372    5.976    0.451    0.274   93.053
  135.622    5.102    0.473    0.278   94.437
  135.872    4.431    0.503    0.290   89.980
  136.122    4.384    0.526    0.293   85.410
  136.372    5.100    0.504    0.296   76.873
  136.622    6.392    0.459    0.303   71.516
  136.872    8.620    0.445    0.304   76.128
  137.122   11.867    0.445    0.305   76.776
  137.372   13.331    0.447    0.304   72.897
  137.622   13.265    0.433    0.299   62.264
  137.872   13.007    0.427    0.294   56.204
  138.122   13.124    0.436    0.295   60.132
  138.372   13.399    0.430    0.298   62.370
  138.622   13.410    0.420    0.301   61.902
  138.872   13.450    0.418    0.302   62.010
  139.122   13.503    0.432    0.297   62.832
  139.372   13.479    0.439    0.295   65.450
  139.622   13.499    0.422    0.300   70.893
  139.872   13.284    0.406    0.298   77.311
  140.122   11.752    0.415    0.279   86.331
  140.372   10.550    0.433    0.247   93.646
  140.622    9.299    0.445    0.239   97.156
  140.872    7.793    0.447    0.258   95.767
  141.122    7.457    0.445    0.269   89.925
  141.372    7.636    0.443    0.279   87.616
  141.622    7.988    0.446    0.285   92.271
  141.872    8.523    0.448    0.289   96.552
  142.122    9.313    0.451    0.293   94.698
  142.372   10.498    0.452    0.299   86.818
  142.622   11.997    0.448    0.307   77.999
  142.872   12.844    0.440    0.301   80.692
  143.122   12.911    0.411    0.288   88.572
  143.372   12.642    0.386    0.282   93.201
  143.622   12.398    0.386    0.291   93.410
  143.872   12.286    0.394    0.308   90.371
  144.122   12.350    0.397    0.315   83.562
  144.372   12.438    0.408    0.323   81.303
  144.622   12.442    0.422    0.315   83.674
  144.872   12.299    0.437    0.292   87.952
  145.122   11.879    0.446    0.274   92.290
  145.372   11.193    0.432    0.250   94.718
  145.622   10.706    0.413    0.202   94.563
  145.872   10.207    0.407    0.200   89.029
  146.122    9.424    0.412    0.220   81.595
  146.372    8.749    0.416    0.218   80.108
  146.622    8.626    0.417    0.206   85.243
  146.872    8.738    0.415    0.202   87.395
  147.122    9.196    0.407    0.216   86.215
  147.372    9.499    0.398    0.237   77.438
  147.622    9.535    0.394    0.245   77.663
  147.872    9.524    0.394    0.243   92.103
  148.122    9.159    0.397    0.233   99.501
  148.372    7.812    0.410    0.193  104.344
  148.622    6.431    0.446    0.175  110.492
  148.872    5.542    0.483    0.178  112.984
  149.122    4.965    0.494    0.187  114.047
  149.372    4.534    0.496    0.204  119.059
  149.622    4.396    0.528    0.212  121.757
  149.872    4.456    0.556    0.195  119.497
  150.122    4.485    0.520    0.183  115.500
  150.372    4.491    0.476    0.185  111.434
  150.622    4.461    0.483    0.187  111.540
  150.872    4.243    0.508    0.190  117.981
  151.122    3.963    0.528    0.211  119.038
  151.372    3.833    0.541    0.220  117.329
  151.622    3.882    0.544    0.229  116.700
  151.872    4.257    0.528    0.251  115.446
  152.122    4.873    0.492    0.279  112.237
  152.372    5.631    0.448    0.301  108.892
  152.622    7.680    0.419    0.290  101.832
  152.872    9.081    0.411    0.267  100.644
  153.122    9.156    0.419    0.247  104.470
  153.372    8.706    0.430    0.237  108.831
  153.622    8.164    0.436    0.236  113.804
  153.872    7.645    0.445    0.238  115.530
  154.122    7.715    0.452    0.240  115.111
  154.372    7.999    0.460    0.238  110.139
  154.622    8.506    0.460    0.248  101.303
  154.872    9.570    0.451    0.273   93.265
  155.122   10.722    0.446    0.288   90.834
  155.372   11.201    0.435    0.294   98.143
  155.622   11.502    0.437    0.301  105.417
  155.872   11.601    0.434    0.309  107.250
  156.122   11.381    0.420    0.314  106.073
  156.372   10.932    0.419    0.313  104.476
  156.622   10.052    0.428    0.302  101.091
  156.872    9.375    0.432    0.291   95.954
  157.122    8.856    0.420    0.240   89.841
  157.372    8.507    0.407    0.207   85.710
  157.622    8.796    0.409    0.228   84.060
  157.872    9.775    0.418    0.238   81.471
  158.122   10.421    0.420    0.289   77.228
  158.372   10.944    0.415    0.315   67.999
  158.622   11.199    0.413    0.315   63.064
  158.872   11.085    0.416    0.313   65.769
  159.122   10.780    0.416    0.302   69.281
  159.372   10.296    0.408    0.289   71.930
  159.622   10.043    0.410    0.281   71.889
  159.872    9.537    0.421    0.275   70.991
  160.122    9.043    0.430    0.271   71.108
  160.372    8.918    0.437    0.272   73.397
  160.622    8.857    0.443    0.275   77.518
  160.872    8.995    0.423    0.277   78.530
  161.122    9.008    0.406    0.273   72.159
  161.372    8.834    0.403    0.264   67.856
  161.622    8.481    0.422    0.256   70.037
  161.872    8.110    0.454    0.259   72.895
  162.122    8.117    0.451    0.281   73.391
