~VERSION INFORMATION
 VERS.                 2.0:   CWLS LOG ASCII STANDARD -VERSION 2.0
 WRAP.                  NO:   ONE LINE PER DEPTH STEP
~WELL INFORMATION BLOCK
#MNEM.UNIT           DATA                    DESCRIPTION OF MNEMONIC
#---------    -------------------            -------------------------------
# Generated from Intellog Unique Number	CW_79_81/WELL/2475
WELL.         GULF AMOCO HOOLE               : Well_name    - WELL
LOC .         00/10-26-081-25W4/0            : Location     - LOCATION
UWI .         00/10-26-081-25W4/0            : Uwi          - UNIQUE WELL ID
ENTR.         MAX                            : Entered      - ENTERED BY
SRVC.         SCHLUMBERGER                   : Scn          - SERVICE COMPANY
STRT.M        195.072                        : top_depth    - START DEPTH
STOP.M        457.072                        : bot_depth    - STOP DEPTH
STEP.M        0.25                           : increment    - STEP LENGTH
 NULL. -999.2500:NULL Value
~CURVE INFORMATION BLOCK
#MNEM UNIT       ERCB CURVE CODE    CURVE DESCRIPTION
#-----------   ------------------   ----------------------------------
DEPT.M        00 001 00 00         : DEPTH        - DEPTH
ILD .OHMM     00 120 00 00         : RESD         - DEEP RESISTIVITY (DIL)
NPHI.V/V      00 330 00 00         : PHIN         - NEUTRON POROSITY (SANDSTONE)
DPHI.V/V      00 890 00 00         : PHID         - DENSITY POROSITY (SANDSTONE)
GR  .API      00 310 00 00         : GR           - GAMMA RAY
CALI.MM       00 280 01 00         : CAL          - CALIPER
~PARAMETER INFORMATION
#MNEM.UNIT           DATA             DESCRIPTION OF MNEMONIC
#---------         -----------     ------------------------------
GL  .M        579.76               : gl           - GROUND LEVEL ELEVATION
EREF.M        583.021              : kb           - ELEVATION OF DEPTH REFERENCE
DATM.M        579.76               : datum        - DATUM ELEVATION
TDD .M        466.344              : tdd          - TOTAL DEPTH DRILLER
RUN .         ONE                  : Run          - RUN NUMBER
ENG .         BILL                 : Engineer     - RECORDING ENGINEER
WIT .         JIM                  : Witness      - WITNESSED BY
MUD .         GEL                  : Mud_type     - MUD TYPE
MATR.         SANDSTONE            : Logunit      - NEUTRON MATRIX
TMAX.C        27.2222              : BHT          - MAXIMUM RECORDED TEMPERATURE
BHTD.M        466.344              : BHTDEP       - MAXIMUM RECORDED TEMPERATURE
MATR.         1                    : LOGUNIT      - NEUTRON MATRIX
RMT .C        11.1111              : MDTP         - TEMPERATURE OF MUD
NEUT.         1                    : NEUTRON      - NEUTRON TYPE
RESI.         0                    : RESIST       - RESISTIVITY TYPE
RMC .OHMM     5.73                 : RMC          - RESISTIVITY OF MUD CAKE
RMF .OHMM     5.46                 : RMF          - RESISTIVITY OF MUD FILTRATE
SUFT.C        -20.5556             : SUFT         - SURFACE TEMPERATURE
~A  DEPTH     RESD     PHIN     PHID       GR      CAL
# ...
  231.572   68.386    0.269    0.194   30.509  183.447
  231.822   72.363    0.257    0.184   30.465  185.185
  232.072   75.022    0.254    0.175   30.479  186.807
  232.322   78.954    0.257    0.167   30.651  187.778
  232.572   83.061    0.262    0.174   30.588  188.950
  232.822   88.421    0.276    0.183   30.779  189.659
  233.072   97.135    0.287    0.189   30.777  190.376
  233.322  111.925    0.294    0.193   30.840  190.901
  233.572  135.017    0.297    0.196   31.032  191.329
  233.822  166.861    0.296    0.199   31.215  192.200
  234.072  188.094    0.295    0.202   31.152  192.958
  234.322  205.891    0.301    0.191   31.098  193.668
  234.572  215.165    0.310    0.190   31.047  193.775
  234.822  217.115    0.321    0.202   31.235  193.070
  235.072  212.730    0.332    0.221   31.900  191.657
  235.322  197.715    0.337    0.228   33.528  189.518
  235.572  179.180    0.336    0.231   34.724  187.309
  235.822  133.733    0.319    0.201   36.346  184.783
  236.072  100.830    0.331    0.198   37.785  182.553
  236.322   68.774    0.354    0.213   39.290  180.230
  236.572   50.088    0.376    0.234   41.458  177.712
  236.822   44.560    0.399    0.252   46.020  174.415
  237.072   38.907    0.432    0.261   49.968  170.516
  237.322   37.449    0.455    0.274   50.153  168.792
  237.572   38.857    0.469    0.279   49.615  167.378
  237.822   41.665    0.468    0.275   49.917  166.479
  238.072   45.413    0.456    0.271   51.781  166.087
  238.322   50.843    0.450    0.288   55.830  166.052
  238.572   50.369    0.467    0.307   59.522  166.388
  238.822   46.391    0.493    0.345   61.857  166.296
  239.072   41.318    0.503    0.356   62.580  166.203
  239.322   36.766    0.502    0.358   63.010  166.318
  239.572   33.283    0.499    0.359   63.921  166.539
  239.822   30.675    0.505    0.353   66.082  166.517
  240.072   29.494    0.508    0.342   68.776  166.824
  240.322   28.596    0.512    0.339   74.231  166.732
  240.572   27.870    0.523    0.341   73.219  166.342
  240.822   27.515    0.529    0.347   67.773  166.060
  241.072   27.463    0.526    0.354   60.651  166.081
  241.322   27.433    0.523    0.357   55.210  166.450
  241.572   27.588    0.517    0.352   54.660  166.776
  241.822   27.538    0.511    0.332   57.719  166.683
  242.072   27.188    0.503    0.335   59.521  166.598
  242.322   26.745    0.493    0.347   59.949  166.713
  242.572   26.309    0.484    0.357   59.419  166.823
  242.822   25.826    0.480    0.356   58.772  166.306
  243.072   25.580    0.489    0.354   58.204  166.209
  243.322   25.340    0.504    0.360   56.957  167.343
  243.572   24.978    0.505    0.362   54.633  167.868
  243.822   24.844    0.503    0.362   51.341  167.974
  244.072   24.972    0.507    0.361   48.345  167.771
  244.322   25.125    0.515    0.360   48.196  167.272
  244.572   25.261    0.507    0.359   48.893  167.175
  244.822   25.216    0.509    0.361   50.755  167.092
  245.072   25.167    0.506    0.365   52.261  166.988
  245.322   25.114    0.501    0.369   52.806  166.891
  245.572   25.061    0.495    0.372   52.389  166.909
  245.822   24.966    0.491    0.369   51.262  167.465
  246.072   24.717    0.473    0.370   49.464  168.637
  246.322   24.500    0.461    0.370   47.971  170.176
  246.572   24.142    0.458    0.366   46.655  172.013
  246.822   23.920    0.461    0.364   46.478  173.548
  247.072   23.871    0.469    0.365   47.443  175.085
  247.322   23.818    0.483    0.361   48.591  177.832
  247.572   23.305    0.501    0.359   49.421  189.390
  247.822   23.262    0.515    0.369   49.869  193.087
  248.072   23.235    0.515    0.375   51.351  195.901
  248.322   23.119    0.508    0.376   52.135  197.237
  248.572   22.825    0.497    0.372   51.846  196.326
  248.822   22.284    0.486    0.365   51.557  192.961
  249.072   21.636    0.486    0.359   51.789  192.868
  249.322   21.113    0.497    0.357   54.471  192.782
  249.572   19.971    0.504    0.358   56.772  192.377
  249.822   17.031    0.509    0.359   59.717  191.067
  250.072   13.506    0.511    0.357   63.257  187.845
  250.322   10.706    0.501    0.351   66.801  181.262
  250.572    7.651    0.487    0.332   73.627  178.610
  250.822    6.017    0.497    0.295   80.563  171.311
  251.072    5.301    0.512    0.279   85.858  168.579
  251.322    4.857    0.531    0.277   89.157  167.685
  251.572    4.552    0.543    0.283   90.244  167.592
  251.822    4.249    0.531    0.291   90.966  167.396
  252.072    4.056    0.532    0.274   93.648  166.877
  252.322    3.933    0.542    0.268   95.521  166.794
  252.572    3.855    0.549    0.258   95.944  166.703
  252.822    3.860    0.555    0.255   94.814  166.413
  253.072    3.957    0.564    0.261   92.790  166.023
  253.322    4.213    0.572    0.268   90.782  165.911
  253.572    4.711    0.557    0.275   88.230  165.815
  253.822    5.803    0.550    0.279   80.754  165.722
  254.072    7.274    0.528    0.266   69.856  165.332
  254.322    8.762    0.474    0.250   56.860  164.829
  254.572    9.646    0.395    0.232   45.782  164.423
  254.822    9.642    0.323    0.189   43.417  164.328
  255.072    9.067    0.324    0.186   43.848  164.222
  255.322    7.135    0.355    0.224   58.189  164.139
  255.572    6.190    0.392    0.249   64.069  164.360
  255.822    5.396    0.419    0.260   67.251  164.673
  256.072    4.757    0.443    0.256   71.515  164.981
  256.322    4.483    0.495    0.242   78.652  165.304
  256.572    4.353    0.526    0.254   81.271  166.191
  256.822    4.376    0.533    0.256   78.969  167.381
  257.072    4.398    0.530    0.278   76.495  166.319
  257.322    4.501    0.512    0.288   74.404  165.807
  257.572    4.739    0.490    0.279   73.388  166.323
  257.822    5.161    0.495    0.265   73.818  166.258
  258.072    6.625    0.515    0.308   70.156  166.143
  258.322    7.285    0.505    0.329   66.606  166.046
  258.572    7.825    0.495    0.335   63.160  165.951
  258.822    7.985    0.487    0.341   61.309  165.858
  259.072    7.628    0.481    0.341   61.973  166.183
  259.322    6.954    0.480    0.309   64.982  167.455
  259.572    6.784    0.482    0.288   65.929  166.071
  259.822    7.480    0.496    0.276   62.989  165.186
  260.072    8.210    0.515    0.290   60.779  165.200
  260.322    8.630    0.499    0.290   58.691  165.711
  260.572    8.564    0.449    0.269   58.219  166.225
  260.822    7.994    0.405    0.244   64.549  166.216
  261.072    7.138    0.425    0.239   72.489  166.542
  261.322    5.493    0.465    0.242   77.465  166.431
  261.572    4.963    0.493    0.242   81.184  166.645
  261.822    4.780    0.506    0.246   82.449  166.972
  262.072    4.744    0.508    0.253   81.978  168.212
  262.322    4.922    0.509    0.253   81.437  172.495
  262.572    5.377    0.513    0.267   76.639  174.088
  262.822    6.444    0.489    0.289   71.798  169.533
  263.072    7.781    0.468    0.313   65.692  168.028
  263.322    9.584    0.453    0.341   59.047  167.535
  263.572   12.072    0.448    0.364   53.662  167.235
  263.822   15.367    0.459    0.364   52.496  167.512
  264.072   16.535    0.461    0.350   52.927  167.425
  264.322   16.502    0.454    0.341   52.170  167.342
  264.572   16.294    0.468    0.331   51.217  167.252
  264.822   16.029    0.484    0.320   50.441  167.164
  265.072   15.737    0.492    0.310   50.148  167.078
  265.322   15.317    0.481    0.313   50.816  166.882
  265.572   15.058    0.465    0.354   52.007  166.363
  265.822   14.809    0.456    0.358   52.916  165.865
  266.072   14.488    0.454    0.354   53.637  165.373
  266.322   14.205    0.454    0.350   54.301  165.281
  266.572   13.926    0.457    0.351   55.030  165.486
  266.822   13.502    0.465    0.355   55.940  165.393
  267.072   12.750    0.461    0.358   57.062  165.785
  267.322   12.354    0.455    0.352   57.760  165.698
  267.572   11.993    0.455    0.348   58.936  165.611
  267.822   11.670    0.468    0.350   60.196  165.519
