~VERSION INFORMATION
 VERS.                 2.0:   CWLS LOG ASCII STANDARD -VERSION 2.0
 WRAP.                  NO:   ONE LINE PER DEPTH STEP
~WELL INFORMATION BLOCK
#MNEM.UNIT           DATA                    DESCRIPTION OF MNEMONIC
#---------    -------------------            -------------------------------
# Generated from Intellog Unique Number	CS_71_72/WELL/913
WELL.         MAYNARD EXPLORATION            : Well_name    - WELL
LOC .         00/11-34-071-11W4/0            : Location     - LOCATION
UWI .         00/11-34-071-11W4/0            : Uwi          - UNIQUE WELL ID
ENTR.         SP                             : Entered      - ENTERED BY
SRVC.         SCHLUMBERGER                   : Scn          - SERVICE COMPANY
STRT.M        290                            : top_depth    - START DEPTH
STOP.M        490                            : bot_depth    - STOP DEPTH
STEP.M        0.25                           : increment    - STEP LENGTH
 NULL. -999.2500:NULL Value
~CURVE INFORMATION BLOCK
#MNEM UNIT       ERCB CURVE CODE    CURVE DESCRIPTION
#-----------   ------------------   ----------------------------------
DEPT.M        00 001 00 00         : DEPTH        - DEPTH
ILD .OHMM     00 120 00 00         : RESD         - DEEP RESISTIVITY (DIL)
DPHI.V/V      00 890 00 00         : PHID         - DENSITY POROSITY (LIMESTONE)
NPHI.V/V      00 330 00 00         : PHIN         - NEUTRON POROSITY (LIMESTONE)
GR  .API      00 310 00 00         : GR           - GAMMA RAY
~PARAMETER INFORMATION
#MNEM.UNIT           DATA             DESCRIPTION OF MNEMONIC
#---------         -----------     ------------------------------
GL  .M        652.3                : gl           - GROUND LEVEL ELEVATION
EREF.M        635.5                : kb           - ELEVATION OF DEPTH REFERENCE
DATM.M        652.3                : datum        - DATUM ELEVATION
TDD .M        507.3                : tdd          - TOTAL DEPTH DRILLER
RUN .         ONE                  : Run          - RUN NUMBER
ENG .         BILL                 : Engineer     - RECORDING ENGINEER
WIT .         JIM                  : Witness      - WITNESSED BY
MUD .         GEL                  : Mud_type     - MUD TYPE
MATR.         LIMESTONE            : Logunit      - NEUTRON MATRIX
TMAX.C        22                   : BHT          - MAXIMUM RECORDED TEMPERATURE
BHTD.M        507.3                : BHTDEP       - MAXIMUM RECORDED TEMPERATURE
MATR.         1                    : LOGUNIT      - NEUTRON MATRIX
RMT .C        25                   : MDTP         - TEMPERATURE OF MUD
NEUT.         1                    : NEUTRON      - NEUTRON TYPE
RESI.         0                    : RESIST       - RESISTIVITY TYPE
RMC .OHMM     0.25                 : RMC          - RESISTIVITY OF MUD CAKE
RMF .OHMM     0.25                 : RMF          - RESISTIVITY OF MUD FILTRATE
SUFT.C        15                   : SUFT         - SURFACE TEMPERATURE
~A  DEPTH     RESD     PHID     PHIN       GR
# ...
  464.000   10.841    0.283    0.383   94.095
  464.250   10.193    0.264    0.395  103.253
  464.500    9.119    0.252    0.394   95.854
  464.750    8.046    0.294    0.387   90.654
  465.000    6.726    0.310    0.379   86.860
  465.250    6.283    0.321    0.381   86.670
  465.500    6.284    0.309    0.391   87.519
  465.750    6.374    0.277    0.388   87.391
  466.000    6.391    0.255    0.367   84.146
  466.250    6.391    0.240    0.349   79.191
  466.500    6.531    0.237    0.338   83.827
  466.750    6.860    0.255    0.342   86.693
  467.000    7.065    0.261    0.345   89.434
  467.250    7.057    0.241    0.346   92.117
  467.500    6.877    0.220    0.351   95.777
  467.750    6.746    0.229    0.352   98.215
  468.000    6.550    0.260    0.351   95.947
  468.250    6.550    0.268    0.353   92.581
  468.500    6.797    0.247    0.360   94.102
  468.750    7.010    0.231    0.371   96.356
  469.000    7.142    0.225    0.376   98.977
  469.250    6.839    0.213    0.371  100.987
  469.500    6.692    0.201    0.363   97.070
  469.750    7.225    0.222    0.340   89.793
  470.000    9.235    0.254    0.309   80.622
  470.250   11.498    0.278    0.275   78.355
  470.500   12.368    0.313    0.292   82.075
  470.750   12.860    0.330    0.338   85.002
  471.000   12.992    0.308    0.371   88.294
  471.250   12.377    0.289    0.396   91.282
  471.500   11.352    0.273    0.393   92.803
  471.750   10.066    0.263    0.387   97.195
  472.000    8.647    0.257    0.416  107.698
  472.250    6.958    0.242    0.436  118.751
  472.500    4.909    0.197    0.489  128.398
  472.750    4.048    0.177    0.480  128.452
  473.000    3.417    0.177    0.483  126.796
  473.250    2.909    0.178    0.488  122.879
  473.500    3.123    0.171    0.475  109.493
  473.750    4.271    0.209    0.419   99.833
  474.000    5.789    0.298    0.221   88.767
  474.250    6.994    0.368    0.185   78.680
  474.500    9.783    0.430    0.160   73.358
  474.750   10.521    0.399    0.206   74.268
  475.000    9.513    0.337    0.239   78.233
  475.250    8.431    0.319    0.317   83.359
  475.500    7.373    0.311    0.353   87.507
  475.750    6.308    0.308    0.376   89.821
  476.000    6.743    0.306    0.390   90.977
  476.250    7.325    0.297    0.404   91.947
  476.500    7.613    0.283    0.411   92.492
  476.750    7.818    0.273    0.417   92.240
  477.000    7.425    0.278    0.409   88.324
  477.250    6.261    0.293    0.396   84.835
  477.500    5.335    0.301    0.387   85.073
  477.750    4.581    0.303    0.379   87.633
  478.000    4.089    0.312    0.381   90.801
  478.250    3.663    0.313    0.390   92.263
  478.500    3.458    0.293    0.378   93.785
  478.750    3.459    0.278    0.365   96.100
  479.000    3.500    0.269    0.356   99.393
  479.250    3.607    0.252    0.367  103.296
  479.500    3.903    0.232    0.367  105.001
  479.750    4.338    0.217    0.367  102.184
  480.000    5.216    0.209    0.369  102.422
  480.250    4.978    0.201    0.371  103.882
  480.500    5.126    0.196    0.376  107.419
  480.750    5.102    0.195    0.380  110.285
  481.000    4.988    0.207    0.391  113.761
  481.250    4.865    0.222    0.395  109.722
  481.500    4.865    0.237    0.381  100.062
  481.750    5.153    0.253    0.362   86.430
  482.000    5.514    0.270    0.339   82.331
  482.250    5.777    0.278    0.323   85.805
  482.500    5.933    0.288    0.318   87.755
  482.750    5.991    0.301    0.326   83.472
  483.000    5.991    0.323    0.334   80.960
  483.250    5.967    0.285    0.345   83.765
  483.500    5.951    0.215    0.357   85.225
  483.750    6.082    0.149    0.360   81.797
  484.000    6.411    0.101    0.341   79.652
  484.250    6.764    0.087    0.329   78.668
  484.500    7.068    0.072    0.323   79.089
  484.750    7.322    0.069    0.325   80.915
  485.000    7.478    0.084    0.330   82.865
  485.250    7.585    0.071    0.337   85.791
  485.500    7.586    0.076    0.331   90.062
  485.750    7.537    0.083    0.328   93.477
  486.000    7.447    0.089    0.336   93.470
  486.250    7.398    0.086    0.339   93.341
  486.500    7.366    0.081    0.332   92.785
  486.750    7.391    0.078    0.333   89.357
  487.000    7.473    0.081    0.336   86.723
  487.250    7.876    0.069    0.323   79.752
  487.500   11.468    0.047    0.226   70.153
  487.750   13.657    0.032    0.160   65.442
  488.000   17.537    0.019    0.148   65.253
  488.250   24.294    0.026    0.158   67.690
  488.500   24.762    0.038    0.174   69.944
  488.750   23.909    0.048    0.198   72.198
  489.000   17.792    0.062    0.223   73.597
  489.250   14.586    0.074    0.241   67.787
  489.500   14.218    0.062    0.151   60.509
  489.750   16.711    0.040    0.127   55.188
  490.000   19.401    0.025    0.114   53.287
