~VERSION INFORMATION
 VERS.                 2.0:   CWLS LOG ASCII STANDARD -VERSION 2.0
 WRAP.                  NO:   ONE LINE PER DEPTH STEP
~WELL INFORMATION BLOCK
#MNEM.UNIT           DATA                    DESCRIPTION OF MNEMONIC
#---------    -------------------            -------------------------------
# Generated from Intellog Unique Number	CS_67_68/WELL/2197
WELL.         10-29-067-02W4                 : Well_name    - WELL
LOC .         00/10-29-067-02W4/0            : Location     - LOCATION
UWI .         00/10-29-067-02W4/0            : Uwi          - UNIQUE WELL ID
ENTR.         SP                             : Entered      - ENTERED BY
SRVC.         SCHLUMBERGER                   : Scn          - SERVICE COMPANY
STRT.M        375                            : top_depth    - START DEPTH
STOP.M        638                            : bot_depth    - STOP DEPTH
STEP.M        0.25                           : increment    - STEP LENGTH
 NULL. -999.2500:NULL Value
~CURVE INFORMATION BLOCK
#MNEM UNIT       ERCB CURVE CODE    CURVE DESCRIPTION
#-----------   ------------------   ----------------------------------
DEPT.M        00 001 00 00         : DEPTH        - DEPTH
ILD .OHMM     00 120 00 00         : RESD         - DEEP RESISTIVITY (DIL)
DPHI.V/V      00 890 00 00         : PHID         - DENSITY POROSITY (LIMESTONE)
NPHI.V/V      00 330 00 00         : PHIN         - NEUTRON POROSITY (LIMESTONE)
GR  .API      00 310 00 00         : GR           - GAMMA RAY
CALI.MM       00 280 01 00         : CAL          - CALIPER
~PARAMETER INFORMATION
#MNEM.UNIT           DATA             DESCRIPTION OF MNEMONIC
#---------         -----------     ------------------------------
GL  .M        707.5                : gl           - GROUND LEVEL ELEVATION
EREF.M        710.7                : kb           - ELEVATION OF DEPTH REFERENCE
DATM.M        710.7                : datum        - DATUM ELEVATION
TDD .M        645                  : tdd          - TOTAL DEPTH DRILLER
RUN .         ONE                  : Run          - RUN NUMBER
ENG .         BILL                 : Engineer     - RECORDING ENGINEER
WIT .         JIM                  : Witness      - WITNESSED BY
MUD .         GEL                  : Mud_type     - MUD TYPE
MATR.         LIMESTONE            : Logunit      - NEUTRON MATRIX
TMAX.C        20.5                 : BHT          - MAXIMUM RECORDED TEMPERATURE
BHTD.M        645                  : BHTDEP       - MAXIMUM RECORDED TEMPERATURE
MATR.         1                    : LOGUNIT      - NEUTRON MATRIX
RMT .C        25                   : MDTP         - TEMPERATURE OF MUD
NEUT.         1                    : NEUTRON      - NEUTRON TYPE
RESI.         0                    : RESIST       - RESISTIVITY TYPE
RMC .OHMM     0.25                 : RMC          - RESISTIVITY OF MUD CAKE
RMF .OHMM     0.25                 : RMF          - RESISTIVITY OF MUD FILTRATE
SUFT.C        15                   : SUFT         - SURFACE TEMPERATURE
~A  DEPTH     RESD     PHID     PHIN       GR      CAL
  375.000    2.759    0.228    0.537  103.545  169.537
  375.250    2.739    0.226    0.520  107.235  169.630
  375.500    2.745    0.225    0.506  109.020  170.027
  375.750    2.761    0.224    0.495  111.848  170.224
  376.000    2.767    0.222    0.490  108.387  170.521
  376.250    2.788    0.215    0.479  105.235  171.327
  376.500    2.825    0.215    0.507  103.850  171.522
  376.750    2.885    0.226    0.528  103.995  171.310
  377.000    2.951    0.220    0.533  102.610  171.098
  377.250    3.053    0.215    0.502  101.104  171.293
  377.500    3.147    0.223    0.503  101.122  170.670
  377.750    3.201    0.222    0.500   98.578  170.765
  378.000    3.190    0.220    0.497   98.966  170.960
  378.250    3.125    0.219    0.509  101.001  171.461
  378.500    3.016    0.220    0.511  102.302  171.351
  378.750    2.894    0.222    0.523  103.793  171.139
  379.000    2.772    0.226    0.555  104.421  171.028
  379.250    2.732    0.231    0.567  104.991  170.609
  379.500    2.763    0.230    0.543  105.864  170.092
  379.750    2.918    0.224    0.517  106.983  169.982
  380.000    3.094    0.223    0.520  107.370  169.974
  380.250    3.195    0.218    0.528  105.070  169.761
  380.500    3.250    0.211    0.517  102.468  169.243
  380.750    3.344    0.215    0.497  100.046  168.928
  381.000    3.427    0.222    0.483   97.194  168.512
  381.250    3.512    0.219    0.462  103.077  167.688
  381.500    3.586    0.210    0.449  110.612  167.986
  381.750    3.547    0.223    0.465  112.457  168.791
  382.000    3.436    0.229    0.479  106.496  169.089
  382.250    3.254    0.229    0.489  102.609  169.487
  382.500    3.117    0.229    0.498  100.064  169.683
  382.750    3.042    0.228    0.506   97.521  169.267
  383.000    3.031    0.231    0.504   96.017  168.952
  383.250    3.119    0.229    0.524   95.790  167.210
  383.500    3.485    0.219    0.545   91.294  165.368
  383.750    4.621    0.202    0.483   80.140  162.912
  384.000    6.458    0.192    0.318   58.487  162.292
  384.250   10.353    0.320    0.153   36.406  162.590
  384.500   21.921    0.347    0.116   25.682  162.479
  384.750   48.192    0.369    0.105   22.467  162.776
  385.000   65.852    0.375    0.112   24.929  162.666
  385.250   59.730    0.381    0.121   27.273  162.350
  385.500   55.831    0.391    0.132   28.146  161.833
  385.750   54.493    0.401    0.127   28.352  160.803
  386.000   53.993    0.406    0.102   27.208  160.185
  386.250   49.343    0.399    0.106   26.618  159.666
  386.500   42.144    0.381    0.134   28.289  160.066
  386.750   34.797    0.377    0.170   29.284  160.769
  387.000   28.356    0.371    0.221   29.244  161.270
  387.250   22.719    0.357    0.273   30.179  161.363
  387.500   18.618    0.338    0.352   34.595  161.151
  387.750   14.584    0.319    0.381   39.133  160.223
  388.000   12.294    0.303    0.390   45.259  159.605
  388.250   10.760    0.290    0.382   56.696  158.680
  388.500    9.686    0.271    0.377   72.224  158.263
  388.750    8.852    0.257    0.378   81.831  158.764
  389.000    8.689    0.251    0.375   84.596  159.367
  389.250    8.513    0.250    0.379   87.731  159.664
  389.500    7.620    0.254    0.392   92.085  159.350
  389.750    6.545    0.258    0.405   99.005  160.360
  390.000    6.130    0.265    0.446  107.573  161.778
  390.250    6.462    0.280    0.512   95.688  162.482
  390.500    6.825    0.295    0.530   80.445  163.188
  390.750    7.101    0.289    0.494   70.330  161.752
  391.000    7.672    0.310    0.472   63.392  159.195
  391.250    7.892    0.321    0.463   59.078  155.721
  391.500    7.908    0.324    0.441   63.982  155.916
  391.750    7.337    0.317    0.425   67.847  155.600
  392.000    7.001    0.307    0.429   74.585  155.286
  392.250    6.757    0.276    0.458   80.650  155.279
  392.500    6.607    0.257    0.477   85.736  155.169
  392.750    6.498    0.237    0.474   89.724  154.649
  393.000    6.523    0.214    0.464   85.595  154.743
  393.250    6.599    0.242    0.454   80.303  154.632
  393.500    6.738    0.254    0.445   78.247  154.929
  393.750    6.866    0.258    0.448   81.686  155.430
  394.000    6.959    0.264    0.448   86.168  155.421
  394.250    7.039    0.265    0.455   88.812  155.618
  394.500    7.107    0.255    0.472   90.722  155.608
  394.750    7.270    0.249    0.458   91.291  155.600
  395.000    7.381    0.259    0.450   81.178  155.488
  395.250    7.481    0.266    0.454   75.520  155.683
  395.500    7.524    0.269    0.399   71.693  155.572
  395.750    7.568    0.253    0.366   76.781  156.176
  396.000    7.584    0.246    0.380   76.435  156.473
  396.250    7.642    0.244    0.398   79.752  156.974
  396.500    7.672    0.239    0.408   86.431  157.474
  396.750    7.746    0.235    0.400   89.622  157.874
  397.000    7.909    0.228    0.395   88.483  157.967
  397.250    8.015    0.223    0.404   85.818  157.856
  397.500    8.200    0.218    0.418   85.104  157.133
  397.750    8.263    0.231    0.431   89.155  156.412
  398.000    8.311    0.238    0.417   95.222  155.996
  398.250    8.313    0.246    0.416  100.123  155.987
  398.500    8.314    0.267    0.438  105.271  155.979
  398.750    7.949    0.280    0.455  109.504  156.276
  399.000    6.853    0.276    0.460  115.083  157.488
  399.250    5.831    0.268    0.446  118.154  158.398
  399.500    4.770    0.259    0.459  118.847  159.816
  399.750    4.286    0.237    0.479  113.619  160.928
  400.000    4.368    0.211    0.494  108.386  161.838
  400.250    4.781    0.189    0.509  104.804  162.543
  400.500    5.383    0.200    0.513  111.605  162.838
  400.750    6.072    0.257    0.519   97.639  162.728
  401.000    6.902    0.288    0.489   66.280  162.210
  401.250    7.583    0.311    0.456   51.831  161.590
  401.500    8.146    0.328    0.431   44.281  160.358
  401.750    8.604    0.334    0.406   48.636  160.247
  402.000    8.605    0.332    0.402   55.314  160.341
  402.250    8.510    0.334    0.410   58.140  160.433
  402.500    8.229    0.337    0.413   57.978  160.527
  402.750    8.001    0.339    0.433   59.767  160.213
  403.000    7.693    0.338    0.423   65.955  159.490
  403.250    7.383    0.334    0.419   69.577  158.665
  403.500    7.098    0.330    0.434   72.527  158.353
  403.750    6.993    0.324    0.445   75.355  158.342
  404.000    7.008    0.319    0.416   71.228  158.641
  404.250    7.155    0.308    0.401   72.283  158.732
  404.500    7.445    0.295    0.407   77.433  158.725
  404.750    7.616    0.283    0.426   80.383  158.716
  405.000    8.014    0.269    0.438   82.663  158.810
  405.250    8.354    0.266    0.456   82.133  158.800
  405.500    8.741    0.271    0.473   81.483  158.690
  405.750    9.077    0.286    0.483   78.146  158.274
  406.000    9.569    0.300    0.462   73.587  157.755
  406.250    9.975    0.303    0.436   70.492  157.238
  406.500   10.052    0.302    0.423   67.582  156.513
  406.750    9.978    0.311    0.418   66.443  156.405
  407.000    9.905    0.308    0.434   69.883  156.395
  407.250    9.889    0.301    0.448   74.117  156.183
  407.500    9.927    0.297    0.454   74.928  156.379
  407.750   10.156    0.304    0.459   73.055  156.470
  408.000   11.306    0.308    0.463   74.603  156.463
  408.250   13.519    0.309    0.468   69.373  156.556
  408.500   19.544    0.308    0.474   58.098  156.749
  408.750   31.987    0.073    0.485   48.717  157.150
  409.000   40.012    0.053    0.205   44.586  158.466
  409.250   38.761    0.043    0.209   42.348  159.984
  409.500   28.111    0.074    0.228   41.573  160.692
  409.750   19.525    0.100    0.242   42.205  161.599
  410.000   14.510    0.031    0.139   46.867  161.692
  410.250   11.453    0.007    0.168   51.039  161.377
  410.500   10.685    0.152    0.307   54.661  160.655
  410.750    9.969    0.264    0.388   58.649  159.525
  411.000    9.214    0.284    0.430   60.804  158.497
  411.250    8.389    0.283    0.447   63.696  158.082
