~VERSION INFORMATION
 VERS.                 2.0:   CWLS LOG ASCII STANDARD -VERSION 2.0
 WRAP.                  NO:   ONE LINE PER DEPTH STEP
~WELL INFORMATION BLOCK
#MNEM.UNIT           DATA                    DESCRIPTION OF MNEMONIC
#---------    -------------------            -------------------------------
# Generated from Intellog Unique Number	CW_79_81/WELL/2466
WELL.         10-15-080-23W4                 : Well_name    - WELL
LOC .         00/10-15-080-23W4/0            : Location     - LOCATION
UWI .         00/10-15-080-23W4/0            : Uwi          - UNIQUE WELL ID
ENTR.         MAX                            : Entered      - ENTERED BY
SRVC.         SCHLUMBERGER                   : Scn          - SERVICE COMPANY
STRT.M        220                            : top_depth    - START DEPTH
STOP.M        464.75                         : bot_depth    - STOP DEPTH
STEP.M        0.25                           : increment    - STEP LENGTH
 NULL. -999.2500:NULL Value
~CURVE INFORMATION BLOCK
#MNEM UNIT       ERCB CURVE CODE    CURVE DESCRIPTION
#-----------   ------------------   ----------------------------------
DEPT.M        00 001 00 00         : DEPTH        - DEPTH
ILD .OHMM     00 120 00 00         : RESD         - DEEP RESISTIVITY (DIL)
NPHI.V/V      00 330 00 00         : PHIN         - NEUTRON POROSITY (SANDSTONE)
DPHI.V/V      00 890 00 00         : PHID         - DENSITY POROSITY (SANDSTONE)
GR  .API      00 310 00 00         : GR           - GAMMA RAY
CALI.MM       00 280 01 00         : CAL          - CALIPER
~PARAMETER INFORMATION
#MNEM.UNIT           DATA             DESCRIPTION OF MNEMONIC
#---------         -----------     ------------------------------
GL  .M        586.4                : gl           - GROUND LEVEL ELEVATION
EREF.M        590                  : kb           - ELEVATION OF DEPTH REFERENCE
DATM.M        586.4                : datum        - DATUM ELEVATION
TDD .M        469                  : tdd          - TOTAL DEPTH DRILLER
RUN .         ONE                  : Run          - RUN NUMBER
ENG .         BILL                 : Engineer     - RECORDING ENGINEER
WIT .         JIM                  : Witness      - WITNESSED BY
MUD .         GEL                  : Mud_type     - MUD TYPE
MATR.         SANDSTONE            : Logunit      - NEUTRON MATRIX
TMAX.C        23                   : BHT          - MAXIMUM RECORDED TEMPERATURE
BHTD.M        469                  : BHTDEP       - MAXIMUM RECORDED TEMPERATURE
MATR.         1                    : LOGUNIT      - NEUTRON MATRIX
RMT .C        17                   : MDTP         - TEMPERATURE OF MUD
NEUT.         1                    : NEUTRON      - NEUTRON TYPE
RESI.         0                    : RESIST       - RESISTIVITY TYPE
RMC .OHMM     6.73                 : RMC          - RESISTIVITY OF MUD CAKE
RMF .OHMM     6.46                 : RMF          - RESISTIVITY OF MUD FILTRATE
SUFT.C        -25                  : SUFT         - SURFACE TEMPERATURE
~A  DEPTH     RESD     PHIN     PHID       GR      CAL
# ...
  439.000   13.502    0.389    0.170   79.266  210.016
  439.250   13.415    0.379    0.176   76.888  209.263
  439.500   13.704    0.369    0.204   64.768  207.899
  439.750   14.336    0.365    0.243   51.927  205.937
  440.000   15.233    0.364    0.276   43.478  204.079
  440.250   16.293    0.356    0.285   40.525  203.890
  440.500   16.820    0.370    0.283   40.054  204.771
  440.750   17.214    0.369    0.278   42.964  205.617
  441.000   17.523    0.363    0.275   45.873  206.162
  441.250   18.066    0.358    0.277   46.979  206.404
  441.500   18.845    0.355    0.279   46.043  206.446
  441.750   19.466    0.354    0.262   44.396  206.422
  442.000   19.637    0.350    0.246   44.418  206.055
  442.250   19.661    0.356    0.252   45.166  206.095
  442.500   19.793    0.372    0.254   45.373  206.135
  442.750   19.886    0.381    0.256   45.879  206.179
  443.000   19.979    0.379    0.255   46.925  206.326
  443.250   20.307    0.373    0.249   48.708  206.773
  443.500   20.328    0.367    0.243   51.491  206.810
  443.750   20.348    0.365    0.242   52.001  207.255
  444.000   20.148    0.365    0.241   53.052  207.400
  444.250   19.874    0.368    0.242   54.881  207.442
  444.500   19.638    0.371    0.244   57.307  207.583
  444.750   19.487    0.371    0.245   59.591  208.039
  445.000   19.360    0.362    0.239   58.867  208.094
  445.250   19.670    0.360    0.222   57.694  208.125
  445.500   20.424    0.361    0.199   57.417  208.467
  445.750   21.603    0.360    0.180   58.284  208.914
  446.000   22.757    0.356    0.173   59.514  209.261
  446.250   22.002    0.354    0.190   59.506  209.394
  446.500   18.777    0.356    0.216   60.533  209.857
  446.750   12.674    0.364    0.222   62.240  209.897
  447.000    9.361    0.396    0.220   66.295  210.241
  447.250    7.636    0.415    0.220   70.891  210.483
  447.500    6.684    0.416    0.224   74.523  210.626
  447.750    5.955    0.433    0.228   76.353  211.250
  448.000    5.564    0.476    0.227   78.128  212.127
  448.250    5.488    0.472    0.197   78.874  212.572
  448.500    5.719    0.444    0.168   80.164  212.716
  448.750    6.118    0.414    0.163   82.476  212.765
  449.000    6.598    0.402    0.185   84.906  213.014
  449.250    7.315    0.425    0.209   84.124  214.025
  449.500    8.499    0.436    0.213   78.889  214.897
  449.750   11.004    0.447    0.233   71.700  214.541
  450.000   13.096    0.444    0.284   54.232  213.279
  450.250   14.732    0.436    0.355   43.917  212.321
  450.500   15.855    0.450    0.406   47.909  212.068
  450.750   15.507    0.527    0.362   64.142  212.204
  451.000   14.379    0.517    0.337   69.430  212.663
  451.250   12.283    0.519    0.342   74.746  213.509
  451.500   11.401    0.539    0.348   77.360  213.453
  451.750   11.413    0.544    0.355   76.905  212.694
  452.000   11.774    0.534    0.373   72.659  211.634
  452.250   10.970    0.534    0.425   63.203  210.805
  452.500    9.363    0.522    0.413   61.477  210.424
  452.750    8.313    0.512    0.342   67.512  209.671
  453.000    7.957    0.509    0.306   75.535  210.415
  453.250    7.761    0.502    0.285   78.448  211.857
  453.500    7.600    0.496    0.251   75.587  213.201
  453.750    7.596    0.507    0.166   72.633  213.488
  454.000    7.547    0.494    0.144   72.156  212.699
  454.250    7.500    0.480    0.230   77.232  212.343
  454.500    7.452    0.505    0.270   86.096  212.888
  454.750    7.378    0.516    0.226   91.172  213.531
  455.000    7.359    0.490    0.146   89.455  213.772
  455.250    7.681    0.438    0.171   82.361  213.257
  455.500    8.182    0.428    0.221   81.637  212.464
  455.750    8.816    0.419    0.241   83.587  212.107
  456.000    9.349    0.429    0.234   85.896  211.747
  456.250    9.611    0.430    0.207   84.360  211.393
  456.500    9.549    0.418    0.178   79.939  211.142
  456.750    9.339    0.418    0.169   78.966  211.191
  457.000    9.643    0.426    0.165   79.996  211.232
  457.250   10.539    0.414    0.187   77.618  211.272
  457.500   11.772    0.402    0.216   75.599  211.315
  457.750   13.404    0.389    0.247   73.819  211.157
  458.000   15.185    0.378    0.271   73.183  210.897
  458.250   15.913    0.378    0.265   76.424  210.951
  458.500   14.869    0.390    0.245   80.459  211.002
  458.750   14.340    0.389    0.233   82.169  211.038
  459.000   14.463    0.403    0.239   81.530  211.380
  459.250   14.912    0.402    0.256   79.752  211.427
  459.500   15.519    0.387    0.270   78.276  210.871
  459.750   16.421    0.393    0.256   79.035  209.463
  460.000   17.358    0.406    0.245   80.315  208.257
  460.250   18.702    0.383    0.263   80.587  208.310
  460.500   20.588    0.270    0.184   81.032  208.346
  460.750   23.482    0.194    0.082   81.897  208.384
  461.000   26.991    0.200    0.029   83.006  208.529
  461.250   27.237    0.256    0.100   83.659  209.239
  461.500   23.075    0.283    0.143   83.183  210.543
  461.750   19.564    0.286    0.159   80.321  211.379
  462.000   17.213    0.286    0.164   77.105  212.220
  462.250   15.610    0.290    0.180   75.691  213.063
  462.500   14.349    0.297    0.206   76.077  214.310
  462.750   12.791    0.299    0.220   75.903  217.520
  463.000   11.595    0.296    0.208   74.926  221.328
  463.250   10.853    0.293    0.196   73.272  220.571
  463.500   10.337    0.295    0.183   72.333  218.608
  463.750   10.048    0.297    0.181   71.397  216.444
  464.000    9.928    0.297    0.195   70.222  214.880
  464.250    9.853    0.299    0.211   68.899  214.696
  464.500    9.790    0.299    0.216   68.172  215.577
  464.750    9.799    0.298    0.210   68.204  215.216
