~VERSION INFORMATION
 VERS.                 2.0:   CWLS LOG ASCII STANDARD -VERSION 2.0
 WRAP.                  NO:   ONE LINE PER DEPTH STEP
~WELL INFORMATION BLOCK
#MNEM.UNIT           DATA                    DESCRIPTION OF MNEMONIC
#---------    -------------------            -------------------------------
# Generated from Intellog Unique Number	CS_69_70/WELL/878
NULL.         -999.25                        : NULL_VALUE
WELL.         SULPETRO LIMITED               : Well_name    - WELL              
LOC .         00/10-32-070-10W4/0            : Location     - LOCATION          
UWI .         00/10-32-070-10W4/0            : Uwi          - UNIQUE WELL ID    
ENTR.         SP                             : Entered      - ENTERED BY        
SRVC.         SCHLUMBERGER                   : Scn          - SERVICE COMPANY   
STRT.M        315                            : top_depth    - START DEPTH       
STOP.M        540                            : bot_depth    - STOP DEPTH        
STEP.M        0.25                           : increment    - STEP LENGTH       
~CURVE INFORMATION BLOCK
#MNEM UNIT       ERCB CURVE CODE    CURVE DESCRIPTION
#-----------   ------------------   ----------------------------------
DEPT.M        00 001 00 00         : DEPTH        - DEPTH                       
DPHI.V/V      00 890 00 00         : PHID         - DENSITY POROSITY (LIMESTONE)
NPHI.V/V      00 330 00 00         : PHIN         - NEUTRON POROSITY (LIMESTONE)
GR  .API      00 310 00 00         : GR           - GAMMA RAY                   
ILD .OHMM     00 120 00 00         : RESD         - DEEP RESISTIVITY (DIL)      
~PARAMETER INFORMATION       
#MNEM.UNIT           DATA             DESCRIPTION OF MNEMONIC
#---------         -----------     ------------------------------
GL  .M        657.1                : gl           - GROUND LEVEL ELEVATION      
EREF.M        660.4                : kb           - ELEVATION OF DEPTH REFERENCE
DATM.M        657.1                : datum        - DATUM ELEVATION             
TDD .M        545                  : tdd          - TOTAL DEPTH DRILLER         
RUN .         ONE                  : Run          - RUN NUMBER                  
ENG .         BILL                 : Engineer     - RECORDING ENGINEER          
WIT .         JIM                  : Witness      - WITNESSED BY                
MUD .         GEL                  : Mud_type     - MUD TYPE                    
MATR.         LIMESTONE            : Logunit      - NEUTRON MATRIX              
TMAX.C        15                   : BHT          - MAXIMUM RECORDED TEMPERATURE
BHTD.M        545                  : BHTDEP       - MAXIMUM RECORDED TEMPERATURE
MATR.         1                    : LOGUNIT      - NEUTRON MATRIX              
RMT .C        25                   : MDTP         - TEMPERATURE OF MUD          
NEUT.         1                    : NEUTRON      - NEUTRON TYPE                
RESI.         0                    : RESIST       - RESISTIVITY TYPE            
RMC .OHMM     0.25                 : RMC          - RESISTIVITY OF MUD CAKE     
RMF .OHMM     0.25                 : RMF          - RESISTIVITY OF MUD FILTRATE 
SUFT.C        15                   : SUFT         - SURFACE TEMPERATURE         
~A  DEPTH     PHID     PHIN       GR     RESD
# ...
  402.000    0.369    0.464   60.086   13.440
  402.250    0.364    0.446   60.631   13.469
  402.500    0.359    0.463   60.692   13.496
  402.750    0.352    0.460   60.813   13.475
  403.000    0.348    0.445   60.873   13.452
  403.250    0.348    0.442   59.420   13.431
  403.500    0.351    0.443   57.603   13.384
  403.750    0.347    0.438   57.118   13.387
  404.000    0.338    0.434   58.874   13.390
  404.250    0.345    0.444   60.630   13.368
  404.500    0.356    0.452   61.902   13.346
  404.750    0.354    0.459   63.052   13.299
  405.000    0.348    0.454   63.658   13.278
  405.250    0.357    0.448   64.445   13.282
  405.500    0.360    0.453   65.232   13.260
  405.750    0.344    0.462   65.777   13.189
  406.000    0.333    0.464   65.413   13.143
  406.250    0.327    0.459   63.475   13.121
  406.500    0.333    0.446   62.143   13.124
  406.750    0.335    0.441   62.446   13.127
  407.000    0.344    0.447   62.990   13.130
  407.250    0.339    0.448   63.354   13.133
  407.500    0.335    0.453   63.232   13.136
  407.750    0.334    0.460   62.203   13.091
  408.000    0.341    0.458   60.507   13.046
  408.250    0.350    0.450   60.446   12.976
  408.500    0.341    0.455   61.112   12.954
  408.750    0.334    0.462   61.536   12.957
  409.000    0.329    0.453   61.657   12.960
  409.250    0.335    0.433   61.536   12.987
  409.500    0.343    0.425   58.629   13.015
  409.750    0.343    0.445   56.630   13.066
  410.000    0.345    0.449   57.236   13.167
  410.250    0.349    0.442   57.962   13.294
  410.500    0.356    0.441   58.205   13.422
  410.750    0.366    0.437   58.265   13.525
  411.000    0.352    0.454   58.083   13.529
  411.250    0.334    0.478   58.144   13.406
  411.500    0.328    0.466   58.325   13.359
  411.750    0.339    0.456   59.173   13.238
  412.000    0.349    0.449   60.626   13.242
  412.250    0.346    0.447   61.110   13.195
  412.500    0.347    0.441   61.231   13.199
  412.750    0.350    0.434   61.292   13.202
  413.000    0.348    0.429   61.352   13.205
  413.250    0.340    0.426   61.352   13.209
  413.500    0.326    0.431   60.867   13.188
  413.750    0.334    0.438   60.262   13.166
  414.000    0.344    0.443   59.414   13.144
  414.250    0.354    0.448   59.353   13.097
  414.500    0.348    0.442   61.775   13.027
  414.750    0.340    0.438   64.440   12.983
  415.000    0.332    0.441   68.255   12.817
  415.250    0.323    0.447   72.978   12.536
  415.500    0.311    0.443   78.186   11.273
  415.750    0.288    0.431   81.577    9.987
  416.000    0.268    0.444   85.695    9.202
  416.250    0.260    0.459   88.722    8.478
  416.500    0.245    0.468   90.902    8.109
  416.750    0.237    0.462   90.720    7.931
  417.000    0.253    0.469   91.265    7.889
  417.250    0.270    0.478   87.753    7.921
  417.500    0.292    0.485   84.725    8.011
  417.750    0.315    0.471   84.180    8.149
  418.000    0.293    0.486   88.479    8.182
  418.250    0.274    0.504   90.659    8.077
  418.500    0.284    0.500   92.718    7.726
  418.750    0.282    0.504   93.020    7.501
  419.000    0.271    0.509   90.537    7.459
  419.250    0.264    0.497   88.781    7.309
  419.500    0.261    0.498   88.599    7.230
  419.750    0.248    0.497   88.296    7.245
  420.000    0.240    0.483   87.873    7.287
  420.250    0.241    0.468   87.509    7.303
  420.500    0.239    0.458   87.509    7.332
  420.750    0.247    0.453   88.478    7.389
  421.000    0.253    0.457   90.658    7.404
  421.250    0.230    0.466   92.293    7.448
  421.500    0.219    0.474   91.323    7.450
  421.750    0.212    0.471   88.840    7.493
  422.000    0.211    0.463   88.659    7.509
  422.250    0.211    0.458   90.112    7.553
  422.500    0.219    0.469   91.081    7.611
  422.750    0.225    0.479   90.475    7.642
  423.000    0.233    0.467   88.537    7.658
  423.250    0.236    0.453   90.475    7.659
  423.500    0.221    0.446   92.049    7.676
  423.750    0.232    0.445   92.897    7.692
  424.000    0.237    0.449   93.139    7.665
  424.250    0.218    0.448   93.139    7.667
  424.500    0.220    0.447   92.715    7.654
  424.750    0.226    0.452   89.323    7.671
  425.000    0.224    0.456   87.022    7.672
  425.250    0.221    0.470   86.053    7.660
  425.500    0.221    0.478   85.871    7.591
  425.750    0.214    0.467   88.899    7.535
  426.000    0.225    0.461   92.290    7.398
  426.250    0.234    0.470   91.018    7.195
  426.500    0.240    0.471   93.380    6.856
  426.750    0.254    0.465   95.317    6.545
  427.000    0.268    0.464   96.952    5.985
  427.250    0.276    0.473   95.317    5.453
  427.500    0.255    0.501   93.076    4.689
  427.750    0.258    0.544   97.012    3.906
  428.000    0.264    0.573   99.435    3.212
  428.250    0.255    0.573   97.678    2.757
  428.500    0.243    0.558   97.436    2.424
  428.750    0.236    0.553   98.950    2.420
  429.000    0.234    0.543   99.313    2.575
  429.250    0.258    0.508   98.647    2.754
  429.500    0.258    0.486   97.254    3.024
  429.750    0.251    0.478   96.103    3.512
  430.000    0.258    0.462   94.165    4.041
  430.250    0.258    0.447   89.926    4.835
  430.500    0.253    0.458   88.170    5.299
  430.750    0.261    0.469   89.017    5.543
  431.000    0.274    0.483   82.537    5.724
  431.250    0.284    0.479   78.238    5.876
  431.500    0.289    0.477   75.937    5.989
  431.750    0.294    0.474   79.085    5.771
  432.000    0.280    0.471   82.840    5.571
  432.250    0.278    0.468   77.995    5.133
  432.500    0.297    0.480   75.633    4.800
  432.750    0.312    0.506   73.635    4.660
  433.000    0.325    0.494   72.121    4.592
  433.250    0.316    0.477   75.693    4.968
  433.500    0.302    0.481   75.633    5.206
  433.750    0.310    0.482   74.664    5.696
  434.000    0.317    0.469   74.421    5.980
  434.250    0.323    0.457   75.148    6.470
  434.500    0.329    0.461   76.177    6.556
  434.750    0.321    0.469   75.995    6.910
  435.000    0.312    0.471   74.905    7.094
  435.250    0.303    0.467   72.786    7.230
  435.500    0.298    0.463   71.695    7.231
  435.750    0.289    0.447   71.695    7.180
  436.000    0.284    0.426   71.937    7.154
  436.250    0.300    0.422   72.240    7.102
  436.500    0.309    0.428   73.027    7.064
  436.750    0.298    0.423   74.783    7.013
  437.000    0.278    0.405   79.022    7.068
  437.250    0.262    0.407   82.958    7.109
  437.500    0.249    0.421   86.168    7.125
  437.750    0.256    0.431   88.650    7.126
  438.000    0.263    0.439   89.013    7.022
  438.250    0.262    0.445   87.015    6.855
  438.500    0.232    0.453   88.165    6.668
  438.750    0.230    0.472   89.013    6.644
  439.000    0.241    0.463   86.530    6.621
  439.250    0.255    0.466   82.109    6.573
  439.500    0.253    0.480   79.445    6.526
  439.750    0.234    0.491   77.749    6.503
  440.000    0.231    0.457   76.477    6.433
  440.250    0.240    0.448   76.295    6.410
  440.500    0.260    0.468   76.658    6.246
  440.750    0.278    0.470   77.567    6.178
  441.000    0.279    0.452   79.504    6.110
  441.250    0.274    0.439   83.198    6.044
  441.500    0.273    0.452   86.044    5.967
  441.750    0.262    0.464   87.861    5.902
  442.000    0.256    0.467   88.708    5.837
  442.250    0.254    0.466   88.890    5.784
  442.500    0.256    0.466   87.860    5.743
  442.750    0.256    0.471   86.831    5.670
  443.000    0.256    0.475   87.800    5.629
  443.250    0.257    0.477   86.104    5.599
  443.500    0.261    0.474   86.346    5.559
  443.750    0.265    0.471   87.375    5.529
  444.000    0.253    0.470   85.558    5.520
  444.250    0.246    0.472   85.619    5.491
  444.500    0.239    0.476   87.496    5.492
  444.750    0.231    0.478   88.767    5.483
  445.000    0.231    0.484   91.492    5.463
  445.250    0.237    0.501   93.006    5.434
