~VERSION INFORMATION
 VERS.                 2.0:   CWLS LOG ASCII STANDARD -VERSION 2.0
 WRAP.                  NO:   ONE LINE PER DEPTH STEP
~WELL INFORMATION BLOCK
#MNEM.UNIT           DATA                    DESCRIPTION OF MNEMONIC
#---------    -------------------            -------------------------------
# Generated from Intellog Unique Number	CW_82_90/WELL/1037
WELL.         CHEVRON FINA MUSKWA 16-29      : Well_name    - WELL
LOC .         00/16-29-083-02W5/0            : Location     - LOCATION
UWI .         00/16-29-083-02W5/0            : Uwi          - UNIQUE WELL ID
ENTR.         JJ                             : Entered      - ENTERED BY
SRVC.         SCHLUMBERGER                   : Scn          - SERVICE COMPANY
DATE.         9 JAN 74                       : Date         - LOG DATE
STRT.M        286.512                        : top_depth    - START DEPTH
STOP.M        487.762                        : bot_depth    - STOP DEPTH
STEP.M        0.25                           : increment    - STEP LENGTH
 NULL. -999.2500:NULL Value
~CURVE INFORMATION BLOCK
#MNEM UNIT       ERCB CURVE CODE    CURVE DESCRIPTION
#-----------   ------------------   ----------------------------------
DEPT.M        00 001 00 00         : DEPTH        - DEPTH
CALI.MM       00 280 01 00         : CAL          - CALIPER
GR  .API      00 310 00 00         : GR           - GAMMA RAY
DPHI.V/V      00 890 00 00         : PHID         - DENSITY POROSITY (SANDSTONE)
NPHI.V/V      00 330 00 00         : PHIN         - NEUTRON POROSITY (SANDSTONE)
ILD .OHMM     00 120 00 00         : RESD         - DEEP RESISTIVITY (DIL)
~PARAMETER INFORMATION
#MNEM.UNIT           DATA             DESCRIPTION OF MNEMONIC
#---------         -----------     ------------------------------
GL  .M        623.316              : gl           - GROUND LEVEL ELEVATION
EREF.M        627.278              : kb           - ELEVATION OF DEPTH REFERENCE
DATM.M        623.316              : datum        - DATUM ELEVATION
TDD .M        492.252              : tdd          - TOTAL DEPTH DRILLER
RUN .         ONE                  : Run          - RUN NUMBER
ENG .         WOON                 : Engineer     - RECORDING ENGINEER
WIT .         GOLL                 : Witness      - WITNESSED BY
BASE.         EDMONTON             : Branch       - HOME BASE OF LOGGING UNIT
MUD .         GEL CHEM             : Mud_type     - MUD TYPE
MATR.         SANDSTONE            : Logunit      - NEUTRON MATRIX
TMAX.C        30                   : BHT          - MAXIMUM RECORDED TEMPERATURE
BHTD.M        492.252              : BHTDEP       - MAXIMUM RECORDED TEMPERATURE
RMT .C        4.44444              : MDTP         - TEMPERATURE OF MUD
MUDD.KG/M     8600                 : MWT          - MUD DENSITY
NEUT.         1                    : NEUTRON      - NEUTRON TYPE
RESI.         0                    : RESIST       - RESISTIVITY TYPE
RM  .OHMM     9.6                  : RM           - RESISTIVITY OF MUD
RMC .OHMM     5                    : RMC          - RESISTIVITY OF MUD CAKE
RMF .OHMM     7.1                  : RMF          - RESISTIVITY OF MUD FILTRATE
SUFT.C        -17.7778             : SUFT         - SURFACE TEMPERATURE
~A  DEPTH      CAL       GR     PHID     PHIN     RESD
# ...
  323.012  200.532   76.267    0.237    0.500    8.624
  323.262  200.848   75.695    0.257    0.518    8.625
  323.512  200.842   80.366    0.247    0.583    8.644
  323.762  201.158   84.468    0.247    0.566    8.761
  324.012  201.367   87.559    0.237    0.518    8.830
  324.262  201.147   80.609    0.232    0.500    8.798
  324.512  201.997   67.722    0.220    0.529    8.651
  324.762  203.487   64.813    0.217    0.534    8.175
  325.012  204.446   64.115    0.274    0.494    7.395
  325.262  206.151   66.954    0.294    0.444    6.331
  325.512  206.895   75.161    0.293    0.524    5.609
  325.762  207.209   80.337    0.293    0.575    4.451
  326.012  207.205   80.650    0.329    0.631    3.840
  326.262  206.986   85.573    0.333    0.666    3.389
  326.512  213.183   88.538    0.244    0.638    2.997
  326.762  206.654   88.408    0.269    0.614    2.650
  327.012  212.210   88.721    0.261    0.567    2.471
  327.262  229.637   91.433    0.273    0.625    2.388
  327.512  253.588   92.630    0.319    0.757    2.505
  327.762  242.031   91.553    0.355    0.822    2.765
  328.012  232.294   91.866    0.390    0.751    3.152
  328.262  222.877   92.368    0.348    0.692    3.493
  328.512  215.386   91.733    0.290    0.685    4.005
  328.762  212.813   91.414    0.259    0.690    4.751
  329.012  199.119   90.716    0.251    0.645    5.701
  329.262  199.220   88.755    0.202    0.449    7.025
  329.512  200.605   79.404    0.131    0.416    8.131
  329.762  202.310   66.643    0.069    0.381    9.287
  330.012  202.946   56.788    0.051    0.356   10.409
  330.262  203.476   48.069    0.065    0.317   10.793
  330.512  203.150   45.034    0.088    0.285   10.857
  330.762  197.797   47.936    0.250    0.414   10.636
  331.012  195.653   51.280    0.269    0.454   10.458
  331.262  193.722   51.150    0.325    0.486   10.342
  331.512  193.075   50.515    0.324    0.504   10.266
  331.762  192.749   52.849    0.331    0.502   10.268
  332.012  193.064   55.499    0.335    0.496   10.348
  332.262  193.166   58.148    0.326    0.510   10.489
  332.512  192.732   57.577    0.313    0.504   10.652
  332.762  192.299   55.742    0.316    0.483   10.777
  333.012  191.866   57.443    0.326    0.466   10.799
  333.262  191.112   58.261    0.323    0.487   10.761
  333.512  190.572   58.258    0.312    0.516   10.804
  333.762  189.603   57.687    0.315    0.512   10.847
  334.012  189.170   57.620    0.325    0.507   10.808
  334.262  188.951   57.996    0.326    0.498   10.729
  334.512  190.229   59.635    0.317    0.495   10.510
  334.762  192.256   61.400    0.300    0.492   10.102
  335.012  195.138   63.544    0.312    0.494    9.207
  335.262  195.988   66.952    0.318    0.517    7.363
  335.512  197.694   71.559    0.335    0.540    5.690
  335.762  201.645   76.419    0.337    0.574    4.473
  336.012  206.345   82.794    0.329    0.599    3.830
  336.262  210.939   89.486    0.316    0.664    3.619
  336.512  215.104   91.251    0.347    0.682    3.620
  336.762  215.313   90.490    0.324    0.685    3.683
  337.012  205.041   91.307    0.364    0.634    3.754
  337.262  205.783   92.568    0.343    0.621    3.849
  337.512  214.655   92.628    0.306    0.640    4.346
  337.762  215.933   91.741    0.297    0.660    4.844
  338.012  196.570   92.748    0.254    0.640    5.032
  338.262  193.142   88.134    0.236    0.610    4.957
  338.512  198.377   83.899    0.268    0.564    4.819
  338.762  205.109   86.801    0.272    0.501    4.632
  339.012  215.371   89.198    0.271    0.534    4.410
  339.262  217.825   91.531    0.295    0.606    4.263
  339.512  211.617   92.665    0.284    0.634    4.192
  339.762  196.960   91.020    0.248    0.626    4.233
  340.012  195.456   85.080    0.225    0.589    4.299
  340.262  197.804   83.940    0.273    0.540    4.374
  340.512  199.831   81.789    0.299    0.561    4.648
  340.762  199.824   80.144    0.345    0.629    5.190
  341.012  198.430   78.120    0.318    0.613    6.263
  341.262  192.114   74.643    0.293    0.565    8.517
  341.512  191.253   71.355    0.296    0.575   11.759
  341.762  191.996   65.542    0.332    0.596   14.767
  342.012  193.274   60.359    0.345    0.580   17.719
  342.262  194.658   59.787    0.349    0.589   19.934
  342.512  195.082   59.911    0.348    0.584   21.839
  342.762  194.862   60.412    0.341    0.551   22.136
  343.012  195.070   60.536    0.336    0.552   21.317
  343.262  194.744   62.238    0.330    0.570   20.334
  343.512  194.737   64.508    0.345    0.555   19.471
  343.762  194.840   65.263    0.339    0.549   18.573
  344.012  194.300   63.113    0.320    0.538   17.886
  344.262  194.936   60.267    0.325    0.551   17.224
  344.512  194.931   59.633    0.338    0.580   16.462
  344.762  194.284   62.092    0.346    0.545   16.125
  345.012  194.277   66.067    0.354    0.517   15.353
  345.262  194.593   66.949    0.348    0.524   14.701
  345.512  194.160   65.114    0.335    0.531   14.291
  345.762  193.939   63.216    0.328    0.502   13.841
  346.012  193.936   63.465    0.322    0.468   13.254
  346.262  194.036   62.894    0.321    0.445   12.885
  346.512  194.673   62.133    0.325    0.457   12.598
  346.762  194.882   63.772    0.327    0.470   12.201
  347.012  195.411   63.453    0.338    0.485   12.111
  347.262  195.833   63.071    0.332    0.497   11.575
  347.512  195.614   64.584    0.328    0.524   11.425
  347.762  195.073   67.675    0.305    0.518   11.319
  348.012  194.962   68.682    0.297    0.501   11.322
  348.262  193.779   68.047    0.299    0.496   11.303
  348.512  194.201   68.676    0.302    0.499   11.156
  348.762  194.302   71.957    0.298    0.505   11.074
  349.012  193.442   73.217    0.289    0.535   10.972
  349.262  193.329   71.887    0.298    0.534   10.871
  349.512  193.323   67.084    0.298    0.527   10.609
  349.762  193.533   67.207    0.311    0.536   10.451
  350.012  193.741   68.215    0.325    0.553   10.335
  350.262  193.842   72.127    0.313    0.553   10.201
  350.512  193.623   75.282    0.299    0.526   10.012
  350.762  193.510   75.784    0.293    0.518    9.807
  351.012  193.399   75.401    0.301    0.518    9.462
  351.262  193.821   77.293    0.292    0.501    9.060
  351.512  196.062   80.511    0.278    0.497    8.692
  351.762  202.153   86.634    0.263    0.517    8.089
  352.012  208.885   93.515    0.234    0.551    7.249
  352.262  212.194   98.754    0.206    0.597    6.557
  352.512  212.082   99.193    0.222    0.606    5.853
  352.762  212.719   95.400    0.221    0.633    5.416
  353.012  214.210   92.429    0.196    0.642    5.012
  353.262  210.141   91.415    0.227    0.537    4.727
  353.512  208.959   93.495    0.227    0.536    4.467
  353.762  206.706   93.998    0.218    0.525    4.087
  354.012  212.477   95.132    0.210    0.562    3.891
  354.262  219.209   96.896    0.191    0.575    3.677
  354.512  214.177   97.145    0.220    0.598    3.574
  354.762  216.952   96.511    0.245    0.622    3.488
  355.012  230.102   95.118    0.288    0.609    3.430
  355.262  247.529   93.600    0.307    0.612    3.556
  355.512  240.037   89.049    0.326    0.584    3.896
  355.762  215.433   86.646    0.284    0.545    4.417
  356.012  208.049   88.032    0.222    0.522    5.151
  356.262  197.882   86.576    0.192    0.497    5.883
  356.512  194.777   82.720    0.214    0.506    6.020
  356.762  193.594   81.517    0.234    0.532    5.561
  357.012  196.263   83.345    0.248    0.566    5.126
  357.262  206.311   87.384    0.266    0.597    4.955
  357.512  227.694   91.423    0.279    0.626    4.854
  357.762  238.277   94.578    0.247    0.666    4.929
  358.012  231.747   95.269    0.234    0.655    6.062
  358.262  215.807   94.382    0.243    0.547    8.074
  358.512  193.664   93.368    0.239    0.491    8.646
  358.762  193.658   82.881    0.227    0.500    8.632
  359.012  194.080   83.382    0.250    0.499    8.472
  359.262  194.182   86.474    0.242    0.493    7.914
