~VERSION INFORMATION
 VERS.                 2.0:   CWLS LOG ASCII STANDARD -VERSION 2.0
 WRAP.                  NO:   ONE LINE PER DEPTH STEP
~WELL INFORMATION BLOCK
#MNEM.UNIT           DATA                    DESCRIPTION OF MNEMONIC
#---------    -------------------            -------------------------------
# Generated from Intellog Unique Number	CS_67_68/WELL/812
WELL.         PENNENT-PUMA OILS LTD          : Well_name    - WELL
LOC .         00/11-01-068-16W4/0            : Location     - LOCATION
UWI .         00/11-01-068-16W4/0            : Uwi          - UNIQUE WELL ID
ENTR.         SP                             : Entered      - ENTERED BY
SRVC.         SCHLUMBERGER                   : Scn          - SERVICE COMPANY
STRT.M        320.040                        : top_depth    - START DEPTH
STOP.M        511.790                        : bot_depth    - STOP DEPTH
STEP.M        0.25                           : increment    - STEP LENGTH
 NULL. -999.2500:NULL Value
~CURVE INFORMATION BLOCK
#MNEM UNIT       ERCB CURVE CODE    CURVE DESCRIPTION
#-----------   ------------------   ----------------------------------
DEPT.M        00 001 00 00         : DEPTH        - DEPTH
GR  .API      00 310 00 00         : GR           - GAMMA RAY
DPHI.V/V      00 890 00 00         : PHID         - DENSITY POROSITY (SANDSTONE)
NPHI.V/V      00 330 00 00         : PHIN         - NEUTRON POROSITY (SANDSTONE)
ILD .OHMM     00 120 00 00         : RESD         - DEEP RESISTIVITY (DIL)
~PARAMETER INFORMATION
#MNEM.UNIT           DATA             DESCRIPTION OF MNEMONIC
#---------         -----------     ------------------------------
GL  .M        572.414              : gl           - GROUND LEVEL ELEVATION
EREF.M        605.333              : kb           - ELEVATION OF DEPTH REFERENCE
DATM.M        572.414              : datum        - DATUM ELEVATION
TDD .M        516.026              : tdd          - TOTAL DEPTH DRILLER
RUN .         ONE                  : Run          - RUN NUMBER
ENG .         BILL                 : Engineer     - RECORDING ENGINEER
WIT .         JIM                  : Witness      - WITNESSED BY
MUD .         GEL                  : Mud_type     - MUD TYPE
MATR.         SANDSTONE            : Logunit      - NEUTRON MATRIX
TMAX.C        24.4444              : BHT          - MAXIMUM RECORDED TEMPERATURE
BHTD.M        516.026              : BHTDEP       - MAXIMUM RECORDED TEMPERATURE
MATR.         1                    : LOGUNIT      - NEUTRON MATRIX
RMT .C        25                   : MDTP         - TEMPERATURE OF MUD
NEUT.         1                    : NEUTRON      - NEUTRON TYPE
RESI.         0                    : RESIST       - RESISTIVITY TYPE
RMC .OHMM     0.25                 : RMC          - RESISTIVITY OF MUD CAKE
RMF .OHMM     0.25                 : RMF          - RESISTIVITY OF MUD FILTRATE
SUFT.C        15                   : SUFT         - SURFACE TEMPERATURE
~A  DEPTH       GR     PHID     PHIN     RESD
  320.040  115.971    0.220    0.489    2.058
  320.290  117.681    0.219    0.481    2.111
  320.540  121.019    0.220    0.474    2.169
  320.790  122.056    0.223    0.464    2.220
  321.040  121.689    0.222    0.470    2.301
  321.290  120.716    0.211    0.479    2.397
  321.540  118.069    0.201    0.487    2.528
  321.790  115.954    0.189    0.496    2.601
  322.040  114.344    0.177    0.473    2.637
  322.290  113.756    0.182    0.448    2.672
  322.540  114.651    0.185    0.449    2.624
  322.790  114.163    0.194    0.471    2.568
  323.040  113.794    0.205    0.481    2.440
  323.290  114.758    0.190    0.493    2.324
  323.540  117.033    0.201    0.505    2.234
  323.790  117.983    0.221    0.519    2.160
  324.040  118.191    0.232    0.527    2.118
  324.290  117.380    0.226    0.504    2.122
  324.540  115.047    0.217    0.492    2.173
  324.790  116.813    0.230    0.484    2.233
  325.040  119.389    0.224    0.482    2.365
  325.290  120.637    0.207    0.480    2.430
  325.540  121.077    0.196    0.499    2.496
  325.790  120.261    0.191    0.514    2.459
  326.040  115.651    0.186    0.492    2.473
  326.290  111.962    0.178    0.480    2.534
  326.540  110.870    0.167    0.475    2.565
  326.790  111.401    0.144    0.463    2.493
  327.040  109.073    0.201    0.452    2.374
  327.290  104.468    0.206    0.432    2.265
  327.540  102.691    0.211    0.445    2.197
  327.790  101.816    0.215    0.470    2.183
  328.040  106.373    0.193    0.488    2.207
  328.290  111.268    0.214    0.505    2.296
  328.540  111.991    0.230    0.471    2.425
  328.790  106.176    0.217    0.429    2.600
  329.040  103.232    0.241    0.407    2.726
  329.290  105.804    0.231    0.397    2.617
  329.540  104.688    0.273    0.392    2.484
  329.790   98.309    0.276    0.393    2.271
  330.040   95.012    0.291    0.399    2.307
  330.290   92.444    0.306    0.415    2.093
  330.540   91.525    0.330    0.432    2.078
  330.790   95.465    0.341    0.447    2.200
  331.040   99.825    0.341    0.455    2.349
  331.290  103.441    0.308    0.414    2.487
  331.540  104.643    0.276    0.418    2.534
  331.790  102.003    0.280    0.414    2.510
  332.040  101.359    0.283    0.401    2.486
  332.290  102.933    0.282    0.392    2.516
  332.540  104.932    0.273    0.377    2.605
  332.790  107.062    0.267    0.380    2.704
  333.040  112.227    0.257    0.390    2.796
  333.290  110.744    0.250    0.392    2.844
  333.540  100.135    0.244    0.393    2.823
  333.790   75.955    0.248    0.388    2.623
  334.040   63.123    0.249    0.355    2.300
  334.290   59.006    0.264    0.329    2.104
  334.540   58.285    0.295    0.334    1.947
  334.790   61.457    0.292    0.356    1.793
  335.040   64.446    0.299    0.371    1.705
  335.290   70.510    0.303    0.386    1.639
  335.540   76.024    0.308    0.398    1.638
  335.790   80.213    0.309    0.404    1.698
  336.040   85.998    0.299    0.397    1.846
  336.290   90.518    0.289    0.392    2.059
  336.540   91.775    0.279    0.387    2.253
  336.790   95.341    0.262    0.381    2.478
  337.040   98.782    0.248    0.382    2.688
  337.290   99.480    0.236    0.396    2.889
  337.540   97.432    0.233    0.403    3.000
  337.790   94.918    0.243    0.395    2.856
  338.040   92.522    0.250    0.382    2.618
  338.290   90.560    0.246    0.379    2.458
  338.540   86.753    0.257    0.387    2.297
  338.790   85.486    0.268    0.392    2.199
  339.040   85.936    0.275    0.390    2.213
  339.290   90.010    0.277    0.383    2.444
  339.540   95.844    0.273    0.376    2.624
  339.790   98.561    0.260    0.402    2.859
  340.040   99.730    0.245    0.457    3.049
  340.290   95.051    0.242    0.504    3.134
  340.540   87.456    0.266    0.523    3.073
  340.790   79.536    0.326    0.490    2.858
  341.040   74.524    0.398    0.471    2.478
  341.290   71.492    0.366    0.459    2.180
  341.540   69.708    0.351    0.454    1.977
  341.790   68.932    0.339    0.452    1.825
  342.040   66.209    0.333    0.455    1.711
  342.290   63.262    0.333    0.455    1.722
  342.540   61.938    0.331    0.435    1.759
  342.790   64.940    0.331    0.423    1.894
  343.040   70.332    0.331    0.424    2.080
  343.290   74.733    0.320    0.440    2.234
  343.540   76.243    0.303    0.451    2.408
  343.790   77.306    0.299    0.450    2.568
  344.040   78.821    0.298    0.444    2.645
  344.290   83.936    0.296    0.441    2.701
  344.540   88.804    0.291    0.432    2.717
  344.790   92.997    0.288    0.426    2.630
  345.040   96.155    0.285    0.421    2.540
  345.290   99.243    0.289    0.420    2.418
  345.540   99.946    0.295    0.430    2.348
  345.790   93.562    0.296    0.442    2.314
  346.040   90.521    0.290    0.456    2.310
  346.290   90.864    0.276    0.452    2.336
  346.540   93.439    0.269    0.448    2.355
  346.790   95.706    0.265    0.436    2.427
  347.040   96.337    0.256    0.433    2.537
  347.290   94.618    0.252    0.444    2.614
  347.540   94.781    0.238    0.445    2.692
  347.790   97.463    0.215    0.435    2.790
  348.040  100.280    0.193    0.440    2.888
  348.290  102.130    0.208    0.446    2.920
  348.540  101.795    0.238    0.439    2.841
  348.790   97.679    0.242    0.436    2.779
  349.040   96.018    0.244    0.440    2.695
  349.290   95.903    0.251    0.431    2.622
  349.540   97.752    0.259    0.432    2.637
  349.790  103.634    0.267    0.438    2.657
  350.040  107.680    0.266    0.447    2.715
  350.290  110.901    0.259    0.440    2.783
  350.540  114.745    0.242    0.451    2.873
  350.790  119.145    0.217    0.458    2.909
  351.040  124.824    0.182    0.444    2.937
  351.290  128.750    0.182    0.424    3.019
  351.540  133.711    0.204    0.410    3.125
  351.790  136.653    0.215    0.394    3.243
  352.040  136.791    0.237    0.387    3.352
  352.290  127.590    0.251    0.391    3.462
  352.540  118.090    0.245    0.395    3.515
  352.790  114.058    0.251    0.405    3.606
  353.040  113.758    0.246    0.409    3.674
  353.290  114.196    0.235    0.408    3.707
  353.540  113.164    0.228    0.410    3.711
  353.790  112.043    0.228    0.412    3.655
  354.040  112.050    0.233    0.414    3.529
  354.290  113.292    0.233    0.415    3.363
  354.540  115.035    0.245    0.406    3.252
  354.790  116.182    0.241    0.396    3.155
  355.040  117.938    0.239    0.391    3.130
  355.290  119.592    0.242    0.404    3.111
  355.540  121.472    0.236    0.415    3.096
  355.790  122.630    0.233    0.421    3.087
  356.040  121.763    0.232    0.465    3.103
  356.290  119.363    0.230    0.493    3.144
  356.540  115.526    0.228    0.468    3.185
  356.790  111.547    0.240    0.435    3.252
  357.040  110.003    0.253    0.416    3.337
  357.290  112.413    0.260    0.386    3.404
  357.540  114.203    0.252    0.394    3.476
  357.790  115.761    0.236    0.404    3.590
  358.040  118.975    0.219    0.409    3.712
  358.290  122.231    0.207    0.411    3.820
  358.540  125.150    0.206    0.411    3.896
  358.790  127.366    0.206    0.411    3.846
  359.040  129.350    0.206    0.421    3.650
  359.290  132.650    0.203    0.433    3.299
  359.540  134.768    0.199    0.446    3.096
  359.790  136.334    0.196    0.451    2.961
  360.040  129.433    0.202    0.438    2.907
  360.290  124.881    0.231    0.427    2.895
  360.540  127.818    0.232    0.425    2.905
  360.790  126.998    0.224    0.435    2.914
  361.040  118.500    0.225    0.449    2.907
  361.290  111.360    0.239    0.458    2.873
  361.540  106.424    0.248    0.450    2.738
  361.790  102.341    0.256    0.458    2.563
  362.040  100.033    0.264    0.450    2.444
  362.290   98.823    0.261    0.428    2.362
  362.540   98.743    0.264    0.395    2.322
  362.790  101.249    0.274    0.390    2.312
  363.040  102.123    0.272    0.399    2.336
  363.290   99.689    0.265    0.410    2.400
