~VERSION INFORMATION
 VERS.                 2.0:   CWLS LOG ASCII STANDARD -VERSION 2.0
 WRAP.                  NO:   ONE LINE PER DEPTH STEP
~WELL INFORMATION BLOCK
#MNEM.UNIT           DATA                    DESCRIPTION OF MNEMONIC
#---------    -------------------            -------------------------------
# Generated from Intellog Unique Number	CW_79_81/WELL/702
WELL.         ATCOR ET AL PELICAN            : Well_name    - WELL
LOC .         00/10-06-079-24W4/0            : Location     - LOCATION
UWI .         00/10-06-079-24W4/0            : Uwi          - UNIQUE WELL ID
ENTR.         MAX                            : Entered      - ENTERED BY
SRVC.         COMPUTALOG                     : Scn          - SERVICE COMPANY
STRT.M        275                            : top_depth    - START DEPTH
STOP.M        515                            : bot_depth    - STOP DEPTH
STEP.M        0.25                           : increment    - STEP LENGTH
 NULL. -999.2500:NULL Value
~CURVE INFORMATION BLOCK
#MNEM UNIT       ERCB CURVE CODE    CURVE DESCRIPTION
#-----------   ------------------   ----------------------------------
DEPT.M        00 001 00 00         : DEPTH        - DEPTH
ILD .OHMM     00 120 00 00         : RESD         - DEEP RESISTIVITY (DIL)
NPHI.V/V      00 330 00 00         : PHIN         - NEUTRON POROSITY (SANDSTONE)
DPHI.V/V      00 890 00 00         : PHID         - DENSITY POROSITY (SANDSTONE)
CALI.MM       00 280 01 00         : CAL          - CALIPER
GR  .API      00 310 00 00         : GR           - GAMMA RAY
~PARAMETER INFORMATION
#MNEM.UNIT           DATA             DESCRIPTION OF MNEMONIC
#---------         -----------     ------------------------------
GL  .M        594.9                : gl           - GROUND LEVEL ELEVATION
EREF.M        598.6                : kb           - ELEVATION OF DEPTH REFERENCE
DATM.M        594.9                : datum        - DATUM ELEVATION
TDD .M        520                  : tdd          - TOTAL DEPTH DRILLER
RUN .         ONE                  : Run          - RUN NUMBER
ENG .         BILL                 : Engineer     - RECORDING ENGINEER
WIT .         JIM                  : Witness      - WITNESSED BY
MUD .         GEL                  : Mud_type     - MUD TYPE
MATR.         SANDSTONE            : Logunit      - NEUTRON MATRIX
TMAX.C        32                   : BHT          - MAXIMUM RECORDED TEMPERATURE
BHTD.M        520                  : BHTDEP       - MAXIMUM RECORDED TEMPERATURE
RMT .C        16.7                 : MDTP         - TEMPERATURE OF MUD
MUDD.KG/M     1150                 : MWT          - MUD DENSITY
NEUT.         1                    : NEUTRON      - NEUTRON TYPE
RESI.         0                    : RESIST       - RESISTIVITY TYPE
RM  .OHMM     5.1                  : RM           - RESISTIVITY OF MUD
RMC .OHMM     0                    : RMC          - RESISTIVITY OF MUD CAKE
RMF .OHMM     4.7                  : RMF          - RESISTIVITY OF MUD FILTRATE
SUFT.C        -20                  : SUFT         - SURFACE TEMPERATURE
~A  DEPTH     RESD     PHIN     PHID      CAL       GR
# ...
  421.000   12.480    0.363    0.170  200.366   96.733
  421.250   12.480    0.391    0.182  196.848   95.539
  421.500   14.369    0.401    0.171  195.373   90.997
  421.750   16.077    0.401    0.165  195.925   90.718
  422.000   19.012    0.396    0.179  199.524   89.217
  422.250   19.012    0.392    0.213  203.124   84.975
  422.500   19.774    0.390    0.226  203.675   80.125
  422.750   24.482    0.388    0.210  203.205   75.274
  423.000   27.640    0.350    0.125  202.244   67.073
  423.250   31.495    0.326    0.125  202.320   66.487
  423.500   32.126    0.348    0.215  201.828   70.482
  423.750   30.419    0.378    0.239  202.374   72.333
  424.000   27.505    0.400    0.238  202.920   72.359
  424.250   26.293    0.406    0.224  203.472   75.742
  424.500   26.562    0.380    0.202  204.029   80.340
  424.750   27.849    0.359    0.112  203.559   79.455
  425.000   30.302    0.353    0.094  203.100   76.125
  425.250   33.275    0.334    0.102  201.625   69.442
  425.500   35.874    0.327    0.108  199.636   67.338
  425.750   36.577    0.318    0.090  199.172   70.418
  426.000   36.626    0.312    0.077  200.739   71.359
  426.250   36.327    0.318    0.062  202.301   70.162
  426.500   35.370    0.311    0.043  202.853   68.052
  426.750   34.125    0.302    0.062  203.421   67.468
  427.000   33.222    0.305    0.086  202.951   69.631
  427.250   32.049    0.324    0.152  202.994   78.192
  427.500   32.079    0.365    0.190  203.551   81.266
  427.750   34.266    0.399    0.203  204.097   81.902
  428.000   35.590    0.401    0.203  204.141   80.712
  428.250   35.968    0.387    0.199  203.671   78.300
  428.500   33.438    0.388    0.205  203.714   76.189
  428.750   29.952    0.379    0.179  203.769   78.047
  429.000   25.147    0.382    0.177  203.812   81.731
  429.250   21.710    0.408    0.173  203.812   83.287
  429.500   17.731    0.418    0.162  203.413   83.307
  429.750   14.616    0.414    0.156  203.429   85.775
  430.000   13.587    0.400    0.158  202.976   85.801
  430.250   13.231    0.391    0.161  202.511   84.608
  430.500   13.366    0.403    0.160  202.549   84.329
  430.750   13.508    0.415    0.159  202.085   87.403
  431.000   13.523    0.411    0.160  202.128   88.042
  431.250   13.665    0.400    0.165  202.172   87.154
  431.500   13.677    0.393    0.151  202.221   89.317
  431.750   13.690    0.396    0.135  201.762   91.778
  432.000   13.578    0.396    0.137  200.789   94.554
  432.250   13.222    0.398    0.157  199.806   93.358
  432.500   12.755    0.393    0.165  199.352   89.113
  432.750   12.423    0.393    0.161  199.396   87.311
  433.000   12.436    0.397    0.161  198.931   88.556
  433.250   12.436    0.393    0.166  199.477   90.722
  433.500   12.575    0.387    0.159  201.056   88.008
  433.750   13.064    0.395    0.148  201.602   87.114
  434.000   13.322    0.399    0.158  201.640   88.664
  434.250   13.338    0.396    0.167  201.689   91.433
  434.500   12.865    0.405    0.160  202.748   92.374
  434.750   12.413    0.417    0.161  203.819   92.095
  435.000   12.198    0.416    0.160  203.862   91.213
  435.250   12.098    0.405    0.152  203.862   90.017
  435.500   12.001    0.405    0.149  203.949   90.046
  435.750   11.903    0.416    0.155  203.474   90.374
  436.000   11.913    0.421    0.150  203.474   90.400
  436.250   11.927    0.417    0.141  203.566   89.816
  436.500   11.941    0.402    0.145  203.113   88.931
  436.750   11.845    0.392    0.162  203.156   87.125
  437.000   11.965    0.387    0.168  203.189   86.545
  437.250   12.663    0.381    0.157  203.232   85.968
  437.500   13.156    0.393    0.157  203.276   85.378
  437.750   13.171    0.398    0.157  203.827   86.322
  438.000   12.821    0.399    0.162  204.390   90.307
  438.250   12.368    0.414    0.170  204.936   91.251
  438.500   11.932    0.423    0.167  205.487   90.058
  438.750   11.619    0.414    0.149  205.542   91.913
  439.000   11.418    0.413    0.127  205.574   92.856
  439.250   11.428    0.424    0.117  204.613   91.359
  439.500   11.442    0.424    0.122  204.143   90.474
  439.750   11.454    0.410    0.138  203.170   91.106
  440.000   11.574    0.395    0.149  203.219   90.827
  440.250   11.911    0.387    0.155  204.273   90.240
  440.500   12.604    0.406    0.151  204.830   87.828
  440.750   13.462    0.390    0.138  204.868   83.282
  441.000   14.247    0.361    0.162  204.917   83.918
  441.250   14.664    0.342    0.184  204.447   83.642
  441.500   14.816    0.341    0.198  203.994   81.535
  441.750   14.831    0.344    0.205  203.026   77.903
  442.000   15.124    0.346    0.204  202.551   76.710
  442.250   15.568    0.347    0.189  202.092   75.828
  442.500   16.474    0.353    0.174  201.627   74.629
  442.750   18.090    0.360    0.145  201.666   70.997
  443.000   20.616    0.344    0.095  201.720   65.232
  443.250   21.419    0.305    0.045  202.271   62.213
  443.500   21.244    0.282    0.084  202.304   63.760
  443.750   20.685    0.310    0.133  202.358   73.848
  444.000   18.191    0.340    0.157  202.407   78.446
  444.250   16.603    0.362    0.158  202.445   80.304
  444.500   15.870    0.359    0.154  202.445   78.498
  444.750   15.307    0.365    0.152  202.532   82.487
  445.000   14.498    0.387    0.150  202.571   88.917
  445.250   13.474    0.393    0.159  203.122   91.080
  445.500   12.188    0.388    0.163  203.679   90.189
  445.750   11.862    0.380    0.158  204.231   88.694
  446.000   11.234    0.380    0.162  205.296   89.327
  446.250   10.739    0.383    0.169  205.847   97.281
  446.500   10.651    0.383    0.176  206.393  101.883
  446.750   11.064    0.392    0.177  205.934   89.713
  447.000   12.150    0.384    0.157  205.972   77.547
  447.250   14.500    0.327    0.055  204.497   68.120
  447.500   16.835    0.271    0.050  203.022   68.756
  447.750   18.145    0.310    0.096  201.536   83.112
  448.000   18.336    0.329    0.134  201.579   90.148
  448.250   17.525    0.338    0.138  201.628   95.363
  448.500   16.597    0.336    0.132  201.704   92.645
  448.750   15.715    0.333    0.116  202.223   91.754
  449.000   15.160    0.331    0.115  203.277   97.267
  449.250   14.490    0.338    0.131  204.342   99.731
  449.500   13.474    0.352    0.137  204.894  103.418
  449.750   12.758    0.374    0.146  205.456  109.541
  450.000   12.658    0.401    0.153  205.494  106.519
  450.250   12.787    0.393    0.127  205.030   93.743
  450.500   13.283    0.349    0.091  205.068   81.580
  450.750   14.187    0.302    0.064  205.112   81.914
  451.000   15.156    0.341    0.109  205.160   84.680
  451.250   15.309    0.361    0.140  204.707   88.970
  451.500   15.046    0.367    0.146  204.237   91.133
  451.750   14.249    0.366    0.147  202.751   87.806
  452.000   14.004    0.364    0.149  200.260   87.220
  452.250   14.146    0.364    0.156  198.774   87.252
  452.500   14.425    0.367    0.158  198.817   86.059
  452.750   15.552    0.370    0.129  199.369   85.479
  453.000   16.764    0.366    0.098  200.947   88.851
  453.250   18.582    0.356    0.122  202.515   88.877
  453.500   20.031    0.318    0.160  202.558   63.909
  453.750   21.995    0.269    0.263  202.602   52.654
  454.000   26.494    0.163    0.318  198.581   39.269
  454.250   43.715    0.108    0.340  198.117   32.284
  454.500   56.185    0.096    0.348  201.208   28.348
  454.750   80.683    0.096    0.350  203.792   25.938
  455.000  103.713    0.096    0.350  203.835   24.745
  455.250   99.130    0.104    0.347  203.835   24.162
  455.500   87.990    0.125    0.342  203.944   23.575
  455.750   78.817    0.188    0.337  203.966   23.909
  456.000   72.597    0.240    0.330  204.020   24.240
  456.250   72.597    0.275    0.322  204.064   25.187
  456.500   70.796    0.306    0.312  204.096   24.909
  456.750   72.837    0.321    0.309  204.156   24.322
  457.000   79.981    0.328    0.304  204.194   25.262
  457.250   87.838    0.332    0.298  204.238   26.200
