~VERSION INFORMATION
 VERS.                 2.0:   CWLS LOG ASCII STANDARD -VERSION 2.0
 WRAP.                  NO:   ONE LINE PER DEPTH STEP
~WELL INFORMATION BLOCK
#MNEM.UNIT           DATA                    DESCRIPTION OF MNEMONIC
#---------    -------------------            -------------------------------
# Generated from Intellog Unique Number	CS_71_72/WELL/917
WELL.         ET AL KIRBY EX                 : Well_name    - WELL
LOC .         00/12-21-071-04W4/0            : Location     - LOCATION
UWI .         00/12-21-071-04W4/0            : Uwi          - UNIQUE WELL ID
ENTR.         SP                             : Entered      - ENTERED BY
SRVC.         SCHLUMBERGER                   : Scn          - SERVICE COMPANY
STRT.M        290                            : top_depth    - START DEPTH
STOP.M        505                            : bot_depth    - STOP DEPTH
STEP.M        0.25                           : increment    - STEP LENGTH
 NULL. -999.2500:NULL Value
~CURVE INFORMATION BLOCK
#MNEM UNIT       ERCB CURVE CODE    CURVE DESCRIPTION
#-----------   ------------------   ----------------------------------
DEPT.M        00 001 00 00         : DEPTH        - DEPTH
ILD .OHMM     00 120 00 00         : RESD         - DEEP RESISTIVITY (DIL)
DPHI.V/V      00 890 00 00         : PHID         - DENSITY POROSITY (LIMESTONE)
NPHI.V/V      00 330 00 00         : PHIN         - NEUTRON POROSITY (LIMESTONE)
GR  .API      00 310 00 00         : GR           - GAMMA RAY
~PARAMETER INFORMATION
#MNEM.UNIT           DATA             DESCRIPTION OF MNEMONIC
#---------         -----------     ------------------------------
GL  .M        674.8                : gl           - GROUND LEVEL ELEVATION
EREF.M        678.4                : kb           - ELEVATION OF DEPTH REFERENCE
DATM.M        674.8                : datum        - DATUM ELEVATION
TDD .M        523.5                : tdd          - TOTAL DEPTH DRILLER
RUN .         ONE                  : Run          - RUN NUMBER
ENG .         BILL                 : Engineer     - RECORDING ENGINEER
WIT .         JIM                  : Witness      - WITNESSED BY
MUD .         GEL                  : Mud_type     - MUD TYPE
MATR.         LIMESTONE            : Logunit      - NEUTRON MATRIX
TMAX.C        17.5                 : BHT          - MAXIMUM RECORDED TEMPERATURE
BHTD.M        523.5                : BHTDEP       - MAXIMUM RECORDED TEMPERATURE
MATR.         1                    : LOGUNIT      - NEUTRON MATRIX
RMT .C        25                   : MDTP         - TEMPERATURE OF MUD
NEUT.         1                    : NEUTRON      - NEUTRON TYPE
RESI.         0                    : RESIST       - RESISTIVITY TYPE
RMC .OHMM     0.25                 : RMC          - RESISTIVITY OF MUD CAKE
RMF .OHMM     0.25                 : RMF          - RESISTIVITY OF MUD FILTRATE
SUFT.C        15                   : SUFT         - SURFACE TEMPERATURE
~A  DEPTH     RESD     PHID     PHIN       GR
# ...
  464.000    8.423    0.199    0.393   76.385
  464.250    8.883    0.203    0.396   72.616
  464.500    9.299    0.209    0.386   64.934
  464.750    9.589    0.219    0.378   58.961
  465.000    9.776    0.228    0.369   57.272
  465.250    9.873    0.237    0.361   59.317
  465.500    9.936    0.236    0.359   61.358
  465.750    9.941    0.232    0.375   60.832
  466.000    9.743    0.226    0.394   63.425
  466.250    9.248    0.214    0.410   66.636
  466.500    8.995    0.198    0.420   69.165
  466.750    9.172    0.188    0.426   71.329
  467.000    9.404    0.193    0.420   65.971
  467.250    9.734    0.197    0.410   59.570
  467.500   10.075    0.199    0.395   56.415
  467.750   10.507    0.176    0.390   61.029
  468.000   10.936    0.157    0.407   63.497
  468.250   11.447    0.167    0.399   58.201
  468.500   12.076    0.232    0.385   53.635
  468.750   12.357    0.259    0.402   50.234
  469.000   12.502    0.254    0.399   49.462
  469.250   11.559    0.251    0.389   52.792
  469.500   10.527    0.246    0.395   57.651
  469.750   10.087    0.234    0.409   61.466
  470.000   10.640    0.222    0.415   64.302
  470.250   11.200    0.224    0.403   63.777
  470.500   11.748    0.244    0.396   56.704
  470.750   12.069    0.255    0.401   56.973
  471.000   12.189    0.253    0.412   59.145
  471.250   11.949    0.242    0.417   61.124
  471.500   11.620    0.235    0.407   62.796
  471.750   10.248    0.230    0.421   64.901
  472.000    9.746    0.232    0.441   66.148
  472.250   10.030    0.245    0.445   63.849
  472.500   10.720    0.258    0.432   53.779
  472.750   11.327    0.270    0.420   51.844
  473.000   11.925    0.252    0.412   58.232
  473.250   12.484    0.228    0.403   65.046
  473.500   12.678    0.220    0.399   66.355
  473.750   13.148    0.266    0.394   49.801
  474.000   13.455    0.288    0.414   47.439
  474.250   13.693    0.271    0.426   56.395
  474.500   13.776    0.246    0.417   55.075
  474.750   13.656    0.248    0.407   53.814
  475.000   12.413    0.244    0.408   56.956
  475.250   10.627    0.223    0.423   65.546
  475.500   10.029    0.205    0.430   70.770
  475.750    9.574    0.195    0.417   72.569
  476.000    9.633    0.178    0.381   69.717
  476.250   10.007    0.146    0.367   60.994
  476.500   10.536    0.123    0.384   56.307
  476.750   10.742    0.144    0.391   59.512
  477.000   10.951    0.171    0.381   60.822
  477.250   11.187    0.187    0.377   58.521
  477.500   11.134    0.202    0.374   56.833
  477.750   11.073    0.210    0.387   56.489
  478.000   10.954    0.205    0.392   57.126
  478.250   10.983    0.203    0.379   57.333
  478.500   11.135    0.216    0.362   55.831
  478.750   11.351    0.227    0.353   53.344
  479.000   11.840    0.233    0.347   50.248
  479.250   12.092    0.230    0.362   52.232
  479.500   12.376    0.225    0.377   54.708
  479.750   12.335    0.227    0.365   55.895
  480.000   12.576    0.230    0.357   56.035
  480.250   13.165    0.232    0.361   51.348
  480.500   14.175    0.242    0.373   49.414
  480.750   15.523    0.258    0.375   43.750
  481.000   17.752    0.277    0.395   38.390
  481.250   19.809    0.295    0.383   40.188
  481.500   21.288    0.292    0.362   39.356
  481.750   20.360    0.287    0.359   42.072
  482.000   17.858    0.277    0.383   45.952
  482.250   17.047    0.286    0.386   40.595
  482.500   19.384    0.306    0.389   35.666
  482.750   32.722    0.314    0.406   32.566
  483.000   43.169    0.330    0.403   29.163
  483.250   50.490    0.340    0.389   28.576
  483.500   48.110    0.336    0.369   31.418
  483.750   45.410    0.319    0.368   32.664
  484.000   44.756    0.308    0.381   32.931
  484.250   46.497    0.316    0.382   28.979
  484.500   49.039    0.324    0.377   26.861
  484.750   47.702    0.325    0.374   30.372
  485.000   36.611    0.312    0.389   34.924
  485.250   30.865    0.298    0.397   36.050
  485.500   24.092    0.291    0.375   39.437
  485.750   20.124    0.274    0.350   44.356
  486.000   19.463    0.251    0.344   47.806
  486.250   29.905    0.235    0.381   48.076
  486.500   54.117    0.277    0.405   42.777
  486.750   78.145    0.307    0.418   32.830
  487.000  102.326    0.330    0.419   26.552
  487.250  119.681    0.343    0.416   22.969
  487.500  130.330    0.353    0.416   22.137
  487.750  123.245    0.356    0.410   23.199
  488.000   94.591    0.355    0.402   25.185
  488.250   78.262    0.355    0.396   26.125
  488.500   72.905    0.351    0.415   26.820
  488.750   75.459    0.344    0.421   26.477
  489.000   78.837    0.337    0.411   25.706
  489.250   74.554    0.328    0.404   26.404
  489.500   75.022    0.322    0.411   26.795
  489.750   90.777    0.338    0.431   25.354
  490.000  103.015    0.347    0.435   23.418
  490.250  116.260    0.348    0.445   21.728
  490.500  129.011    0.348    0.456   21.631
  490.750  135.809    0.354    0.461   23.190
  491.000  137.946    0.348    0.456   24.741
  491.250  140.646    0.343    0.450   25.619
  491.500  126.422    0.348    0.441   24.482
  491.750  110.257    0.343    0.432   23.955
  492.000   91.745    0.333    0.429   25.325
  492.250   72.970    0.326    0.458   26.819
  492.500   62.220    0.329    0.467   27.637
  492.750   54.989    0.323    0.452   27.845
  493.000   56.595    0.315    0.441   28.666
  493.250   63.513    0.311    0.438   29.182
  493.500   71.271    0.324    0.425   28.592
  493.750   80.742    0.344    0.464   26.354
  494.000   85.796    0.349    0.468   24.233
  494.250   86.824    0.346    0.451   23.096
  494.500   85.735    0.343    0.438   23.976
  494.750   80.923    0.343    0.419   24.612
  495.000   74.816    0.351    0.426   23.537
  495.250   68.395    0.351    0.421   23.316
  495.500   63.837    0.344    0.422   24.134
  495.750   62.206    0.346    0.423   24.344
  496.000   64.753    0.357    0.421   24.062
  496.250   66.639    0.362    0.423   23.351
  496.500   53.403    0.361    0.415   22.397
  496.750   39.102    0.364    0.426   21.869
  497.000   28.792    0.368    0.421   21.710
  497.250   20.456    0.368    0.412   21.733
  497.500   14.479    0.365    0.405   21.942
  497.750   11.196    0.359    0.397   22.456
  498.000    8.640    0.349    0.386   22.664
  498.250    6.459    0.345    0.377   22.871
  498.500    5.634    0.339    0.380   23.814
  498.750    5.287    0.326    0.402   26.651
  499.000    5.162    0.309    0.388   31.511
  499.250    5.354    0.280    0.376   36.549
  499.500    5.417    0.262    0.380   42.691
  499.750    5.482    0.258    0.379   47.181
  500.000    5.516    0.280    0.390   39.255
  500.250    5.457    0.299    0.387   36.096
  500.500    5.358    0.311    0.374   34.468
  500.750    5.183    0.313    0.422   39.937
  501.000    5.013    0.313    0.428   43.570
  501.250    4.849    0.324    0.419   46.592
  501.500    4.806    0.338    0.409   40.868
  501.750    4.928    0.340    0.411   37.831
  502.000    5.336    0.292    0.393   44.646
  502.250    7.093    0.262    0.363   46.447
  502.500   10.496    0.168    0.317   43.410
  502.750   13.161   -0.002    0.227   39.642
  503.000   16.226   -0.002    0.214   37.157
  503.250   19.122    0.008    0.205   37.611
  503.500   22.494    0.013    0.203   39.777
  503.750   24.402    0.005    0.204   41.148
  504.000   25.834    0.014    0.205   40.129
  504.250   26.587    0.019    0.207   38.013
  504.500   27.313    0.015    0.209   39.261
  504.750   28.914    0.013    0.216   40.018
  505.000   29.369    0.022    0.223   39.371
