~VERSION INFORMATION
 VERS.                 2.0:   CWLS LOG ASCII STANDARD -VERSION 2.0
 WRAP.                  NO:   ONE LINE PER DEPTH STEP
~WELL INFORMATION BLOCK
#MNEM.UNIT           DATA                    DESCRIPTION OF MNEMONIC
#---------    -------------------            -------------------------------
# Generated from Intellog Unique Number	CW_73_75/WELL/1030
WELL.         CHEVRON ET AL ROCK 10-33       : Well_name    - WELL
LOC .         00/10-33-075-22W4/0            : Location     - LOCATION
UWI .         00/10-33-075-22W4/0            : Uwi          - UNIQUE WELL ID
ENTR.         JAYE                           : Entered      - ENTERED BY
SRVC.         SCHLUMBERGER                   : Scn          - SERVICE COMPANY
DATE.         14 JAN 73                      : Date         - LOG DATE
STRT.M        371.856                        : top_depth    - START DEPTH
STOP.M        655.356                        : bot_depth    - STOP DEPTH
STEP.M        0.25                           : increment    - STEP LENGTH
 NULL. -999.2500:NULL Value
~CURVE INFORMATION BLOCK
#MNEM UNIT       ERCB CURVE CODE    CURVE DESCRIPTION
#-----------   ------------------   ----------------------------------
DEPT.M        00 001 00 00         : DEPTH        - DEPTH
ILD .OHMM     00 120 00 00         : RESD         - DEEP RESISTIVITY (DLL)
NPHI.V/V      00 330 00 00         : PHIN         - NEUTRON POROSITY (SANDSTONE)
DPHI.V/V      00 890 00 00         : PHID         - DENSITY POROSITY (SANDSTONE)
GR  .API      00 310 00 00         : GR           - GAMMA RAY
CALI.MM       00 280 01 00         : CAL          - CALIPER
~PARAMETER INFORMATION
#MNEM.UNIT           DATA             DESCRIPTION OF MNEMONIC
#---------         -----------     ------------------------------
GL  .M        669.036              : gl           - GROUND LEVEL ELEVATION
EREF.M        672.267              : kb           - ELEVATION OF DEPTH REFERENCE
DATM.M        669.036              : datum        - DATUM ELEVATION
TDD .M        603.504              : tdd          - TOTAL DEPTH DRILLER
RUN .         ONE                  : Run          - RUN NUMBER
MATR.         SANDSTONE            : Logunit      - NEUTRON MATRIX
TMAX.C        32.7778              : BHT          - MAXIMUM RECORDED TEMPERATURE
BHTD.M        603.199              : BHTDEP       - MAXIMUM RECORDED TEMPERATURE
RMT .C        18.8889              : MDTP         - TEMPERATURE OF MUD
MUDD.KG/M     0                    : MWT          - MUD DENSITY
NEUT.         0                    : NEUTRON      - NEUTRON TYPE
RESI.         1                    : RESIST       - RESISTIVITY TYPE
RM  .OHMM     0                    : RM           - RESISTIVITY OF MUD
RMC .OHMM     3.5                  : RMC          - RESISTIVITY OF MUD CAKE
RMF .OHMM     3.51                 : RMF          - RESISTIVITY OF MUD FILTRATE
SUFT.C        -17.7778             : SUFT         - SURFACE TEMPERATURE
~A  DEPTH     RESD     PHIN     PHID       GR      CAL
# ...
  481.356   40.800    0.124    0.029   56.985  211.812
  481.606   32.855    0.128    0.018   59.374  212.553
  481.856   22.209    0.162    0.032   62.068  212.771
  482.106   15.180    0.183    0.036   61.405  212.683
  482.356    9.763    0.201    0.042   58.971  212.491
  482.606    7.965    0.222    0.071   60.079  212.196
  482.856    7.020    0.248    0.144   63.080  211.383
  483.106    6.142    0.408    0.254   66.628  210.466
  483.356    5.585    0.543    0.296   72.131  209.447
  483.606    5.299    0.548    0.301   73.422  208.428
  483.856    5.083    0.513    0.305   69.462  207.616
  484.106    4.931    0.476    0.290   69.471  206.495
  484.356    4.863    0.445    0.280   69.296  205.579
  484.606    4.874    0.461    0.276   68.206  204.765
  484.856    4.934    0.478    0.288   71.145  204.779
  485.106    5.002    0.500    0.297   75.183  204.586
  485.356    5.146    0.543    0.279   80.625  205.015
  485.606    5.256    0.586    0.260   86.555  205.959
  485.856    5.339    0.573    0.233   90.837  209.488
  486.106    5.342    0.580    0.202   95.852  211.879
  486.356    5.427    0.552    0.198   98.851  213.341
  486.606    5.501    0.559    0.205   96.968  211.805
  486.856    5.692    0.550    0.213   94.168  208.926
  487.106    5.933    0.470    0.227   90.940  207.596
  487.356    6.149    0.411    0.237   91.988  207.611
  487.606    6.409    0.424    0.215   93.461  207.935
  487.856    6.425    0.450    0.223   96.692  212.912
  488.106    6.371    0.456    0.212   93.497  214.765
  488.356    6.295    0.467    0.208   92.753  216.408
  488.606    6.242    0.477    0.205   96.359  217.121
  488.856    6.178    0.489    0.208   98.066  217.622
  489.106    6.151    0.495    0.210   99.160  217.610
  489.356    6.099    0.459    0.218   99.640  217.386
  489.606    6.014    0.483    0.213  100.000  217.060
  489.856    5.987    0.472    0.204  101.340  217.045
  490.106    6.014    0.483    0.193   98.267  217.030
  490.356    6.154    0.488    0.213  101.567  216.083
  490.606    6.355    0.503    0.212   99.536  215.131
  490.856    6.611    0.446    0.223   99.711  215.740
  491.106    6.801    0.446    0.201   97.128  216.348
  491.356    6.895    0.460    0.191   96.445  216.541
  491.606    7.041    0.478    0.175   93.557  216.732
  491.856    7.139    0.446    0.167   89.871  216.927
  492.106    7.238    0.457    0.179   91.333  217.115
  492.356    7.338    0.461    0.170   94.204  217.205
  492.606    7.358    0.482    0.168   96.401  217.190
  492.856    7.310    0.418    0.160   98.476  217.176
  493.106    7.249    0.422    0.164  100.734  217.163
  493.356    7.122    0.431    0.181   97.661  217.354
  493.606    6.973    0.445    0.186  101.084  217.339
  493.856    6.665    0.480    0.198  106.161  217.426
  494.106    6.106    0.518    0.196  107.990  217.413
  494.356    5.594    0.539    0.185  108.226  217.501
  494.606    5.078    0.567    0.163  103.989  218.214
  494.856    4.353    0.508    0.182  101.346  218.924
  495.106    3.944    0.458    0.190  100.663  218.598
  495.356    4.036    0.457    0.198   98.510  216.818
  495.606    4.396    0.475    0.214   99.726  215.353
  495.856    4.987    0.492    0.214   97.265  212.536
  496.106    5.741    0.451    0.215   94.745  210.861
  496.356    6.197    0.473    0.231   92.591  210.016
  496.606    6.271    0.471    0.241   92.766  206.990
  496.856    6.207    0.480    0.233   95.882  206.872
  497.106    6.350    0.504    0.220  100.347  208.413
  497.356    6.367    0.486    0.212  101.686  211.304
  497.606    6.338    0.451    0.210  103.147  213.261
  497.856    6.249    0.466    0.207  100.627  214.282
  498.106    6.164    0.499    0.200   97.554  214.476
  498.356    6.146    0.469    0.199   99.812  214.460
  498.606    6.141    0.444    0.203  101.212  214.442
  498.856    6.145    0.445    0.208  101.755  214.221
  499.106    6.230    0.475    0.197  103.155  214.415
  499.356    6.246    0.499    0.189  103.576  214.814
  499.606    6.240    0.527    0.202  101.729  214.694
  499.856    6.188    0.491    0.208   98.349  214.577
  500.106    6.182    0.470    0.206   97.789  214.354
  500.356    6.198    0.490    0.208   97.658  214.339
  500.606    6.182    0.510    0.203   98.936  214.323
  500.856    6.231    0.466    0.179  101.562  214.308
  501.106    6.283    0.449    0.197  104.494  214.501
  501.356    6.346    0.485    0.208  101.851  215.318
  501.606    6.459    0.507    0.211  100.187  215.924
  501.856    6.572    0.511    0.199  101.588  216.325
  502.106    6.687    0.494    0.198  103.539  216.621
  502.356    6.779    0.473    0.196  100.160  216.918
  502.606    6.773    0.442    0.192   98.496  215.448
  502.856    6.766    0.451    0.186   99.347  213.876
  503.106    6.758    0.397    0.184  101.972  213.241
  503.356    6.703    0.385    0.191   99.635  213.225
  503.606    6.634    0.420    0.188   97.053  214.454
  503.856    6.555    0.452    0.189   95.634  215.272
  504.106    6.488    0.465    0.191   95.135  215.775
  504.356    6.411    0.459    0.177   96.106  216.175
  504.606    6.263    0.448    0.201   98.733  216.781
  504.856    6.098    0.495    0.205  101.114  217.389
  505.106    5.992    0.553    0.190  105.761  218.100
  505.356    5.865    0.534    0.195  108.081  219.332
  505.606    5.710    0.498    0.208  105.744  218.589
  505.856    5.559    0.518    0.216  104.571  214.425
  506.106    5.373    0.516    0.210  104.991  217.937
  506.356    5.299    0.499    0.197  104.430  217.196
  506.606    5.372    0.502    0.229   99.029  211.682
  506.856    5.755    0.496    0.230   93.138  210.836
  507.106    6.363    0.452    0.207   90.187  211.132
  507.356    7.628    0.563    0.188   86.625  212.050
  507.606    9.419    0.532    0.210   80.060  212.450
  507.856   12.941    0.436    0.232   75.456  212.747
  508.106   16.037    0.383    0.205   70.422  212.626
  508.356   17.406    0.372    0.182   69.800  212.405
  508.606   18.308    0.359    0.170   71.752  211.976
  508.856   19.046    0.352    0.153   66.964  211.028
  509.106   19.381    0.344    0.146   64.504  211.012
  509.356   16.312    0.370    0.139   70.255  210.271
  509.606   13.505    0.406    0.189   81.153  210.774
  509.856   10.776    0.430    0.209   85.924  211.485
  510.106    8.741    0.464    0.222   88.120  211.887
  510.356    7.467    0.500    0.228   90.624  211.872
  510.606    6.740    0.453    0.247   83.262  208.952
  510.856    6.551    0.446    0.276   77.248  207.796
  511.106    6.472    0.464    0.263   81.467  208.713
  511.356    6.707    0.476    0.239   86.115  210.149
  511.606    6.927    0.448    0.227   88.067  211.793
  511.856    7.286    0.439    0.212   88.917  212.715
  512.106    7.792    0.428    0.200   90.868  214.255
  512.356    8.535    0.411    0.201   90.308  215.694
  512.606    9.701    0.396    0.185   87.174  216.820
  512.856   11.609    0.349    0.161   82.447  215.974
  513.106   14.519    0.253    0.135   74.411  213.573
  513.356   17.089    0.197    0.070   68.887  211.896
  513.606   16.424    0.167    0.008   63.609  211.883
  513.856   14.636    0.190    0.012   64.335  212.592
  514.106   11.550    0.247    0.015   71.986  213.202
  514.356    8.817    0.337    0.050   82.394  213.810
  514.606    6.997    0.395    0.116   90.657  213.690
  514.856    6.132    0.425    0.148   98.247  213.363
  515.106    6.069    0.450    0.159   96.093  212.831
  515.356    6.143    0.452    0.169   97.125  211.779
  515.606    6.378    0.447    0.186   97.362  211.867
  515.856    6.587    0.436    0.194   97.904  212.890
  516.106    6.776    0.438    0.179   95.445  214.013
  516.356    6.758    0.444    0.167   96.231  214.312
  516.606    6.677    0.453    0.168   98.306  214.609
  516.856    6.463    0.455    0.188  100.933  214.694
  517.106    6.293    0.452    0.173  104.478  214.682
  517.356    6.093    0.452    0.176  102.017  214.666
  517.606    5.953    0.443    0.194  101.640  214.757
