~VERSION INFORMATION
 VERS.                 2.0:   CWLS LOG ASCII STANDARD -VERSION 2.0
 WRAP.                  NO:   ONE LINE PER DEPTH STEP
~WELL INFORMATION BLOCK
#MNEM.UNIT           DATA                    DESCRIPTION OF MNEMONIC
#---------    -------------------            -------------------------------
# Generated from Intellog Unique Number	CS_77_79/WELL/980
WELL.         MESA H. B. THORNBURY           : Well_name    - WELL
LOC .         00/10-33-078-11W4/0            : Location     - LOCATION
UWI .         00/10-33-078-11W4/0            : Uwi          - UNIQUE WELL ID
ENTR.         JHS                            : Entered      - ENTERED BY
SRVC.         SCHLUMBERGER                   : Scn          - SERVICE COMPANY
STRT.M        275                            : top_depth    - START DEPTH
STOP.M        501                            : bot_depth    - STOP DEPTH
STEP.M        0.25                           : increment    - STEP LENGTH
 NULL. -999.2500:NULL Value
~CURVE INFORMATION BLOCK
#MNEM UNIT       ERCB CURVE CODE    CURVE DESCRIPTION
#-----------   ------------------   ----------------------------------
DEPT.M        00 001 00 00         : DEPTH        - DEPTH
DPHI.V/V      00 890 00 00         : PHID         - DENSITY POROSITY (LIMESTONE)
NPHI.V/V      00 330 00 00         : PHIN         - NEUTRON POROSITY (LIMESTONE)
GR  .API      00 310 00 00         : GR           - GAMMA RAY
ILD .OHMM     00 120 00 00         : RESD         - DEEP RESISTIVITY (DIL)
RHOB.KG/M3    00 350 00 00         : DENS         - BULK DENSITY
~PARAMETER INFORMATION
#MNEM.UNIT           DATA             DESCRIPTION OF MNEMONIC
#---------         -----------     ------------------------------
GL  .M        695.6                : gl           - GROUND LEVEL ELEVATION
EREF.M        699.7                : kb           - ELEVATION OF DEPTH REFERENCE
DATM.M        699.7                : datum        - DATUM ELEVATION
TDD .M        502                  : tdd          - TOTAL DEPTH DRILLER
RUN .         ONE                  : Run          - RUN NUMBER
ENG .         BILL                 : Engineer     - RECORDING ENGINEER
WIT .         JIM                  : Witness      - WITNESSED BY
MUD .         GEL                  : Mud_type     - MUD TYPE
MATR.         LIMESTONE            : Logunit      - NEUTRON MATRIX
TMAX.C        22                   : BHT          - MAXIMUM RECORDED TEMPERATURE
BHTD.M        502                  : BHTDEP       - MAXIMUM RECORDED TEMPERATURE
MATR.         1                    : LOGUNIT      - NEUTRON MATRIX
RMT .C        25                   : MDTP         - TEMPERATURE OF MUD
NEUT.         1                    : NEUTRON      - NEUTRON TYPE
RESI.         0                    : RESIST       - RESISTIVITY TYPE
RMC .OHMM     0.25                 : RMC          - RESISTIVITY OF MUD CAKE
RMF .OHMM     0.25                 : RMF          - RESISTIVITY OF MUD FILTRATE
SUFT.C        15                   : SUFT         - SURFACE TEMPERATURE
~A  DEPTH     PHID     PHIN       GR     RESD     DENS
# ...
  384.500    0.247    0.547   97.117    3.318    0.000
  384.750    0.260    0.540   95.887    3.319    0.000
  385.000    0.246    0.545  100.165    3.446    0.000
  385.250    0.242    0.553  103.834    3.578    0.000
  385.500    0.244    0.510  104.439    3.715    0.000
  385.750    0.253    0.521  100.147    3.786    0.000
  386.000    0.265    0.539   98.304    3.787    0.000
  386.250    0.260    0.568  100.748    3.718    0.000
  386.500    0.253    0.561  102.578    3.719    0.000
  386.750    0.249    0.555  103.184    3.584    0.000
  387.000    0.251    0.569  101.954    3.518    0.000
  387.250    0.257    0.560  100.111    3.390    0.000
  387.500    0.271    0.563   98.267    3.329    0.000
  387.750    0.261    0.580   98.875    3.392    0.000
  388.000    0.247    0.547  104.379    3.457    0.000
  388.250    0.235    0.527  106.820    3.458    0.000
  388.500    0.226    0.540  105.590    3.395    0.000
  388.750    0.241    0.561  106.808    3.396    0.000
  389.000    0.229    0.563  108.639    3.397    0.000
  389.250    0.242    0.549  105.573    3.461    0.000
  389.500    0.227    0.516   95.771    3.594    0.000
  389.750    0.220    0.518   97.601    3.802    0.000
  390.000    0.257    0.541   98.207    4.022    0.000
  390.250    0.276    0.532   93.915    4.500    0.000
  390.500    0.249    0.500   84.727    5.035    0.000
  390.750    0.263    0.475   84.719    5.848    0.000
  391.000    0.259    0.469   86.551    6.792    0.000
  391.250    0.251    0.467   85.321    7.320    0.000
  391.500    0.247    0.487   88.375    8.039    0.000
  391.750    0.257    0.498   85.308    8.192    0.000
  392.000    0.280    0.481   82.241    8.349    0.000
  392.250    0.286    0.480   84.682    8.046    0.000
  392.500    0.296    0.492   86.514    7.899    0.000
  392.750    0.290    0.495   88.345    7.611    0.000
  393.000    0.270    0.491   88.951    7.334    0.000
  393.250    0.278    0.494   88.333    6.936    0.000
  393.500    0.265    0.488   90.162    6.684    0.000
  393.750    0.259    0.480   90.157    6.562    0.000
  394.000    0.268    0.478   86.477    6.563    0.000
  394.250    0.254    0.474   84.022    6.689    0.000
  394.500    0.263    0.467   82.180    6.946    0.000
  394.750    0.275    0.465   82.786    7.078    0.000
  395.000    0.291    0.459   87.678    7.350    0.000
  395.250    0.259    0.478   86.447    7.490    0.000
  395.500    0.240    0.471   85.217    7.492    0.000
  395.750    0.222    0.471   84.598    7.494    0.000
  396.000    0.234    0.477   85.203    7.088    0.000
  396.250    0.246    0.470   85.199    7.089    0.000
  396.500    0.248    0.474   88.866    6.832    0.000
  396.750    0.224    0.488   87.634    6.834    0.000
  397.000    0.158    0.497   80.282    6.836    0.000
  397.250    0.126    0.426   75.991    6.837    0.000
  397.500    0.154    0.396   85.168    7.099    0.000
  397.750    0.218    0.430   93.120    7.235    0.000
  398.000    0.241    0.482   93.113    7.237    0.000
  398.250    0.251    0.490   90.660    7.239    0.000
  398.500    0.253    0.487   87.592    7.107    0.000
  398.750    0.242    0.490   86.974    6.977    0.000
  399.000    0.263    0.485   88.192    6.850    0.000
  399.250    0.255    0.480   90.634    6.851    0.000
  399.500    0.247    0.477   89.403    6.853    0.000
  399.750    0.241    0.471   89.398    6.855    0.000
  400.000    0.244    0.462   91.230    6.730    0.000
  400.250    0.235    0.456   93.672    6.607    0.000
  400.500    0.228    0.479   95.501    6.133    0.000
  400.750    0.234    0.504   94.272    6.022    0.000
  401.000    0.240    0.499   89.367    5.912    0.000
  401.250    0.252    0.480   87.524    5.804    0.000
  401.500    0.250    0.490   90.580    5.698    0.000
  401.750    0.265    0.532   93.023    5.491    0.000
  402.000    0.257    0.552   91.791    4.730    0.000
  402.250    0.282    0.570   96.071    4.310    0.000
  402.500    0.249    0.589   99.126    3.783    0.000
  402.750    0.240    0.571   98.508    3.383    0.000
  403.000    0.272    0.552   99.727    2.914    0.000
  403.250    0.266    0.547  100.332    2.705    0.000
  403.500    0.266    0.541   96.653    2.656    0.000
  403.750    0.296    0.525   92.974    2.657    0.000
  404.000    0.290    0.552   89.295    2.707    0.000
  404.250    0.259    0.530   88.677    2.811    0.000
  404.500    0.265    0.519   84.997    3.030    0.000
  404.750    0.277    0.509   85.603    3.390    0.000
  405.000    0.280    0.513   90.495    3.654    0.000
  405.250    0.283    0.525   89.263    4.165    0.000
  405.500    0.277    0.498   86.809    4.748    0.000
  405.750    0.282    0.480   81.905    5.618    0.000
  406.000    0.300    0.486   77.614    6.286    0.000
  406.250    0.291    0.487   84.954    6.406    0.000
  406.500    0.295    0.487   91.069    6.529    0.000
  406.750    0.298    0.496   95.350    6.410    0.000
  407.000    0.279    0.479   99.629    6.292    0.000
  407.250    0.250    0.480   96.560    6.294    0.000
  407.500    0.239    0.496   93.493    6.296    0.000
  407.750    0.240    0.469   91.040    6.416    0.000
  408.000    0.245    0.469   95.932    6.663    0.000
  408.250    0.256    0.446   96.537    6.789    0.000
  408.500    0.266    0.442   90.409    7.318    0.000
  408.750    0.270    0.445   89.791    7.598    0.000
  409.000    0.260    0.451   89.784    7.743    0.000
  409.250    0.251    0.452   89.778    7.746    0.000
  409.500    0.248    0.450   92.834    7.604    0.000
  409.750    0.259    0.453   86.706    7.328    0.000
  410.000    0.286    0.467   81.800    6.931    0.000
  410.250    0.277    0.473   83.632    6.804    0.000
  410.500    0.269    0.467   87.911    6.556    0.000
  410.750    0.270    0.464   89.128    6.558    0.000
  411.000    0.282    0.454   90.961    6.683    0.000
  411.250    0.288    0.445   94.015    6.811    0.000
  411.500    0.287    0.457   95.234    6.813    0.000
  411.750    0.293    0.482   89.106    6.688    0.000
  412.000    0.318    0.493   79.916    6.445    0.000
  412.250    0.343    0.497   72.563    6.210    0.000
  412.500    0.342    0.505   74.392    5.984    0.000
  412.750    0.355    0.512   75.613    5.767    0.000
  413.000    0.347    0.484   75.607    5.661    0.000
  413.250    0.344    0.450   73.762    5.663    0.000
  413.500    0.338    0.469   75.593    5.664    0.000
  413.750    0.330    0.482   75.587    5.666    0.000
  414.000    0.334    0.494   73.133    5.668    0.000
  414.250    0.236    0.495   68.229    5.776    0.000
  414.500    0.179    0.493   65.774    5.886    0.000
  414.750    0.134    0.467   65.768    6.227    0.000
  415.000    0.064    0.320   60.864    7.099    0.000
  415.250    0.113    0.175   51.062    7.650    0.000
  415.500    0.232    0.208   51.057    9.054    0.000
  415.750    0.281    0.248   59.621    9.759    0.000
  416.000    0.328    0.306   64.512    9.944    0.000
  416.250    0.352    0.359   67.567    9.763    0.000
  416.500    0.341    0.414   66.335    8.255    0.000
  416.750    0.328    0.454   65.719    7.382    0.000
  417.000    0.345    0.472   66.938    6.480    0.000
  417.250    0.354    0.484   67.541    6.015    0.000
  417.500    0.350    0.479   68.150    5.905    0.000
  417.750    0.339    0.482   69.980    5.906    0.000
  418.000    0.338    0.487   67.525    6.019    0.000
  418.250    0.350    0.478   71.192    6.250    0.000
  418.500    0.331    0.451   73.635    6.369    0.000
  418.750    0.316    0.454   72.403    6.372    0.000
  419.000    0.343    0.466   70.560    6.140    0.000
  419.250    0.332    0.483   68.718    6.141    0.000
  419.500    0.338    0.460   67.489    6.376    0.000
  419.750    0.354    0.431   64.422    6.746    0.000
  420.000    0.365    0.416   65.026    7.409    0.000
  420.250    0.368    0.410   67.469    7.550    0.000
  420.500    0.358    0.433   68.077    7.552    0.000
  420.750    0.359    0.462   66.846    7.414    0.000
