~VERSION INFORMATION
 VERS.                 2.0:   CWLS LOG ASCII STANDARD -VERSION 2.0
 WRAP.                  NO:   ONE LINE PER DEPTH STEP
~WELL INFORMATION BLOCK
#MNEM.UNIT           DATA                    DESCRIPTION OF MNEMONIC
#---------    -------------------            -------------------------------
# Generated from Intellog Unique Number	CS_73_76/WELL/3275
WELL.         CANADIAN WORLDWIDE ENERGY      : Well_name    - WELL
LOC .         00/13-17-076-04W4/0            : Location     - LOCATION
UWI .         00/13-17-076-04W4/0            : Uwi          - UNIQUE WELL ID
ENTR.         SP                             : Entered      - ENTERED BY
SRVC.         SCHLUMBERGER                   : Scn          - SERVICE COMPANY
STRT.M        150                            : top_depth    - START DEPTH
STOP.M        450                            : bot_depth    - STOP DEPTH
STEP.M        0.25                           : increment    - STEP LENGTH
 NULL. -999.2500:NULL Value
~CURVE INFORMATION BLOCK
#MNEM UNIT       ERCB CURVE CODE    CURVE DESCRIPTION
#-----------   ------------------   ----------------------------------
DEPT.M        00 001 00 00         : DEPTH        - DEPTH
ILD .OHMM     00 120 00 00         : RESD         - DEEP RESISTIVITY (DIL)
GR  .API      00 310 00 00         : GR           - GAMMA RAY
DPHI.V/V      00 890 00 00         : PHID         - DENSITY POROSITY (LIMESTONE)
NPHI.V/V      00 330 00 00         : PHIN         - NEUTRON POROSITY (LIMESTONE)
~PARAMETER INFORMATION
#MNEM.UNIT           DATA             DESCRIPTION OF MNEMONIC
#---------         -----------     ------------------------------
GL  .M        623.19               : gl           - GROUND LEVEL ELEVATION
EREF.M        626.29               : kb           - ELEVATION OF DEPTH REFERENCE
DATM.M        623.19               : datum        - DATUM ELEVATION
TDD .M        453                  : tdd          - TOTAL DEPTH DRILLER
RUN .         ONE                  : Run          - RUN NUMBER
ENG .         BILL                 : Engineer     - RECORDING ENGINEER
WIT .         JIM                  : Witness      - WITNESSED BY
MUD .         GEL                  : Mud_type     - MUD TYPE
MATR.         LIMESTONE            : Logunit      - NEUTRON MATRIX
TMAX.C        18                   : BHT          - MAXIMUM RECORDED TEMPERATURE
BHTD.M        453                  : BHTDEP       - MAXIMUM RECORDED TEMPERATURE
MATR.         1                    : LOGUNIT      - NEUTRON MATRIX
RMT .C        25                   : MDTP         - TEMPERATURE OF MUD
NEUT.         1                    : NEUTRON      - NEUTRON TYPE
RESI.         0                    : RESIST       - RESISTIVITY TYPE
RMC .OHMM     0.25                 : RMC          - RESISTIVITY OF MUD CAKE
RMF .OHMM     0.25                 : RMF          - RESISTIVITY OF MUD FILTRATE
SUFT.C        15                   : SUFT         - SURFACE TEMPERATURE
~A  DEPTH     RESD       GR     PHID     PHIN
  150.000   39.727   77.736    0.204    0.340
  150.250   40.330   77.742    0.196    0.344
  150.500   40.326   80.177    0.198    0.335
  150.750   40.939   83.221    0.205    0.327
  151.000   40.318   85.047    0.197    0.328
  151.250   39.103   84.447    0.197    0.334
  151.500   39.100   81.416    0.203    0.335
  151.750   37.352   77.171    0.206    0.324
  152.000   36.228   77.787    0.211    0.315
  152.250   35.678   81.434    0.212    0.311
  152.500   33.567   88.122    0.215    0.312
  152.750   32.557   90.556    0.216    0.339
  153.000   32.060   86.918    0.217    0.351
  153.250   32.058   77.816    0.217    0.334
  153.500   37.893   72.355    0.212    0.322
  153.750   37.888   72.362    0.202    0.321
  154.000   38.466   74.189    0.200    0.323
  154.250   39.052   79.661    0.200    0.319
  154.500   37.876   79.059    0.195    0.316
  154.750   37.873   78.461    0.194    0.302
  155.000   39.038   78.465    0.203    0.290
  155.250   40.239   82.114    0.201    0.280
  155.500   41.479  160.463    0.201    0.282
  155.750   42.756  205.410    0.213    0.415
  156.000   44.072  161.083    0.349    0.491
  156.250   44.066  147.121    0.359    0.537
  156.500   43.395  138.017    0.353    0.533
  156.750   43.390  126.484    0.320    0.501
  157.000   42.731  111.916    0.284    0.474
  157.250   41.445  102.204    0.262    0.433
  157.500   40.814   91.886    0.250    0.394
  157.750   41.435   83.390    0.237    0.378
  158.000   41.431   79.752    0.226    0.357
  158.250   41.427   77.936    0.217    0.334
  158.500   42.055   77.335    0.213    0.318
  158.750   42.697   77.949    0.206    0.311
  159.000   44.685   77.955    0.201    0.310
  159.250   46.768   77.960    0.201    0.300
  159.500   52.815   75.537    0.203    0.294
  159.750   56.984   70.077    0.195    0.289
  160.000   61.481   64.617    0.172    0.263
  160.250   64.342   63.409    0.175    0.241
  160.500   65.325   64.022    0.313    0.283
  160.750   65.315   64.636    0.355    0.315
  161.000   65.309   63.428    0.298    0.289
  161.250   63.345   64.649    0.204    0.273
  161.500   60.512   66.477    0.201    0.282
  161.750   56.070   69.518    0.228    0.317
  162.000   53.565   69.525    0.337    0.354
  162.250   50.396   68.923    0.333    0.346
  162.500   48.142   71.965    0.229    0.316
  162.750   47.410   71.365    0.243    0.317
  163.000   47.404   73.800    0.270    0.355
  163.250   49.612   76.235    0.294    0.369
  163.500   52.719   71.383    0.230    0.340
  163.750   58.636   65.316    0.191    0.314
  164.000   62.308   60.464    0.230    0.288
  164.250   64.224   58.648    0.295    0.344
  164.500   65.204   59.260    0.274    0.290
  164.750   67.213   64.733    0.233    0.257
  165.000   71.420   61.096    0.187    0.249
  165.250   72.507   62.317    0.204    0.255
  165.500   72.500   62.324    0.223    0.299
  165.750   73.603   61.720    0.246    0.330
  166.000   72.483   53.831    0.259    0.310
  166.250   70.303   57.486    0.240    0.284
  166.500   69.234   58.095    0.216    0.283
  166.750   67.149   50.813    0.227    0.321
  167.000   66.127   42.318    0.295    0.353
  167.250   66.119   40.501    0.320    0.383
  167.500   66.115   44.758    0.321    0.410
  167.750   68.148   53.267    0.326    0.429
  168.000   72.416   50.236    0.337    0.446
  168.250   75.787   45.991    0.256    0.386
  168.500   76.945   47.211    0.240    0.361
  168.750   78.113   50.255    0.234    0.339
  169.000   79.300   47.831    0.247    0.358
  169.250   78.098   45.409    0.263    0.392
  169.500   73.475   49.666    0.284    0.414
  169.750   69.131   52.101    0.297    0.408
  170.000   65.043   56.967    0.302    0.372
  170.250   61.193   61.222    0.263    0.344
  170.500   59.354   62.444    0.225    0.314
  170.750   57.567   64.880    0.220    0.306
  171.000   57.561   70.352    0.209    0.295
  171.250   56.686   67.320    0.196    0.277
  171.500   58.431   60.038    0.181    0.259
  171.750   64.990   55.186    0.183    0.247
  172.000   74.517   51.549    0.193    0.246
  172.250   77.989   49.124    0.202    0.273
  172.500   81.622   47.916    0.243    0.340
  172.750   81.614   47.315    0.267    0.325
  173.000   81.605   49.750    0.212    0.278
  173.250   80.365   55.221    0.190    0.256
  173.500   77.947   57.051    0.178    0.272
  173.750   76.761   54.627    0.194    0.295
  174.000   74.452   52.204    0.233    0.307
  174.250   70.047   57.676    0.227    0.314
  174.500   67.941   54.648    0.222    0.285
  174.750   63.921   55.258    0.223    0.296
  175.000   61.061   59.518    0.223    0.305
  175.250   59.225   61.345    0.192    0.291
  175.500   59.219   62.565    0.190    0.274
  175.750   61.040   61.358    0.183    0.267
  176.000   61.970   61.969    0.181    0.278
  176.250   64.857   60.761    0.199    0.294
  176.500   69.975   60.159    0.210    0.313
  176.750   71.041   51.055    0.231    0.339
  177.000   65.830   44.989    0.269    0.355
  177.250   66.831   50.463    0.297    0.379
  177.500   67.848   53.502    0.288    0.356
  177.750   74.325   51.080    0.245    0.352
  178.000   81.419   48.657    0.250    0.335
  178.250   85.212   51.703    0.294    0.284
  178.500   85.203   52.313    0.244    0.245
  178.750   85.192   52.926    0.220    0.235
  179.000   83.898   50.503    0.237    0.247
  179.250   76.567   48.079    0.256    0.270
  179.500   70.951   46.873    0.250    0.289
  179.750   67.777   49.914    0.253    0.285
  180.000   66.745   59.029    0.259    0.268
  180.250   66.739   54.786    0.206    0.285
  180.500   66.732   49.932    0.251    0.298
  180.750   65.715   45.079    0.277    0.312
  181.000   63.738   44.478    0.331    0.328
  181.250   62.771   57.238    0.342    0.357
  181.500   61.816   64.531    0.279    0.285
  181.750   60.876   63.323    0.219    0.276
  182.000   60.869   62.721    0.175    0.248
  182.250   62.739   54.833    0.174    0.239
  182.500   66.669   48.159    0.176    0.256
  182.750   70.846   49.987    0.206    0.292
  183.000   75.281   51.206    0.288    0.326
  183.250   77.599   50.606    0.318    0.359
  183.500   77.592   48.791    0.352    0.397
  183.750   76.411   46.975    0.367    0.425
  184.000   76.403   46.373    0.353    0.391
  184.250   79.959   45.165    0.357    0.365
  184.500   82.424   44.563    0.363    0.239
  184.750   90.290   47.000    0.214    0.222
  185.000   95.946   49.434    0.191    0.229
  185.250   97.404   50.047    0.167    0.239
  185.500   95.923   47.623    0.194    0.258
  185.750   95.914   39.735    0.213    0.287
  186.000   97.371   37.919    0.234    0.306
  186.250   97.361   38.532    0.259    0.328
  186.500   98.843   41.576    0.275    0.322
  186.750  100.347   47.048    0.282    0.268
  187.000  101.872   48.875    0.252    0.254
  187.250  101.861   48.881    0.264    0.253
  187.500  101.851   48.887    0.242    0.252
  187.750  100.299   44.644    0.236    0.284
  188.000  100.291   44.649    0.259    0.312
  188.250   98.766   45.869    0.279    0.328
  188.500   94.347   47.089    0.261    0.213
  188.750   88.767   54.383    0.189    0.196
  189.000   83.517   56.818    0.155    0.193
  189.250   82.245   53.789    0.145    0.198
  189.500   82.236   50.150    0.159    0.204
  189.750   82.228   43.475    0.172    0.226
  190.000   82.217   41.052    0.235    0.291
  190.250   82.205   41.058    0.290    0.317
  190.500   82.196   38.635    0.290    0.352
  190.750   80.949   34.998    0.308    0.374
  191.000   79.715   31.360    0.323    0.381
  191.250   79.707   29.544    0.326    0.397
  191.500   80.918   33.195    0.330    0.421
  191.750   83.410   38.666    0.330    0.448
  192.000   84.680   43.532    0.325    0.339
  192.250   84.669   44.750    0.300    0.284
  192.500   84.658   47.186    0.277    0.271
  192.750   83.374   53.267    0.206    0.258
  193.000   83.360   56.308    0.194    0.241
  193.250   82.096   58.743    0.187    0.221
