~VERSION INFORMATION
 VERS.                 2.0:   CWLS LOG ASCII STANDARD -VERSION 2.0
 WRAP.                  NO:   ONE LINE PER DEPTH STEP
~WELL INFORMATION BLOCK
#MNEM.UNIT           DATA                    DESCRIPTION OF MNEMONIC
#---------    -------------------            -------------------------------
# Generated from Intellog Unique Number	CS_73_76/WELL/3268
WELL.         HOUSTON OIL LIMITED            : Well_name    - WELL
LOC .         00/11-27-076-17W4/0            : Location     - LOCATION
UWI .         00/11-27-076-17W4/0            : Uwi          - UNIQUE WELL ID
ENTR.         SP                             : Entered      - ENTERED BY
SRVC.         SCHLUMBERGER                   : Scn          - SERVICE COMPANY
STRT.M        350.52                         : top_depth    - START DEPTH
STOP.M        571.52                         : bot_depth    - STOP DEPTH
STEP.M        0.25                           : increment    - STEP LENGTH
 NULL. -999.2500:NULL Value
~CURVE INFORMATION BLOCK
#MNEM UNIT       ERCB CURVE CODE    CURVE DESCRIPTION
#-----------   ------------------   ----------------------------------
DEPT.M        00 001 00 00         : DEPTH        - DEPTH
GR  .API      00 310 00 00         : GR           - GAMMA RAY
DPHI.V/V      00 890 00 00         : PHID         - DENSITY POROSITY (SANDSTONE)
NPHI.V/V      00 330 00 00         : PHIN         - NEUTRON POROSITY (SANDSTONE)
ILD .OHMM     00 120 00 00         : RESD         - DEEP RESISTIVITY (DIL)
~PARAMETER INFORMATION
#MNEM.UNIT           DATA             DESCRIPTION OF MNEMONIC
#---------         -----------     ------------------------------
GL  .M        714.146              : gl           - GROUND LEVEL ELEVATION
EREF.M        717.194              : kb           - ELEVATION OF DEPTH REFERENCE
DATM.M        714.146              : datum        - DATUM ELEVATION
TDD .M        572.414              : tdd          - TOTAL DEPTH DRILLER
RUN .         ONE                  : Run          - RUN NUMBER
ENG .         BILL                 : Engineer     - RECORDING ENGINEER
WIT .         JIM                  : Witness      - WITNESSED BY
MUD .         GEL                  : Mud_type     - MUD TYPE
MATR.         SANDSTONE            : Logunit      - NEUTRON MATRIX
TMAX.C        25.5556              : BHT          - MAXIMUM RECORDED TEMPERATURE
BHTD.M        572.414              : BHTDEP       - MAXIMUM RECORDED TEMPERATURE
MATR.         1                    : LOGUNIT      - NEUTRON MATRIX
RMT .C        25                   : MDTP         - TEMPERATURE OF MUD
NEUT.         1                    : NEUTRON      - NEUTRON TYPE
RESI.         0                    : RESIST       - RESISTIVITY TYPE
RMC .OHMM     0.25                 : RMC          - RESISTIVITY OF MUD CAKE
RMF .OHMM     0.25                 : RMF          - RESISTIVITY OF MUD FILTRATE
SUFT.C        15                   : SUFT         - SURFACE TEMPERATURE
~A  DEPTH       GR     PHID     PHIN     RESD
# ...
  394.020   93.644    0.283    0.439    8.320
  394.270   92.629    0.277    0.437    8.324
  394.520   93.082    0.263    0.436    8.218
  394.770   93.008    0.256    0.444    7.932
  395.020   93.242    0.267    0.453    7.446
  395.270   94.218    0.273    0.468    7.143
  395.520   95.174    0.277    0.492    6.661
  395.770   96.799    0.281    0.508    6.084
  396.020   97.157    0.263    0.529    5.673
  396.270   97.373    0.251    0.546    5.307
  396.520   96.388    0.244    0.539    5.146
  396.770   94.257    0.234    0.516    5.156
  397.020   91.270    0.228    0.508    5.560
  397.270   87.025    0.268    0.511    6.303
  397.520   78.433    0.291    0.520    7.828
  397.770   68.348    0.319    0.496    9.854
  398.020   56.842    0.337    0.433   11.858
  398.270   53.243    0.344    0.424   14.210
  398.520   52.889    0.340    0.419   17.670
  398.770   51.855    0.334    0.412   19.381
  399.020   51.670    0.327    0.407   19.271
  399.270   52.147    0.327    0.406   17.559
  399.520   53.895    0.329    0.405   15.328
  399.770   54.078    0.325    0.405   14.382
  400.020   54.069    0.324    0.411   13.306
  400.270   53.832    0.340    0.415   12.921
  400.520   53.495    0.337    0.404   12.925
  400.770   52.979    0.332    0.402   12.926
  401.020   53.734    0.336    0.404   12.944
  401.270   54.675    0.335    0.405   12.682
  401.520   56.332    0.327    0.407   12.941
  401.770   57.410    0.332    0.414   12.918
  402.020   58.846    0.330    0.425   12.910
  402.270   59.482    0.337    0.430   12.777
  402.520   60.154    0.338    0.429   12.678
  402.770   60.093    0.328    0.428   12.664
  403.020   60.101    0.355    0.425   12.551
  403.270   60.111    0.361    0.420   12.416
  403.520   59.615    0.354    0.418   12.192
  403.770   59.463    0.363    0.420   12.218
  404.020   60.114    0.359    0.422   11.970
  404.270   59.660    0.359    0.430   11.971
  404.520   59.537    0.358    0.449   11.908
  404.770   58.919    0.359    0.461   11.748
  405.020   58.314    0.370    0.473   11.740
  405.270   57.630    0.376    0.484   11.700
  405.520   57.644    0.376    0.476   11.526
  405.770   58.215    0.363    0.464   11.636
  406.020   59.562    0.348    0.457   11.727
  406.270   59.988    0.341    0.454   11.928
  406.520   60.279    0.329    0.445   12.051
  406.770   61.330    0.320    0.436   12.188
  407.020   62.820    0.326    0.420   12.414
  407.270   64.317    0.334    0.441   12.362
  407.520   66.114    0.330    0.462   11.726
  407.770   68.102    0.329    0.479   11.466
  408.020   64.363    0.346    0.482   11.044
  408.270   62.550    0.354    0.476   10.691
  408.520   62.510    0.363    0.481   10.578
  408.770   62.435    0.360    0.487   10.514
  409.020   60.864    0.355    0.485   10.864
  409.270   60.349    0.355    0.473   10.957
  409.520   60.701    0.349    0.466   11.313
  409.770   62.245    0.340    0.460   11.635
  410.020   64.996    0.329    0.459   12.184
  410.270   74.850    0.317    0.473   12.397
  410.520   83.141    0.313    0.477   12.825
  410.770   88.627    0.294    0.479   13.461
  411.020   89.618    0.274    0.463   13.559
  411.270   85.478    0.257    0.445   14.101
  411.520   81.678    0.251    0.437   14.426
  411.770   74.964    0.272    0.442   14.610
  412.020   70.667    0.289    0.450   14.627
  412.270   70.326    0.293    0.451   14.291
  412.520   70.319    0.301    0.453   13.644
  412.770   70.481    0.301    0.453   13.207
  413.020   72.213    0.288    0.458   12.814
  413.270   72.680    0.288    0.464   12.639
  413.520   73.401    0.294    0.464   12.586
  413.770   72.700    0.296    0.452   12.577
  414.020   70.538    0.304    0.433   12.555
  414.270   67.988    0.281    0.417   12.887
  414.520   64.399    0.233    0.412   13.263
  414.770   61.445    0.205    0.395   13.960
  415.020   58.186    0.115    0.256   14.375
  415.270   58.131    0.270    0.320   14.572
  415.520   61.813    0.311    0.386   14.451
  415.770   62.464    0.341    0.432   13.972
  416.020   62.050    0.349    0.472   13.346
  416.270   61.314    0.344    0.490   12.759
  416.520   59.996    0.347    0.485   12.538
  416.770   59.406    0.345    0.480   12.142
  417.020   60.449    0.343    0.475   12.045
  417.270   61.866    0.342    0.484   11.654
  417.520   62.647    0.347    0.483   11.677
  417.770   63.182    0.350    0.476   11.425
  418.020   63.656    0.353    0.473   11.235
  418.270   64.397    0.352    0.477   11.115
  418.520   63.626    0.355    0.476   11.025
  418.770   63.675    0.363    0.478   10.833
  419.020   63.670    0.369    0.480   10.724
  419.270   63.668    0.368    0.483   10.614
  419.520   63.669    0.374    0.488   10.454
  419.770   63.690    0.369    0.492   10.430
  420.020   63.041    0.358    0.489   10.214
  420.270   61.746    0.359    0.479   10.237
  420.520   62.785    0.364    0.479   10.003
  420.770   64.792    0.362    0.482   10.031
  421.020   66.214    0.359    0.481    9.841
  421.270   65.368    0.361    0.482    9.636
  421.520   63.756    0.363    0.489    9.669
  421.770   63.108    0.362    0.501    9.476
  422.020   62.602    0.365    0.506    9.286
  422.270   64.165    0.367    0.496    9.316
  422.520   65.169    0.369    0.483    9.109
  422.770   65.460    0.375    0.468    9.126
  423.020   65.497    0.373    0.481    9.000
  423.270   65.815    0.373    0.491    8.959
  423.520   67.267    0.372    0.493    8.953
  423.770   68.715    0.362    0.486    8.968
  424.020   69.187    0.359    0.494    8.757
  424.270   69.701    0.357    0.505    8.946
  424.520   70.091    0.363    0.493    8.768
  424.770   69.656    0.368    0.488    8.806
  425.020   68.682    0.373    0.488    8.950
  425.270   67.609    0.378    0.483    8.944
  425.520   66.604    0.378    0.486    8.941
  425.770   65.245    0.374    0.499    8.940
  426.020   62.562    0.371    0.507    8.942
  426.270   59.980    0.362    0.480    8.940
  426.520   58.387    0.352    0.470    9.118
  426.770   57.260    0.348    0.469    9.150
  427.020   55.841    0.347    0.472    9.271
  427.270   55.104    0.352    0.472    9.355
  427.520   55.870    0.354    0.470    9.627
  427.770   55.803    0.357    0.473    9.616
  428.020   55.579    0.357    0.480    9.705
  428.270   53.719    0.357    0.482    9.786
  428.520   51.671    0.354    0.473    9.789
  428.770   50.695    0.353    0.465    9.787
  429.020   50.431    0.347    0.456    9.786
  429.270   50.959    0.344    0.460    9.783
  429.520   51.608    0.342    0.456    9.768
  429.770   52.194    0.351    0.460    9.964
  430.020   52.992    0.354    0.467    9.958
  430.270   53.501    0.350    0.469    9.960
  430.520   54.039    0.338    0.466    9.958
  430.770   53.345    0.329    0.462    9.938
  431.020   53.390    0.321    0.460   10.163
  431.270   53.408    0.320    0.464   10.101
  431.520   53.697    0.321    0.470   10.377
  431.770   54.040    0.325    0.476   10.144
  432.020   54.630    0.334    0.478   10.131
  432.270   54.589    0.336    0.470   10.116
  432.520   54.581    0.330    0.467   10.324
  432.770   53.883    0.334    0.477   10.315
  433.020   54.620    0.340    0.481   10.317
  433.270   55.169    0.341    0.473   10.314
  433.520   56.221    0.336    0.476   10.292
  433.770   56.480    0.340    0.462   10.523
  434.020   57.576    0.345    0.459   10.502
  434.270   57.929    0.336    0.462   10.520
  434.520   58.282    0.341    0.471   10.291
  434.770   58.726    0.340    0.479   10.311
  435.020   60.088    0.334    0.481   10.387
  435.270   60.645    0.330    0.484   10.491
  435.520   60.585    0.330    0.486   10.493
  435.770   60.407    0.326    0.489   10.486
  436.020   60.009    0.318    0.494   10.488
  436.270   59.600    0.321    0.486   10.280
  436.520   59.421    0.328    0.476   10.291
  436.770   59.403    0.330    0.468   10.291
  437.020   59.398    0.325    0.464   10.289
  437.270   59.376    0.324    0.465   10.287
