~VERSION INFORMATION
 VERS.                 2.0:   CWLS LOG ASCII STANDARD -VERSION 2.0
 WRAP.                  NO:   ONE LINE PER DEPTH STEP
~WELL INFORMATION BLOCK
#MNEM.UNIT           DATA                    DESCRIPTION OF MNEMONIC
#---------    -------------------            -------------------------------
# Generated from Intellog Unique Number	CX_WELLS/WELL/4063
WELL.         10-01-079-01W5                 : Well_name    - WELL
LOC .         00/10-01-079-01W5/0            : Location     - LOCATION
UWI .         00/10-01-079-01W5/0            : Uwi          - UNIQUE WELL ID
ENTR.         MAX                            : Entered      - ENTERED BY
SRVC.         COMPUTALOG                     : Scn          - SERVICE COMPANY
STRT.F        950                            : top_depth    - START DEPTH
STOP.F        1789.9                         : bot_depth    - STOP DEPTH
STEP.F        0.82                           : increment    - STEP LENGTH
 NULL. -999.2500:NULL Value
~CURVE INFORMATION BLOCK
#MNEM UNIT       ERCB CURVE CODE    CURVE DESCRIPTION
#-----------   ------------------   ----------------------------------
DEPT.F        00 001 00 00         : DEPTH        - DEPTH
ILD .OHMM     00 120 00 00         : RESD         - DEEP RESISTIVITY (DIL)
GR  .API      00 310 00 00         : GR           - GAMMA RAY
NPHI.V/V      00 330 00 00         : PHIN         - NEUTRON POROSITY (SANDSTONE)
DPHI.V/V      00 890 00 00         : PHID         - DENSITY POROSITY (SANDSTONE)
~PARAMETER INFORMATION
#MNEM.UNIT           DATA             DESCRIPTION OF MNEMONIC
#---------         -----------     ------------------------------
GL  .F        1935.5               : gl           - GROUND LEVEL ELEVATION
EREF.F        1947.5               : kb           - ELEVATION OF DEPTH REFERENCE
DATM.F        1935.5               : datum        - DATUM ELEVATION
TDD .F        1802                 : tdd          - TOTAL DEPTH DRILLER
RUN .         ONE                  : Run          - RUN NUMBER
ENG .         BILL                 : Engineer     - RECORDING ENGINEER
WIT .         JIM                  : Witness      - WITNESSED BY
MUD .         GEL                  : Mud_type     - MUD TYPE
MATR.         SANDSTONE            : Logunit      - NEUTRON MATRIX
TMAX.F        65                   : BHT          - MAXIMUM RECORDED TEMPERATURE
BHTD.F        1800                 : BHTDEP       - MAXIMUM RECORDED TEMPERATURE
RMT .F        62.06                : MDTP         - TEMPERATURE OF MUD
MUDD.LB/G     1.15                 : MWT          - MUD DENSITY
NEUT.         1                    : NEUTRON      - NEUTRON TYPE
RESI.         0                    : RESIST       - RESISTIVITY TYPE
RM  .OHMM     5.1                  : RM           - RESISTIVITY OF MUD
RMC .OHMM     0                    : RMC          - RESISTIVITY OF MUD CAKE
RMF .OHMM     4.7                  : RMF          - RESISTIVITY OF MUD FILTRATE
SUFT.F        -4                   : SUFT         - SURFACE TEMPERATURE
~A  DEPTH     RESD       GR     PHIN     PHID
# ...
 1235.430    5.735   84.864    0.567    0.205
 1236.250    5.751   84.322    0.567    0.203
 1237.070    5.756   84.991    0.574    0.203
 1237.890    6.092   85.029    0.586    0.208
 1238.710    6.448   85.079    0.584    0.232
 1239.530    6.576   81.976    0.584    0.258
 1240.350    7.087   75.731    0.585    0.269
 1241.170    7.635   73.877    0.584    0.268
 1241.990    8.077   73.953    0.579    0.267
 1242.810    8.865   73.978    0.573    0.271
 1243.640    8.882   74.673    0.566    0.270
 1244.460    8.275   74.736    0.550    0.248
 1245.280    7.995   74.156    0.537    0.239
 1246.100    7.452   73.563    0.530    0.232
 1246.920    7.067   72.365    0.521    0.221
 1247.740    6.708   72.428    0.519    0.210
 1248.560    6.596   72.466    0.509    0.198
 1249.380    6.615   72.542    0.482    0.161
 1250.200    6.621   71.319    0.431    0.114
 1251.020    7.008   68.203    0.342    0.096
 1251.840    8.125   69.528    0.386    0.119
 1252.660    7.987   75.268    0.412    0.145
 1253.480    7.858   79.117    0.455    0.170
 1254.300    7.331   79.773    0.502    0.180
 1255.120    7.076   79.836    0.532    0.201
 1255.940    6.836   78.020    0.557    0.208
 1256.760    6.605   77.427    0.555    0.214
 1257.580    6.384   76.834    0.550    0.224
 1258.400    6.278   76.897    0.545    0.237
 1259.220    6.292   76.343    0.535    0.234
 1260.040    6.292   76.381    0.545    0.227
 1260.860    6.322   76.419    0.565    0.221
 1261.680    6.330   75.864    0.574    0.215
 1262.500    6.345   75.889    0.581    0.207
 1263.320    6.357   75.965    0.575    0.201
 1264.140    6.369   76.003    0.551    0.199
 1264.960    6.378   76.067    0.545    0.194
 1265.780    6.389   77.379    0.537    0.190
 1266.600    6.401   78.704    0.527    0.188
 1267.420    6.416   80.016    0.535    0.177
 1268.240    6.549   80.685    0.546    0.179
 1269.060    6.558   81.379    0.549    0.208
 1269.880    6.690   81.443    0.542    0.223
 1270.700    7.078   79.614    0.533    0.232
 1271.520    7.625   79.008    0.522    0.233
 1272.340    7.111   79.072    0.513    0.235
 1273.160    6.867   80.384    0.500    0.241
 1273.980    6.637   81.078    0.489    0.246
 1274.800    6.533   81.116    0.489    0.241
 1275.620    6.539   79.300    0.514    0.230
 1276.440    6.554   78.707    0.538    0.224
 1277.260    6.569   78.114    0.547    0.216
 1278.080    6.460   78.177    0.548    0.212
 1278.900    6.472   78.228    0.552    0.211
 1279.720    6.484   77.648    0.553    0.217
 1280.540    6.618   77.068    0.555    0.239
 1281.360    6.627   75.857    0.523    0.244
 1282.190    6.895   74.028    0.505    0.264
 1283.010    7.156   71.568    0.511    0.266
 1283.830    7.717   69.726    0.514    0.272
 1284.650    8.013   67.885    0.509    0.278
 1285.470    8.799   66.030    0.504    0.281
 1286.290    9.137   62.927    0.510    0.284
 1287.110    9.492   60.467    0.516    0.278
 1287.930    9.857   59.887    0.526    0.267
 1288.750   10.624   62.461    0.538    0.263
 1289.570   10.844   64.417    0.567    0.270
 1290.390   11.058   65.729    0.571    0.278
 1291.210   11.083   65.780    0.564    0.282
 1292.030   11.104   65.200    0.547    0.288
 1292.850   11.124   66.525    0.544    0.290
 1293.670   11.155   68.480    0.543    0.291
 1294.490   10.965   69.149    0.539    0.279
 1295.310   10.788   71.118    0.538    0.271
 1296.130   10.239   72.417    0.537    0.261
 1296.950    9.715   73.099    0.541    0.264
 1297.770    9.055   73.150    0.545    0.263
 1298.590    8.744   72.582    0.544    0.262
 1299.410    8.296   72.002    0.537    0.262
 1300.230    8.015   71.422    0.527    0.256
 1301.050    8.177   70.842    0.526    0.248
 1301.870    8.499   70.274    0.529    0.248
 1302.690    9.165   69.681    0.530    0.254
 1303.510    9.346   68.496    0.527    0.261
 1304.330   10.073   67.272    0.526    0.267
 1305.150   10.656   65.443    0.527    0.272
 1305.970   12.123   64.220    0.529    0.265
 1306.790   13.054   62.391    0.525    0.243
 1307.610   14.850   61.180    0.522    0.234
 1308.430   17.848   59.969    0.511    0.229
 1309.250   21.055   58.758    0.482    0.237
 1310.070   24.849   58.191    0.424    0.260
 1310.890   26.770   56.980    0.450    0.264
 1311.710   26.820   55.769    0.474    0.278
 1312.530   26.882   53.940    0.481    0.293
 1313.350   26.472   53.334    0.505    0.294
 1314.170   26.020   53.398    0.513    0.292
 1314.990   24.253   53.436    0.537    0.291
 1315.810   22.596   57.296    0.561    0.289
 1316.630   20.674   61.145    0.570    0.288
 1317.450   18.915   63.693    0.572    0.288
 1318.270   16.994   66.910    0.565    0.285
 1319.090   15.548   70.759    0.560    0.279
 1319.910   14.226   73.333    0.551    0.268
 1320.730   13.254   75.276    0.544    0.253
 1321.560   12.132   76.588    0.534    0.241
 1322.380   11.710   77.913    0.513    0.229
 1323.200   10.346   78.582    0.506    0.221
 1324.020    9.986   78.014    0.493    0.217
 1324.840    8.976   77.434    0.491    0.219
 1325.660    8.513   76.867    0.520    0.219
 1326.480    7.931   76.274    0.527    0.219
 1327.300    7.260   74.458    0.536    0.224
 1328.120    6.887   71.354    0.547    0.232
 1328.940    6.651   67.608    0.559    0.247
 1329.760    6.670   65.766    0.572    0.254
 1330.580    6.804   67.103    0.574    0.214
 1331.400    6.942   69.034    0.540    0.204
 1332.220    6.952   71.621    0.492    0.193
 1333.040    6.842   73.551    0.484    0.200
 1333.860    6.614   75.494    0.515    0.218
 1334.680    6.501   76.819    0.528    0.217
 1335.500    6.283   76.252    0.540    0.212
 1336.320    5.964   75.659    0.556    0.212
 1337.140    5.865   73.830    0.566    0.212
 1337.960    5.672   74.524    0.559    0.210
 1338.780    5.577   75.811    0.560    0.209
 1339.600    5.490   77.136    0.564    0.208
 1340.420    5.495   77.843    0.564    0.206
 1341.240    5.408   77.868    0.564    0.205
 1342.060    5.421   77.919    0.561    0.205
 1342.880    5.738   77.995    0.557    0.204
 1343.700    5.961   78.676    0.555    0.208
 1344.520    6.190   79.358    0.548    0.249
 1345.340    6.794   79.396    0.542    0.271
 1346.160    7.589   80.077    0.532    0.273
 1346.980    8.322   75.738    0.517    0.260
 1347.800    9.301   72.004    0.487    0.234
 1348.620   10.021   72.685    0.452    0.221
 1349.440    9.507   73.354    0.448    0.220
 1350.260    8.702   75.310    0.469    0.214
 1351.080    8.403   76.004    0.475    0.209
 1351.900    7.980   76.067    0.481    0.201
 1352.720    7.999   75.462    0.485    0.197
 1353.540    8.302   74.251    0.482    0.187
 1354.360    8.948   71.160    0.457    0.140
 1355.180    9.816   67.413    0.402    0.092
 1356.000   10.966   60.538    0.237    0.062
 1356.820   12.704   56.160    0.218    0.067
 1357.640   14.459   55.593    0.227    0.055
 1358.460   16.153   60.072    0.262    0.044
 1359.280   17.729   62.633    0.283    0.082
 1360.100   16.213   68.386    0.336    0.120
 1360.930   14.304   70.317    0.355    0.144
 1361.750   12.399   72.273    0.379    0.155
 1362.570   11.345   73.585    0.400    0.170
 1363.390   10.384   74.910    0.428    0.181
 1364.210   10.032   75.604    0.454    0.195
 1365.030    9.693   76.273    0.470    0.199
 1365.850    9.536   76.942    0.491    0.189
 1366.670    9.377   78.279    0.486    0.183
 1367.490    9.226   78.961    0.474    0.189
 1368.310    9.251   79.024    0.468    0.196
 1369.130    9.264   82.216    0.466    0.201
 1369.950    9.294   83.528    0.473    0.202
 1370.770    9.307   84.223    0.480    0.203
 1371.590    9.320   84.273    0.482    0.199
 1372.410    9.333   84.324    0.483    0.192
 1373.230    9.191   83.744    0.488    0.181
 1374.050    9.046   84.425    0.488    0.176
 1374.870    8.896   85.763    0.480    0.172
 1375.690    8.760   87.050    0.471    0.173
 1376.510    8.768   90.280    0.459    0.176
 1377.330    8.622   89.713    0.455    0.176
