~VERSION INFORMATION
 VERS.                 2.0:   CWLS LOG ASCII STANDARD -VERSION 2.0
 WRAP.                  NO:   ONE LINE PER DEPTH STEP
~WELL INFORMATION BLOCK
#MNEM.UNIT           DATA                    DESCRIPTION OF MNEMONIC
#---------    -------------------            -------------------------------
# Generated from Intellog Unique Number	CS_73_76/WELL/3260
WELL.         BOW VALLEY INDUSTRIES LTD      : Well_name    - WELL
LOC .         00/11-10-076-14W4/0            : Location     - LOCATION
UWI .         00/11-10-076-14W4/0            : Uwi          - UNIQUE WELL ID
ENTR.         SP                             : Entered      - ENTERED BY
SRVC.         SCHLUMBERGER                   : Scn          - SERVICE COMPANY
STRT.M        315                            : top_depth    - START DEPTH
STOP.M        535                            : bot_depth    - STOP DEPTH
STEP.M        0.25                           : increment    - STEP LENGTH
 NULL. -999.2500:NULL Value
~CURVE INFORMATION BLOCK
#MNEM UNIT       ERCB CURVE CODE    CURVE DESCRIPTION
#-----------   ------------------   ----------------------------------
DEPT.M        00 001 00 00         : DEPTH        - DEPTH
ILD .OHMM     00 120 00 00         : RESD         - DEEP RESISTIVITY (DIL)
DPHI.V/V      00 890 00 00         : PHID         - DENSITY POROSITY (LIMESTONE)
NPHI.V/V      00 330 00 00         : PHIN         - NEUTRON POROSITY (LIMESTONE)
GR  .API      00 310 00 00         : GR           - GAMMA RAY
~PARAMETER INFORMATION
#MNEM.UNIT           DATA             DESCRIPTION OF MNEMONIC
#---------         -----------     ------------------------------
GL  .M        644.9                : gl           - GROUND LEVEL ELEVATION
EREF.M        648.3                : kb           - ELEVATION OF DEPTH REFERENCE
DATM.M        644.9                : datum        - DATUM ELEVATION
TDD .M        537                  : tdd          - TOTAL DEPTH DRILLER
RUN .         ONE                  : Run          - RUN NUMBER
ENG .         BILL                 : Engineer     - RECORDING ENGINEER
WIT .         JIM                  : Witness      - WITNESSED BY
MUD .         GEL                  : Mud_type     - MUD TYPE
MATR.         LIMESTONE            : Logunit      - NEUTRON MATRIX
TMAX.C        26                   : BHT          - MAXIMUM RECORDED TEMPERATURE
BHTD.M        537                  : BHTDEP       - MAXIMUM RECORDED TEMPERATURE
MATR.         1                    : LOGUNIT      - NEUTRON MATRIX
RMT .C        25                   : MDTP         - TEMPERATURE OF MUD
NEUT.         1                    : NEUTRON      - NEUTRON TYPE
RESI.         0                    : RESIST       - RESISTIVITY TYPE
RMC .OHMM     0.25                 : RMC          - RESISTIVITY OF MUD CAKE
RMF .OHMM     0.25                 : RMF          - RESISTIVITY OF MUD FILTRATE
SUFT.C        15                   : SUFT         - SURFACE TEMPERATURE
~A  DEPTH     RESD     PHID     PHIN       GR
# ...
  402.000    9.503    0.299    0.496   71.000
  402.250    9.158    0.281    0.479   72.823
  402.500    8.826    0.277    0.474   74.647
  402.750    9.160    0.295    0.473   77.079
  403.000    9.332    0.321    0.510   78.903
  403.250    9.685    0.322    0.519   79.507
  403.500    9.866    0.318    0.513   77.060
  403.750   10.052    0.324    0.502   77.055
  404.000    9.687    0.329    0.495   78.878
  404.250    9.164    0.327    0.487   80.701
  404.500    8.355    0.318    0.479   83.133
  404.750    7.616    0.312    0.463   84.348
  405.000    6.691    0.301    0.469   86.169
  405.250    5.770    0.289    0.481   86.773
  405.500    5.561    0.256    0.512   86.767
  405.750    5.459    0.251    0.521   87.981
  406.000    5.360    0.246    0.532   90.414
  406.250    5.460    0.242    0.518   89.798
  406.500    5.563    0.235    0.509   89.792
  406.750    5.563    0.233    0.502   92.833
  407.000    5.361    0.235    0.531   95.266
  407.250    4.710    0.238    0.547   95.870
  407.500    3.252    0.247    0.553   97.083
  407.750    2.604    0.238    0.559   97.687
  408.000    1.937    0.240    0.564   97.678
  408.250    1.866    0.238    0.572   96.454
  408.500    1.973    0.234    0.580   95.839
  408.750    2.246    0.230    0.572   94.612
  409.000    2.654    0.238    0.561   94.604
  409.250    3.194    0.247    0.565   94.600
  409.500    3.570    0.262    0.554   93.984
  409.750    3.917    0.264    0.542   92.148
  410.000    4.141    0.264    0.558   92.753
  410.250    4.460    0.279    0.575   91.525
  410.500    4.628    0.313    0.561   90.301
  410.750    5.173    0.310    0.541   84.805
  411.000    5.675    0.297    0.525   79.924
  411.250    6.958    0.315    0.488   73.210
  411.500    7.922    0.323    0.480   69.545
  411.750    9.019    0.314    0.473   69.539
  412.000    9.360    0.302    0.467   69.531
  412.250    9.536    0.280    0.459   69.525
  412.500    9.362    0.279    0.450   70.129
  412.750    8.378    0.293    0.452   71.954
  413.000    5.082    0.301    0.460   81.703
  413.250    3.509    0.298    0.477   91.451
  413.500    3.083    0.295    0.512   98.763
  413.750    2.515    0.293    0.532  108.513
  414.000    2.250    0.295    0.553  106.674
  414.250    2.014    0.296    0.584  106.061
  414.500    1.870    0.304    0.604  104.226
  414.750    1.941    0.297    0.639  102.390
  415.000    2.090    0.292    0.638  101.164
  415.250    2.210    0.286    0.630   99.329
  415.500    2.516    0.303    0.618   96.884
  415.750    2.918    0.295    0.590   93.828
  416.000    3.713    0.290    0.520   91.383
  416.250    5.378    0.292    0.506   87.719
  416.500    8.234    0.301    0.493   85.274
  416.750    7.936    0.298    0.477   84.047
  417.000    7.648    0.285    0.484   85.260
  417.250    7.508    0.256    0.489   85.866
  417.500    7.649    0.245    0.481   86.468
  417.750    7.793    0.227    0.471   85.853
  418.000    8.239    0.195    0.459   80.968
  418.250    8.550    0.157    0.412   78.524
  418.500    8.551    0.148    0.383   73.639
  418.750    8.712    0.197    0.356   71.805
  419.000    8.712    0.276    0.401   76.676
  419.250    8.553    0.271    0.466   80.938
  419.500    8.092    0.248    0.482   78.491
  419.750    7.655    0.229    0.469   77.877
  420.000    7.515    0.229    0.454   77.870
  420.250    7.378    0.262    0.442   79.693
  420.500    7.516    0.300    0.471   80.906
  420.750    7.379    0.295    0.483   82.728
  421.000    7.380    0.288    0.499   83.333
  421.250    7.380    0.278    0.517   83.933
  421.500    7.381    0.281    0.503   83.930
  421.750    7.382    0.285    0.494   82.704
  422.000    7.520    0.282    0.506   82.089
  422.250    7.521    0.275    0.514   83.912
  422.500    7.521    0.261    0.504   85.735
  422.750    7.384    0.243    0.498   86.947
  423.000    7.116    0.249    0.486   87.552
  423.250    6.986    0.264    0.475   88.155
  423.500    6.987    0.276    0.471   86.930
  423.750    7.118    0.273    0.476   85.703
  424.000    6.860    0.266    0.483   83.257
  424.250    6.988    0.264    0.492   83.250
  424.500    6.989    0.261    0.497   85.074
  424.750    6.989    0.258    0.503   86.288
  425.000    6.990    0.252    0.510   88.721
  425.250    6.991    0.243    0.503   89.934
  425.500    7.255    0.230    0.491   89.929
  425.750    7.670    0.213    0.462   86.264
  426.000    7.960    0.164    0.424   82.599
  426.250    8.416    0.130    0.401   80.763
  426.500    8.574    0.248    0.379   83.803
  426.750    8.417    0.284    0.412   82.580
  427.000    8.112    0.298    0.438   80.745
  427.250    7.964    0.306    0.485   78.299
  427.500    8.265    0.305    0.476   76.463
  427.750    8.738    0.292    0.470   74.628
  428.000    9.238    0.287    0.469   72.184
  428.250    9.238    0.290    0.478   74.006
  428.500    8.740    0.301    0.485   73.391
  428.750    8.117    0.306    0.480   72.774
  429.000    7.822    0.307    0.476   72.159
  429.250    7.823    0.316    0.473   72.153
  429.500    7.824    0.313    0.472   72.147
  429.750    7.970    0.312    0.461   71.530
  430.000    7.971    0.307    0.455   73.352
  430.250    7.972    0.299    0.450   75.177
  430.500    7.973    0.304    0.443   76.998
  430.750    7.973    0.297    0.443   76.993
  431.000    7.828    0.294    0.449   78.207
  431.250    7.684    0.300    0.458   81.858
  431.500    7.406    0.297    0.473   84.900
  431.750    7.406    0.286    0.467   85.504
  432.000    7.545    0.269    0.462   85.497
  432.250    7.546    0.276    0.460   85.490
  432.500    7.688    0.277    0.461   86.095
  432.750    7.688    0.282    0.471   86.089
  433.000    7.689    0.280    0.478   85.473
  433.250    7.549    0.244    0.488   84.858
  433.500    7.411    0.223    0.485   82.412
  433.750    7.411    0.203    0.469   79.967
  434.000    7.412    0.182    0.460   78.740
  434.250    7.413    0.168    0.450   79.954
  434.500    7.413    0.186    0.451   81.778
  434.750    7.414    0.210    0.456   86.039
  435.000    7.278    0.249    0.456   89.082
  435.250    7.014    0.240    0.438   87.857
  435.500    6.277    0.255    0.431   87.240
  435.750    5.829    0.286    0.437   88.453
  436.000    5.027    0.325    0.467   90.277
  436.250    4.335    0.352    0.488   92.709
  436.500    4.026    0.362    0.503   90.874
  436.750    4.026    0.340    0.517   89.037
  437.000    3.953    0.325    0.540   90.252
  437.250    4.027    0.285    0.532   93.294
  437.500    4.103    0.249    0.503   95.727
  437.750    4.180    0.263    0.500   97.547
  438.000    4.258    0.285    0.517   98.152
  438.250    4.419    0.272    0.531   96.318
  438.500    4.939    0.277    0.534   92.654
  438.750    5.126    0.260    0.508   91.427
  439.000    5.729    0.190    0.495   92.031
  439.250    6.057    0.211    0.449   93.244
  439.500    6.170    0.245    0.447   93.237
  439.750    6.171    0.250    0.450   92.012
  440.000    5.522    0.251    0.452   91.397
  440.250    5.421    0.254    0.482   91.390
  440.500    5.523    0.237    0.493   91.383
  440.750    5.627    0.228    0.492   91.378
  441.000    5.733    0.214    0.481   90.762
  441.250    5.949    0.201    0.481   88.927
  441.500    6.174    0.190    0.477   83.433
  441.750    6.528    0.213    0.472   77.330
  442.000    6.650    0.282    0.457   71.836
  442.250    6.651    0.308    0.437   69.390
  442.500    6.410    0.327    0.448   66.946
  442.750    6.292    0.317    0.464   65.719
  443.000    6.178    0.307    0.469   68.153
  443.250    6.178    0.305    0.467   68.145
  443.500    6.065    0.305    0.463   68.139
  443.750    6.179    0.306    0.459   67.524
  444.000    6.295    0.308    0.451   65.689
  444.250    6.906    0.301    0.423   63.854
  444.500    8.010    0.251    0.393   63.235
  444.750    8.627    0.186    0.361   63.232
  445.000   10.005    0.090    0.296   63.224
  445.250   11.182    0.021    0.221   62.608
