~VERSION INFORMATION
 VERS.                 2.0:   CWLS LOG ASCII STANDARD -VERSION 2.0
 WRAP.                  NO:   ONE LINE PER DEPTH STEP
~WELL INFORMATION BLOCK
#MNEM.UNIT           DATA                    DESCRIPTION OF MNEMONIC
#---------    -------------------            -------------------------------
# Generated from Intellog Unique Number	CW_73_75/WELL/1033
WELL.         SULPETRO ET AT FAWCETT 11-02   : Well_name    - WELL
LOC .         00/11-02-075-21W4/0            : Location     - LOCATION
UWI .         00/11-02-075-21W4/0            : Uwi          - UNIQUE WELL ID
ENTR.         JAYE                           : Entered      - ENTERED BY
SRVC.         SCHLUMBERGER                   : Scn          - SERVICE COMPANY
DATE.         5 MAR 82                       : Date         - LOG DATE
STRT.M        370                            : top_depth    - START DEPTH
STOP.M        575                            : bot_depth    - STOP DEPTH
STEP.M        0.25                           : increment    - STEP LENGTH
 NULL. -999.2500:NULL Value
~CURVE INFORMATION BLOCK
#MNEM UNIT       ERCB CURVE CODE    CURVE DESCRIPTION
#-----------   ------------------   ----------------------------------
DEPT.M        00 001 00 00         : DEPTH        - DEPTH
ILD .OHMM     00 120 00 00         : RESD         - DEEP RESISTIVITY (DIL)
NPHI.V/V      00 330 00 00         : PHIN         - NEUTRON POROSITY (SANDSTONE)
DPHI.V/V      00 890 00 00         : PHID         - DENSITY POROSITY (SANDSTONE)
CALI.MM       00 280 01 00         : CAL          - CALIPER
GR  .API      00 310 00 00         : GR           - GAMMA RAY
~PARAMETER INFORMATION
#MNEM.UNIT           DATA             DESCRIPTION OF MNEMONIC
#---------         -----------     ------------------------------
GL  .M        676.38               : gl           - GROUND LEVEL ELEVATION
EREF.M        679.28               : kb           - ELEVATION OF DEPTH REFERENCE
DATM.M        676.38               : datum        - DATUM ELEVATION
TDD .M        598.5                : tdd          - TOTAL DEPTH DRILLER
RUN .         ONE                  : Run          - RUN NUMBER
ENG .         SMYTHE               : Engineer     - RECORDING ENGINEER
WIT .         ROWE                 : Witness      - WITNESSED BY
BASE.         EDM                  : Branch       - HOME BASE OF LOGGING UNIT
MUD .         DAPP MUD             : Mud_type     - MUD TYPE
MATR.         SANDSTONE            : Logunit      - NEUTRON MATRIX
TMAX.C        23.3                 : BHT          - MAXIMUM RECORDED TEMPERATURE
BHTD.M        598.5                : BHTDEP       - MAXIMUM RECORDED TEMPERATURE
RMT .C        16.6                 : MDTP         - TEMPERATURE OF MUD
MUDD.KG/M     1190                 : MWT          - MUD DENSITY
NEUT.         1                    : NEUTRON      - NEUTRON TYPE
RESI.         0                    : RESIST       - RESISTIVITY TYPE
RM  .OHMM     1.874                : RM           - RESISTIVITY OF MUD
RMC .OHMM     0                    : RMC          - RESISTIVITY OF MUD CAKE
RMF .OHMM     1.85                 : RMF          - RESISTIVITY OF MUD FILTRATE
SUFT.C        0                    : SUFT         - SURFACE TEMPERATURE
~A  DEPTH     RESD     PHIN     PHID      CAL       GR
# ...
  516.000    5.155    0.443    0.222  166.250  104.019
  516.250    5.277    0.454    0.229  165.653   98.921
  516.500    5.453    0.445    0.225  164.120   98.062
  516.750    5.594    0.456    0.215  162.176  100.389
  517.000    5.760    0.436    0.211  161.263  102.653
  517.250    6.053    0.431    0.224  162.022   97.179
  517.500    6.386    0.445    0.235  163.301   93.512
  517.750    6.576    0.428    0.226  164.680   88.477
  518.000    6.951    0.395    0.214  165.646   87.495
  518.250    7.445    0.374    0.180  166.091   86.323
  518.500    7.737    0.394    0.196  165.912   84.780
  518.750    7.877    0.409    0.199  164.382   83.988
  519.000    7.959    0.364    0.183  163.472   80.009
  519.250    7.965    0.290    0.158  162.149   81.899
  519.500    7.548    0.358    0.136  160.096   86.162
  519.750    7.181    0.381    0.186  159.710   89.049
  520.000    6.665    0.408    0.224  160.884   91.439
  520.250    6.292    0.423    0.225  162.578   94.579
  520.500    6.145    0.437    0.223  164.064   96.654
  520.750    6.139    0.445    0.221  164.719  100.542
  521.000    6.143    0.433    0.218  165.055   97.751
  521.250    6.206    0.402    0.213  165.292   96.958
  521.500    6.272    0.408    0.222  165.433  101.158
  521.750    6.323    0.431    0.218  165.458  105.108
  522.000    6.342    0.439    0.210  165.696  107.619
  522.250    6.334    0.440    0.199  165.829  107.637
  522.500    6.353    0.443    0.191  165.852  107.095
  522.750    6.406    0.442    0.185  166.199  107.173
  523.000    6.497    0.430    0.179  166.434  107.626
  523.250    6.639    0.419    0.176  166.878  109.142
  523.500    6.708    0.439    0.185  167.218  111.781
  523.750    6.688    0.438    0.192  167.562  113.858
  524.000    6.619    0.397    0.183  167.796  114.250
  524.250    6.500    0.384    0.166  167.928  114.267
  524.500    6.434    0.422    0.167  167.956  114.412
  524.750    6.343    0.428    0.183  168.409  113.990
  525.000    6.254    0.423    0.190  168.436  113.447
  525.250    6.223    0.428    0.194  168.567  113.903
  525.500    6.194    0.434    0.195  168.593  114.354
  525.750    6.199    0.427    0.185  168.730  113.498
  526.000    6.310    0.423    0.176  168.762  111.269
  526.250    6.388    0.430    0.175  168.893  108.164
  526.500    6.477    0.436    0.174  168.195  105.062
  526.750    6.582    0.431    0.173  167.905  104.830
  527.000    6.663    0.415    0.173  167.311  106.781
  527.250    6.745    0.393    0.173  166.824  107.796
  527.500    6.776    0.395    0.178  166.433  106.067
  527.750    6.795    0.414    0.204  165.944  103.153
  528.000    6.825    0.401    0.222  165.454  103.980
  528.250    6.781    0.397    0.218  165.062  109.428
  528.500    6.672    0.418    0.201  164.780  107.011
  528.750    6.504    0.422    0.182  164.500  105.966
  529.000    6.377    0.413    0.171  164.421  108.856
  529.250    6.169    0.406    0.164  164.767  115.426
  529.500    6.071    0.419    0.163  165.104  122.621
  529.750    6.286    0.438    0.167  165.029  124.012
  530.000    7.085    0.431    0.173  164.851  119.413
  530.250    7.573    0.395    0.173  164.778  112.875
  530.500    7.841    0.356    0.167  164.598  105.650
  530.750    7.849    0.352    0.158  164.627  105.855
  531.000    7.593    0.362    0.175  164.446  105.998
  531.250    7.585    0.367    0.190  164.065  105.827
  531.500    8.048    0.391    0.184  163.775  107.530
  531.750    9.088    0.411    0.190  163.600  109.425
  532.000   11.063    0.399    0.194  163.627  104.881
  532.250   13.804    0.363    0.174  163.653   92.978
  532.500   16.094    0.350    0.142  163.686   83.568
  532.750   16.850    0.288    0.091  163.819   74.285
  533.000   15.233    0.251    0.040  164.160   72.503
  533.250   13.215    0.238    0.043  164.392   72.261
  533.500   10.237    0.226    0.045  164.946   81.079
  533.750    8.439    0.234    0.055  165.075   92.082
  534.000    7.403    0.330    0.098  165.316  108.017
  534.250    7.257    0.400    0.159  165.238  110.283
  534.500    7.236    0.411    0.165  165.268  106.181
  534.750    7.339    0.399    0.166  165.086  102.142
  535.000    7.527    0.386    0.152  165.330  100.033
  535.250    7.562    0.387    0.142  165.458   99.801
  535.500    7.344    0.401    0.157  165.801  103.315
  535.750    7.282    0.414    0.167  165.936  100.772
  536.000    7.098    0.406    0.165  165.962  100.727
  536.250    7.051    0.383    0.146  165.990  104.304
  536.500    7.109    0.398    0.131  165.709  108.253
  536.750    7.170    0.413    0.147  165.636  110.580
  537.000    7.190    0.409    0.157  165.664  109.661
  537.250    7.291    0.399    0.163  165.800  110.491
  537.500    7.351    0.389    0.155  165.927  112.131
  537.750    7.316    0.388    0.126  165.956  110.838
  538.000    7.214    0.382    0.115  166.090  109.730
  538.250    7.007    0.377    0.147  166.332  114.178
  538.500    6.921    0.373    0.167  166.357  118.131
  538.750    6.861    0.371    0.165  166.387  115.025
  539.000    6.816    0.361    0.151  166.413  108.739
  539.250    6.746    0.360    0.140  166.447  104.262
  539.500    6.714    0.376    0.137  166.468  101.095
  539.750    6.694    0.382    0.134  166.713  101.051
  540.000    6.738    0.375    0.115  166.739  105.562
  540.250    6.482    0.338    0.117  166.872  108.452
  540.500    6.167    0.374    0.146  167.000  107.531
  540.750    4.942    0.393    0.161  167.549  106.113
  541.000    4.058    0.374    0.141  168.413  106.255
  541.250    3.352    0.355    0.109  169.690  108.646
  541.500    2.880    0.370    0.134  171.486  108.664
  541.750    2.512    0.477    0.192  175.779  107.306
  542.000    2.208    0.503    0.232  174.768  105.201
  542.250    2.128    0.497    0.254  170.222  111.024
  542.500    2.228    0.502    0.237  167.026  117.220
  542.750    2.554    0.533    0.219  165.705  117.862
  543.000    2.961    0.537    0.207  165.210  114.885
  543.250    3.505    0.499    0.201  165.031  113.779
  543.500    4.101    0.465    0.190  165.374  115.170
  543.750    4.545    0.432    0.178  165.713  117.120
  544.000    5.767    0.364    0.163  166.156  108.774
  544.250    6.200    0.338    0.089  166.916  104.546
  544.500    6.455    0.351    0.057  167.672  107.871
  544.750    6.633    0.385    0.077  168.017  112.946
  545.000    6.665    0.376    0.118  167.731  110.341
  545.250    6.708    0.357    0.133  167.346  104.428
  545.500    6.702    0.369    0.124  166.539   94.021
  545.750    6.694    0.310    0.100  164.072   81.805
  546.000    6.726    0.279    0.082  164.101   84.569
  546.250    6.846    0.298    0.126  164.338  101.814
  546.500    6.944    0.385    0.134  164.162   99.709
  546.750    7.029    0.369    0.117  164.189  100.353
  547.000    7.075    0.374    0.103  164.425  103.301
  547.250    7.066    0.399    0.130  164.353  107.189
  547.500    6.981    0.395    0.132  164.273  108.018
  547.750    6.818    0.394    0.137  164.510  108.660
  548.000    6.720    0.428    0.145  164.960  107.677
  548.250    6.689    0.412    0.136  165.401  102.639
  548.500    6.669    0.390    0.122  165.536   96.414
  548.750    6.727    0.402    0.114  165.562  100.801
  549.000    6.770    0.410    0.131  165.700  106.124
  549.250    6.854    0.394    0.145  165.837  110.760
  549.500    6.950    0.383    0.121  165.967  104.036
  549.750    6.930    0.363    0.130  166.097   96.875
  550.000    6.845    0.380    0.150  166.228   98.580
  550.250    6.414    0.383    0.147  166.471  106.273
  550.500    5.887    0.416    0.123  166.710  107.540
  550.750    5.322    0.408    0.114  166.945  109.244
  551.000    4.652    0.379    0.129  166.968  114.378
  551.250    4.717    0.407    0.143  167.210  124.507
  551.500    5.720    0.438    0.148  167.341  129.020
  551.750    6.657    0.419    0.146  167.368  124.354
  552.000    7.661    0.401    0.149  167.396  117.068
  552.250    8.329    0.381    0.145  167.432  108.785
