~VERSION INFORMATION
 VERS.                 2.0:   CWLS LOG ASCII STANDARD -VERSION 2.0
 WRAP.                  NO:   ONE LINE PER DEPTH STEP
~WELL INFORMATION BLOCK
#MNEM.UNIT           DATA                    DESCRIPTION OF MNEMONIC
#---------    -------------------            -------------------------------
# Generated from Intellog Unique Number	CW_76_78/WELL/2579
WELL.         10-23-078-23W4                 : Well_name    - WELL
LOC .         00/10-23-078-23W4/0            : Location     - LOCATION
UWI .         00/10-23-078-23W4/0            : Uwi          - UNIQUE WELL ID
ENTR.         MAX                            : Entered      - ENTERED BY
SRVC.         SCHLUMBERGER                   : Scn          - SERVICE COMPANY
STRT.M        207.264                        : top_depth    - START DEPTH
STOP.M        493.764                        : bot_depth    - STOP DEPTH
STEP.M        0.25                           : increment    - STEP LENGTH
 NULL. -999.2500:NULL Value
~CURVE INFORMATION BLOCK
#MNEM UNIT       ERCB CURVE CODE    CURVE DESCRIPTION
#-----------   ------------------   ----------------------------------
DEPT.M        00 001 00 00         : DEPTH        - DEPTH
ILD .OHMM     00 120 00 00         : RESD         - DEEP RESISTIVITY (DIL)
NPHI.V/V      00 330 00 00         : PHIN         - NEUTRON POROSITY (SANDSTONE)
DPHI.V/V      00 890 00 00         : PHID         - DENSITY POROSITY (SANDSTONE)
CALI.MM       00 280 01 00         : CAL          - CALIPER
GR  .API      00 310 00 00         : GR           - GAMMA RAY
~PARAMETER INFORMATION
#MNEM.UNIT           DATA             DESCRIPTION OF MNEMONIC
#---------         -----------     ------------------------------
GL  .M        566.623              : gl           - GROUND LEVEL ELEVATION
EREF.M        570.159              : kb           - ELEVATION OF DEPTH REFERENCE
DATM.M        566.623              : datum        - DATUM ELEVATION
TDD .M        495.91               : tdd          - TOTAL DEPTH DRILLER
RUN .         ONE                  : Run          - RUN NUMBER
ENG .         BILL                 : Engineer     - RECORDING ENGINEER
WIT .         JIM                  : Witness      - WITNESSED BY
MUD .         GEL                  : Mud_type     - MUD TYPE
MATR.         SANDSTONE            : Logunit      - NEUTRON MATRIX
TMAX.C        21.6667              : BHT          - MAXIMUM RECORDED TEMPERATURE
BHTD.M        495.91               : BHTDEP       - MAXIMUM RECORDED TEMPERATURE
RMT .C        14.4444              : MDTP         - TEMPERATURE OF MUD
MUDD.KG/M     9000                 : MWT          - MUD DENSITY
NEUT.         1                    : NEUTRON      - NEUTRON TYPE
RESI.         0                    : RESIST       - RESISTIVITY TYPE
RM  .OHMM     6                    : RM           - RESISTIVITY OF MUD
RMC .OHMM     4.35                 : RMC          - RESISTIVITY OF MUD CAKE
RMF .OHMM     7.02                 : RMF          - RESISTIVITY OF MUD FILTRATE
SUFT.C        -6.66667             : SUFT         - SURFACE TEMPERATURE
~A  DEPTH     RESD     PHIN     PHID      CAL       GR
# ...
  462.764   11.445    0.407    0.218  199.905  107.172
  463.014   10.736    0.383    0.203  198.354   98.870
  463.264   10.256    0.360    0.183  198.797   91.745
  463.514    9.620    0.349    0.184  199.246   87.875
  463.764    8.943    0.370    0.190  199.702   85.773
  464.014    8.164    0.394    0.215  200.145   85.746
  464.264    7.657    0.448    0.218  202.595   87.489
  464.514    7.657    0.515    0.224  204.545   93.663
  464.764    7.580    0.664    0.264  204.488   95.701
  465.014    7.783    0.701    0.315  204.437   85.031
  465.264    8.140    0.639    0.352  202.885   74.066
  465.514    8.905    0.549    0.335  197.819   73.146
  465.764    9.228    0.462    0.273  199.262   81.093
  466.014    8.814    0.447    0.230  202.719   87.271
  466.264    8.268    0.437    0.261  202.175   87.237
  466.514    8.111    0.424    0.242  199.116   87.498
  466.764    7.964    0.421    0.245  197.557   89.536
  467.014    7.888    0.413    0.237  197.006   90.688
  467.264    7.888    0.426    0.264  196.936   90.366
  467.514    7.950    0.452    0.273  196.404   90.329
  467.764    8.238    0.512    0.265  193.852   89.712
  468.014    8.238    0.461    0.262  197.296   88.795
  468.264    8.531    0.426    0.237  200.741   87.280
  468.514    9.250    0.390    0.223  201.197   80.455
  468.764    9.585    0.395    0.236  202.134   77.175
  469.014    9.494    0.398    0.271  202.596   70.937
  469.264    9.069    0.386    0.255  202.538   62.635
  469.514    8.279    0.373    0.250  201.987   62.306
  469.764    8.052    0.368    0.245  200.435   64.343
  470.014    8.045    0.364    0.244  198.370   67.268
  470.264    8.189    0.364    0.242  196.819   70.484
  470.514    8.409    0.362    0.237  196.274   73.116
  470.764    8.409    0.356    0.223  197.211   78.404
  471.014    8.630    0.345    0.209  198.648   84.283
  471.264    9.529    0.364    0.197  199.617   89.271
  471.514    9.696    0.387    0.192  200.560   92.491
  471.764    9.262    0.401    0.199  202.510   94.825
  472.014    8.456    0.416    0.204  203.960   95.969
  472.264    5.991    0.463    0.191  204.903   95.355
  472.514    3.206    0.506    0.174  204.858   92.666
  472.764    2.980    0.520    0.157  204.801   87.902
  473.014    2.898    0.486    0.118  205.244   87.871
  473.264    2.950    0.448    0.090  205.199   91.391
  473.514    3.141    0.421    0.129  205.642   91.357
  473.764    3.972    0.408    0.151  205.585   88.668
  474.014    5.450    0.358    0.176  203.033   81.248
  474.264    5.646    0.356    0.200  202.488   73.828
  474.514    5.492    0.350    0.215  203.425   67.889
  474.764    5.152    0.349    0.224  203.880   67.560
  475.014    4.703    0.365    0.248  203.830   67.238
  475.264    4.533    0.371    0.265  201.765   61.591
  475.514    4.533    0.358    0.268  199.219   58.307
  475.764    4.405    0.351    0.261  197.661   57.978
  476.014    4.364    0.346    0.253  198.110   60.315
  476.264    4.362    0.357    0.242  199.053   67.667
  476.514    4.362    0.350    0.227  201.497   69.114
  476.764    4.354    0.348    0.243  202.960   69.084
  477.014    4.353    0.350    0.243  203.396   70.236
  477.264    4.234    0.369    0.261  203.352   71.683
  477.514    4.194    0.365    0.283  203.295   69.289
  477.764    4.079    0.350    0.280  201.743   66.593
  478.014    4.077    0.345    0.257  197.683   68.040
  478.264    3.894    0.354    0.251  197.132   66.237
  478.514    3.686    0.379    0.275  197.075   60.594
  478.764    3.395    0.383    0.294  198.018   52.587
  479.014    3.185    0.384    0.293  200.468   46.050
  479.264    2.988    0.374    0.284  200.924   44.542
  479.514    3.096    0.371    0.289  200.860   44.512
  479.764    3.356    0.365    0.283  201.316   43.891
  480.014    3.356    0.357    0.249  201.765   44.448
  480.264    3.910    0.341    0.202  203.222   46.785
  480.514    4.856    0.320    0.151  204.165   45.570
  480.764    6.603    0.295    0.081  200.599   31.946
  481.014    8.200    0.261    0.111  201.061   28.954
  481.264   10.656    0.284    0.135  201.498   28.337
  481.514   14.753    0.436    0.335  199.940   28.303
  481.764   16.436    0.364    0.182  198.901   29.750
  482.014   15.698    0.295    0.125  198.343   31.197
  482.264   14.859    0.260    0.090  198.280   31.762
  482.514   14.323    0.248    0.006  199.242   33.500
  482.764   13.435    0.248    0.017  199.185   37.606
  483.014   12.376    0.251    0.015  199.115   43.485
  483.264   10.700    0.264    0.047  199.070   54.682
  483.514    8.606    0.287    0.044  199.532   78.881
  483.764    8.220    0.328    0.065  199.475   88.305
  484.014    7.852    0.337    0.089  199.911   97.733
  484.264    7.776    0.344    0.111  200.367  109.225
  484.514    7.913    0.351    0.116  201.317  110.365
  484.764    8.127    0.361    0.114  201.760  109.752
  485.014    8.575    0.349    0.104  201.202  107.358
  485.264    9.130    0.334    0.100  201.164  103.775
  485.514    9.548    0.317    0.105  201.106  101.976
  485.764    9.983    0.309    0.110  201.056   98.697
  486.014   10.253    0.304    0.105  201.498   91.572
  486.264   10.334    0.303    0.096  202.454   90.065
  486.514   10.617    0.306    0.095  202.897   93.281
  486.764   11.002    0.323    0.088  203.347   85.274
  487.014   10.896    0.306    0.080  203.796   79.627
  487.264   10.792    0.300    0.095  204.233   74.574
  487.514   10.884    0.306    0.096  204.182   73.359
  487.764   11.483    0.308    0.082  204.625   60.625
  488.014   12.118    0.303    0.078  204.586   54.678
  488.264   12.904    0.289    0.083  204.523   51.402
  488.514   13.991    0.272    0.070  204.472   48.410
  488.764   15.031    0.256    0.060  204.427   56.648
  489.014   13.848    0.252    0.054  204.857   62.535
  489.264    8.801    0.261    0.058  204.819   69.595
  489.514    7.143    0.270    0.065  204.768   73.697
  489.764    5.061    0.267    0.112  203.210   75.735
  490.014    4.297    0.480    0.165  201.658   78.073
  490.264    4.067    0.466    0.224  201.601   85.428
  490.514    4.253    0.444    0.279  201.056   88.648
  490.764    4.569    0.408    0.233  200.986   89.501
  491.014    5.423    0.354    0.186  200.435   88.584
  491.264    6.322    0.348    0.128  200.397   80.869
  491.514    8.442    0.344    0.106  200.333   76.699
  491.764   15.615    0.345    0.100  200.789   75.491
  492.014   24.099    0.341    0.086  201.238   76.639
  492.264   28.345    0.335    0.049  202.181   78.378
  492.514   29.110    0.332    0.039  202.618   80.120
  492.764   28.831    0.336    0.101  203.567   81.276
  493.014   26.082    0.332    0.136  203.523   81.825
  493.264   16.881    0.332    0.106  199.463   82.098
  493.514   15.410    0.331    0.060  197.912   82.954
  493.764   15.262    0.328    0.039  197.360   84.394
