~VERSION INFORMATION
 VERS.                 2.0:   CWLS LOG ASCII STANDARD -VERSION 2.0
 WRAP.                  NO:   ONE LINE PER DEPTH STEP
~WELL INFORMATION BLOCK
#MNEM.UNIT           DATA                    DESCRIPTION OF MNEMONIC
#---------    -------------------            -------------------------------
# Generated from Intellog Unique Number	CS_77_79/WELL/986
WELL.         PCI PCEJ LEISMER               : Well_name    - WELL
LOC .         00/11-03-079-07W4/0            : Location     - LOCATION
UWI .         00/11-03-079-07W4/0            : Uwi          - UNIQUE WELL ID
ENTR.         JHS                            : Entered      - ENTERED BY
SRVC.         SCHLUMBERGER                   : Scn          - SERVICE COMPANY
STRT.M        125                            : top_depth    - START DEPTH
STOP.M        355                            : bot_depth    - STOP DEPTH
STEP.M        0.25                           : increment    - STEP LENGTH
 NULL. -999.2500:NULL Value
~CURVE INFORMATION BLOCK
#MNEM UNIT       ERCB CURVE CODE    CURVE DESCRIPTION
#-----------   ------------------   ----------------------------------
DEPT.M        00 001 00 00         : DEPTH        - DEPTH
DPHI.V/V      00 890 00 00         : PHID         - DENSITY POROSITY (LIMESTONE)
NPHI.V/V      00 330 00 00         : PHIN         - NEUTRON POROSITY (LIMESTONE)
GR  .API      00 310 00 00         : GR           - GAMMA RAY
ILD .OHMM     00 120 00 00         : RESD         - DEEP RESISTIVITY (DIL)
RHOB.KG/M3    00 350 00 00         : DENS         - BULK DENSITY
~PARAMETER INFORMATION
#MNEM.UNIT           DATA             DESCRIPTION OF MNEMONIC
#---------         -----------     ------------------------------
GL  .M        554.2                : gl           - GROUND LEVEL ELEVATION
EREF.M        557.3                : kb           - ELEVATION OF DEPTH REFERENCE
DATM.M        557.3                : datum        - DATUM ELEVATION
TDD .M        361                  : tdd          - TOTAL DEPTH DRILLER
RUN .         ONE                  : Run          - RUN NUMBER
ENG .         BILL                 : Engineer     - RECORDING ENGINEER
WIT .         JIM                  : Witness      - WITNESSED BY
MUD .         GEL                  : Mud_type     - MUD TYPE
MATR.         LIMESTONE            : Logunit      - NEUTRON MATRIX
TMAX.C        24                   : BHT          - MAXIMUM RECORDED TEMPERATURE
BHTD.M        361                  : BHTDEP       - MAXIMUM RECORDED TEMPERATURE
MATR.         1                    : LOGUNIT      - NEUTRON MATRIX
RMT .C        25                   : MDTP         - TEMPERATURE OF MUD
NEUT.         1                    : NEUTRON      - NEUTRON TYPE
RESI.         0                    : RESIST       - RESISTIVITY TYPE
RMC .OHMM     0.25                 : RMC          - RESISTIVITY OF MUD CAKE
RMF .OHMM     0.25                 : RMF          - RESISTIVITY OF MUD FILTRATE
SUFT.C        15                   : SUFT         - SURFACE TEMPERATURE
~A  DEPTH     PHID     PHIN       GR     RESD     DENS
# ...
  198.000    0.370    0.463   54.938   28.507    0.000
  198.250    0.375    0.436   54.950   29.053    0.000
  198.500    0.376    0.446   54.343   29.613    0.000
  198.750    0.374    0.466   54.969   29.616    0.000
  199.000    0.367    0.458   54.364   29.623    0.000
  199.250    0.370    0.458   53.142   29.626    0.000
  199.500    0.376    0.455   51.916   29.078    0.000
  199.750    0.377    0.451   50.692   29.081    0.000
  200.000    0.375    0.447   51.319   29.088    0.000
  200.250    0.375    0.437   51.946   28.547    0.000
  200.500    0.372    0.445   51.343   28.020    0.000
  200.750    0.370    0.477   51.355   27.499    0.000
  201.000    0.369    0.477   52.597   26.485    0.000
  201.250    0.367    0.464   53.840   25.993    0.000
  201.500    0.370    0.463   53.234   25.512    0.000
  201.750    0.373    0.448   54.479   25.038    0.000
  202.000    0.376    0.449   56.960   24.574    0.000
  202.250    0.373    0.459   55.118   24.579    0.000
  202.500    0.371    0.469   50.189   24.583    0.000
  202.750    0.368    0.464   49.583   24.586    0.000
  203.000    0.370    0.459   55.767   24.591    0.000
  203.250    0.376    0.471   57.014   24.593    0.000
  203.500    0.381    0.473   55.173   24.598    0.000
  203.750    0.383    0.466   53.949   24.602    0.000
  204.000    0.385    0.474   53.343   24.607    0.000
  204.250    0.385    0.482   52.735   24.609    0.000
  204.500    0.387    0.473   50.278   24.614    0.000
  204.750    0.389    0.484   49.669   24.618    0.000
  205.000    0.391    0.509   51.532   25.091    0.000
  205.250    0.389    0.483   53.393   25.574    0.000
  205.500    0.387    0.459   54.020   25.100    0.000
  205.750    0.387    0.458   54.647   24.633    0.000
  206.000    0.385    0.453   54.658   22.000    0.000
  206.250    0.382    0.455   54.053   14.526    0.000
  206.500    0.372    0.470   56.531    7.648    0.000
  206.750    0.358    0.466   62.715    4.026    0.000
  207.000    0.329    0.442   80.628    3.034    0.000
  207.250    0.315    0.487   84.342    2.868    0.000
  207.500    0.321    0.610   88.676    2.923    0.000
  207.750    0.323    0.613   92.388    3.094    0.000
  208.000    0.318    0.612   94.868    3.337    0.000
  208.250    0.311    0.597   93.027    3.737    0.000
  208.500    0.308    0.563   92.421    4.347    0.000
  208.750    0.300    0.563   89.963    5.153    0.000
  209.000    0.300    0.579   85.034    6.840    0.000
  209.250    0.281    0.595   73.314    8.262    0.000
  209.500    0.266    0.565   56.042   11.177    0.000
  209.750    0.294    0.481   56.669   13.757    0.000
  210.000    0.331    0.470   64.705   15.703    0.000
  210.250    0.349    0.472   65.952   16.938    0.000
  210.500    0.354    0.483   64.109   16.624    0.000
  210.750    0.357    0.488   62.269   14.029    0.000
  211.000    0.357    0.463   61.042    9.090    0.000
  211.250    0.353    0.430   57.966    6.980    0.000
  211.500    0.344    0.420   64.150    6.474    0.000
  211.750    0.326    0.457   78.359    6.598    0.000
  212.000    0.278    0.484   91.333    6.853    0.000
  212.250    0.269    0.482   96.284    7.254    0.000
  212.500    0.267    0.458   99.997    7.255    0.000
  212.750    0.256    0.459  102.479    7.120    0.000
  213.000    0.247    0.486  101.256    6.988    0.000
  213.250    0.246    0.512   99.416    6.605    0.000
  213.500    0.252    0.520   98.804    6.242    0.000
  213.750    0.257    0.511   97.585    5.790    0.000
  214.000    0.245    0.490   97.596    5.682    0.000
  214.250    0.237    0.485   98.218    5.270    0.000
  214.500    0.242    0.489  101.934    4.980    0.000
  214.750    0.249    0.502  102.563    4.707    0.000
  215.000    0.257    0.500  101.956    4.365    0.000
  215.250    0.263    0.485  103.201    4.126    0.000
  215.500    0.274    0.486  106.297    4.049    0.000
  215.750    0.271    0.512  106.925    3.974    0.000
  216.000    0.257    0.538  101.379    3.975    0.000
  216.250    0.242    0.562   99.539    3.901    0.000
  216.500    0.230    0.545  102.018    3.902    0.000
  216.750    0.226    0.522  100.178    3.829    0.000
  217.000    0.236    0.530   97.720    3.759    0.000
  217.250    0.254    0.550   99.580    3.831    0.000
  217.500    0.263    0.573  104.529    3.904    0.000
  217.750    0.264    0.583  103.306    4.055    0.000
  218.000    0.270    0.568   99.614    4.457    0.000
  218.250    0.279    0.561   97.154    4.807    0.000
  218.500    0.280    0.557   95.311    4.993    0.000
  218.750    0.279    0.536   93.471    4.994    0.000
  219.000    0.285    0.518   90.397    4.460    0.000
  219.250    0.283    0.515   89.788    4.136    0.000
  219.500    0.275    0.524   93.503    3.836    0.000
  219.750    0.270    0.553   97.835    3.765    0.000
  220.000    0.266    0.568   98.464    3.695    0.000
  220.250    0.265    0.552   96.621    3.627    0.000
  220.500    0.265    0.529   95.397    3.560    0.000
  220.750    0.267    0.535  100.964    3.428    0.000
  221.000    0.271    0.562   98.505    3.365    0.000
  221.250    0.277    0.565   94.811    3.302    0.000
  221.500    0.281    0.572   93.587    3.241    0.000
  221.750    0.284    0.584   97.921    3.242    0.000
  222.000    0.288    0.561  101.633    3.242    0.000
  222.250    0.295    0.553  103.497    3.432    0.000
  222.500    0.293    0.589  101.656    3.632    0.000
  222.750    0.293    0.618   98.581    4.471    0.000
  223.000    0.295    0.568   95.503    5.400    0.000
  223.250    0.306    0.528   86.252    6.774    0.000
  223.500    0.331    0.492   76.387    7.446    0.000
  223.750    0.341    0.472   72.694    7.589    0.000
  224.000    0.338    0.488   69.617    7.448    0.000
  224.250    0.325    0.528   69.629    7.039    0.000
  224.500    0.311    0.510   72.726    6.406    0.000
  224.750    0.296    0.496   78.290    6.170    0.000
  225.000    0.272    0.509   86.945    6.530    0.000
  225.250    0.273    0.515   83.869    6.912    0.000
  225.500    0.279    0.505   76.472    7.179    0.000
  225.750    0.278    0.477   75.246    7.317    0.000
  226.000    0.268    0.458   79.578    7.318    0.000
  226.250    0.269    0.456   87.614    7.183    0.000
  226.500    0.268    0.473   87.624    7.748    0.000
  226.750    0.262    0.494   83.315    8.046    0.000
  227.000    0.262    0.489   78.388    8.517    0.000
  227.250    0.274    0.472   74.692    9.361    0.000
  227.500    0.286    0.481   69.765    9.908    0.000
  227.750    0.301    0.489   67.924   10.291    0.000
  228.000    0.307    0.470   67.317   10.489    0.000
  228.250    0.306    0.468   69.179   10.690    0.000
  228.500    0.302    0.473   68.575   10.895    0.000
  228.750    0.297    0.465   67.967   10.897    0.000
  229.000    0.296    0.472   68.595   10.695    0.000
  229.250    0.298    0.480   72.310   10.497    0.000
  229.500    0.297    0.489   75.406    9.921    0.000
  229.750    0.287    0.479   77.888    9.376    0.000
  230.000    0.281    0.460   77.280    8.063    0.000
  230.250    0.274    0.468   77.906    7.478    0.000
  230.500    0.273    0.478   79.768    7.068    0.000
  230.750    0.264    0.481   83.483    6.807    0.000
  231.000    0.260    0.487   84.730    6.434    0.000
  231.250    0.260    0.484   89.677    5.967    0.000
  231.500    0.268    0.476   91.539    5.639    0.000
  231.750    0.275    0.496   89.081    5.329    0.000
  232.000    0.275    0.530   92.180    4.943    0.000
  232.250    0.274    0.512   90.336    4.671    0.000
  232.500    0.275    0.529   87.262    4.332    0.000
  232.750    0.279    0.537   95.298    4.018    0.000
  233.000    0.282    0.513   98.394    3.657    0.000
  233.250    0.288    0.530   97.790    3.391    0.000
  233.500    0.293    0.595   96.567    3.266    0.000
  233.750    0.293    0.618   95.341    3.267    0.000
  234.000    0.277    0.624   94.732    3.458    0.000
  234.250    0.271    0.621   93.510    3.873    0.000
