~VERSION INFORMATION
 VERS.                 2.0:   CWLS LOG ASCII STANDARD -VERSION 2.0
 WRAP.                  NO:   ONE LINE PER DEPTH STEP
~WELL INFORMATION BLOCK
#MNEM.UNIT           DATA                    DESCRIPTION OF MNEMONIC
#---------    -------------------            -------------------------------
# Generated from Intellog Unique Number	CS_77_79/WELL/3306
WELL.         N0RTHSTAR ENERGY CORP.         : Well_name    - WELL
LOC .         00/12-36-079-11W4/0            : Location     - LOCATION
UWI .         00/12-36-079-11W4/0            : Uwi          - UNIQUE WELL ID
ENTR.         JOETTE                         : Entered      - ENTERED BY
SRVC.         SCHLUMBERGER                   : Scn          - SERVICE COMPANY
DATE.         08/24/92                       : Date         - LOG DATE
STRT.M        255                            : top_depth    - START DEPTH
STOP.M        480                            : bot_depth    - STOP DEPTH
STEP.M        0.25                           : increment    - STEP LENGTH
 NULL. -999.2500:NULL Value
~CURVE INFORMATION BLOCK
#MNEM UNIT       ERCB CURVE CODE    CURVE DESCRIPTION
#-----------   ------------------   ----------------------------------
DEPT.M        00 001 00 00         : DEPTH        - DEPTH
GR  .API      00 310 00 00         : GR           - GAMMA RAY
NPHI.V/V      00 330 00 00         : PHIN         - NEUTRON POROSITY (SANDSTONE)
DPHI.V/V      00 890 00 00         : PHID         - DENSITY POROSITY (SANDSTONE)
ILD .OHMM     00 120 00 00         : RESD         - DEEP RESISTIVITY (DIL)
~PARAMETER INFORMATION
#MNEM.UNIT           DATA             DESCRIPTION OF MNEMONIC
#---------         -----------     ------------------------------
GL  .M        682.9                : gl           - GROUND LEVEL ELEVATION
EREF.M        686.3                : kb           - ELEVATION OF DEPTH REFERENCE
DATM.M        686.3                : datum        - DATUM ELEVATION
TDD .M        502                  : tdd          - TOTAL DEPTH DRILLER
RUN .         ONE                  : Run          - RUN NUMBER
ENG .         BILL                 : Engineer     - RECORDING ENGINEER
WIT .         JIM                  : Witness      - WITNESSED BY
MUD .         GEL                  : Mud_type     - MUD TYPE
MATR.         SANDSTONE            : Logunit      - NEUTRON MATRIX
TMAX.C        22                   : BHT          - MAXIMUM RECORDED TEMPERATURE
BHTD.M        502                  : BHTDEP       - MAXIMUM RECORDED TEMPERATURE
MATR.         5.5                  : LOGUNIT      - NEUTRON MATRIX
RMT .C        5.5                  : MDTP         - TEMPERATURE OF MUD
NEUT.         1                    : NEUTRON      - NEUTRON TYPE
RESI.         0                    : RESIST       - RESISTIVITY TYPE
RMC .OHMM     0.33                 : RMC          - RESISTIVITY OF MUD CAKE
RMF .OHMM     0.16                 : RMF          - RESISTIVITY OF MUD FILTRATE
SUFT.C        15                   : SUFT         - SURFACE TEMPERATURE
~A  DEPTH       GR     PHIN     PHID     RESD
  255.000  104.463    0.476    0.227    3.800
  255.250  105.059    0.483    0.226    3.797
  255.500  106.244    0.470    0.233    3.794
  255.750  105.658    0.460    0.230    3.864
  256.000  105.071    0.464    0.227    3.861
  256.250  102.126    0.471    0.222    3.859
  256.500   99.180    0.479    0.221    3.929
  256.750   98.003    0.474    0.220    3.927
  257.000   96.827    0.471    0.225    4.073
  257.250   96.242    0.468    0.243    4.224
  257.500   95.066    0.448    0.245    4.718
  257.750   93.300    0.452    0.249    6.225
  258.000   96.257    0.456    0.262    6.458
  258.250   96.261    0.465    0.296    9.347
  258.500   93.906    0.459    0.271   14.565
  258.750   90.959    0.423    0.245   14.833
  259.000   81.521    0.419    0.225   15.104
  259.250   75.034    0.414    0.220   15.666
  259.500   66.186    0.408    0.196   16.246
  259.750   62.059    0.389    0.339   16.235
  260.000   67.965    0.385    0.351   15.634
  260.250   70.921    0.387    0.359   14.785
  260.500   70.927    0.393    0.359   13.470
  260.750   69.162    0.399    0.354   12.047
  261.000   68.574    0.407    0.346   10.193
  261.250   67.402    0.405    0.346    8.784
  261.500   67.404    0.393    0.346    7.432
  261.750   68.590    0.396    0.343    6.524
  262.000   69.773    0.405    0.328    6.521
  262.250   76.272    0.418    0.308    7.019
  262.500   79.816    0.420    0.309   10.941
  262.750   83.952    0.421    0.305   11.775
  263.000   86.319    0.425    0.294   12.911
  263.250   86.323    0.430    0.296   13.637
  263.500   85.738    0.420    0.300   13.383
  263.750   89.875    0.407    0.294   12.650
  264.000   91.057    0.404    0.246   12.412
  264.250   89.883    0.401    0.239   12.404
  264.500   86.936    0.397    0.265   12.401
  264.750   85.169    0.396    0.294   13.102
  265.000   87.536    0.406    0.364   14.365
  265.250   89.311    0.468    0.438   15.750
  265.500   86.954    0.557    0.611   16.952
  265.750   75.745    0.546    0.590   17.910
  266.000   56.275    0.503    0.561   18.574
  266.250   55.098    0.422    0.392   18.221
  266.500   43.889    0.357    0.323   17.551
  266.750   37.404    0.361    0.328   15.693
  267.000   44.490    0.365    0.332   15.118
  267.250   59.249    0.377    0.326   13.774
  267.500   62.795    0.388    0.318   12.091
  267.750   64.571    0.397    0.315   10.614
  268.000   68.115    0.395    0.313   10.224
  268.250   78.153    0.394    0.311    9.847
  268.500   81.110    0.388    0.284    9.482
  268.750   77.575    0.383    0.265    9.480
  269.000   75.808    0.375    0.292    9.301
  269.250   79.353    0.383    0.298    9.468
  269.500   82.898    0.395    0.290   10.192
  269.750   85.854    0.411    0.260   11.813
  270.000   85.269    0.407    0.249   13.690
  270.250   82.913    0.380    0.253   15.012
  270.500   79.377    0.386    0.280   16.455
  270.750   75.841    0.399    0.304   16.758
  271.000   72.894    0.395    0.312   17.378
  271.250   65.816    0.378    0.319   17.369
  271.500   57.558    0.381    0.316   17.359
  271.750   57.563    0.398    0.289   17.348
  272.000   64.059    0.410    0.293   17.340
  272.250   69.967    0.405    0.318   17.326
  272.500   70.562    0.393    0.320   17.004
  272.750   71.157    0.410    0.340   16.377
  273.000   81.193    0.427    0.353   16.068
  273.250   86.509    0.427    0.364   16.057
  273.500   85.334    0.423    0.369   16.050
  273.750   81.797    0.419    0.364   16.039
  274.000   83.572    0.419    0.354   16.332
  274.250   86.529    0.420    0.352   16.319
  274.500   85.943    0.414    0.352   16.315
  274.750   85.948    0.396    0.352   16.306
  275.000   91.264    0.396    0.349   16.290
  275.250   95.400    0.393    0.344   16.284
  275.500   94.224    0.381    0.330   16.279
  275.750   94.819    0.376    0.311   15.970
  276.000  100.135    0.383    0.311   15.961
  276.250  104.272    0.389    0.313   15.955
  276.500  100.145    0.391    0.311   15.651
  276.750   94.248    0.401    0.303   15.074
  277.000   91.891    0.418    0.292   14.250
  277.250   97.208    0.408    0.290   13.726
  277.500  100.164    0.407    0.290   12.273
  277.750   94.856    0.402    0.280   11.394
  278.000   88.369    0.386    0.284   10.003
  278.250   82.474    0.388    0.274    8.782
  278.500   87.789    0.421    0.243    7.028
  278.750   94.286    0.441    0.233    6.404
  279.000  102.553    0.456    0.222    5.621
  279.250  117.902    0.455    0.210    5.122
  279.500  118.498    0.453    0.179    4.580
  279.750  115.551    0.442    0.222    4.330
  280.000  116.145    0.424    0.214    4.019
  280.250  120.873    0.431    0.231    3.871
  280.500  119.105    0.444    0.244    3.798
  280.750  113.799    0.445    0.230    3.657
  281.000  110.853    0.449    0.211    3.656
  281.250  113.809    0.450    0.211    3.587
  281.500  124.437    0.457    0.213    3.519
  281.750  126.802    0.466    0.219    3.582
  282.000  127.987    0.477    0.228    3.715
  282.250  126.812    0.488    0.249    4.151
  282.500  126.226    0.497    0.262    7.643
  282.750  124.461    0.503    0.293    8.536
  283.000  119.153    0.502    0.314   10.076
  283.250  106.174    0.445    0.313   10.647
  283.500   98.506    0.439    0.311   11.251
  283.750   92.609    0.409    0.315   11.666
  284.000   91.434    0.401    0.311   11.663
  284.250   94.390    0.402    0.300   11.230
  284.500   99.116    0.408    0.296   11.021
  284.750   99.119    0.397    0.316   10.038
  285.000   96.173    0.375    0.333    9.492
  285.250   93.817    0.375    0.333    8.333
  285.500   92.051    0.408    0.306    7.317
  285.750   92.647    0.417    0.294    6.423
  286.000   95.601    0.425    0.293    6.186
  286.250  100.919    0.432    0.293    6.658
  286.500  115.678    0.444    0.279    7.301
  286.750  120.994    0.456    0.238    8.154
  287.000  124.540    0.456    0.247    8.616
  287.250  128.675    0.445    0.270    9.271
  287.500  114.516    0.435    0.276    9.617
  287.750  111.570    0.411    0.277    9.975
  288.000  107.444    0.409    0.280   10.537
  288.250  105.087    0.404    0.281   10.729
  288.500  106.272    0.409    0.281   10.729
  288.750  108.637    0.415    0.282   12.426
  289.000  107.461    0.424    0.285   10.712
  289.250   97.433    0.435    0.292   10.317
  289.500   90.356    0.420    0.306   10.122
  289.750   84.458    0.392    0.316   10.114
  290.000   89.775    0.389    0.328   10.300
  290.250   99.813    0.382    0.330   10.487
  290.500  106.900    0.382    0.322   11.287
  290.750  103.364    0.388    0.310   12.372
  291.000   99.237    0.397    0.309   13.073
  291.250   95.701    0.372    0.311   13.561
  291.500   90.395    0.365    0.309   13.807
  291.750   86.857    0.365    0.305   14.053
  292.000   83.322    0.376    0.307   13.790
  292.250   80.966    0.395    0.317   13.531
  292.500   83.331    0.410    0.319   13.033
  292.750   84.516    0.415    0.310   12.094
  293.000   83.340    0.434    0.305   11.867
  293.250   82.166    0.459    0.300   11.430
  293.500   82.168    0.468    0.300   11.214
  293.750   85.124    0.459    0.301   10.800
  294.000   89.850    0.454    0.302   10.595
  294.250   93.986    0.455    0.302   10.204
  294.500   93.993    0.458    0.300   10.011
  294.750   92.227    0.458    0.296    9.822
  295.000   89.869    0.455    0.294    9.638
  295.250   86.924    0.449    0.291    9.630
  295.500   89.288    0.451    0.293    9.625
  295.750   91.064    0.457    0.297    9.620
  296.000   88.117    0.461    0.318    9.978
  296.250   86.351    0.445    0.322   10.160
  296.500   86.946    0.435    0.315   10.537
  296.750   94.623    0.440    0.307   10.532
  297.000   91.087    0.451    0.308   10.723
  297.250   85.191    0.444    0.305   10.717
  297.500   85.197    0.438    0.290   10.130
  297.750   85.790    0.484    0.267    9.403
  298.000   86.975    0.444    0.272    8.728
  298.250   88.749    0.438    0.278    7.806
