~VERSION INFORMATION
 VERS.                 2.0:   CWLS LOG ASCII STANDARD -VERSION 2.0
 WRAP.                  NO:   ONE LINE PER DEPTH STEP
~WELL INFORMATION BLOCK
#MNEM.UNIT           DATA                    DESCRIPTION OF MNEMONIC
#---------    -------------------            -------------------------------
# Generated from Intellog Unique Number	CS_71_72/WELL/922
WELL.         SULPETRO BRENDA IPIATIK        : Well_name    - WELL
LOC .         00/14-01-072-10W4/0            : Location     - LOCATION
UWI .         00/14-01-072-10W4/0            : Uwi          - UNIQUE WELL ID
ENTR.         SP                             : Entered      - ENTERED BY
SRVC.         SCHLUMBERGER                   : Scn          - SERVICE COMPANY
STRT.M        310.25                         : top_depth    - START DEPTH
STOP.M        510                            : bot_depth    - STOP DEPTH
STEP.M        0.25                           : increment    - STEP LENGTH
 NULL. -999.2500:NULL Value
~CURVE INFORMATION BLOCK
#MNEM UNIT       ERCB CURVE CODE    CURVE DESCRIPTION
#-----------   ------------------   ----------------------------------
DEPT.M        00 001 00 00         : DEPTH        - DEPTH
ILD .OHMM     00 120 00 00         : RESD         - DEEP RESISTIVITY (DIL)
DPHI.V/V      00 890 00 00         : PHID         - DENSITY POROSITY (LIMESTONE)
NPHI.V/V      00 330 00 00         : PHIN         - NEUTRON POROSITY (LIMESTONE)
GR  .API      00 310 00 00         : GR           - GAMMA RAY
~PARAMETER INFORMATION
#MNEM.UNIT           DATA             DESCRIPTION OF MNEMONIC
#---------         -----------     ------------------------------
GL  .M        664.9                : gl           - GROUND LEVEL ELEVATION
EREF.M        667.5                : kb           - ELEVATION OF DEPTH REFERENCE
DATM.M        664.9                : datum        - DATUM ELEVATION
TDD .M        521                  : tdd          - TOTAL DEPTH DRILLER
RUN .         ONE                  : Run          - RUN NUMBER
ENG .         BILL                 : Engineer     - RECORDING ENGINEER
WIT .         JIM                  : Witness      - WITNESSED BY
MUD .         GEL                  : Mud_type     - MUD TYPE
MATR.         LIMESTONE            : Logunit      - NEUTRON MATRIX
TMAX.C        25                   : BHT          - MAXIMUM RECORDED TEMPERATURE
BHTD.M        521                  : BHTDEP       - MAXIMUM RECORDED TEMPERATURE
MATR.         1                    : LOGUNIT      - NEUTRON MATRIX
RMT .C        25                   : MDTP         - TEMPERATURE OF MUD
NEUT.         1                    : NEUTRON      - NEUTRON TYPE
RESI.         0                    : RESIST       - RESISTIVITY TYPE
RMC .OHMM     0.25                 : RMC          - RESISTIVITY OF MUD CAKE
RMF .OHMM     0.25                 : RMF          - RESISTIVITY OF MUD FILTRATE
SUFT.C        15                   : SUFT         - SURFACE TEMPERATURE
~A  DEPTH     RESD     PHID     PHIN       GR
# ...
  484.250    6.332    0.184    0.360   91.577
  484.500    6.454    0.195    0.353   94.624
  484.750    6.829    0.189    0.320  109.821
  485.000    7.361    0.173    0.316  125.014
  485.250    7.643    0.170    0.350  134.137
  485.500    8.395    0.178    0.378  110.466
  485.750    8.556    0.194    0.371   82.543
  486.000    8.884    0.237    0.351   68.586
  486.250    8.889    0.246    0.327   60.099
  486.500    8.732    0.241    0.311   63.757
  486.750    8.111    0.239    0.304   71.055
  487.000    7.398    0.238    0.316   77.748
  487.250    7.001    0.216    0.326   82.016
  487.500    7.006    0.197    0.302   82.632
  487.750    7.278    0.189    0.277   99.652
  488.000    7.418    0.175    0.264  109.380
  488.250    7.703    0.151    0.257  115.465
  488.500    8.153    0.133    0.252  120.945
  488.750    8.466    0.146    0.264  112.456
  489.000    8.630    0.153    0.274  106.396
  489.250    8.962    0.145    0.270  100.945
  489.500    9.307    0.130    0.258   96.098
  489.750    9.486    0.114    0.268   91.860
  490.000    9.669    0.095    0.326   94.302
  490.250    9.858    0.148    0.368   88.240
  490.500   10.237    0.174    0.341   79.751
  490.750   11.034    0.141    0.317   87.051
  491.000   11.893    0.181    0.293   81.599
  491.250   12.349    0.226    0.402   70.679
  491.500   12.825    0.264    0.370   48.829
  491.750   12.597    0.238    0.324   64.632
  492.000   10.086    0.191    0.281   85.900
  492.250    8.229    0.129    0.519  105.347
  492.500    7.505    0.093    0.534   96.861
  492.750    7.237    0.182    0.370   78.043
  493.000    7.107    0.265    0.340   48.908
  493.250    7.113    0.286    0.321   43.456
  493.500    7.250    0.248    0.309   47.719
  493.750    7.120    0.218    0.299   60.486
  494.000    6.865    0.188    0.291   73.253
  494.250    5.922    0.181    0.292   78.728
  494.500    5.401    0.225    0.325   77.528
  494.750    4.925    0.252    0.344   72.080
  495.000    4.492    0.271    0.333   69.054
  495.250    4.411    0.267    0.342   65.422
  495.500    4.175    0.255    0.343   66.649
  495.750    4.177    0.249    0.358   71.526
  496.000    4.259    0.244    0.319   73.354
  496.250    4.423    0.239    0.301   75.187
  496.500    4.508    0.229    0.293   73.990
  496.750    4.683    0.223    0.288   72.177
  497.000    4.773    0.227    0.318   70.976
  497.250    4.688    0.243    0.350   61.884
  497.500    4.439    0.264    0.377   52.787
  497.750    4.280    0.272    0.367   47.940
  498.000    4.126    0.277    0.365   47.951
  498.250    4.052    0.274    0.348   48.569
  498.500    3.980    0.273    0.321   52.226
  498.750    3.982    0.276    0.321   50.417
  499.000    3.985    0.278    0.361   61.367
  499.250    4.062    0.276    0.377   65.627
  499.500    4.218    0.267    0.380   63.211
  499.750    4.300    0.246    0.363   70.510
  500.000    4.551    0.229    0.346   79.027
  500.250    4.725    0.205    0.329   83.289
  500.500    4.907    0.158    0.317   79.659
  500.750    5.192    0.197    0.327   77.243
  501.000    5.493    0.217    0.327   79.076
  501.250    5.811    0.224    0.317   83.341
  501.500    6.148    0.211    0.300   89.430
  501.750    6.385    0.176    0.294   96.122
  502.000    6.756    0.146    0.283  105.243
  502.250    6.885    0.126    0.284  116.794
  502.500    7.150    0.128    0.302  123.487
  502.750    7.291    0.150    0.311  127.751
  503.000    7.294    0.160    0.317  133.838
  503.250    7.298    0.154    0.299  136.887
  503.500    7.168    0.149    0.285  124.148
  503.750    6.913    0.270    0.273  110.799
  504.000    6.916    0.323    0.385  101.703
  504.250    6.921    0.266    0.423  100.499
  504.500    7.188    0.136    0.404  105.371
  504.750    7.604    0.104    0.387  113.887
  505.000    8.349    0.088    0.363  121.187
  505.250    9.339    0.074    0.344  115.735
  505.500   11.047    0.115    0.343   97.528
  505.750   12.588    0.152    0.341   65.353
  506.000   13.821    0.165    0.350   57.472
  506.250   15.174    0.196    0.363   54.447
  506.500   16.976    0.228    0.369   51.425
  506.750   17.628    0.250    0.374   50.830
  507.000   17.970    0.233    0.331   47.200
  507.250   16.693    0.183    0.261   35.673
  507.500   14.942    0.044    0.188   29.009
  507.750   13.628    0.006    0.155   27.195
  508.000   13.386   -0.001    0.147   23.568
  508.250   14.699    0.004    0.145   22.364
  508.500   16.442    0.018    0.143   21.773
  508.750   17.718    0.026    0.133   23.604
  509.000   19.099    0.027    0.126   30.905
  509.250   19.110    0.037    0.116   49.744
  509.500   17.105    0.059    0.257   69.797
  509.750   15.600    0.079    0.304   88.029
  510.000   18.113    0.068    0.332   78.932
