~VERSION INFORMATION
 VERS.                 2.0:   CWLS LOG ASCII STANDARD -VERSION 2.0
 WRAP.                  NO:   ONE LINE PER DEPTH STEP
~WELL INFORMATION BLOCK
#MNEM.UNIT           DATA                    DESCRIPTION OF MNEMONIC
#---------    -------------------            -------------------------------
# Generated from Intellog Unique Number	CS_73_76/WELL/2197
WELL.         BOW VALLEY INDUSTRIES LTD.     : Well_name    - WELL
LOC .         00/11-06-074-13W4/0            : Location     - LOCATION
UWI .         00/11-06-074-13W4/0            : Uwi          - UNIQUE WELL ID
ENTR.         SP                             : Entered      - ENTERED BY
SRVC.         SCHLUMBERGER                   : Scn          - SERVICE COMPANY
STRT.M        340                            : top_depth    - START DEPTH
STOP.M        565                            : bot_depth    - STOP DEPTH
STEP.M        0.25                           : increment    - STEP LENGTH
 NULL. -999.2500:NULL Value
~CURVE INFORMATION BLOCK
#MNEM UNIT       ERCB CURVE CODE    CURVE DESCRIPTION
#-----------   ------------------   ----------------------------------
DEPT.M        00 001 00 00         : DEPTH        - DEPTH
GR  .API      00 310 00 00         : GR           - GAMMA RAY
DPHI.V/V      00 890 00 00         : PHID         - DENSITY POROSITY (LIMESTONE)
NPHI.V/V      00 330 00 00         : PHIN         - NEUTRON POROSITY (LIMESTONE)
ILD .OHMM     00 120 00 00         : RESD         - DEEP RESISTIVITY (DIL)
~PARAMETER INFORMATION
#MNEM.UNIT           DATA             DESCRIPTION OF MNEMONIC
#---------         -----------     ------------------------------
GL  .M        694.49               : gl           - GROUND LEVEL ELEVATION
EREF.M        697.84               : kb           - ELEVATION OF DEPTH REFERENCE
DATM.M        694.49               : datum        - DATUM ELEVATION
TDD .M        571                  : tdd          - TOTAL DEPTH DRILLER
RUN .         ONE                  : Run          - RUN NUMBER
ENG .         BILL                 : Engineer     - RECORDING ENGINEER
WIT .         JIM                  : Witness      - WITNESSED BY
MUD .         GEL                  : Mud_type     - MUD TYPE
MATR.         LIMESTONE            : Logunit      - NEUTRON MATRIX
TMAX.C        24                   : BHT          - MAXIMUM RECORDED TEMPERATURE
BHTD.M        571                  : BHTDEP       - MAXIMUM RECORDED TEMPERATURE
MATR.         1                    : LOGUNIT      - NEUTRON MATRIX
RMT .C        25                   : MDTP         - TEMPERATURE OF MUD
NEUT.         1                    : NEUTRON      - NEUTRON TYPE
RESI.         0                    : RESIST       - RESISTIVITY TYPE
RMC .OHMM     0.25                 : RMC          - RESISTIVITY OF MUD CAKE
RMF .OHMM     0.25                 : RMF          - RESISTIVITY OF MUD FILTRATE
SUFT.C        15                   : SUFT         - SURFACE TEMPERATURE
~A  DEPTH       GR     PHID     PHIN     RESD
# ...
  514.000  113.270    0.217    0.494    3.354
  514.250  113.278    0.213    0.506    3.354
  514.500  109.658    0.224    0.497    3.416
  514.750  108.455    0.180    0.495    3.546
  515.000  107.861    0.154    0.490    4.273
  515.250  107.261    0.184    0.480    6.091
  515.500  105.454    0.207    0.462    9.532
  515.750  100.622    0.177    0.428   13.338
  516.000   86.720    0.167    0.404   17.318
  516.250   76.445    0.156    0.375   19.368
  516.500   72.220    0.197    0.332   20.101
  516.750   70.412    0.249    0.316   20.477
  517.000   68.605    0.274    0.315   20.474
  517.250   68.009    0.285    0.328   20.471
  517.500   68.622    0.247    0.354   20.087
  517.750   69.839    0.231    0.368   20.464
  518.000   70.455    0.232    0.385   21.638
  518.250   69.858    0.237    0.402   22.043
  518.500   70.469    0.234    0.402   22.455
  518.750   71.086    0.226    0.395   22.451
  519.000   72.302    0.218    0.390   21.625
  519.250   72.911    0.203    0.383   20.443
  519.500   73.527    0.223    0.388   18.968
  519.750   72.324    0.219    0.376   18.269
  520.000   72.937    0.195    0.368   17.929
  520.250   75.363    0.181    0.367   17.927
  520.500   80.815    0.205    0.369   17.592
  520.750   85.662    0.225    0.365   16.631
  521.000   92.930    0.241    0.373   15.146
  521.250   97.775    0.239    0.384   13.539
  521.500   96.578    0.220    0.395   11.878
  521.750   95.371    0.213    0.384   10.818
  522.000  101.430    0.218    0.373   10.038
  522.250  106.277    0.204    0.382    9.142
  522.500  108.099    0.203    0.396    8.325
  522.750  111.736    0.211    0.408    8.170
  523.000  117.188    0.187    0.397    7.869
  523.250  119.615    0.174    0.389    7.580
  523.500  120.228    0.186    0.392    7.867
  523.750  120.237    0.194    0.398    8.798
  524.000  119.640    0.191    0.413   10.406
  524.250  116.623    0.189    0.426   12.307
  524.500  110.583    0.211    0.419   13.260
  524.750  102.727    0.234    0.390   14.555
  525.000   88.219    0.262    0.362   15.681
  525.250   76.734    0.278    0.359   15.678
  525.500   74.324    0.268    0.397   15.676
  525.750   76.146    0.249    0.408   15.099
  526.000   77.363    0.236    0.402   14.816
  526.250   79.187    0.254    0.403   14.540
  526.500   80.405    0.253    0.404   14.812
  526.750   80.412    0.242    0.407   15.088
  527.000   78.607    0.237    0.420   15.370
  527.250   76.800    0.256    0.433   15.368
  527.500   75.598    0.266    0.441   15.654
  527.750   76.210    0.268    0.418   15.948
  528.000   79.244    0.254    0.404   16.550
  528.250   81.067    0.251    0.397   16.860
  528.500   80.469    0.255    0.390   17.499
  528.750   78.058    0.265    0.382   18.505
  529.000   77.461    0.265    0.370   20.312
  529.250   77.469    0.251    0.362   24.022
  529.500   76.871    0.251    0.351   25.404
  529.750   72.646    0.268    0.334   28.945
  530.000   67.210    0.307    0.323   33.603
  530.250   62.983    0.324    0.330   39.010
  530.500   61.782    0.313    0.341   41.249
  530.750   57.557    0.301    0.355   41.241
  531.000   54.540    0.292    0.365   42.804
  531.250   52.733    0.289    0.380   46.985
  531.500   53.952    0.285    0.368   74.916
  531.750   55.168    0.289    0.375  102.881
  532.000   47.316    0.300    0.387  126.319
  532.250   43.692    0.310    0.392  149.405
  532.500   39.466    0.309    0.361  155.065
  532.750   36.451    0.318    0.363  157.961
  533.000   35.248    0.317    0.377  163.940
  533.250   36.465    0.314    0.371  167.006
  533.500   38.895    0.313    0.364  163.890
  533.750   40.111    0.312    0.360  160.830
  534.000   41.331    0.302    0.357  163.831
  534.250   41.944    0.296    0.353  170.035
  534.500   41.346    0.309    0.348  176.476
  534.750   40.145    0.316    0.354  183.162
  535.000   38.339    0.330    0.366  186.572
  535.250   36.532    0.327    0.377  190.065
  535.500   35.934    0.318    0.372  204.748
  535.750   34.732    0.311    0.366  208.587
  536.000   35.949    0.307    0.358  193.552
  536.250   40.192    0.299    0.354  173.013
  536.500   43.224    0.301    0.372  163.559
  536.750   41.420    0.303    0.377  160.506
  537.000   40.216    0.308    0.367  160.474
  537.250   40.833    0.313    0.362  163.471
  537.500   40.234    0.316    0.365  163.440
  537.750   39.637    0.314    0.366  166.500
  538.000   37.225    0.309    0.360  163.398
  538.250   34.209    0.306    0.356  151.614
  538.500   31.798    0.314    0.360  133.018
  538.750   29.992    0.322    0.360  110.348
  539.000   33.628    0.322    0.351   80.325
  539.250   40.291    0.305    0.338   60.697
  539.500   48.162    0.300    0.326   42.564
  539.750   57.848    0.298    0.348   32.163
  540.000   66.323    0.284    0.351   22.137
  540.250   73.588    0.276    0.345   17.042
  540.500   89.928    0.258    0.340   13.620
  540.750  106.267    0.209    0.361   10.884
  541.000  109.904    0.171    0.371    9.549
  541.250  112.937    0.178    0.377    8.697
  541.500  117.788    0.174    0.380    8.222
  541.750  119.001    0.171    0.374    8.068
  542.000  121.428    0.173    0.379    8.067
  542.250  115.390    0.173    0.383    8.066
  542.500  112.371    0.187    0.374    8.528
  542.750  118.430    0.202    0.377    8.688
  543.000  129.327    0.222    0.383    9.359
  543.250  133.566    0.210    0.360    9.535
  543.500  132.971    0.188    0.346   10.272
  543.750  124.511    0.194    0.328   11.275
  544.000  116.049    0.194    0.318   12.148
  544.250  105.775    0.187    0.339   13.335
  544.500   95.500    0.181    0.357   15.194
  544.750   88.854    0.125    0.355   16.677
  545.000   79.186    0.143    0.335   17.635
  545.250   71.934    0.182    0.329   16.364
  545.500   77.390    0.204    0.341   14.091
  545.750   81.629    0.221    0.362   13.075
  546.000   88.291    0.228    0.383   12.361
  546.250   92.532    0.221    0.379   11.905
  546.500   95.565    0.211    0.366   11.684
  546.750   97.386    0.206    0.363   11.466
  547.000  100.421    0.203    0.375   11.251
  547.250  102.242    0.208    0.382   11.041
  547.500   98.621    0.221    0.375   10.635
  547.750   93.790    0.234    0.367   10.244
  548.000   91.983    0.237    0.361    9.684
  548.250   92.597    0.235    0.365    8.657
  548.500   91.394    0.235    0.369    7.316
  548.750   87.774    0.234    0.373    6.663
  549.000   86.573    0.235    0.367    6.183
  549.250   84.765    0.241    0.368    5.737
  549.500   79.329    0.258    0.368    5.526
  549.750   72.684    0.268    0.353    5.322
  550.000   75.717    0.255    0.345    5.126
  550.250   81.775    0.251    0.348    4.757
  550.500   72.103    0.261    0.357    4.252
  550.750   58.201    0.277    0.359    3.730
  551.000   49.136    0.289    0.366    3.397
  551.250   41.885    0.300    0.360    3.152
  551.500   35.239    0.313    0.355    3.036
  551.750   32.828    0.319    0.352    2.980
  552.000   32.836    0.325    0.343    2.924
  552.250   34.056    0.311    0.351    2.979
  552.500   34.666    0.313    0.353    3.034
  552.750   40.723    0.314    0.358    3.209
  553.000   47.989    0.308    0.365    3.866
  553.250   64.329    0.301    0.374    4.747
  553.500   75.829    0.185    0.365    5.511
  553.750   98.823    0.178    0.349    6.163
  554.000  107.299    0.174    0.336    6.892
  554.250  104.887    0.171    0.343    7.289
  554.500  112.155    0.150    0.344    8.000
  554.750  109.745    0.156    0.335    8.149
  555.000  106.725    0.161    0.338    8.148
  555.250  103.105    0.162    0.341    7.996
  555.500  101.297    0.183    0.343    7.995
  555.750  103.728    0.195    0.343    7.994
  556.000  104.944    0.195    0.341    7.844
  556.250  106.766    0.192    0.345    7.843
  556.500  105.564    0.194    0.345    7.842
  556.750  110.411    0.203    0.352    7.840
  557.000  120.703    0.189    0.362    7.839
  557.250  129.178    0.175    0.362    7.986
