~VERSION INFORMATION
 VERS.                 2.0:   CWLS LOG ASCII STANDARD -VERSION 2.0
 WRAP.                  NO:   ONE LINE PER DEPTH STEP
~WELL INFORMATION BLOCK
#MNEM.UNIT           DATA                    DESCRIPTION OF MNEMONIC
#---------    -------------------            -------------------------------
# Generated from Intellog Unique Number	CW_73_75/WELL/2980
WELL.         PINNACLE ET AL MARTENH 15-24   : Well_name    - WELL
LOC .         00/15-24-074-02W5/0            : Location     - LOCATION
UWI .         00/15-24-074-02W5/0            : Uwi          - UNIQUE WELL ID
ENTR.         J                              : Entered      - ENTERED BY
SRVC.         SCHLUMBERGER                   : Scn          - SERVICE COMPANY
DATE.         20 JAN 89                      : Date         - LOG DATE
STRT.M        400                            : top_depth    - START DEPTH
STOP.M        615                            : bot_depth    - STOP DEPTH
STEP.M        0.25                           : increment    - STEP LENGTH
 NULL. -999.2500:NULL Value
~CURVE INFORMATION BLOCK
#MNEM UNIT       ERCB CURVE CODE    CURVE DESCRIPTION
#-----------   ------------------   ----------------------------------
DEPT.M        00 001 00 00         : DEPTH        - DEPTH
ILD .OHMM     00 120 00 00         : RESD         - DEEP RESISTIVITY (DIL)
CALI.MM       00 280 01 00         : CAL          - CALIPER
GR  .API      00 310 00 00         : GR           - GAMMA RAY
NPHI.V/V      00 330 00 00         : PHIN         - NEUTRON POROSITY (SANDSTONE)
DPHI.V/V      00 890 00 00         : PHID         - DENSITY POROSITY (SANDSTONE)
~PARAMETER INFORMATION
#MNEM.UNIT           DATA             DESCRIPTION OF MNEMONIC
#---------         -----------     ------------------------------
GL  .M        670.3                : gl           - GROUND LEVEL ELEVATION
EREF.M        673.7                : kb           - ELEVATION OF DEPTH REFERENCE
DATM.M        670.3                : datum        - DATUM ELEVATION
TDD .M        624.2                : tdd          - TOTAL DEPTH DRILLER
RUN .         ONE                  : Run          - RUN NUMBER
ENG .         ZACHYSTAL            : Engineer     - RECORDING ENGINEER
WIT .         COX                  : Witness      - WITNESSED BY
BASE.         SLAVE LAKE           : Branch       - HOME BASE OF LOGGING UNIT
MUD .         POLYMER              : Mud_type     - MUD TYPE
MATR.         SANDSTONE            : Logunit      - NEUTRON MATRIX
TMAX.C        36                   : BHT          - MAXIMUM RECORDED TEMPERATURE
BHTD.M        619.3                : BHTDEP       - MAXIMUM RECORDED TEMPERATURE
RMT .C        16                   : MDTP         - TEMPERATURE OF MUD
MUDD.KG/M     1045                 : MWT          - MUD DENSITY
NEUT.         1                    : NEUTRON      - NEUTRON TYPE
RESI.         0                    : RESIST       - RESISTIVITY TYPE
RM  .OHMM     7.4                  : RM           - RESISTIVITY OF MUD
RMC .OHMM     0.25                 : RMC          - RESISTIVITY OF MUD CAKE
RMF .OHMM     2.1                  : RMF          - RESISTIVITY OF MUD FILTRATE
SUFT.C        -17.7778             : SUFT         - SURFACE TEMPERATURE
~A  DEPTH     RESD      CAL       GR     PHIN     PHID
# ...
  582.500   10.950  201.369   63.476    0.283    0.103
  582.750   10.365  201.487   75.358    0.348    0.125
  583.000    9.757  201.299   76.951    0.355    0.118
  583.250    9.067  201.114   76.350    0.353    0.101
  583.500    8.457  200.824   74.534    0.347    0.074
  583.750    7.745  200.536   76.856    0.361    0.084
  584.000    7.385  200.045   81.797    0.382    0.111
  584.250    7.094  199.858   86.008    0.386    0.121
  584.500    6.940  200.077   85.773    0.361    0.138
  584.750    6.942  200.195   83.774    0.357    0.149
  585.000    7.176  200.208   80.800    0.369    0.133
  585.250    7.488  200.123   78.435    0.355    0.095
  585.500    7.769  200.139   83.194    0.343    0.101
  585.750    7.771  200.359   87.343    0.351    0.123
  586.000    7.715  200.576   88.265    0.367    0.137
  586.250    7.675  200.794   88.823    0.361    0.140
  586.500    7.704  200.912   80.735    0.320    0.103
  586.750    7.552  201.029   75.631    0.310    0.064
  587.000    7.005  201.350   85.015    0.323    0.115
  587.250    5.916  201.364   90.749    0.341    0.132
  587.500    4.394  201.586   94.106    0.378    0.159
  587.750    3.429  201.700   96.793    0.444    0.191
  588.000    2.945  201.514  101.674    0.466    0.213
  588.250    2.772  201.632  102.352    0.453    0.220
  588.500    2.793  201.447  103.884    0.444    0.197
  588.750    2.903  201.056  102.433    0.449    0.179
  589.000    3.166  200.869   94.771    0.419    0.161
  589.250    3.709  200.782   86.136    0.368    0.146
  589.500    4.728  201.506   84.380    0.366    0.147
  589.750    5.488  202.944   87.312    0.378    0.152
  590.000    5.984  206.105   88.660    0.368    0.135
  590.250    6.152  207.642   89.827    0.351    0.128
  590.500    5.921  207.455   92.149    0.343    0.134
  590.750    5.362  205.848   97.455    0.349    0.124
  591.000    4.147  203.428   98.195    0.365    0.089
  591.250    3.327  199.894   84.811    0.364    0.027
  591.500    2.693  197.577   63.757    0.341    0.138
  591.750    2.439  196.171   38.136    0.350    0.185
  592.000    2.339  195.273   27.491    0.342    0.246
  592.250    2.400  194.781   23.179    0.338    0.310
  592.500    2.560  194.088   24.040    0.362    0.315
  592.750    2.844  193.291   24.538    0.356    0.315
  593.000    3.107  192.800   24.303    0.353    0.310
  593.250    3.375  192.308   22.547    0.351    0.293
  593.500    3.804  192.020   21.157    0.323    0.255
  593.750    4.327  192.644   20.496    0.257    0.180
  594.000    4.841  197.022   20.567    0.185    0.129
  594.250    4.941  199.574   20.819    0.194    0.192
  594.500    4.600  195.431   21.498    0.245    0.274
  594.750    3.752  195.143   22.422    0.337    0.297
  595.000    3.336  196.680   24.744    0.362    0.304
  595.250    3.083  197.711   27.189    0.349    0.303
  595.500    2.903  197.626   25.556    0.335    0.305
  595.750    2.778  196.220   25.198    0.358    0.307
  596.000    2.703  196.136   25.026    0.365    0.307
  596.250    2.703  197.573   24.791    0.357    0.305
  596.500    2.759  197.891   25.288    0.348    0.299
  596.750    2.863  197.604   26.698    0.342    0.295
  597.000    2.982  197.212   27.682    0.338    0.295
  597.250    3.105  196.924   28.908    0.345    0.291
  597.500    3.175  196.939   31.231    0.358    0.284
  597.750    3.235  196.043   33.676    0.362    0.279
  598.000    3.259  194.131   36.181    0.374    0.273
  598.250    3.266  192.930   36.251    0.375    0.272
  598.500    3.261  192.439   37.722    0.360    0.273
  598.750    3.255  192.250   36.514    0.346    0.276
  599.000    3.256  192.772   33.967    0.349    0.274
  599.250    3.250  194.006   33.003    0.370    0.269
  599.500    3.263  195.038   33.194    0.369    0.268
  599.750    3.282  195.561   33.691    0.356    0.264
  600.000    3.319  195.882   34.248    0.347    0.268
  600.250    3.362  196.098   35.415    0.338    0.279
  600.500    3.394  196.420   37.616    0.336    0.274
  600.750    3.439  196.637   42.982    0.349    0.267
  601.000    3.484  197.161   46.523    0.356    0.258
  601.250    3.562  197.380   46.349    0.360    0.262
  601.500    3.649  197.496   43.133    0.368    0.270
  601.750    3.759  197.818   41.133    0.371    0.269
  602.000    3.943  198.137   44.004    0.360    0.260
  602.250    4.183  197.950   50.162    0.339    0.240
  602.500    4.364  196.749   55.224    0.373    0.248
  602.750    4.630  196.562   60.774    0.487    0.304
  603.000    5.058  198.403   67.784    0.534    0.363
  603.250    5.576  200.246   76.256    0.322    0.325
  603.500    6.390  200.566   72.248    0.286    0.148
  603.750    6.904  200.885   67.935    0.280    0.139
  604.000    7.350  200.700   64.474    0.291    0.129
  604.250    7.406  200.612   67.771    0.315    0.118
  604.500    6.832  199.310   80.383    0.338    0.117
  604.750    6.120  195.875   84.532    0.365    0.109
  605.000    5.462  196.907   87.768    0.391    0.100
  605.250    4.920  198.443   91.248    0.409    0.135
  605.500    4.631  201.605   93.814    0.407    0.165
  605.750    4.416  201.319   96.259    0.425    0.185
  606.000    4.281  198.491   97.912    0.456    0.164
  606.250    4.097  197.696   97.434    0.479    0.165
  606.500    3.964  199.335   95.983    0.462    0.154
  606.750    3.836  200.671   94.470    0.432    0.134
  607.000    3.795  201.091   93.079    0.425    0.111
  607.250    3.789  200.904   91.629    0.413    0.088
  607.500    3.803  200.919   90.725    0.383    0.068
  607.750    3.839  201.544   89.821    0.349    0.050
  608.000    3.918  201.864   89.403    0.354    0.085
  608.250    4.014  201.576   95.318    0.367    0.129
  608.500    4.196  201.895  103.912    0.398    0.150
  608.750    4.738  203.941  107.209    0.407    0.144
  609.000    5.252  205.986  104.235    0.407    0.130
  609.250    5.748  206.915  101.932    0.368    0.139
  609.500    6.648  201.554  100.846    0.350    0.162
  609.750    7.590  201.264  100.063    0.354    0.186
  610.000    9.106  208.788   98.490    0.283    0.137
  610.250   10.358  203.731   97.282    0.257    0.120
  610.500   11.461  198.674   99.726    0.270    0.152
  610.750   12.136  200.110  104.545    0.246    0.121
  611.000   11.895  199.011  104.739    0.261    0.070
  611.250   11.745  195.982  103.652    0.248    0.060
  611.500   12.391  194.780  102.139    0.203    0.044
  611.750   13.412  194.186  100.139    0.175    0.048
  612.000   15.006  194.507   98.261    0.160    0.040
  612.250   16.363  194.829   96.079    0.155    0.036
  612.500   17.712  196.569   94.140    0.158    0.036
  612.750   18.177  199.324   90.497    0.167    0.022
  613.000   18.114  200.963   85.575    0.167    0.017
  613.250   17.919  200.775   81.810    0.166    0.040
  613.500   17.628  199.573   81.637    0.165    0.032
  613.750   17.535  196.039   82.803    0.165    0.044
  614.000   17.571  196.156   84.213    0.167    0.078
  614.250   17.933  203.071   86.111    0.167    0.101
  614.500   18.677  202.377   87.763    0.166    0.132
  614.750   20.068  196.204   88.625    0.167    0.133
  615.000   21.603  193.073   89.060    0.170    0.090
