~VERSION INFORMATION
 VERS.                 2.0:   CWLS LOG ASCII STANDARD -VERSION 2.0
 WRAP.                  NO:   ONE LINE PER DEPTH STEP
~WELL INFORMATION BLOCK
#MNEM.UNIT           DATA                    DESCRIPTION OF MNEMONIC
#---------    -------------------            -------------------------------
# Generated from Intellog Unique Number	CS_67_68/WELL/2199
WELL.         10-30-067-18W4                 : Well_name    - WELL
LOC .         00/10-30-067-18W4/0            : Location     - LOCATION
UWI .         00/10-30-067-18W4/0            : Uwi          - UNIQUE WELL ID
ENTR.         JHS                            : Entered      - ENTERED BY
SRVC.         SCHLUMBERGER                   : Scn          - SERVICE COMPANY
STRT.M        350.52                         : top_depth    - START DEPTH
STOP.M        554.52                         : bot_depth    - STOP DEPTH
STEP.M        0.25                           : increment    - STEP LENGTH
 NULL. -999.2500:NULL Value
~CURVE INFORMATION BLOCK
#MNEM UNIT       ERCB CURVE CODE    CURVE DESCRIPTION
#-----------   ------------------   ----------------------------------
DEPT.M        00 001 00 00         : DEPTH        - DEPTH
CALI.MM       00 280 01 00         : CAL          - CALIPER
GR  .API      00 310 00 00         : GR           - GAMMA RAY
DPHI.V/V      00 890 00 00         : PHID         - DENSITY POROSITY (SANDSTONE)
NPHI.V/V      00 330 00 00         : PHIN         - NEUTRON POROSITY (SANDSTONE)
ILD .OHMM     00 120 00 00         : RESD         - DEEP RESISTIVITY (DIL)
~PARAMETER INFORMATION
#MNEM.UNIT           DATA             DESCRIPTION OF MNEMONIC
#---------         -----------     ------------------------------
GL  .M        578                  : gl           - GROUND LEVEL ELEVATION
EREF.M        578                  : kb           - ELEVATION OF DEPTH REFERENCE
DATM.M        578                  : datum        - DATUM ELEVATION
TDD .M        556                  : tdd          - TOTAL DEPTH DRILLER
RUN .         ONE                  : Run          - RUN NUMBER
ENG .         BILL                 : Engineer     - RECORDING ENGINEER
WIT .         JIM                  : Witness      - WITNESSED BY
MUD .         GEL                  : Mud_type     - MUD TYPE
MATR.         SANDSTONE            : Logunit      - NEUTRON MATRIX
TMAX.C        22.7778              : BHT          - MAXIMUM RECORDED TEMPERATURE
BHTD.M        558.698              : BHTDEP       - MAXIMUM RECORDED TEMPERATURE
BTZC.MM       0                    : BITZC        - BIT SIZE CONSTANT
MATR.         1                    : LOGUNIT      - NEUTRON MATRIX
RMT .C        25                   : MDTP         - TEMPERATURE OF MUD
NEUT.         1                    : NEUTRON      - NEUTRON TYPE
RESI.         0                    : RESIST       - RESISTIVITY TYPE
RMC .OHMM     0.25                 : RMC          - RESISTIVITY OF MUD CAKE
RMF .OHMM     0.6                  : RMF          - RESISTIVITY OF MUD FILTRATE
SUFT.C        13                   : SUFT         - SURFACE TEMPERATURE
~A  DEPTH      CAL       GR     PHID     PHIN     RESD
  350.520  195.111  106.551    0.177    0.587    2.721
  350.770  199.405  106.230    0.155    0.596    2.761
  351.020  199.961  105.475    0.160    0.599    2.793
  351.270  194.890  104.180    0.166    0.556    2.847
  351.520  196.666  103.850    0.174    0.568    2.983
  351.770  193.911  103.662    0.183    0.575    3.081
  352.020  181.231  100.756    0.195    0.517    3.114
  352.270  167.475   99.725    0.045    0.503    3.055
  352.520  167.655  101.754    0.186    0.537    2.945
  352.770  184.954  105.124    0.189    0.555    2.809
  353.020  194.469  105.801    0.196    0.569    2.684
  353.270  194.465  104.401    0.190    0.558    2.626
  353.520  201.466  105.126    0.209    0.573    2.569
  353.770  202.206  107.457    0.217    0.589    2.570
  354.020  200.201  109.153    0.190    0.582    2.598
  354.270  197.153  109.174    0.177    0.581    2.639
  354.520  190.896  108.164    0.180    0.580    2.716
  354.770  183.186  108.584    0.171    0.574    2.793
  355.020  186.173  110.007    0.167    0.587    2.826
  355.270  184.847  111.868    0.160    0.592    2.880
  355.520  180.696  114.623    0.183    0.585    2.892
  355.770  176.184  115.929    0.187    0.596    2.895
  356.020  171.156  114.625    0.203    0.603    2.864
  356.270  175.336  107.539    0.200    0.588    2.838
  356.520  180.429  104.761    0.189    0.582    2.802
  356.770  187.487  103.556    0.227    0.582    2.725
  357.020  189.363  102.863    0.213    0.600    2.696
  357.270  187.609  101.280    0.211    0.612    2.670
  357.520  187.052   97.513    0.218    0.626    2.702
  357.770  191.886   95.104    0.233    0.605    2.838
  358.020  198.320   94.732    0.245    0.613    3.003
  358.270  205.674   93.370    0.256    0.620    3.200
  358.520  196.531   90.288    0.224    0.532    3.384
  358.770  167.825   86.328    0.156    0.434    3.564
  359.020  156.554   89.420    0.206    0.406    3.580
  359.270  149.956   93.457    0.233    0.417    3.502
  359.520  152.099   91.432    0.231    0.437    3.540
  359.770  151.973   88.373    0.233    0.450    3.690
  360.020  151.960   86.931    0.247    0.467    3.840
  360.270  152.340   86.876    0.273    0.507    4.015
  360.520  153.807   87.853    0.274    0.517    4.063
  360.770  160.543   90.296    0.248    0.474    4.001
  361.020  158.407   94.864    0.225    0.459    3.857
  361.270  155.974   98.871    0.223    0.471    3.743
  361.520  153.600  102.518    0.234    0.478    3.654
  361.770  151.971  105.001    0.217    0.436    3.623
  362.020  150.188  104.608    0.227    0.446    3.702
  362.270  149.773  103.632    0.239    0.445    3.850
  362.520  151.650  106.612    0.211    0.435    4.025
  362.770  156.284  108.966    0.195    0.452    4.255
  363.020  160.396  109.962    0.182    0.495    4.425
  363.270  163.646  102.694    0.267    0.538    4.592
  363.520  161.685   94.543    0.282    0.559    4.661
  363.770  160.212   88.525    0.271    0.497    4.573
  364.020  159.198   82.677    0.233    0.455    4.405
  364.270  156.971   79.321    0.233    0.433    4.317
  364.520  153.662   80.956    0.218    0.414    4.287
  364.770  150.026   86.129    0.198    0.413    4.419
  365.020  148.125   89.484    0.149    0.425    4.721
  365.270  155.098   82.813    0.143    0.432    4.647
  365.520  158.852   72.363    0.140    0.441    4.347
  365.770  158.514   64.829    0.120    0.425    3.928
  366.020  156.183   55.754    0.123    0.412    3.466
  366.270  152.524   52.495    0.288    0.423    3.054
  366.520  149.563   57.829    0.274    0.431    2.659
  366.770  149.956   59.903    0.253    0.438    2.376
  367.020  154.923   58.145    0.254    0.446    2.168
  367.270  154.605   54.333    0.277    0.456    2.052
  367.520  151.540   54.404    0.288    0.459    1.955
  367.770  149.931   56.679    0.291    0.451    2.009
  368.020  148.399   58.978    0.306    0.449    2.269
  368.270  147.825   67.778    0.287    0.460    2.646
  368.520  148.515   78.045    0.277    0.447    3.118
  368.770  149.632   84.687    0.274    0.447    3.741
  369.020  151.879   88.716    0.302    0.551    4.452
  369.270  154.717   83.796    0.416    0.580    5.002
  369.520  157.802   77.811    0.453    0.600    5.125
  369.770  159.573   90.153    0.285    0.605    4.736
  370.020  157.902   91.127    0.245    0.558    4.342
  370.270  154.725   86.879    0.228    0.511    4.079
  370.520  151.804   83.794    0.229    0.489    3.862
  370.770  151.442   88.641    0.236    0.472    3.767
  371.020  156.050   92.298    0.204    0.465    3.995
  371.270  160.803   91.833    0.181    0.481    4.296
  371.520  162.497   82.775    0.190    0.492    4.527
  371.770  159.984   77.825    0.200    0.504    4.634
  372.020  158.059   74.787    0.209    0.515    4.472
  372.270  153.939   72.287    0.261    0.494    4.187
  372.520  150.920   70.469    0.184    0.474    3.945
  372.770  149.213   68.255    0.171    0.482    3.651
  373.020  148.518   66.448    0.151    0.472    3.444
  373.270  148.219   70.606    0.166    0.461    3.236
  373.520  147.998   73.789    0.198    0.453    3.127
  373.770  147.664   72.982    0.245    0.462    3.385
  374.020  147.627   71.302    0.254    0.470    3.718
  374.270  148.697   70.070    0.235    0.441    4.429
  374.520  151.429   69.674    0.210    0.385    5.686
  374.770  154.425   68.530    0.153    0.324    6.896
  375.020  157.145   66.814    0.116    0.284    7.806
  375.270  158.611   65.281    0.115    0.277    7.924
  375.520  159.413   68.520    0.132    0.325    7.052
  375.770  158.800   78.193    0.149    0.376    5.961
  376.020  157.045   85.310    0.184    0.418    5.206
  376.270  156.529   92.493    0.212    0.452    4.658
  376.520  157.463   99.690    0.174    0.478    4.420
  376.770  159.480  104.055    0.150    0.494    4.275
  377.020  160.546  102.054    0.147    0.474    4.207
  377.270  158.288   95.424    0.150    0.468    4.260
  377.520  155.514   93.675    0.143    0.459    4.372
  377.770  153.421   91.568    0.102    0.442    4.540
  378.020  153.020   94.134    0.075    0.472    4.569
  378.270  153.244   98.951    0.116    0.504    4.296
  378.520  154.573  101.648    0.177    0.516    4.043
  378.770  156.635  101.231    0.162    0.509    3.862
  379.020  163.928  109.434    0.133    0.527    3.752
  379.270  172.818  116.974    0.147    0.542    3.899
  379.520  178.699  122.052    0.191    0.540    4.066
  379.770  182.647  125.896    0.202    0.538    4.308
  380.020  181.365  123.005    0.211    0.519    4.497
  380.270  167.890  120.080    0.162    0.493    4.750
  380.520  175.258  120.107    0.143    0.502    5.018
  380.770  168.902  116.608    0.165    0.509    5.222
  381.020  164.185  113.903    0.184    0.494    5.302
  381.270  159.435  113.183    0.168    0.484    5.207
  381.520  156.034  112.237    0.175    0.478    5.116
  381.770  157.377  108.917    0.180    0.484    4.976
  382.020  157.974  103.975    0.197    0.488    4.792
  382.270  157.692  101.058    0.205    0.484    4.566
  382.520  155.820  102.055    0.214    0.494    4.381
  382.770  155.012  101.882    0.196    0.509    4.304
  383.020  155.142  100.242    0.188    0.513    4.523
  383.270  155.300   98.897    0.178    0.511    4.709
  383.520  155.923  101.368    0.168    0.516    4.555
  383.770  157.228  105.565    0.155    0.509    4.336
  384.020  158.563  109.834    0.181    0.502    4.158
  384.270  158.991  110.566    0.165    0.510    4.050
  384.520  157.866  106.253    0.195    0.514    4.027
  384.770  154.472  102.115    0.197    0.543    4.050
  385.020  169.811  106.070    0.220    0.550    4.116
  385.270  166.139  113.253    0.243    0.508    4.190
  385.520  165.222  117.355    0.159    0.515    4.318
  385.770  167.355  120.250    0.176    0.533    4.527
  386.020  169.249  121.237    0.193    0.551    4.687
  386.270  170.035  121.222    0.206    0.518    4.566
  386.520  169.574  122.992    0.118    0.489    4.323
  386.770  166.732  123.937    0.123    0.474    4.004
