~VERSION INFORMATION
 VERS.                 2.0:   CWLS LOG ASCII STANDARD -VERSION 2.0
 WRAP.                  NO:   ONE LINE PER DEPTH STEP
~WELL INFORMATION BLOCK
#MNEM.UNIT           DATA                    DESCRIPTION OF MNEMONIC
#---------    -------------------            -------------------------------
# Generated from Intellog Unique Number	CX_WELLS/WELL/3044
WELL.         10-06-082-14W4                 : Well_name    - WELL
LOC .         00/10-06-082-14W4/0            : Location     - LOCATION
UWI .         00/10-06-082-14W400            : Uwi          - UNIQUE WELL ID
ENTR.         T                              : Entered      - ENTERED BY
SRVC.         SCHLUMBERGER                   : Scn          - SERVICE COMPANY
STRT.M        135                            : top_depth    - START DEPTH
STOP.M        350                            : bot_depth    - STOP DEPTH
STEP.M        0.25                           : increment    - STEP LENGTH
 NULL. -999.2500:NULL Value
~CURVE INFORMATION BLOCK
#MNEM UNIT       ERCB CURVE CODE    CURVE DESCRIPTION
#-----------   ------------------   ----------------------------------
DEPT.M        00 001 00 00         : DEPTH        - DEPTH
GR  .API      00 310 00 00         : GR           - GAMMA RAY
NPHI.V/V      00 330 00 00         : PHIN         - NEUTRON POROSITY (SANDSTONE)
DPHI.V/V      00 890 00 00         : PHID         - DENSITY POROSITY (SANDSTONE)
ILD .OHMM     00 120 00 00         : RESD         - DEEP RESISTIVITY (OTHER)
~PARAMETER INFORMATION
#MNEM.UNIT           DATA             DESCRIPTION OF MNEMONIC
#---------         -----------     ------------------------------
GL  .M        578                  : gl           - GROUND LEVEL ELEVATION
EREF.M        581.8                : kb           - ELEVATION OF DEPTH REFERENCE
DATM.M        581.8                : datum        - DATUM ELEVATION
TDD .M        352                  : tdd          - TOTAL DEPTH DRILLER
RUN .         ONE                  : Run          - RUN NUMBER
ENG .         BILL                 : Engineer     - RECORDING ENGINEER
WIT .         JIM                  : Witness      - WITNESSED BY
MUD .         GEL                  : Mud_type     - MUD TYPE
MATR.         SANDSTONE            : Logunit      - NEUTRON MATRIX
TMAX.C        29                   : BHT          - MAXIMUM RECORDED TEMPERATURE
BHTD.M        352                  : BHTDEP       - MAXIMUM RECORDED TEMPERATURE
MATR.         1                    : LOGUNIT      - NEUTRON MATRIX
RMT .C        25                   : MDTP         - TEMPERATURE OF MUD
NEUT.         1                    : NEUTRON      - NEUTRON TYPE
RESI.         2.6                  : RESIST       - RESISTIVITY TYPE
RMC .OHMM     1.5                  : RMC          - RESISTIVITY OF MUD CAKE
RMF .OHMM     3                    : RMF          - RESISTIVITY OF MUD FILTRATE
SUFT.C        4                    : SUFT         - SURFACE TEMPERATURE
~A  DEPTH       GR     PHIN     PHID     RESD
# ...
  178.500   68.056    0.434    0.290   11.685
  178.750   69.285    0.431    0.289   12.624
  179.000   71.699    0.427    0.279   12.882
  179.250   77.682    0.424    0.267   12.897
  179.500   83.061    0.436    0.258   12.426
  179.750   86.068    0.442    0.256   11.102
  180.000   86.714    0.442    0.253   10.106
  180.250   87.349    0.443    0.253    9.553
  180.500   89.763    0.447    0.253    8.702
  180.750   91.585    0.445    0.255    8.543
  181.000   92.220    0.436    0.259    8.391
  181.250   92.262    0.426    0.264    8.406
  181.500   92.897    0.415    0.265    8.578
  181.750   93.533    0.410    0.263    8.424
  182.000   93.586    0.418    0.260    8.119
  182.250   93.617    0.432    0.254    7.977
  182.500   93.660    0.447    0.246    7.689
  182.750   92.537    0.458    0.238    7.550
  183.000   92.558    0.461    0.236    7.559
  183.250   92.622    0.452    0.241    7.568
  183.500   93.246    0.449    0.244    7.577
  183.750   93.299    0.445    0.249    7.883
  184.000   93.342    0.443    0.256    8.049
  184.250   93.384    0.440    0.263    8.211
  184.500   93.416    0.436    0.268    8.376
  184.750   91.679    0.433    0.274    8.547
  185.000   86.978    0.424    0.283    8.557
  185.250   81.683    0.420    0.289    8.252
  185.500   78.168    0.418    0.293    8.259
  185.750   75.848    0.417    0.294    8.269
  186.000   76.484    0.416    0.293    8.435
  186.250   78.305    0.414    0.290    8.613
  186.500   78.940    0.417    0.289    8.786
  186.750   78.993    0.422    0.287    8.799
  187.000   79.618    0.424    0.286    8.979
  187.250   80.264    0.420    0.285    8.987
  187.500   80.295    0.418    0.283    9.000
  187.750   76.197    0.414    0.282    9.008
  188.000   71.485    0.413    0.278    9.195
  188.250   66.191    0.419    0.278    9.563
  188.500   65.640    0.425    0.284   10.530
  188.750   66.275    0.417    0.290   11.822
  189.000   65.725    0.411    0.296   12.060
  189.250   62.220    0.397    0.299   12.546
  189.500   59.880    0.403    0.303   13.048
  189.750   55.782    0.409    0.304   14.377
  190.000   56.406    0.413    0.307   15.528
  190.250   61.192    0.414    0.311   16.460
  190.500   68.965    0.418    0.317   17.442
  190.750   70.775    0.428    0.322   18.850
  191.000   65.491    0.429    0.327   19.599
  191.250   61.965    0.421    0.333   19.999
  191.500   57.264    0.413    0.333   20.800
  191.750   54.934    0.401    0.333   21.645
  192.000   55.569    0.397    0.331   22.081
  192.250   57.391    0.402    0.329   22.532
  192.500   53.896    0.396    0.328   23.448
  192.750   50.952    0.387    0.332   23.476
  193.000   48.030    0.386    0.335   23.497
  193.250   45.711    0.388    0.335   23.969
  193.500   45.742    0.392    0.329   24.005
  193.750   45.785    0.390    0.320   24.502
  194.000   46.420    0.386    0.317   24.532
  194.250   47.055    0.384    0.316   25.032
  194.500   47.701    0.384    0.321   25.055
  194.750   48.347    0.386    0.325   25.567
  195.000   48.389    0.389    0.332   25.597
  195.250   48.442    0.390    0.332   25.650
  195.500   48.474    0.391    0.328   25.665
  195.750   49.109    0.391    0.324   25.688
  196.000   49.745    0.392    0.324   25.718
  196.250   50.380    0.396    0.324   25.756
  196.500   51.005    0.403    0.324   25.802
  196.750   50.465    0.406    0.321   25.817
  197.000   50.528    0.406    0.320   25.368
  197.250   50.549    0.404    0.324   25.406
  197.500   50.602    0.403    0.321   25.421
  197.750   50.634    0.399    0.322   25.451
  198.000   50.676    0.404    0.327   25.001
  198.250   50.718    0.423    0.333   25.030
  198.500   51.364    0.430    0.340   25.060
  198.750   53.196    0.420    0.346   24.617
  199.000   53.831    0.415    0.351   24.660
  199.250   55.049    0.437    0.353   24.682
  199.500   56.288    0.456    0.354   24.253
  199.750   56.330    0.462    0.354   24.274
  200.000   54.583    0.457    0.354   23.859
  200.250   52.253    0.446    0.354   23.873
  200.500   52.306    0.441    0.354   23.022
  200.750   52.952    0.436    0.351   22.615
  201.000   54.170    0.432    0.347   22.208
  201.250   54.201    0.428    0.345   21.815
  201.500   53.068    0.424    0.339   21.423
  201.750   52.528    0.421    0.335   21.063
  202.000   51.967    0.428    0.330   21.075
  202.250   50.823    0.439    0.327   20.709
  202.500   50.273    0.446    0.322   20.733
  202.750   50.315    0.460    0.318   20.758
  203.000   50.961    0.465    0.314   20.782
  203.250   51.586    0.455    0.312   20.807
  203.500   52.835    0.448    0.308   20.838
  203.750   53.460    0.440    0.304   20.856
  204.000   54.095    0.429    0.302   20.875
  204.250   53.544    0.418    0.301   21.301
  204.500   54.190    0.423    0.301   21.749
  204.750   55.408    0.439    0.300   22.200
  205.000   58.415    0.437    0.300   22.646
  205.250   61.422    0.431    0.299   22.673
  205.500   60.882    0.436    0.303   22.707
  205.750   57.367    0.445    0.313   22.720
  206.000   55.026    0.461    0.331   22.747
  206.250   51.511    0.453    0.336   23.212
  206.500   49.785    0.430    0.332   24.148
  206.750   49.234    0.411    0.325   24.649
  207.000   48.694    0.403    0.315   25.152
  207.250   48.726    0.398    0.284   25.658
  207.500   48.789    0.397    0.256   27.721
  207.750   48.821    0.397    0.207   29.958
  208.000   48.853    0.397    0.183   31.148
  208.250   48.895    0.403    0.215   31.794
  208.500   48.937    0.411    0.258   30.642
  208.750   48.990    0.423    0.335   28.430
  209.000   49.032    0.430    0.341   23.989
  209.250   49.678    0.429    0.338   23.134
  209.500   50.928    0.427    0.338   22.718
  209.750   51.542    0.425    0.336   22.303
  210.000   52.166    0.426    0.332   21.508
  210.250   53.395    0.436    0.328   21.521
  210.500   54.623    0.447    0.322   21.559
  210.750   55.269    0.451    0.316   21.572
  211.000   55.904    0.450    0.311   21.598
  211.250   56.539    0.448    0.312   22.039
  211.500   57.185    0.454    0.315   22.495
  211.750   57.821    0.451    0.319   22.962
  212.000   57.852    0.447    0.321   22.562
  212.250   57.905    0.447    0.325   22.575
  212.500   58.530    0.447    0.323   21.758
  212.750   58.572    0.440    0.324   21.373
  213.000   59.229    0.432    0.326   20.223
  213.250   59.853    0.430    0.326   19.853
  213.500   59.906    0.426    0.326   19.502
  213.750   60.552    0.422    0.332   19.531
  214.000   60.584    0.423    0.342   19.191
  214.250   60.616    0.431    0.349   18.846
  214.500   60.679    0.442    0.350   18.863
  214.750   61.304    0.447    0.350   18.534
  215.000   61.336    0.447    0.350   18.556
  215.250   61.388    0.447    0.346   18.578
  215.500   61.431    0.447    0.345   18.611
  215.750   61.473    0.448    0.342   18.622
  216.000   62.108    0.463    0.338   18.644
  216.250   62.743    0.464    0.338   18.666
  216.500   62.786    0.460    0.337   18.694
  216.750   63.421    0.466    0.337   18.716
  217.000   64.056    0.470    0.337   18.385
  217.250   64.692    0.469    0.335   17.730
  217.500   64.734    0.455    0.333   17.740
  217.750   63.611    0.443    0.331   17.432
  218.000   63.050    0.437    0.333   17.447
  218.250   63.103    0.429    0.335   17.468
  218.500   63.728    0.420    0.336   17.488
  218.750   63.770    0.414    0.336   17.846
  219.000   63.812    0.427    0.335   17.877
  219.250   63.855    0.449    0.336   17.888
  219.500   63.908    0.455    0.338   17.915
  219.750   64.532    0.428    0.341   17.941
  220.000   64.575    0.425    0.344   17.962
  220.250   64.617    0.417    0.344   17.639
  220.500   64.670    0.408    0.342   17.639
  220.750   64.119    0.402    0.337   18.037
  221.000   64.161    0.397    0.330   18.389
  221.250   64.225    0.413    0.325   18.411
  221.500   64.246    0.431    0.325   18.085
  221.750   64.881    0.436    0.329   18.112
