~VERSION INFORMATION
 VERS.                 2.0:   CWLS LOG ASCII STANDARD -VERSION 2.0
 WRAP.                  NO:   ONE LINE PER DEPTH STEP
~WELL INFORMATION BLOCK
#MNEM.UNIT           DATA                    DESCRIPTION OF MNEMONIC
#---------    -------------------            -------------------------------
# Generated from Intellog Unique Number	CW_70_72/WELL/3027
NULL.         -999.25                        : NULL_VALUE
WELL.         MANNVILLE ET AL DECBENE        : Well_name    - WELL              
LOC .         11-07-070-01W5                 : Location     - LOCATION          
UWI .         00/11-07-070-01W5/0            : Uwi          - UNIQUE WELL ID    
ENTR.         JAYE                           : Entered      - ENTERED BY        
SRVC.         SCHLUMBERGER                   : Scn          - SERVICE COMPANY   
DATE.         11 JAN 85                      : Date         - LOG DATE          
STRT.M        425                            : top_depth    - START DEPTH       
STOP.M        630                            : bot_depth    - STOP DEPTH        
STEP.M        0.25                           : increment    - STEP LENGTH       
~CURVE INFORMATION BLOCK
#MNEM UNIT       ERCB CURVE CODE    CURVE DESCRIPTION
#-----------   ------------------   ----------------------------------
DEPT.M        00 001 00 00         : DEPTH        - DEPTH                       
ILD .OHMM     00 120 00 00         : RESD         - DEEP RESISTIVITY (DIL)      
CALI.MM       00 280 01 00         : CAL          - CALIPER                     
GR  .API      00 310 00 00         : GR           - GAMMA RAY                   
NPHI.V/V      00 330 00 00         : PHIN         - NEUTRON POROSITY (SANDSTONE)
DPHI.V/V      00 890 00 00         : PHID         - DENSITY POROSITY (SANDSTONE)
~PARAMETER INFORMATION       
#MNEM.UNIT           DATA             DESCRIPTION OF MNEMONIC
#---------         -----------     ------------------------------
GL  .M        583                  : gl           - GROUND LEVEL ELEVATION      
EREF.M        586                  : kb           - ELEVATION OF DEPTH REFERENCE
DATM.M        583                  : datum        - DATUM ELEVATION             
TDD .M        642                  : tdd          - TOTAL DEPTH DRILLER         
RUN .         ONE                  : Run          - RUN NUMBER                  
ENG .         HOWARD               : Engineer     - RECORDING ENGINEER          
WIT .         KRYWICKI             : Witness      - WITNESSED BY                
BASE.         EDM                  : Branch       - HOME BASE OF LOGGING UNIT   
MUD .         GEL CHEM             : Mud_type     - MUD TYPE                    
MATR.         SANDSTONE            : Logunit      - NEUTRON MATRIX              
TMAX.C        30                   : BHT          - MAXIMUM RECORDED TEMPERATURE
BHTD.M        642                  : BHTDEP       - MAXIMUM RECORDED TEMPERATURE
RMT .C        17                   : MDTP         - TEMPERATURE OF MUD          
MUDD.KG/M     1160                 : MWT          - MUD DENSITY                 
NEUT.         1                    : NEUTRON      - NEUTRON TYPE                
RESI.         0                    : RESIST       - RESISTIVITY TYPE            
RM  .OHMM     4.92                 : RM           - RESISTIVITY OF MUD          
RMC .OHMM     0.25                 : RMC          - RESISTIVITY OF MUD CAKE     
RMF .OHMM     5.72                 : RMF          - RESISTIVITY OF MUD FILTRATE 
SUFT.C        10                   : SUFT         - SURFACE TEMPERATURE         
~A  DEPTH     RESD      CAL       GR     PHIN     PHID
# ...
  534.500    7.478  161.441   65.776    0.263    0.109
  534.750    8.555  162.258   70.241    0.239    0.074
  535.000    9.842  163.387   74.147    0.226    0.084
  535.250    9.695  163.272   76.936    0.248    0.123
  535.500    7.906  162.018   81.525    0.297    0.191
  535.750    6.544  159.937   84.438    0.367    0.236
  536.000    5.602  158.476   87.910    0.387    0.239
  536.250    4.099  158.568   88.213    0.387    0.218
  536.500    3.595  158.970   83.610    0.401    0.201
  536.750    3.268  159.167   82.547    0.392    0.182
  537.000    3.195  158.845   82.976    0.376    0.188
  537.250    3.304  158.523   83.218    0.387    0.221
  537.500    3.366  158.099   84.887    0.377    0.219
  537.750    3.372  158.398   95.501    0.359    0.200
  538.000    3.321  158.594   92.017    0.363    0.184
  538.250    3.277  159.101   87.601    0.388    0.205
  538.500    3.210  159.192   89.208    0.359    0.213
  538.750    3.174  159.802   88.332    0.356    0.212
  539.000    3.162  160.309   85.717    0.370    0.216
  539.250    3.167  160.919   83.724    0.382    0.223
  539.500    3.197  161.322   84.772    0.378    0.217
  539.750    3.202  161.312   86.754    0.366    0.210
  540.000    3.232  161.094   91.404    0.357    0.209
  540.250    3.268  160.876   93.945    0.367    0.208
  540.500    3.292  161.176   96.609    0.376    0.200
  540.750    3.237  162.302   93.373    0.382    0.195
  541.000    3.316  163.120   90.260    0.401    0.194
  541.250    3.353  163.834   91.185    0.413    0.185
  541.500    3.429  164.547   95.899    0.372    0.175
  541.750    3.526  164.949   98.626    0.363    0.182
  542.000    3.579  165.559   96.135    0.377    0.189
  542.250    3.618  165.754   94.637    0.384    0.195
  542.500    3.638  165.745   94.816    0.387    0.201
  542.750    3.672  165.940   95.555    0.390    0.197
  543.000    3.685  166.654   96.915    0.390    0.189
  543.250    3.651  167.161   99.330    0.386    0.184
  543.500    3.630  167.563  102.429    0.380    0.179
  543.750    3.650  167.759   99.504    0.403    0.179
  544.000    3.670  168.162   97.447    0.419    0.186
  544.250    3.718  168.461   99.986    0.414    0.189
  544.500    3.773  168.761  103.458    0.388    0.184
  544.750    3.808  168.854  105.626    0.370    0.171
  545.000    3.844  168.841  103.072    0.373    0.168
  545.250    3.923  169.039  103.501    0.394    0.170
  545.500    3.989  169.544  105.232    0.405    0.167
  545.750    4.056  169.845  107.213    0.407    0.163
  546.000    4.079  170.144  109.319    0.405    0.159
  546.250    4.116  170.030  111.362    0.389    0.155
  546.500    4.139  170.018  101.791    0.379    0.154
  546.750    4.146  169.591   86.381    0.385    0.162
  547.000    4.146  169.478   79.666    0.400    0.158
  547.250    4.091  169.467   78.853    0.388    0.157
  547.500    4.038  169.146   86.361    0.363    0.162
  547.750    4.007  169.134   96.292    0.379    0.171
  548.000    3.977  168.917  101.316    0.384    0.175
  548.250    3.961  168.283  102.923    0.377    0.172
  548.500    3.931  167.961  100.309    0.366    0.168
  548.750    3.836  167.226   98.750    0.371    0.165
  549.000    3.765  166.906  103.773    0.407    0.168
  549.250    3.667  165.547  114.699    0.426    0.175
  549.500    3.585  163.570   97.177    0.463    0.179
  549.750    3.605  159.833   78.103    0.472    0.148
  550.000    3.777  158.164   62.755    0.311    0.068
  550.250    4.639  158.776   57.718    0.230    0.002
  550.500    6.316  160.524   59.324    0.153   -0.004
  550.750    9.180  161.031   63.728    0.150   -0.005
  551.000   12.686  161.123   73.162    0.156   -0.003
  551.250   15.996  161.319   79.802    0.183    0.081
  551.500   10.678  164.103   85.509    0.242    0.125
  551.750    8.659  168.852   84.446    0.321    0.157
  552.000    7.782  171.948   79.036    0.356    0.167
  552.250    6.994  167.796   76.731    0.362    0.170
  552.500    6.762  163.643   78.462    0.337    0.187
  552.750    6.464  164.978   82.308    0.333    0.180
  553.000    6.031  166.727   87.580    0.339    0.171
  553.250    5.701  168.580   90.183    0.340    0.169
  553.500    5.172  169.604   84.523    0.342    0.170
  553.750    4.844  169.901   81.039    0.350    0.173
  554.000    4.461  169.995   78.796    0.357    0.178
  554.250    4.162  169.985   77.983    0.354    0.183
  554.500    3.971  169.560   79.964    0.351    0.177
  554.750    3.761  169.135   84.491    0.364    0.184
  555.000    3.657  168.399   90.322    0.366    0.191
  555.250    3.588  167.664   91.620    0.364    0.179
  555.500    3.669  166.410   86.272    0.353    0.159
  555.750    3.946  165.363   80.613    0.355    0.141
  556.000    4.276  164.935   83.526    0.338    0.118
  556.250    4.498  164.304   93.022    0.309    0.117
  556.500    4.565  163.880   99.040    0.325    0.140
  556.750    4.505  163.042   96.299    0.383    0.155
  557.000    4.331  162.201   97.225    0.396    0.156
  557.250    4.156  161.362  103.243    0.381    0.152
  557.500    3.965  160.732  107.523    0.367    0.150
  557.750    3.841  160.096  101.615    0.367    0.153
  558.000    3.685  159.571   92.292    0.365    0.169
  558.250    3.576  158.937   81.603    0.360    0.215
  558.500    3.400  157.891   71.597    0.353    0.262
  558.750    3.226  157.154   62.272    0.340    0.277
  559.000    3.044  156.937   58.292    0.339    0.261
  559.250    2.959  156.720   55.676    0.341    0.239
  559.500    2.992  156.192   57.160    0.330    0.215
  559.750    3.218  155.870   58.831    0.316    0.190
  560.000    3.474  155.546   59.632    0.327    0.207
  560.250    3.758  155.327   60.059    0.353    0.214
  560.500    3.974  155.007   60.674    0.354    0.217
  560.750    3.771  154.894   62.033    0.337    0.231
  561.000    3.558  154.882   67.183    0.340    0.254
  561.250    3.289  154.973   70.281    0.357    0.266
  561.500    3.068  155.377   68.038    0.386    0.276
  561.750    2.874  155.575   65.423    0.416    0.282
  562.000    2.727  155.977   65.044    0.377    0.285
  562.250    2.607  156.482   68.329    0.369    0.287
  562.500    2.511  156.575   69.564    0.377    0.290
  562.750    2.468  156.873   68.378    0.385    0.293
  563.000    2.454  156.554   70.419    0.383    0.292
  563.250    2.454  156.439   71.655    0.383    0.304
  563.500    2.440  156.427   72.022    0.388    0.313
  563.750    2.431  156.311   73.755    0.392    0.312
  564.000    2.426  156.094   71.078    0.399    0.294
  564.250    2.439  156.083   68.711    0.412    0.285
  564.500    2.462  155.970   68.580    0.396    0.284
  564.750    2.503  155.958   71.679    0.398    0.290
  565.000    2.545  155.739   71.672    0.412    0.283
  565.250    2.613  155.728   64.522    0.401    0.274
  565.500    2.748  155.924   60.044    0.377    0.253
  565.750    2.928  155.912   61.093    0.354    0.239
  566.000    3.166  156.006   64.315    0.350    0.235
  566.250    3.318  156.203   65.924    0.357    0.236
  566.500    3.502  156.811   67.035    0.359    0.242
  566.750    3.561  157.214   66.966    0.351    0.248
  567.000    3.501  157.618   66.400    0.347    0.259
  567.250    3.164  158.021   65.028    0.389    0.266
  567.500    3.158  158.217   62.847    0.421    0.253
  567.750    3.241  158.516   63.152    0.383    0.229
  568.000    3.290  158.712   69.604    0.336    0.220
  568.250    3.169  158.493   75.312    0.326    0.240
  568.500    3.052  158.277   76.051    0.365    0.248
  568.750    2.923  157.748   75.112    0.395    0.257
  569.000    2.815  157.528   74.422    0.402    0.264
  569.250    2.651  157.519   74.105    0.391    0.266
  569.500    2.568  157.301   74.906    0.381    0.271
  569.750    2.544  156.979   75.458    0.379    0.274
  570.000    2.572  156.761   76.756    0.390    0.261
  570.250    2.611  156.646   81.283    0.403    0.248
  570.500    2.685  156.944   75.811    0.404    0.252
  570.750    2.802  157.141   69.718    0.401    0.242
