~VERSION INFORMATION
 VERS.                 2.0:   CWLS LOG ASCII STANDARD -VERSION 2.0
 WRAP.                  NO:   ONE LINE PER DEPTH STEP
~WELL INFORMATION BLOCK
#MNEM.UNIT           DATA                    DESCRIPTION OF MNEMONIC
#---------    -------------------            -------------------------------
# Generated from Intellog Unique Number	CN_91_93/WELL/1166
WELL.         COSEKA RESOURCES LTD.          : Well_name    - WELL
LOC .         00/11-07-091-20W4/0            : Location     - LOCATION
UWI .         00/11-07-091-20W4/0            : Uwi          - UNIQUE WELL ID
ENTR.         JOETTE                         : Entered      - ENTERED BY
SRVC.         SCHLUMBERGER                   : Scn          - SERVICE COMPANY
DATE.         02/04/92                       : Date         - LOG DATE
STRT.F        524.934                        : top_depth    - START DEPTH
STOP.F        754.593                        : bot_depth    - STOP DEPTH
STEP.F        0.821                          : increment    - STEP LENGTH
 NULL. -999.2500:NULL Value
~CURVE INFORMATION BLOCK
#MNEM UNIT       ERCB CURVE CODE    CURVE DESCRIPTION
#-----------   ------------------   ----------------------------------
DEPT.F        00 001 00 00         : DEPTH        - DEPTH
ILD .OHMM     00 120 00 00         : RESD         - DEEP RESISTIVITY (DIL)
DPHI.V/V      00 890 00 00         : PHID         - DENSITY POROSITY (SANDSTONE)
NPHI.V/V      00 330 00 00         : PHIN         - NEUTRON POROSITY (SANDSTONE)
CALI.IN       00 280 01 00         : CAL          - CALIPER
GR  .API      00 310 00 00         : GR           - GAMMA RAY
~PARAMETER INFORMATION
#MNEM.UNIT           DATA             DESCRIPTION OF MNEMONIC
#---------         -----------     ------------------------------
GL  .F        1678.48              : gl           - GROUND LEVEL ELEVATION
EREF.F        1689.96              : kb           - ELEVATION OF DEPTH REFERENCE
DATM.F        1689.96              : datum        - DATUM ELEVATION
TDD .F        756.234              : tdd          - TOTAL DEPTH DRILLER
RUN .         ONE                  : Run          - RUN NUMBER
ENG .         BILL                 : Engineer     - RECORDING ENGINEER
WIT .         JIM                  : Witness      - WITNESSED BY
MUD .         GEL                  : Mud_type     - MUD TYPE
MATR.         SANDSTONE            : Logunit      - NEUTRON MATRIX
TMAX.F        78.8                 : BHT          - MAXIMUM RECORDED TEMPERATURE
BHTD.F        756.234              : BHTDEP       - MAXIMUM RECORDED TEMPERATURE
RMT .F        47                   : MDTP         - TEMPERATURE OF MUD
MUDD.LB/G     9.25                 : MWT          - MUD DENSITY
NEUT.         1                    : NEUTRON      - NEUTRON TYPE
RESI.         0                    : RESIST       - RESISTIVITY TYPE
RM  .OHMM     3.06                 : RM           - RESISTIVITY OF MUD
RMC .OHMM     4.8                  : RMC          - RESISTIVITY OF MUD CAKE
RMF .OHMM     2.25                 : RMF          - RESISTIVITY OF MUD FILTRATE
SUFT.F        39.2                 : SUFT         - SURFACE TEMPERATURE
~A  DEPTH     RESD     PHID     PHIN      CAL       GR
# ...
  644.685   41.492    0.139    0.355    7.746   79.635
  645.505   42.302    0.120    0.323    7.745   70.259
  646.325   42.344    0.087    0.286    7.725   66.740
  647.146   42.005    0.080    0.267    7.725   62.925
  647.966   40.201    0.103    0.271    7.743   64.674
  648.786   36.766    0.136    0.293    7.743   67.887
  649.606   34.871    0.221    0.308    7.743   67.585
  650.427   26.622    0.254    0.314    7.761   65.236
  651.247   19.605    0.181    0.292    7.761   68.741
  652.067   15.801    0.132    0.292    7.779   76.930
  652.887   17.006    0.141    0.375    7.798   86.875
  653.707   18.974    0.163    0.424    7.836   90.964
  654.528   18.996    0.174    0.423    7.951   76.613
  655.348   18.690    0.128    0.393    8.027   68.408
  656.168   17.397    0.068    0.350    8.026   66.643
  656.988   14.537    0.029    0.322    7.911   71.613
  657.808   11.612    0.015    0.335    7.814   84.485
  658.629   12.053    0.076    0.368    7.890   94.723
  659.449   12.856    0.104    0.406    7.928   99.689
  660.269   13.342    0.166    0.402    7.966   96.171
  661.089   13.005    0.175    0.396    7.966   91.477
  661.909   12.217    0.149    0.411    7.965   92.347
  662.730   11.177    0.160    0.421    7.965   93.512
  663.550   11.706    0.186    0.424    7.964   94.090
  664.370   12.154    0.181    0.432    7.964   94.082
  665.190   12.154    0.183    0.438    7.964   94.658
  666.010   12.405    0.179    0.434    7.962   95.237
  666.831   12.302    0.172    0.434    7.962   96.400
  667.651   11.254    0.172    0.438    7.962   94.051
  668.471   10.674    0.180    0.420    7.961   91.992
  669.291   10.685    0.182    0.378    7.941   95.498
  670.112   11.603    0.122    0.382    7.960   95.782
  670.932   12.376    0.129    0.417    7.979   95.188
  671.752   12.504    0.167    0.430    7.997   96.937
  672.572   12.404    0.179    0.414    8.016   91.660
  673.392   12.194    0.150    0.404    8.016  100.435
  674.213   12.318    0.125    0.431    8.015  104.525
  675.033   12.905    0.160    0.445    8.014  105.103
  675.853   13.037    0.178    0.433    8.014   98.362
  676.673   13.288    0.165    0.404    8.013   93.085
  677.493   13.305    0.130    0.396    8.032   94.247
  678.314   12.280    0.108    0.401    8.032   97.460
  679.134   10.170    0.095    0.421    8.031  105.647
  679.954    9.472    0.120    0.416    8.050  107.689
  680.774    8.982    0.137    0.415    8.068  110.609
  681.594    8.673    0.165    0.419    8.164  115.578
  682.415    9.764    0.184    0.422    8.259  117.325
  683.235   11.096    0.183    0.419    8.240  113.513
  684.055   11.514    0.167    0.404    8.162   94.477
  684.875   11.514    0.152    0.379    8.066   85.100
  685.696   11.341    0.115    0.377    7.931   88.899
  686.516   11.047    0.147    0.405    7.911   98.844
  687.336   10.862    0.166    0.419    7.987  104.982
  688.156   10.970    0.167    0.378    8.064  106.439
  688.976   11.594    0.172    0.385    8.044  107.602
  689.797   12.476    0.177    0.401    8.005  103.788
  690.617   14.833    0.170    0.418    8.062  100.561
  691.437   15.816    0.137    0.364    8.100   94.406
  692.257   16.417    0.092    0.301    8.042   82.981
  693.077   14.883    0.018    0.305    7.945  104.928
  693.898   13.735    0.122    0.361    8.022  114.288
  694.718   12.118    0.164    0.399    8.098  116.621
  695.538   10.594    0.169    0.407    8.078  115.735
  696.358    9.433    0.167    0.397    8.020  116.898
  697.178    8.864    0.171    0.396    8.020  118.354
  697.999    8.255    0.189    0.412    8.115  119.224
  698.819    7.830    0.196    0.449    8.172  120.387
  699.639    7.911    0.191    0.476    8.172  120.086
  700.459    8.666    0.176    0.454    8.171  114.224
  701.280   10.395    0.135    0.427    8.151  101.043
  702.100   11.599    0.097    0.402    8.074  108.646
  702.920   11.612    0.126    0.385    7.978  110.687
  703.740   11.313    0.084    0.382    7.958  113.607
  704.560    9.456    0.153    0.445    8.034  120.039
  705.381    9.047    0.170    0.443    8.110  121.202
  706.201    8.897    0.175    0.427    8.129  116.511
  707.021    8.827    0.172    0.430    8.129  112.697
  707.841    9.079    0.155    0.416    8.109  109.469
  708.661    9.597    0.134    0.407    8.051  106.240
  709.482    9.873    0.130    0.411    7.993  107.403
  710.302    9.873    0.146    0.425    8.011  113.543
  711.122    9.896    0.162    0.434    8.107  119.389
  711.942   10.086    0.167    0.417    8.164  120.259
  712.762   10.373    0.157    0.392    8.144  120.544
  713.583   12.001    0.150    0.396    8.086  119.659
  714.403   14.793    0.163    0.400    8.047  117.016
  715.223   16.061    0.164    0.383    8.008  110.568
  716.043   21.858    0.140    0.335    7.931   82.458
  716.864   31.981    0.131    0.253    7.853   67.520
  717.684   45.132    0.156    0.254    7.795   60.194
  718.504   64.260    0.216    0.261    7.737   57.842
  719.324   84.364    0.319    0.273    7.679   56.372
  720.144  108.759    0.346    0.278    7.678   51.974
  720.965  129.282    0.351    0.268    7.678   47.868
  721.785  142.987    0.352    0.267    7.658   43.175
  722.605  149.761    0.353    0.270    7.658   41.411
  723.425  145.943    0.352    0.275    7.619   41.989
  724.245  135.887    0.350    0.283    7.695   44.909
  725.066  107.586    0.348    0.293    7.714   49.292
  725.886   89.088    0.347    0.300    7.713   49.284
  726.706   74.451    0.347    0.302    7.713   47.225
  727.526   69.331    0.350    0.317    7.693   47.803
  728.346   68.785    0.355    0.332    7.635   48.379
  729.167   72.054    0.356    0.314    7.596   49.252
  729.987   75.468    0.355    0.300    7.595   51.292
  730.807   79.749    0.354    0.284    7.729   49.236
  731.627   87.397    0.356    0.283    7.825   46.886
  732.448   87.508    0.362    0.297    7.863   50.097
  733.268   73.784    0.358    0.330    7.862   52.432
  734.088   67.498    0.331    0.404    7.862   52.423
  734.908   64.582    0.307    0.429    7.861   52.417
  735.728   60.694    0.284    0.430    7.861   49.188
  736.549   58.080    0.272    0.416    7.860   50.057
  737.369   56.600    0.295    0.408    7.860   51.808
  738.189   55.658    0.319    0.394    7.840   53.848
  739.009   55.204    0.337    0.387    7.801   51.792
  739.829   55.282    0.339    0.387    7.800   49.147
  740.650   55.847    0.324    0.393    7.800   49.139
  741.470   56.410    0.310    0.406    7.799   47.084
  742.290   56.994    0.302    0.421    7.818   50.003
  743.110   55.042    0.291    0.421    7.856   53.800
  743.930   55.089    0.289    0.414    7.875   53.207
  744.751   63.724    0.296    0.410    7.893   56.712
  745.571   68.576    0.310    0.413    7.912   58.461
  746.391   69.287    0.313    0.413    7.912   57.282
  747.211   69.287    0.311    0.417    7.892   58.737
  748.031   67.626    0.307    0.421    7.872   60.485
  748.852   64.095    0.301    0.424    7.852   62.526
  749.672   63.028    0.297    0.427    7.833   64.861
  750.492   62.532    0.297    0.429    7.832   68.073
  751.312   63.162    0.298    0.433    7.812   69.528
  752.133   63.807    0.302    0.435    7.812   72.449
  752.953   66.239    0.308    0.436    7.812   72.441
  753.773   65.727    0.317    0.438    7.811   68.334
  754.593   64.033    0.322    0.439    7.810   66.278
