~VERSION INFORMATION
 VERS.                 2.0:   CWLS LOG ASCII STANDARD -VERSION 2.0
 WRAP.                  NO:   ONE LINE PER DEPTH STEP
~WELL INFORMATION BLOCK
#MNEM.UNIT           DATA                    DESCRIPTION OF MNEMONIC
#---------    -------------------            -------------------------------
# Generated from Intellog Unique Number	CW_76_78/WELL/928
WELL.         CHIEFLO SUNNYDAKE DROWND 10-34 : Well_name    - WELL
LOC .         00/10-34-076-22W4/0            : Location     - LOCATION
UWI .         00/10-34-076-22W4/0            : Uwi          - UNIQUE WELL ID
ENTR.         JAYE                           : Entered      - ENTERED BY
SRVC.         SCHLUMBERGER                   : Scn          - SERVICE COMPANY
DATE.         25 MAR 75                      : Date         - LOG DATE
STRT.M        527.304                        : top_depth    - START DEPTH
STOP.M        743.804                        : bot_depth    - STOP DEPTH
STEP.M        0.25                           : increment    - STEP LENGTH
 NULL. -999.2500:NULL Value
~CURVE INFORMATION BLOCK
#MNEM UNIT       ERCB CURVE CODE    CURVE DESCRIPTION
#-----------   ------------------   ----------------------------------
DEPT.M        00 001 00 00         : DEPTH        - DEPTH
ILD .OHMM     00 120 00 00         : RESD         - DEEP RESISTIVITY (DIL)
NPHI.V/V      00 330 00 00         : PHIN         - NEUTRON POROSITY (SANDSTONE)
DPHI.V/V      00 890 00 00         : PHID         - DENSITY POROSITY (SANDSTONE)
GR  .API      00 310 00 00         : GR           - GAMMA RAY
CALI.MM       00 280 01 00         : CAL          - CALIPER
~PARAMETER INFORMATION
#MNEM.UNIT           DATA             DESCRIPTION OF MNEMONIC
#---------         -----------     ------------------------------
GL  .M        811.073              : gl           - GROUND LEVEL ELEVATION
EREF.M        814.578              : kb           - ELEVATION OF DEPTH REFERENCE
DATM.M        811.073              : datum        - DATUM ELEVATION
TDD .M        748.436              : tdd          - TOTAL DEPTH DRILLER
RUN .         ONE                  : Run          - RUN NUMBER
ENG .         BERNIISKY            : Engineer     - RECORDING ENGINEER
WIT .         BROWN                : Witness      - WITNESSED BY
BASE.         EDM                  : Branch       - HOME BASE OF LOGGING UNIT
MUD .         GEL                  : Mud_type     - MUD TYPE
MATR.         SANDSTONE            : Logunit      - NEUTRON MATRIX
TMAX.C        27.7778              : BHT          - MAXIMUM RECORDED TEMPERATURE
BHTD.M        748.894              : BHTDEP       - MAXIMUM RECORDED TEMPERATURE
RMT .C        -17.7778             : MDTP         - TEMPERATURE OF MUD
MUDD.KG/M     1188                 : MWT          - MUD DENSITY
NEUT.         1                    : NEUTRON      - NEUTRON TYPE
RESI.         0                    : RESIST       - RESISTIVITY TYPE
RM  .OHMM     3.82                 : RM           - RESISTIVITY OF MUD
RMC .OHMM     0                    : RMC          - RESISTIVITY OF MUD CAKE
RMF .OHMM     4.9                  : RMF          - RESISTIVITY OF MUD FILTRATE
SUFT.C        -17.7778             : SUFT         - SURFACE TEMPERATURE
~A  DEPTH     RESD     PHIN     PHID       GR      CAL
# ...
  673.304    8.649    0.361    0.118   84.943  169.633
  673.554    9.169    0.331    0.117   83.546  169.748
  673.804    9.686    0.366    0.147   82.504  168.921
  674.054   10.497    0.384    0.165   80.734  167.265
  674.304   11.608    0.357    0.133   77.926  165.010
  674.554   12.060    0.303    0.066   71.815  165.218
  674.804   12.034    0.257    0.021   63.805  168.022
  675.054   11.055    0.217    0.002   63.564  171.039
  675.304    9.629    0.239    0.030   72.929  173.426
  675.554    8.434    0.275    0.052   81.313  173.841
  675.804    7.748    0.329    0.113   88.297  173.226
  676.054    6.963    0.376    0.150   90.993  171.788
  676.304    6.361    0.398    0.148   91.667  170.860
  676.554    6.186    0.406    0.147   92.160  170.670
  676.804    6.116    0.414    0.169   93.029  170.875
  677.054    6.125    0.423    0.168   93.397  170.991
  677.304    6.225    0.428    0.172   93.463  171.111
  677.554    6.468    0.435    0.177   92.793  171.115
  677.804    6.744    0.434    0.192   92.061  171.233
  678.054    6.917    0.429    0.192   91.640  171.029
  678.304    7.082    0.422    0.190   91.039  171.030
  678.554    7.158    0.412    0.189   89.873  171.140
  678.804    6.986    0.401    0.190   89.453  171.358
  679.054    6.945    0.394    0.186   90.432  174.260
  679.304    6.981    0.392    0.181   92.152  173.659
  679.554    7.307    0.393    0.175   88.853  171.690
  679.804    7.647    0.403    0.167   85.919  170.566
  680.054    7.630    0.412    0.158   84.152  170.147
  680.304    7.380    0.372    0.088   83.787  169.865
  680.554    7.256    0.363    0.078   89.421  169.855
  680.804    7.056    0.391    0.111   97.377  169.970
  681.054    6.837    0.409    0.149  104.725  170.110
  681.304    6.735    0.417    0.166  104.555  170.296
  681.554    6.635    0.422    0.177  102.224  170.305
  681.804    6.547    0.427    0.185   96.235  170.529
  682.054    6.521    0.430    0.187   94.530  170.748
  682.304    6.495    0.427    0.185   92.636  170.852
  682.554    6.469    0.425    0.181   93.561  170.858
  682.804    6.419    0.425    0.182   94.796  171.194
  683.054    6.416    0.415    0.177   93.998  171.285
  683.304    6.426    0.412    0.171   93.151  171.702
  683.554    6.412    0.412    0.174   93.824  171.932
  683.804    6.398    0.415    0.175   95.354  171.829
  684.054    6.349    0.428    0.183   96.460  171.620
  684.304    6.323    0.436    0.185   96.525  170.605
  684.554    6.286    0.439    0.171   97.450  169.783
  684.804    6.284    0.437    0.150   98.933  169.473
  685.054    6.270    0.434    0.152   99.481  170.000
  685.304    6.268    0.429    0.149   99.541  170.843
  685.554    6.278    0.427    0.141   99.492  171.669
  685.804    6.252    0.422    0.133   99.441  173.034
  686.054    6.239    0.425    0.155   99.678  173.861
  686.304    6.225    0.427    0.169   99.194  174.600
  686.554    6.223    0.420    0.166   96.949  175.252
  686.804    6.266    0.416    0.158   95.542  175.438
  687.054    6.345    0.424    0.168   94.619  175.550
  687.304    6.378    0.438    0.174   95.544  175.466
  687.554    6.399    0.458    0.163   98.117  175.257
  687.804    6.373    0.440    0.158   95.370  175.266
  688.054    6.395    0.425    0.148   91.953  174.665
  688.304    6.451    0.417    0.136   91.592  173.936
  688.554    6.544    0.419    0.143   92.084  173.008
  688.804    6.700    0.412    0.157   92.825  172.306
  689.054    6.909    0.396    0.164   93.377  172.208
  689.304    7.113    0.384    0.174   93.199  170.463
  689.554    7.403    0.374    0.179   91.736  170.164
  689.804    7.692    0.377    0.185   89.838  170.170
  690.054    7.948    0.390    0.191   88.070  170.076
  690.304    8.092    0.391    0.166   85.503  169.747
  690.554    7.884    0.387    0.156   84.409  169.045
  690.804    7.583    0.379    0.145   88.145  168.833
  691.054    7.187    0.368    0.140   92.433  168.643
  691.304    6.639    0.386    0.158   98.008  168.748
  691.554    6.133    0.408    0.147  101.194  169.372
  691.804    5.866    0.415    0.157  103.395  170.629
  692.054    6.106    0.404    0.168  108.111  172.714
  692.304    6.840    0.396    0.165  109.342  174.902
  692.554    8.022    0.396    0.150  102.858  176.039
  692.804    8.838    0.393    0.123   95.521  174.599
  693.054    9.387    0.370    0.104   84.334  171.387
  693.304    9.436    0.332    0.065   80.299  167.359
  693.554    9.261    0.302    0.075   88.138  164.165
  693.804    8.891    0.343    0.120   95.970  162.814
  694.054    8.489    0.350    0.154   98.300  163.659
  694.304    8.002    0.354    0.159   99.776  164.908
  694.554    7.556    0.360    0.168  101.367  166.783
  694.804    7.389    0.374    0.172  103.580  168.129
  695.054    7.265    0.382    0.174  102.847  168.969
  695.304    7.370    0.380    0.171  100.960  169.085
  695.554    7.545    0.386    0.162  100.222  169.292
  695.804    7.626    0.384    0.157  101.453  169.522
  696.054    7.637    0.386    0.153  102.133  169.218
  696.304    7.649    0.390    0.159  100.848  169.011
  696.554    7.745    0.382    0.164   99.814  168.408
  696.804    7.886    0.376    0.171   99.695  167.264
  697.054    7.999    0.381    0.178   99.332  165.303
  697.304    8.071    0.383    0.183   94.749  168.314
  697.554    8.111    0.376    0.179   90.534  168.847
  697.804    8.065    0.367    0.155   91.704  168.226
  698.054    7.988    0.361    0.152   88.585  168.031
  698.304    7.826    0.362    0.146   91.226  168.143
  698.554    7.527    0.374    0.123   94.466  171.353
  698.804    7.266    0.394    0.149   94.536  173.536
  699.054    7.001    0.395    0.163   93.621  172.929
  699.304    6.809    0.398    0.178   95.094  170.034
  699.554    6.513    0.394    0.177   97.485  168.090
  699.804    6.357    0.391    0.164  100.304  169.428
  700.054    6.228    0.402    0.160  102.209  171.309
  700.304    6.237    0.417    0.152  102.334  172.446
  700.554    6.269    0.414    0.142  103.071  172.869
  700.804    6.266    0.409    0.123  104.915  172.567
  701.054    6.253    0.395    0.143  105.837  172.067
  701.304    6.194    0.390    0.163  106.140  171.346
  701.554    6.169    0.395    0.158  101.805  170.935
  701.804    6.235    0.396    0.144   98.871  170.852
  702.054    6.290    0.398    0.143   96.305  171.269
  702.304    6.277    0.395    0.142   98.275  173.340
  702.554    6.194    0.391    0.135   99.986  172.006
  702.804    6.102    0.389    0.123  101.461  171.288
  703.054    5.890    0.399    0.119  102.812  171.703
  703.304    5.655    0.414    0.135  104.593  172.856
  703.554    5.409    0.408    0.142  107.412  173.276
  703.804    5.174    0.407    0.143  110.286  173.716
  704.054    4.949    0.415    0.144  111.393  173.806
  704.304    4.682    0.414    0.147  110.850  173.941
  704.554    4.422    0.424    0.153  110.186  173.928
  704.804    4.138    0.431    0.158  109.820  174.476
  705.054    3.519    0.430    0.167  107.743  174.885
  705.304    2.993    0.425    0.177  105.604  175.197
  705.554    2.592    0.421    0.191  105.608  175.832
  705.804    2.185    0.491    0.220  104.208  175.419
  706.054    1.844    0.529    0.245  101.461  170.456
  706.304    1.710    0.518    0.240   99.138  168.711
  706.554    1.806    0.530    0.229   96.267  168.818
  706.804    2.272    0.509    0.230   92.175  168.933
  707.054    2.820    0.469    0.224   87.775  169.043
  707.304    3.400    0.424    0.207   77.623  169.567
  707.554    4.347    0.381    0.188   70.897  169.987
  707.804    6.616    0.351    0.154   72.860  170.203
  708.054    9.672    0.350    0.154   75.557  171.762
  708.304   10.696    0.358    0.157   72.013  174.874
  708.554   10.137    0.361    0.152   68.045  175.297
  708.804    9.330    0.368    0.158   65.661  172.824
  709.054    8.248    0.380    0.207   69.212  171.793
  709.304    6.849    0.378    0.226   85.492  171.802
  709.554    5.462    0.382    0.198   93.142  172.429
