~VERSION INFORMATION
 VERS.                 2.0:   CWLS LOG ASCII STANDARD -VERSION 2.0
 WRAP.                  NO:   ONE LINE PER DEPTH STEP
~WELL INFORMATION BLOCK
#MNEM.UNIT           DATA                    DESCRIPTION OF MNEMONIC
#---------    -------------------            -------------------------------
# Generated from Intellog Unique Number	CW_82_90/WELL/993
WELL.         11-09-082-19W4                 : Well_name    - WELL
LOC .         00/11-09-082-19W4/0            : Location     - LOCATION
UWI .         00/11-09-082-19W400            : Uwi          - UNIQUE WELL ID
ENTR.         JAYE                           : Entered      - ENTERED BY
SRVC.         SCHLUMBERGER                   : Scn          - SERVICE COMPANY
DATE.         8 MAR 74                       : Date         - LOG DATE
STRT.M        173.736                        : top_depth    - START DEPTH
STOP.M        365.736                        : bot_depth    - STOP DEPTH
STEP.M        0.25                           : increment    - STEP LENGTH
 NULL. -999.2500:NULL Value
~CURVE INFORMATION BLOCK
#MNEM UNIT       ERCB CURVE CODE    CURVE DESCRIPTION
#-----------   ------------------   ----------------------------------
DEPT.M        00 001 00 00         : DEPTH        - DEPTH
CALI.MM       00 280 01 00         : CAL          - CALIPER
GR  .API      00 310 00 00         : GR           - GAMMA RAY
NPHI.V/V      00 330 00 00         : PHIN         - NEUTRON POROSITY (SANDSTONE)
DPHI.V/V      00 890 00 00         : PHID         - DENSITY POROSITY (SANDSTONE)
ILD .OHMM     00 120 00 00         : RESD         - DEEP RESISTIVITY (DIL)
~PARAMETER INFORMATION
#MNEM.UNIT           DATA             DESCRIPTION OF MNEMONIC
#---------         -----------     ------------------------------
GL  .M        584.911              : gl           - GROUND LEVEL ELEVATION
EREF.M        588.264              : kb           - ELEVATION OF DEPTH REFERENCE
DATM.M        584.911              : datum        - DATUM ELEVATION
TDD .M        387.096              : tdd          - TOTAL DEPTH DRILLER
RUN .         ONE                  : Run          - RUN NUMBER
ENG .         BOYKO                : Engineer     - RECORDING ENGINEER
BASE.         EDMONTON             : Branch       - HOME BASE OF LOGGING UNIT
MATR.         SANDSTONE            : Logunit      - NEUTRON MATRIX
TMAX.C        30                   : BHT          - MAXIMUM RECORDED TEMPERATURE
BHTD.M        387.096              : BHTDEP       - MAXIMUM RECORDED TEMPERATURE
RMT .C        21.1111              : MDTP         - TEMPERATURE OF MUD
MUDD.KG/M     9000                 : MWT          - MUD DENSITY
NEUT.         0                    : NEUTRON      - NEUTRON TYPE
RESI.         0                    : RESIST       - RESISTIVITY TYPE
RM  .OHMM     2.07                 : RM           - RESISTIVITY OF MUD
RMC .OHMM     0                    : RMC          - RESISTIVITY OF MUD CAKE
RMF .OHMM     1.65                 : RMF          - RESISTIVITY OF MUD FILTRATE
SUFT.C        4                    : SUFT         - SURFACE TEMPERATURE
~A  DEPTH      CAL       GR     PHIN     PHID     RESD
# ...
  246.736  230.029   41.896    0.508    0.332   11.945
  246.986  231.052   42.255    0.511    0.324   11.959
  247.236  229.585   41.144    0.543    0.340   11.927
  247.486  228.842   41.133    0.556    0.338   11.917
  247.736  228.934   41.128    0.583    0.330   11.931
  247.986  229.540   40.444    0.570    0.325   11.901
  248.236  227.970   39.581    0.555    0.325   11.761
  248.486  225.259   37.674    0.535    0.329   11.690
  248.736  223.483   40.478    0.570    0.331   11.637
  248.986  209.574   40.661    0.566    0.339   11.694
  249.236  176.278   41.572    0.534    0.355   12.116
  249.486  172.634   41.074    0.502    0.349   12.400
  249.736  170.650   39.657    0.452    0.323   12.549
  249.986  172.812   40.200    0.439    0.325   12.678
  250.236  179.120   42.640    0.444    0.338   12.621
  250.486  185.327   42.820    0.479    0.331   12.520
  250.736  185.829   41.893    0.566    0.298   12.373
  250.986  178.247   40.292    0.523    0.303   12.275
  251.236  176.157   43.342    0.493    0.335   12.196
  251.486  177.180   43.830    0.511    0.308   12.276
  251.736  181.000   44.066    0.533    0.300   12.360
  251.986  185.756   44.916    0.542    0.311   12.305
  252.236  190.094   46.683    0.537    0.310   12.074
  252.486  188.629   47.843    0.533    0.326   11.890
  252.736  182.910   52.552    0.536    0.309   11.667
  252.986  181.963   58.489    0.549    0.307   11.594
  253.236  184.540   62.893    0.561    0.285   11.377
  253.486  185.353   65.459    0.581    0.296   11.122
  253.736  184.092   66.921    0.568    0.312   11.033
  253.986  183.457   66.787    0.619    0.321   10.923
  254.236  183.235   66.171    0.596    0.320   10.817
  254.486  184.462   63.528    0.568    0.304   10.711
  254.736  185.895   61.927    0.536    0.282   10.704
  254.986  186.611   61.368    0.516    0.284   10.773
  255.236  188.045   62.152    0.516    0.281   10.785
  255.486  189.069   62.823    0.507    0.285   10.660
  255.736  190.714   65.997    0.485    0.295   10.403
  255.986  192.254   65.810    0.522    0.301    9.932
  256.236  192.860   65.189    0.551    0.306    9.093
  256.486  192.015   66.713    0.553    0.308    8.402
  256.736  189.409   69.095    0.531    0.295    7.364
  256.986  186.906   72.151    0.518    0.283    6.222
  257.236  186.165   76.126    0.484    0.209    5.201
  257.486  187.912   81.081    0.453    0.171    4.292
  257.736  185.615   87.630    0.573    0.121    3.734
  257.986  181.975   96.323    0.576    0.256    3.571
  258.236  177.086  101.830    0.541    0.248    3.576
  258.486  173.959  105.683    0.538    0.231    3.618
  258.736  173.217  105.365    0.528    0.217    3.636
  258.986  173.205  103.890    0.529    0.207    3.666
  259.236  173.709  105.843    0.619    0.231    3.717
  259.486  172.553  104.976    0.613    0.236    3.783
  259.736  174.402  100.496    0.600    0.209    4.028
  259.986  174.283   94.606    0.554    0.196    4.369
  260.236  172.922   88.347    0.504    0.197    5.024
  260.486  171.143   81.294    0.467    0.215    5.777
  260.736  170.298   74.546    0.488    0.256    6.473
  260.986  169.350   71.719    0.473    0.289    6.933
  261.236  168.610   67.606    0.517    0.295    7.643
  261.486  167.975   65.086    0.494    0.288    8.613
  261.736  167.854   65.446    0.512    0.263    9.708
  261.986  168.045   68.931    0.486    0.255   11.617
  262.236  168.445   70.822    0.397    0.248   13.187
  262.486  168.949   69.712    0.263    0.212   15.190
  262.736  170.181   65.291    0.226    0.137   17.688
  262.986  171.411   58.850    0.214    0.056   21.169
  263.236  172.324   59.939    0.212    0.053   24.295
  263.486  172.831   60.304    0.235    0.063   24.187
  263.736  173.439   58.825    0.263    0.089   22.187
  263.986  176.013   57.900    0.343    0.194   18.143
  264.236  180.874   60.520    0.430    0.234   15.193
  264.486  191.744   60.519    0.460    0.287   13.145
  264.736  189.967   59.524    0.525    0.288   12.390
  264.986  179.169   59.584    0.505    0.267   12.473
  265.236  171.586   58.657    0.404    0.237   13.553
  265.486  169.187   53.072    0.220    0.174   14.647
  265.736  172.487   44.976    0.161    0.025   15.121
  265.986  175.896   46.931    0.190    0.011   14.334
  266.236  172.667   52.560    0.287    0.045   12.426
  266.486  177.214   61.128    0.442    0.126   11.111
  266.736  182.275   66.699    0.466    0.269    9.562
  266.986  181.124   70.919    0.489    0.253    8.319
  267.236  178.827   73.544    0.504    0.246    7.589
  267.486  176.531   75.989    0.505    0.245    6.999
  267.736  173.405   80.393    0.532    0.236    6.408
  267.986  168.514   87.674    0.538    0.236    6.085
  268.236  167.880   89.936    0.537    0.239    6.013
  268.486  167.035   88.211    0.527    0.243    6.031
  268.736  167.021   88.211    0.500    0.247    6.319
  268.986  166.799   87.578    0.480    0.259    6.668
  269.236  166.471   87.821    0.490    0.257    6.873
  269.486  166.044   88.182    0.508    0.251    7.071
  269.736  165.716   87.010    0.517    0.235    7.144
  269.986  166.011   86.080    0.504    0.227    7.087
  270.236  166.724   88.097    0.498    0.230    6.853
  270.486  167.329   91.701    0.487    0.231    6.674
  270.736  167.628   91.390    0.485    0.232    6.525
  270.986  167.505   92.240    0.489    0.226    6.380
  271.236  167.494   97.073    0.485    0.209    6.294
  271.486  167.478  101.293    0.507    0.223    6.233
  271.736  167.461  100.549    0.524    0.225    6.250
  271.986  167.242   96.557    0.506    0.214    6.291
  272.236  166.912   93.304    0.514    0.204    6.309
  272.486  166.482   86.556    0.469    0.216    6.363
  272.736  166.053   78.889    0.438    0.224    6.452
  272.986  165.625   81.454    0.426    0.219    6.564
  273.236  165.297   82.794    0.416    0.232    6.620
  273.486  164.971   81.010    0.484    0.223    6.589
  273.736  164.749   80.328    0.478    0.218    6.658
  273.986  164.736   81.422    0.482    0.204    6.763
  274.236  164.722   83.007    0.481    0.232    6.820
  274.486  165.017   83.736    0.486    0.221    7.159
  274.736  165.416   82.931    0.493    0.208    7.907
  274.986  165.816   79.671    0.463    0.190    8.314
  275.236  166.010   80.097    0.334    0.163    8.293
  275.486  166.302   83.947    0.348    0.124    8.064
  275.736  166.395   83.947    0.519    0.203    7.699
  275.986  166.064   88.772    0.554    0.183    6.784
  276.236  165.949   89.931    0.596    0.207    5.785
  276.486  165.727   89.004    0.623    0.236    4.052
  276.736  165.712   86.668    0.645    0.253    3.308
  276.986  165.283   88.621    0.596    0.294    3.129
  277.236  164.851   87.510    0.585    0.296    3.196
  277.486  164.318   84.316    0.580    0.287    3.874
  277.736  163.887   75.914    0.561    0.281    4.611
  277.986  163.459   75.171    0.517    0.248    5.350
  278.236  163.134   77.180    0.515    0.242    5.782
  278.486  163.221   76.074    0.541    0.254    5.673
  278.736  163.310   76.065    0.514    0.249    5.794
  278.986  163.504   78.693    0.538    0.219    6.092
  279.236  163.590   81.198    0.552    0.226    6.211
  279.486  163.887   76.042    0.530    0.243    6.229
  279.736  164.077   76.893    0.555    0.247    6.304
  279.986  164.377   78.539    0.566    0.244    6.369
  280.236  164.462   81.596    0.513    0.254    6.411
  280.486  164.655   80.910    0.520    0.256    6.371
  280.736  164.950   79.067    0.535    0.244    6.262
  280.986  165.142   80.224    0.550    0.234    5.957
  281.236  165.336   82.973    0.552    0.231    5.677
  281.486  165.322   84.313    0.535    0.238    5.560
  281.736  165.100   83.936    0.546    0.227    5.525
  281.986  164.981   83.624    0.489    0.225    5.602
  282.236  164.759   80.185    0.427    0.219    5.838
  282.486  164.642   75.458    0.360    0.201    6.737
  282.736  164.730   75.022    0.365    0.187    7.946
  282.986  165.234   78.995    0.542    0.189    7.911
