~V
VERS. 2.00: Ver 2.00
WRAP. NO:
VEND. PRIZM:GeoGraphix
~W
STRT.M 97.5000:START DEPTH
STOP.M 344.5000:STOP DEPTH
STEP.M 0.2500:STEP
NULL. -999.2500:NULL VALUE
WELL. 00/10-19-083-05W4/0 :WELL
COMP. :COMPANY
UWI. 00_10-19-083-05W4_0:UNIQUE WELL ID
FLD. :FIELD
CNTY. :COUNTY
STAT. :STATE
CTRY. :COUNTRY
PDAT. :PERMANENT DATUM
LMF. :LOG MEASURED FROM
DMF. :DRILLING MEASURED FROM
LOC1. :LOCATION LINE 1
LOC2. :LOCATION LINE 2
LOC3. :LOCATION LINE 3
SEC. :SECTION
TWP. :TOWNSHIP
RAN. :RANGE
SRVC. :Logging Company
BASE. :Logging Unit Location
ENG. :Logging Engineer
WITN. :Witnessed By
RUN. :Run No.
MUD_TYPE. :Type Fluid in Hole
MUDS. :Source of Mud Sample
RMFS. :Source of Mud Filtrate
RMCS. :Source of Mud Cake
LOC. :LOCATION
DATE. :LOG DATE
~C
DEPT.M :DEPTH
NPHI. :NPHI
GR.API :GR
DPHI. :Created by graphical digitiser entry.
ILD.Ohmm :ILD
~P
EKB. -999.2500:ELEVATION OF KELLY BUSHING
EDF. -999.2500:ELEVATION OF DRILLING FLOOR
EGL. -999.2500:ELEVATION OF GROUND LEVEL
EPD. -999.2500:ELEVATION OF PERMANENT DATUM
APD. -999.2500:LMF DISTANCE ABOVE PERMANENT DATUM
LAT. -999.2500:LATITUDE OF WELL LOCATION
LONG. -999.2500:LONGITUDE OF WELL LOCATION
TDD. -999.2500:Total Depth Driller
TDL. -999.2500:Total Depth Logger
LCSG1. -999.2500:Depth of Casing from Logger
CSIZE. -999.2500:Casing Size
CWT. -999.2500:Casing Weight
BS. -999.2500:Bit Size
TLI. 97.5000:Top Logged Interval
BLI. 344.4000:Bottom Logged Interval
MRT. 0.0000:Maximum Recorded Temperature
WMUD. -999.2500:Drilling Mud Density
DFV. -999.2500:Drilling Mud Viscosity
PH. -999.2500:Drilling Mud pH
DFL. -999.2500:Drilling Mud Fluid Loss
RM. -999.2500:Resistivity of Drilling Fluid
RMT. -999.2500:Measured Temp. of Drilling Fluid
RMF. -999.2500:Resistivity of Drilling Fluid Filtrate
RMFT. -999.2500:Measured Temp. of Drilling Fluid Filtrate
RMC. -999.2500:Resistivity of Mud Cake
RMCT. -999.2500:Measured Temp. of Mud Cake
PHImax.V/V 0.3900:Maximum allowable Porosity
RwBnd.OHMM 0.1500:Bound Water Resistivity
RhoHy.KG/MT 1000.0000:Hydrocarbon Bulk density
SwCutoff.V/V 0.7000:Water Saturation Cutoff
PHINsh.V/V 0.4800:New Description
Rw.OHMM 1.0000:Formation Water Resistivity
Rshl.OHMM 5.0000:Resistivity shale
Trw.DEGC 25.0000:Rw measured at Lab conditions
ShaleCutoff.V/V 0.4000:New Description
GRcln.API 45.0000:Gamma Ray clean
RhoM.KG/MT 2650.0000:Bulk Density Matrix
GRshl.API 90.0000:Gamma Ray shale
m. 2.0000:Archie "m"
n. 2.0000:Archie "n"
GasTol.V/V 0.0500:Gas Tollerance
BHTemp.DEGC 25.0000:Bottom Hole Temperature
BHTDepth.M 1000.0000:Bottom Hole Depth
PHIDsh.US/MT 0.1800:New Description
a. 1.0000:Archie "a"
Gas Tol.V/V 0.0500:Gas Tollerance
RhoF.KG/MT 1000.0000:Bulk Density Fluid
RhoShl.KG/MT 2300.0000:Bulk Density Shale
TarCutoff.V/V 0.0300:New Description
SurfTemp.DEGC 10.0000:New Description
HIshl.V/V 0.4000:Neutron Hydrogen Index shale
NULL. -999.2500:
~A
# ...
  204.7500     0.4681    56.3197     0.3479    17.6517 
  205.0000     0.4675    55.7655     0.3433    17.6134 
  205.2500     0.4601    55.7737     0.3335    17.5568 
  205.5000     0.4570    56.2890     0.3325    17.4531 
  205.7500     0.4573    54.6175     0.3338    17.3495 
  206.0000     0.4559    52.5815     0.3379    17.2459 
  206.2500     0.4556    54.2431     0.3328    17.1423 
  206.5000     0.4565    56.9316     0.3277    17.0386 
  206.7500     0.4565    57.1068     0.3325    16.9350 
  207.0000     0.4521    56.2223     0.3387    16.8314 
  207.2500     0.4495    54.7026     0.3433    16.7577 
  207.5000     0.4538    54.6764     0.3423    16.6914 
  207.7500     0.4570    54.3629     0.3343    16.6272 
  208.0000     0.4562    55.3944     0.3285    16.5629 
  208.2500     0.4537    57.9771     0.3312    16.4985 
  208.5000     0.4569    56.0529     0.3310    16.4342 
  208.7500     0.4597    54.9661     0.3295    16.3699 
  209.0000     0.4657    55.4232     0.3252    16.3011 
  209.2500     0.4771    56.9914     0.3227    16.1922 
  209.5000     0.4869    58.7018     0.3220    16.0575 
  209.7500     0.4888    59.6133     0.3214    15.9229 
  210.0000     0.4856    59.3765     0.3212    15.7882 
  210.2500     0.4702    62.8173     0.3294    15.6535 
  210.5000     0.4527    64.6860     0.3299    15.5188 
  210.7500     0.4406    64.7059     0.3298    15.3841 
  211.0000     0.4374    64.0322     0.3323    15.2494 
  211.2500     0.4424    63.9391     0.3367    15.1353 
  211.5000     0.4505    64.5079     0.3384    15.1032 
  211.7500     0.4574    64.9149     0.3339    15.0984 
  212.0000     0.4663    64.0079     0.3197    15.0937 
  212.2500     0.4786    63.5273     0.3184    14.8551 
  212.5000     0.4919    63.1603     0.3275    14.6734 
  212.7500     0.5012    61.6095     0.3345    14.8489 
  213.0000     0.4999    57.6621     0.3321    15.1762 
  213.2500     0.4833    57.5137     0.3325    15.4913 
  213.5000     0.4862    58.7747     0.3300    15.6834 
  213.7500     0.4933    60.2574     0.3261    15.8447 
  214.0000     0.5000    61.0472     0.3233    15.7886 
  214.2500     0.5074    61.6739     0.3232    15.3781 
  214.5000     0.5179    65.2816     0.3245    14.8552 
  214.7500     0.5167    66.6040     0.3235    14.3016 
  215.0000     0.5200    67.1877     0.3172    13.7664 
  215.2500     0.5262    66.8739     0.3202    13.4606 
  215.5000     0.5316    65.0695     0.3299    13.3047 
  215.7500     0.5339    62.7318     0.3382    13.1947 
  216.0000     0.5361    64.3546     0.3415    13.2681 
  216.2500     0.5439    66.1685     0.3377    13.7657 
  216.5000     0.5448    62.4388     0.3350    14.2632 
  216.7500     0.5233    61.2365     0.3392    14.6794 
  217.0000     0.4928    62.5922     0.3421    14.9384 
  217.2500     0.4719    63.6558     0.3368    15.0430 
  217.5000     0.4602    63.8555     0.3319    15.1475 
  217.7500     0.4568    65.8584     0.3282    14.6947 
  218.0000     0.4526    66.3193     0.3314    14.1706 
  218.2500     0.4460    64.8496     0.3322    13.6288 
  218.5000     0.4401    63.1481     0.3289    13.1633 
  218.7500     0.4383    62.1180     0.3278    12.8423 
  219.0000     0.4396    58.9843     0.3421    12.6427 
  219.2500     0.4522    59.0129     0.3363    12.4430 
  219.5000     0.4609    59.1762     0.3294    12.5230 
  219.7500     0.4654    59.4578     0.3278    12.7450 
  220.0000     0.4654    60.6135     0.3336    13.0150 
  220.2500     0.4656    62.5423     0.3433    13.1416 
  220.5000     0.4811    62.6579     0.3479    12.6948 
  220.7500     0.5696    62.5820     0.3447    12.1288 
  221.0000     0.5918    63.5475     0.3509    11.3103 
  221.2500     0.5540    66.4479     0.3489    10.0362 
  221.5000     0.4982    70.6171     0.3390     8.5205 
  221.7500     0.4677    75.5875     0.3229     7.1096 
  222.0000     0.4730    82.8460     0.2855     5.9989 
  222.2500     0.4780    86.5407     0.2873     5.2670 
  222.5000     0.4832    88.3461     0.2666     4.7207 
  222.7500     0.4812    89.0000     0.2556     4.3152 
  223.0000     0.4736    88.8618     0.2640     4.0189 
  223.2500     0.4689    88.3899     0.2832     3.8299 
  223.5000     0.4801    88.6203     0.2919     3.7945 
  223.7500     0.4829    88.8146     0.3029     4.3445 
  224.0000     0.4752    88.3267     0.3026     4.8870 
  224.2500     0.4721    85.8694     0.2942     5.4145 
  224.5000     0.4729    84.0542     0.2791     5.5796 
  224.7500     0.4714    85.3457     0.2639     5.1628 
  225.0000     0.4669    88.0159     0.2670     4.5416 
  225.2500     0.4628    90.6147     0.2828     3.6702 
  225.5000     0.4628    92.5479     0.2858     3.0195 
  225.7500     0.4654    93.4119     0.2855     2.6941 
  226.0000     0.4675    93.6728     0.2847     2.5694 
  226.2500     0.4655    93.8112     0.2861     2.4861 
  226.5000     0.4557    93.4670     0.2982     2.4438 
  226.7500     0.4440    90.9354     0.2969     2.5076 
  227.0000     0.4412    88.2090     0.2856     2.5712 
  227.2500     0.4440    86.8273     0.2748     2.7524 
  227.5000     0.4501    86.1888     0.2635     3.0484 
  227.7500     0.4578    85.3877     0.2553     3.4153 
  228.0000     0.4645    85.0520     0.2740     3.8470 
  228.2500     0.4655    88.1912     0.2760     4.3894 
  228.5000     0.4601    87.6922     0.2847     4.9030 
  228.7500     0.4518    86.3113     0.2752     5.3994 
  229.0000     0.4455    85.1712     0.2686     5.8707 
  229.2500     0.4461    84.4234     0.2829     6.3135 
  229.5000     0.4574    83.9110     0.2827     6.7524 
  229.7500     0.4733    82.2745     0.2756     7.1551 
  230.0000     0.4918    82.5943     0.2738     7.5098 
  230.2500     0.4780    83.7258     0.2740     7.6797 
  230.5000     0.4430    83.9236     0.2754     7.7344 
  230.7500     0.4116    82.6239     0.2786     7.7892 
  231.0000     0.3910    82.2283     0.2839     7.8439 
  231.2500     0.3963    82.1443     0.2931     8.0511 
  231.5000     0.4061    80.4078     0.3050     8.2979 
  231.7500     0.4136    78.4454     0.3167     8.9570 
  232.0000     0.4184    77.2845     0.3320     9.7476 
  232.2500     0.4236    77.5950     0.3467    10.3092 
  232.5000     0.4334    79.7322     0.3330    10.7746 
  232.7500     0.4514    82.1741     0.2935    10.4121 
  233.0000     0.4785    85.9182     0.2737     9.9292 
  233.2500     0.5111    88.1815     0.2595     9.7664 
  233.5000     0.5228    88.7012     0.2517    10.0433 
  233.7500     0.4935    87.9674     0.2471    10.6221 
  234.0000     0.4387    85.4549     0.2193    11.1713 
  234.2500     0.4172    83.1871     0.2024    11.0260 
  234.5000     0.4108    82.8057     0.1930    10.7776 
  234.7500     0.4110    85.2016     0.1982     9.9769 
  235.0000     0.4145    87.3095     0.2271     9.1943 
  235.2500     0.4204    86.6111     0.2667     8.9633 
  235.5000     0.4264    85.6372     0.2592     8.7232 
  235.7500     0.4341    86.8512     0.2547     7.7725 
  236.0000     0.4445    88.2109     0.2414     7.3534 
  236.2500     0.4086    88.7962     0.2441     7.1606 
  236.5000     0.3731    88.0401     0.2551     7.1125 
  236.7500     0.3880    86.2423     0.2584     7.1881 
  237.0000     0.4137    85.0830     0.2544     7.2638 
  237.2500     0.4383    84.9888     0.2667     7.4314 
  237.5000     0.4672    84.9993     0.2693     7.6341 
  237.7500     0.4690    85.0672     0.2772     7.6669 
  238.0000     0.4486    85.9395     0.2726     7.4027 
  238.2500     0.4334    88.6895     0.2508     6.8533 
  238.5000     0.4584    94.2489     0.2655     6.2286 
  238.7500     0.4805    96.4108     0.2788     5.5167 
  239.0000     0.5006    95.1025     0.2778     4.9133 
  239.2500     0.5157    90.9582     0.2783     4.5012 
  239.5000     0.5106    86.7446     0.2799     4.2754 
  239.7500     0.4795    84.8513     0.2794     4.2836 
  240.0000     0.4472    84.7818     0.2851     4.7650 
  240.2500     0.4598    85.8432     0.2755     5.5080 
