~VERSION INFORMATION
 VERS.                 2.0:   CWLS LOG ASCII STANDARD -VERSION 2.0
 WRAP.                  NO:   ONE LINE PER DEPTH STEP
~WELL INFORMATION BLOCK
#MNEM.UNIT           DATA                    DESCRIPTION OF MNEMONIC
#---------    -------------------            -------------------------------
# Generated from Intellog Unique Number	CW_76_78/WELL/2580
WELL.         10-33-078-21W4                 : Well_name    - WELL
LOC .         00/10-33-078-21W4/0            : Location     - LOCATION
UWI .         00/10-33-078-21W4/0            : Uwi          - UNIQUE WELL ID
ENTR.         MAX                            : Entered      - ENTERED BY
SRVC.         SCHLUMBERGER                   : Scn          - SERVICE COMPANY
STRT.M        220                            : top_depth    - START DEPTH
STOP.M        435                            : bot_depth    - STOP DEPTH
STEP.M        0.25                           : increment    - STEP LENGTH
 NULL. -999.2500:NULL Value
~CURVE INFORMATION BLOCK
#MNEM UNIT       ERCB CURVE CODE    CURVE DESCRIPTION
#-----------   ------------------   ----------------------------------
DEPT.M        00 001 00 00         : DEPTH        - DEPTH
ILD .OHMM     00 120 00 00         : RESD         - DEEP RESISTIVITY (DIL)
NPHI.V/V      00 330 00 00         : PHIN         - NEUTRON POROSITY (SANDSTONE)
DPHI.V/V      00 890 00 00         : PHID         - DENSITY POROSITY (SANDSTONE)
CALI.MM       00 280 01 00         : CAL          - CALIPER
GR  .API      00 310 00 00         : GR           - GAMMA RAY
~PARAMETER INFORMATION
#MNEM.UNIT           DATA             DESCRIPTION OF MNEMONIC
#---------         -----------     ------------------------------
GL  .M        566.16               : gl           - GROUND LEVEL ELEVATION
EREF.M        570.12               : kb           - ELEVATION OF DEPTH REFERENCE
DATM.M        566.16               : datum        - DATUM ELEVATION
TDD .M        435.5                : tdd          - TOTAL DEPTH DRILLER
RUN .         ONE                  : Run          - RUN NUMBER
ENG .         BILL                 : Engineer     - RECORDING ENGINEER
WIT .         JIM                  : Witness      - WITNESSED BY
MUD .         GEL                  : Mud_type     - MUD TYPE
MATR.         SANDSTONE            : Logunit      - NEUTRON MATRIX
TMAX.C        22                   : BHT          - MAXIMUM RECORDED TEMPERATURE
BHTD.M        435.5                : BHTDEP       - MAXIMUM RECORDED TEMPERATURE
RMT .C        13                   : MDTP         - TEMPERATURE OF MUD
MUDD.KG/M     1128                 : MWT          - MUD DENSITY
NEUT.         1                    : NEUTRON      - NEUTRON TYPE
RESI.         0                    : RESIST       - RESISTIVITY TYPE
RM  .OHMM     3.18                 : RM           - RESISTIVITY OF MUD
RMC .OHMM     0                    : RMC          - RESISTIVITY OF MUD CAKE
RMF .OHMM     1.6                  : RMF          - RESISTIVITY OF MUD FILTRATE
SUFT.C        -20                  : SUFT         - SURFACE TEMPERATURE
~A  DEPTH     RESD     PHIN     PHID      CAL       GR
# ...
  366.000   13.678    0.397    0.190  159.003   71.398
  366.250   13.070    0.418    0.221  158.579   74.702
  366.500   12.604    0.380    0.209  157.141   74.727
  366.750   11.934    0.348    0.178  157.177   73.559
  367.000   11.298    0.348    0.153  157.219   76.565
  367.250   10.894    0.416    0.200  159.248   80.468
  367.500   11.105    0.448    0.241  160.785   78.708
  367.750   11.743    0.453    0.235  159.336   76.044
  368.000   13.496    0.405    0.215  156.397   69.220
  368.250   15.087    0.367    0.158  154.944   68.941
  368.500   16.252    0.332    0.102  154.991   72.546
  368.750   16.262    0.339    0.162  155.534   76.743
  369.000   14.702    0.393    0.205  156.067   80.643
  369.250   12.809    0.442    0.226  156.141   81.562
  369.500   11.475    0.445    0.221  156.151   79.504
  369.750   11.913    0.415    0.217  155.701   78.042
  370.000   12.142    0.400    0.199  155.743   77.471
  370.250   12.961    0.404    0.201  155.790   76.602
  370.500   16.794    0.409    0.198  156.328   76.326
  370.750   18.773    0.392    0.159  157.358   73.966
  371.000   20.041    0.346    0.101  159.889   67.732
  371.250   20.806    0.278    0.084  159.931   62.094
  371.500   20.821    0.276    0.120  157.494   63.609
  371.750   20.262    0.326    0.171  157.494   75.262
  372.000   18.487    0.365    0.188  156.108   77.373
  372.250   16.868    0.342    0.176  156.625   78.299
  372.500   15.110    0.357    0.185  156.625   81.304
  372.750   13.288    0.392    0.234  157.723   83.416
  373.000   11.794    0.431    0.247  158.241   82.841
  373.250   11.373    0.432    0.239  158.283   84.363
  373.500   11.379    0.436    0.230  158.826   86.173
  373.750   11.495    0.447    0.230  159.360   85.605
  374.000   11.715    0.458    0.243  158.423   85.034
  374.250   12.164    0.456    0.242  156.478   83.268
  374.500   12.512    0.452    0.246  156.018   79.719
  374.750   12.521    0.456    0.230  155.557   80.635
  375.000   12.528    0.463    0.217  155.108   84.243
  375.250   12.536    0.459    0.232  155.149   84.265
  375.500   12.896    0.460    0.250  155.196   82.204
  375.750   14.820    0.465    0.256  155.238   79.546
  376.000   18.336    0.439    0.241  155.280   76.892
  376.250   22.067    0.408    0.220  155.316   73.936
  376.500   24.666    0.349    0.188  154.872   70.683
  376.750   24.911    0.303    0.093  154.417   72.794
  377.000   23.587    0.347    0.152  153.956   79.377
  377.250   21.125    0.394    0.176  153.506   82.680
  377.500   17.254    0.419    0.150  153.553   85.984
  377.750   15.173    0.429    0.201  154.092   89.592
  378.000   13.973    0.447    0.215  154.620   89.620
  378.250   13.351    0.448    0.231  155.169   88.745
  378.500   12.994    0.450    0.227  155.713   89.074
  378.750   12.648    0.451    0.214  156.743   90.291
  379.000   12.425    0.444    0.205  158.269   91.505
  379.250   12.433    0.449    0.240  160.298   92.428
  379.500   12.441    0.438    0.213  160.345   93.046
  379.750   12.565    0.440    0.203  159.393   94.865
  380.000   12.572    0.450    0.198  161.924   95.781
  380.250   12.582    0.459    0.206  165.935   97.893
  380.500   12.474    0.438    0.199  165.480  101.203
  380.750   12.474    0.423    0.144  157.081  103.911
  381.000   12.373    0.418    0.107  156.632  107.807
  381.250   11.932    0.428    0.097  157.175  114.091
  381.500   11.194    0.437    0.133  157.175  115.312
  381.750   10.895    0.448    0.144  157.259  113.251
  382.000   10.702    0.454    0.147  157.290  108.507
  382.250   10.709    0.451    0.118  157.290  106.445
  382.500   10.717    0.444    0.072  156.887  110.643
  382.750   10.822    0.437    0.124  155.935  115.139
  383.000   11.341    0.434    0.158  155.935  119.340
  383.250   11.667    0.427    0.183  155.543  117.875
  383.500   11.781    0.417    0.193  155.564  114.025
  383.750   11.789    0.423    0.187  155.109  110.178
  384.000   11.691    0.424    0.176  154.659  111.392
  384.250   11.484    0.427    0.165  154.659  115.590
  384.500   11.280    0.429    0.153  154.251  118.602
  384.750   11.288    0.432    0.158  153.785  109.384
  385.000   11.504    0.436    0.165  153.785  104.342
  385.250   12.167    0.439    0.152  153.874  103.473
  385.500   12.633    0.407    0.131  153.419  111.847
  385.750   12.524    0.380    0.118  152.969  118.134
  386.000   11.968    0.403    0.145  152.519  117.262
  386.250   11.975    0.420    0.133  152.054  113.114
  386.500   12.665    0.434    0.132  151.609  107.774
  386.750   13.770    0.392    0.082  151.149   99.454
  387.000   15.111    0.340    0.077  151.196  101.565
  387.250   16.431    0.334    0.096  151.237  107.558
  387.500   17.378    0.350    0.114  151.237  108.477
  387.750   16.757    0.366    0.125  151.326  110.585
  388.000   15.720    0.395    0.140  151.368  110.613
  388.250   15.584    0.401    0.157  151.368  107.959
  388.500   15.584    0.390    0.151  151.472  104.103
  388.750   15.749    0.373    0.145  151.493   97.570
  389.000   19.486    0.339    0.128  151.535   91.932
  389.250   22.190    0.315    0.065  151.535   86.297
  389.500   22.617    0.278    0.036  152.146   87.511
  389.750   21.216    0.303    0.079  152.659   95.885
  390.000   19.356    0.328    0.132  152.700  103.660
  390.250   17.338    0.377    0.141  152.742  106.368
  390.500   15.820    0.402    0.160  152.778  106.098
  390.750   15.820    0.403    0.162  153.322  102.847
  391.000   14.857    0.391    0.176  153.369  101.087
  391.250   14.454    0.387    0.184  153.416  102.000
  391.500   14.198    0.388    0.171  153.447  102.326
  391.750   14.339    0.384    0.164  153.494  102.351
  392.000   14.348    0.391    0.149  153.567  108.039
  392.250   14.225    0.407    0.147  154.074  111.349
  392.500   13.974    0.410    0.130  154.623  109.878
  392.750   13.477    0.400    0.094  154.655  110.204
  393.000   12.877    0.413    0.074  155.198  122.155
  393.250   12.304    0.439    0.111  156.234  124.266
  393.500   11.436    0.461    0.147  157.274  123.099
  393.750   10.243    0.458    0.152  157.807  120.742
  394.000    9.610    0.442    0.152  158.346  119.873
  394.250    9.527    0.440    0.160  157.896  120.494
  394.500    9.359    0.436    0.172  157.943  120.516
  394.750    9.024    0.432    0.181  157.979  120.243
  395.000    8.158    0.432    0.175  159.020  119.374
  395.250    7.795    0.434    0.166  161.545  117.912
  395.500    8.554    0.452    0.154  163.569  102.435
  395.750   10.487    0.483    0.162  166.596   85.768
  396.000   13.714    0.464    0.188  167.135   69.993
  396.250   17.443    0.426    0.206  155.751   51.240
  396.500   24.788    0.400    0.228  153.319   48.887
  396.750   30.668    0.396    0.266  153.847   49.800
  397.000   41.998    0.401    0.259  153.915   49.831
  397.250   44.839    0.401    0.254  154.924   49.558
  397.500   44.860    0.392    0.242  154.971   50.776
  397.750   44.068    0.383    0.235  155.018   52.592
  398.000   50.177    0.389    0.220  155.065   55.297
  398.250   60.390    0.397    0.228  155.096   55.921
  398.500   65.656    0.402    0.244  155.143   55.049
  398.750   67.547    0.405    0.270  155.195   55.670
  399.000   65.140    0.401    0.268  155.195   60.464
  399.250   59.445    0.414    0.254  155.765   66.456
  399.500   49.912    0.422    0.247  156.309   69.760
  399.750   39.651    0.423    0.229  156.853   73.657
  400.000   32.383    0.398    0.212  156.884   78.457
  400.250   22.821    0.388    0.196  156.931   78.184
  400.500   16.379    0.390    0.165  158.468   76.424
  400.750   12.894    0.390    0.139  159.498   85.089
  401.000   11.444    0.386    0.134  161.030   96.142
  401.250   10.250    0.352    0.083  161.077  100.340
  401.500    8.767    0.360    0.063  161.124  110.205
  401.750    6.775    0.387    0.100  161.657  106.656
  402.000    6.069    0.420    0.148  162.206  100.121
  402.250    6.243    0.423    0.144  161.741   92.396
