~VERSION INFORMATION
 VERS.                 2.0:   CWLS LOG ASCII STANDARD -VERSION 2.0
 WRAP.                  NO:   ONE LINE PER DEPTH STEP
~WELL INFORMATION BLOCK
#MNEM.UNIT           DATA                    DESCRIPTION OF MNEMONIC
#---------    -------------------            -------------------------------
# Generated from Intellog Unique Number	CW_79_81/WELL/2493
WELL.         GULF WABASCA                   : Well_name    - WELL
LOC .         00/15-36-080-19W4/0            : Location     - LOCATION
UWI .         00/15-36-080-19W4/0            : Uwi          - UNIQUE WELL ID
ENTR.         MAX                            : Entered      - ENTERED BY
SRVC.         SCHLUMBERGER                   : Scn          - SERVICE COMPANY
STRT.M        137.16                         : top_depth    - START DEPTH
STOP.M        365.41                         : bot_depth    - STOP DEPTH
STEP.M        0.25                           : increment    - STEP LENGTH
 NULL. -999.2500:NULL Value
~CURVE INFORMATION BLOCK
#MNEM UNIT       ERCB CURVE CODE    CURVE DESCRIPTION
#-----------   ------------------   ----------------------------------
DEPT.M        00 001 00 00         : DEPTH        - DEPTH
ILD .OHMM     00 120 00 00         : RESD         - DEEP RESISTIVITY (DIL)
NPHI.V/V      00 330 00 00         : PHIN         - NEUTRON POROSITY (SANDSTONE)
DPHI.V/V      00 890 00 00         : PHID         - DENSITY POROSITY (SANDSTONE)
GR  .API      00 310 00 00         : GR           - GAMMA RAY
CALI.MM       00 280 01 00         : CAL          - CALIPER
~PARAMETER INFORMATION
#MNEM.UNIT           DATA             DESCRIPTION OF MNEMONIC
#---------         -----------     ------------------------------
GL  .M        569.976              : gl           - GROUND LEVEL ELEVATION
EREF.M        573.329              : kb           - ELEVATION OF DEPTH REFERENCE
DATM.M        569.976              : datum        - DATUM ELEVATION
TDD .M        376.733              : tdd          - TOTAL DEPTH DRILLER
RUN .         ONE                  : Run          - RUN NUMBER
ENG .         BILL                 : Engineer     - RECORDING ENGINEER
WIT .         JIM                  : Witness      - WITNESSED BY
MUD .         GEL                  : Mud_type     - MUD TYPE
MATR.         SANDSTONE            : Logunit      - NEUTRON MATRIX
TMAX.C        23.3333              : BHT          - MAXIMUM RECORDED TEMPERATURE
BHTD.M        376.733              : BHTDEP       - MAXIMUM RECORDED TEMPERATURE
MATR.         1                    : LOGUNIT      - NEUTRON MATRIX
RMT .C        20                   : MDTP         - TEMPERATURE OF MUD
NEUT.         1                    : NEUTRON      - NEUTRON TYPE
RESI.         0                    : RESIST       - RESISTIVITY TYPE
RMC .OHMM     7.3                  : RMC          - RESISTIVITY OF MUD CAKE
RMF .OHMM     7.49                 : RMF          - RESISTIVITY OF MUD FILTRATE
SUFT.C        -23.3333             : SUFT         - SURFACE TEMPERATURE
~A  DEPTH     RESD     PHIN     PHID       GR      CAL
# ...
  210.160   10.544    0.447    0.252  102.128  173.702
  210.410   11.232    0.456    0.255  100.496  168.776
  210.660   12.013    0.457    0.269   99.500  164.180
  210.910   12.181    0.459    0.277   95.729  161.366
  211.160   12.217    0.463    0.283   94.414  160.630
  211.410   12.120    0.468    0.290   93.803  160.586
  211.660   11.959    0.472    0.293   92.316  160.543
  211.910   11.914    0.468    0.280   86.199  160.577
  212.160   12.177    0.444    0.272   74.470  160.944
  212.410   12.888    0.449    0.282   68.123  160.904
  212.660   13.786    0.445    0.286   67.921  161.747
  212.910   14.604    0.447    0.299   67.428  163.090
  213.160   15.053    0.455    0.321   64.420  164.835
  213.410   14.889    0.462    0.334   60.340  167.568
  213.660   14.655    0.473    0.325   57.626  169.586
  213.910   14.435    0.485    0.324   57.137  170.736
  214.160   14.217    0.477    0.311   56.818  171.284
  214.410   14.002    0.464    0.298   56.791  171.240
  214.660   13.818    0.453    0.289   57.057  170.309
  214.910   13.622    0.444    0.281   57.395  167.220
  215.160   13.208    0.444    0.279   56.886  163.863
  215.410   12.729    0.449    0.289   58.727  163.427
  215.660   12.132    0.452    0.301   60.572  165.663
  215.910   11.524    0.456    0.302   62.771  170.179
  216.160   11.031    0.461    0.292   65.146  175.290
  216.410   10.770    0.469    0.287   66.893  176.441
  216.660   10.681    0.479    0.279   66.381  168.548
  216.910   10.597    0.473    0.253   66.121  172.867
  217.160   10.570    0.465    0.263   65.686  175.103
  217.410   10.562    0.460    0.277   65.658  172.285
  217.660   10.535    0.457    0.284   66.158  167.585
  217.910   10.436    0.453    0.283   66.587  169.976
  218.160   10.349    0.449    0.275   65.341  168.279
  218.410   10.192    0.436    0.274   60.398  169.027
  218.660    9.929    0.451    0.293   63.532  169.479
  218.910    9.496    0.473    0.306   66.549  169.633
  219.160    8.975    0.484    0.312   66.580  169.094
  219.410    8.423    0.478    0.337   66.667  166.481
  219.660    7.928    0.480    0.349   69.571  163.546
  219.910    6.838    0.485    0.334   70.481  164.294
  220.160    6.113    0.496    0.308   71.916  166.229
  220.410    5.755    0.503    0.282   72.357  169.952
  220.660    5.648    0.501    0.278   71.101  174.273
  220.910    5.645    0.485    0.320   67.772  176.033
  221.160    5.858    0.470    0.302   65.313  175.166
  221.410    6.559    0.471    0.321   64.819  165.606
  221.660    7.016    0.483    0.320   69.240  163.484
  221.910    6.905    0.501    0.311   74.831  163.838
  222.160    6.400    0.521    0.302   78.843  165.182
  222.410    6.091    0.538    0.291   77.760  168.833
  222.660    6.617    0.509    0.279   68.947  165.485
  222.910    7.726    0.480    0.317   60.033  165.040
  223.160   10.034    0.467    0.328   56.905  164.305
  223.410   12.540    0.453    0.331   56.528  163.270
  223.660   13.951    0.435    0.332   56.796  162.133
  223.910   16.770    0.424    0.314   55.944  161.286
  224.160   19.828    0.411    0.287   52.994  161.236
  224.410   21.741    0.381    0.233   47.112  161.593
  224.660   24.346    0.332    0.109   45.099  162.240
  224.910   25.754    0.299    0.082   47.764  163.387
  225.160   23.805    0.312    0.171   53.470  164.638
  225.410   17.814    0.395    0.257   59.249  164.816
  225.660   13.877    0.445    0.313   64.829  163.945
  225.910   11.970    0.451    0.296   69.251  163.100
  226.160   11.192    0.465    0.277   71.214  162.862
  226.410   10.948    0.473    0.272   71.539  163.018
  226.660   10.957    0.471    0.281   70.811  163.370
  226.910   11.056    0.466    0.287   69.327  163.803
  227.160   11.222    0.462    0.293   69.059  164.166
  227.410   11.624    0.464    0.288   65.052  164.126
  227.660   11.979    0.460    0.296   62.802  164.083
  227.910   12.322    0.458    0.300   63.010  164.039
  228.160   12.696    0.459    0.296   63.511  163.993
  228.410   13.270    0.449    0.298   58.975  163.850
  228.660   13.874    0.446    0.302   57.488  163.396
  228.910   14.476    0.449    0.306   57.225  163.352
  229.160   15.025    0.447    0.318   57.315  163.011
  229.410   15.402    0.450    0.330   57.876  162.372
  229.660   15.560    0.459    0.335   58.730  161.735
  229.910   15.521    0.459    0.327   59.741  161.770
  230.160   15.395    0.448    0.326   61.415  162.142
  230.410   14.943    0.444    0.316   63.966  162.093
  230.660   14.109    0.447    0.294   64.762  162.346
  230.910   13.510    0.453    0.273   63.684  163.687
  231.160   13.308    0.460    0.263   60.615  167.703
  231.410   13.372    0.464    0.274   55.483  177.761
  231.660   13.262    0.460    0.301   55.697  182.674
  231.910   13.156    0.459    0.309   53.331  186.588
  232.160   13.052    0.452    0.306   52.371  187.534
  232.410   12.949    0.451    0.305   53.048  186.700
  232.660   12.822    0.456    0.306   54.836  185.075
  232.910   12.588    0.458    0.307   56.151  183.193
  233.160   12.392    0.455    0.319   54.661  181.909
  233.410   12.206    0.463    0.332   54.167  181.073
  233.660   12.021    0.468    0.331   54.022  180.530
  233.910   11.839    0.466    0.321   53.412  180.284
  234.160   11.703    0.459    0.309   52.745  180.536
  234.410   11.712    0.454    0.306   53.937  181.928
  234.660   11.789    0.472    0.312   55.373  183.121
  234.910   11.954    0.480    0.336   56.289  177.925
  235.160   12.380    0.480    0.337   57.547  175.698
  235.410   12.783    0.474    0.330   58.338  173.871
  235.660   13.055    0.469    0.324   58.489  171.253
  235.910   13.349    0.469    0.327   58.515  167.613
  236.160   13.440    0.467    0.325   58.731  165.508
  236.410   13.430    0.469    0.325   57.769  163.874
  236.660   13.420    0.472    0.334   56.632  163.136
  236.910   13.460    0.470    0.350   55.902  162.698
  237.160   13.523    0.468    0.360   55.757  162.360
  237.410   13.530    0.480    0.341   55.960  162.471
  237.660   13.622    0.479    0.340   55.933  163.246
  237.910   13.612    0.486    0.333   57.545  165.188
  238.160   13.677    0.486    0.335   58.458  166.830
  238.410   13.717    0.479    0.337   58.667  167.576
  238.660   13.756    0.469    0.338   58.465  167.432
  238.910   13.964    0.463    0.339   58.138  166.991
  239.160   14.060    0.458    0.341   56.645  166.940
  239.410   14.254    0.456    0.337   55.923  166.892
  239.660   14.373    0.468    0.325   55.721  167.148
  239.910   14.518    0.472    0.326   55.343  167.500
  240.160   14.640    0.466    0.338   54.618  167.848
  240.410   14.434    0.466    0.333   54.228  168.190
  240.660   13.996    0.467    0.311   55.905  168.163
  240.910   13.685    0.471    0.317   57.520  168.119
  241.160   13.528    0.469    0.336   58.604  168.372
  241.410   13.517    0.464    0.349   58.694  168.921
  241.660   13.654    0.463    0.350   58.375  169.568
  241.910   13.983    0.474    0.347   59.278  170.080
  242.160   14.185    0.476    0.349   59.253  170.855
  242.410   14.486    0.470    0.354   58.528  171.609
  242.660   14.793    0.466    0.336   57.447  172.355
  242.910   14.997    0.465    0.331   56.484  173.102
  243.160   14.956    0.466    0.337   55.581  173.851
  243.410   14.385    0.462    0.317   53.855  174.761
  243.660   13.742    0.455    0.313   52.362  175.546
  243.910   13.832    0.445    0.319   51.632  173.124
  244.160   14.074    0.436    0.310   51.258  171.290
  244.410   14.576    0.440    0.306   51.118  170.650
  244.660   15.271    0.455    0.307   51.091  170.808
  244.910   15.821    0.466    0.302   51.058  170.445
  245.160   15.810    0.474    0.305   51.033  170.807
  245.410   15.569    0.474    0.310   51.008  172.749
  245.660   15.418    0.471    0.314   51.506  174.982
  245.910   15.353    0.469    0.312   51.948  176.127
  246.160   15.425    0.470    0.309   52.042  176.184
  246.410   15.726    0.473    0.319   51.974  176.689
