~VERSION INFORMATION
 VERS.                 2.0:   CWLS LOG ASCII STANDARD -VERSION 2.0
 WRAP.                  NO:   ONE LINE PER DEPTH STEP
~WELL INFORMATION BLOCK
#MNEM.UNIT           DATA                    DESCRIPTION OF MNEMONIC
#---------    -------------------            -------------------------------
# Generated from Intellog Unique Number	CW_76_78/WELL/2806
WELL.         10-20-076-24W4                 : Well_name    - WELL
LOC .         00/10-20-076-24W4/0            : Location     - LOCATION
UWI .         00/10-20-076-24W4/0            : Uwi          - UNIQUE WELL ID
ENTR.         JJ                             : Entered      - ENTERED BY
SRVC.         WESTERN ATLAS                  : Scn          - SERVICE COMPANY
DATE.         1 MAR 67                       : Date         - LOG DATE
STRT.M        746.76                         : top_depth    - START DEPTH
STOP.M        899.26                         : bot_depth    - STOP DEPTH
STEP.M        0.25                           : increment    - STEP LENGTH
 NULL. -999.2500:NULL Value
~CURVE INFORMATION BLOCK
#MNEM UNIT       ERCB CURVE CODE    CURVE DESCRIPTION
#-----------   ------------------   ----------------------------------
DEPT.M        00 001 00 00         : DEPTH        - DEPTH
DELT.US/F     00 520 00 00         : DELT         - SONIC TRAVEL TIME
GR  .API      00 310 00 00         : GR           - GAMMA RAY
CALI.MM       00 280 01 00         : CAL          - CALIPER
ILD .OHMM     00 120 00 00         : RESD         - DEEP RESISTIVITY (DIL)
~PARAMETER INFORMATION
#MNEM.UNIT           DATA             DESCRIPTION OF MNEMONIC
#---------         -----------     ------------------------------
GL  .M        938.479              : gl           - GROUND LEVEL ELEVATION
EREF.M        942.137              : kb           - ELEVATION OF DEPTH REFERENCE
DATM.M        942.137              : datum        - DATUM ELEVATION
TDD .M        905.256              : tdd          - TOTAL DEPTH DRILLER
RUN .         ONE                  : Run          - RUN NUMBER
ENG .         LUNN                 : Engineer     - RECORDING ENGINEER
WIT .         TERRILL              : Witness      - WITNESSED BY
MUD .         GEL                  : Mud_type     - MUD TYPE
MATR.         SANDSTONE            : Logunit      - NEUTRON MATRIX
TMAX.C        36.1111              : BHT          - MAXIMUM RECORDED TEMPERATURE
BHTD.M        904.037              : BHTDEP       - MAXIMUM RECORDED TEMPERATURE
RMT .C        21.1111              : MDTP         - TEMPERATURE OF MUD
MUDD.KG/M     1080                 : MWT          - MUD DENSITY
NEUT.         1                    : NEUTRON      - NEUTRON TYPE
RESI.         0                    : RESIST       - RESISTIVITY TYPE
RM  .OHMM     4.5                  : RM           - RESISTIVITY OF MUD
RMC .OHMM     3.31                 : RMC          - RESISTIVITY OF MUD CAKE
RMF .OHMM     4.84                 : RMF          - RESISTIVITY OF MUD FILTRATE
SUFT.C        5                    : SUFT         - SURFACE TEMPERATURE
~A  DEPTH     DELT       GR      CAL     RESD
  746.760  363.536   79.227  216.283    4.960
  747.010  360.558   78.697  215.162    4.966
  747.260  357.379   83.799  213.088    4.809
  747.510  359.302   83.070  212.810    4.917
  747.760  363.378   89.219  213.373    5.065
  748.010  368.325   91.580  215.942    5.072
  748.260  372.197   91.797  219.469    4.975
  748.510  375.733   91.665  219.713    4.859
  748.760  374.297   94.127  216.900    4.804
  749.010  372.125   99.827  213.885    4.871
  749.260  363.237   94.559  214.019    5.224
  749.510  319.557   84.156  217.011    5.883
  749.760  267.413   82.032  222.429    6.848
  750.010  248.918   76.913  218.877    8.302
  750.260  217.731   71.197  222.292   11.329
  750.510  237.386   70.517  226.550   17.601
  750.760  322.260   74.822  220.467   20.362
  751.010  329.290   82.966  226.518   17.613
  751.260  348.610   88.769  229.722   12.006
  751.510  366.653   91.179  231.659    9.379
  751.760  385.033   93.740  227.792    7.936
  752.010  395.086   96.148  220.441    6.657
  752.260  362.419   85.197  218.896    5.744
  752.510  364.679   84.621  223.786    5.792
  752.760  390.246   86.481  230.374    6.062
  753.010  320.304   89.040  230.195    6.537
  753.260  312.085   86.216  225.798    6.871
  753.510  313.137   86.331  218.447    6.734
  753.760  330.912   88.743  213.109    6.453
  754.010  354.800   94.993  216.202    6.011
  754.260  369.016   99.847  220.675    5.404
  754.510  375.371  104.402  217.967    4.899
  754.760  375.147  105.266  215.572    4.702
  755.010  379.690  104.436  216.773    4.688
  755.260  376.108  104.305  218.817    4.714
  755.510  373.465  105.870  220.328    4.761
  755.760  375.521  108.527  222.054    4.848
  756.010  373.016  109.295  224.413    4.976
  756.260  375.276  107.117  227.412    5.002
  756.510  377.469  106.537  227.972    4.907
  756.760  373.750  104.209  224.421    4.770
  757.010  369.900   98.544  225.193    4.652
  757.260  370.278   98.114  230.089    4.577
  757.510  376.973  102.918  232.130    4.481
  757.760  379.972  105.028  233.433    4.385
  758.010  379.540  106.890  232.203    4.269
  758.260  377.099  107.608  233.509    4.152
  758.510  380.036  107.824  237.241    4.077
  758.760  381.018  110.733  239.810    4.082
  759.010  384.084  109.254  235.412    4.047
  759.260  377.277  100.946  221.417    4.094
  759.510  371.143  102.859  215.540    4.181
  759.760  371.254  106.963  227.295    4.250
  760.010  373.712  108.179  225.957    4.316
  760.260  376.311  102.710  217.448    4.343
  760.510  380.850  102.780  228.674    4.348
  760.760  383.855  110.574  237.051    4.313
  761.010  376.106  110.442  232.336    4.319
  761.260  365.336  109.464  223.504    4.509
  761.510  358.597  108.582  216.576    4.720
  761.760  357.428  105.358  213.236    4.909
  762.010  361.302   99.144  213.380    5.343
  762.260  360.003   92.282  211.838    5.758
  762.510  354.406   92.099  209.870    6.254
  762.760  339.271   86.983  213.808    6.504
  763.010  320.910   81.365  218.277    7.041
  763.260  307.186   82.280  219.793    7.537
  763.510  321.603   89.129  217.930    7.768
  763.760  337.364   92.985  215.539    7.610
  764.010  358.028   90.212  214.309    7.025
  764.260  354.778   91.975  215.299    6.478
  764.510  345.286   93.038  216.284    5.913
  764.760  276.485   89.367  216.848    5.960
  765.010  267.193   82.304  216.364    7.170
  765.260  256.893   75.290  215.130    9.646
  765.510  249.816   68.776  215.804   11.549
  765.760  281.965   71.588  218.792   16.902
  766.010  300.951   72.203  223.578   29.195
  766.260  224.425   74.165  226.468   37.365
  766.510  213.521   79.317  222.595   40.514
  766.760  232.974   80.730  225.800   30.090
  767.010  270.364   85.637  224.889   20.177
  767.260  333.407   88.394  221.021   13.611
  767.510  342.383   91.055  219.375    9.801
  767.760  355.594   92.419  219.834    7.684
  768.010  402.855   93.783  224.300    6.425
  768.260  396.987   98.635  228.560    5.615
  768.510  364.725  100.399  234.607    5.335
  768.760  355.364   94.234  239.188    5.566
  769.010  349.364   90.213  236.373    5.674
  769.260  354.378   95.317  235.146    5.721
  769.510  353.816   91.992  235.817    5.624
  769.760  346.004   96.351  237.853    5.385
  770.010  350.413   97.862  239.160    5.146
  770.260  353.947   97.083  238.465    4.703
  770.510  349.154   94.306  236.595    4.363
  770.760  345.842   97.116  233.042    4.124
  771.010  353.073  104.562  221.475    4.068
  771.260  360.639  100.494  224.579    4.217
  771.510  365.920   97.019  224.711    4.386
  771.760  365.697   92.250  218.418    4.616
  772.010  367.218   93.315  216.765    4.846
  772.260  363.971   99.963  224.934    5.200
  772.510  369.050  105.766  224.016    5.431
  772.760  370.101  104.536  227.957    5.600
  773.010  370.012  108.991  221.981    5.666
  773.260  378.114  108.859  222.864    5.449
  773.510  384.472  110.822  236.089    5.270
  773.760  381.294  114.329  230.850    4.868
  774.010  371.462  115.145  222.449    4.527
  774.260  364.923  113.868  220.267    4.329
  774.510  356.036  111.241  225.579    4.315
  774.760  369.110  106.471  237.014    4.607
  775.010  368.213  105.243  235.996    4.979
  775.260  372.485  113.537  236.571    5.516
  775.510  375.353  116.647  241.669    5.583
  775.760  374.457  117.909  241.916    5.344
  776.010  368.053  116.032  234.035    5.064
  776.260  363.124  111.313  227.428    4.867
  776.510  360.416  106.943  224.295    4.912
  776.760  362.810  101.726  219.904    5.103
  777.010  366.079  100.845  217.721    5.251
  777.260  358.397  101.861  215.335    5.666
  777.510  344.337   93.053  214.105    6.305
  777.760  329.806   90.978  214.039    6.984
  778.010  318.969   90.147  214.810    7.745
  778.260  308.467   83.583  214.528    8.179
  778.510  321.740   86.292  214.682    8.246
  778.760  329.442   90.847  215.028    8.151
  779.010  302.957   89.967  215.695    8.258
  779.260  279.088   88.440  217.740    9.019
  779.510  246.692   82.575  221.998   10.250
  779.760  238.877   79.599  216.758   11.950
  780.010  260.079   80.664  215.003   12.324
  780.260  295.182   85.467  218.519   11.207
  780.510  327.197   89.175  215.603    9.702
  780.760  320.256   87.250  213.742    8.708
  781.010  294.979   83.778  215.786    8.408
  781.260  276.484   80.851  216.770    9.577
  781.510  269.274   82.614  218.079   11.236
  781.760  262.264   88.066  218.425   12.814
  782.010  311.607   96.659  218.891   11.187
  782.260  323.876  103.458  219.560    9.029
  782.510  346.420  106.816  217.804    8.015
  782.760  359.358  104.291  214.670    7.144
  783.010  353.356   99.970  213.123    6.700
  783.260  343.729   99.190  219.494    6.584
  783.510  340.074   98.660  218.374    6.692
  783.760  341.400   97.779  216.936    6.658
  784.010  352.056  103.182  216.336    6.357
  784.260  359.550  108.385  215.420    6.118
  784.510  362.286  113.238  219.257    5.858
  784.760  364.009  109.569  218.027    5.742
  785.010  365.525  106.792  214.581    5.728
  785.260  366.044  102.723  216.519    5.733
  785.510  365.079   99.748  224.471    5.780
  785.760  363.915   98.170  219.865    5.868
  786.010  362.615  102.126  217.368    5.937
  786.260  361.178  107.080  215.928    5.941
  786.510  360.412  109.142  215.020    5.988
  786.760  359.723  116.340  213.473    6.014
  787.010  359.227  120.395  212.457    6.061
  787.260  359.538  119.415  211.545    6.067
  787.510  360.187  116.142  211.474    5.992
  787.760  360.571  112.419  211.825    5.915
  788.010  362.157  112.487  212.291    5.798
  788.260  363.410  112.256  214.229    5.784
  788.510  363.791  115.314  215.318    5.813
  788.760  363.562  115.383  216.722    5.880
  789.010  362.737  112.907  217.604    5.925
  789.260  361.371  112.329  216.589    6.033
  789.510  360.136  111.945  213.878    6.141
  789.760  359.172  111.067  216.030    6.127
  790.010  358.545  110.533  221.023    6.173
