~VERSION INFORMATION
 VERS.                 2.0:   CWLS LOG ASCII STANDARD -VERSION 2.0
 WRAP.                  NO:   ONE LINE PER DEPTH STEP
~WELL INFORMATION BLOCK
#MNEM.UNIT           DATA                    DESCRIPTION OF MNEMONIC
#---------    -------------------            -------------------------------
# Generated from Intellog Unique Number	CS_77_79/WELL/3307
WELL.         UNIVERSAL EXPLORATIONS LTD.    : Well_name    - WELL
LOC .         00/13-24-078-07W4/0            : Location     - LOCATION
UWI .         00/13-24-078-07W4/0            : Uwi          - UNIQUE WELL ID
ENTR.         JOETTE                         : Entered      - ENTERED BY
SRVC.         SCHLUMBERGER                   : Scn          - SERVICE COMPANY
DATE.         08-26-92                       : Date         - LOG DATE
STRT.M        125                            : top_depth    - START DEPTH
STOP.M        321                            : bot_depth    - STOP DEPTH
STEP.M        0.25                           : increment    - STEP LENGTH
 NULL. -999.2500:NULL Value
~CURVE INFORMATION BLOCK
#MNEM UNIT       ERCB CURVE CODE    CURVE DESCRIPTION
#-----------   ------------------   ----------------------------------
DEPT.M        00 001 00 00         : DEPTH        - DEPTH
ILD .OHMM     00 120 00 00         : RESD         - DEEP RESISTIVITY (DIL)
DPHI.V/V      00 890 00 00         : PHID         - DENSITY POROSITY (SANDSTONE)
NPHI.V/V      00 330 00 00         : PHIN         - NEUTRON POROSITY (SANDSTONE)
GR  .API      00 310 00 00         : GR           - GAMMA RAY
~PARAMETER INFORMATION
#MNEM.UNIT           DATA             DESCRIPTION OF MNEMONIC
#---------         -----------     ------------------------------
GL  .M        547.2                : gl           - GROUND LEVEL ELEVATION
EREF.M        550.73               : kb           - ELEVATION OF DEPTH REFERENCE
DATM.M        550.73               : datum        - DATUM ELEVATION
TDD .M        325                  : tdd          - TOTAL DEPTH DRILLER
RUN .         ONE                  : Run          - RUN NUMBER
ENG .         BILL                 : Engineer     - RECORDING ENGINEER
WIT .         JIM                  : Witness      - WITNESSED BY
MUD .         GEL                  : Mud_type     - MUD TYPE
MATR.         SANDSTONE            : Logunit      - NEUTRON MATRIX
TMAX.C        18                   : BHT          - MAXIMUM RECORDED TEMPERATURE
BHTD.M        325                  : BHTDEP       - MAXIMUM RECORDED TEMPERATURE
MATR.         1                    : LOGUNIT      - NEUTRON MATRIX
RMT .C        16                   : MDTP         - TEMPERATURE OF MUD
NEUT.         1                    : NEUTRON      - NEUTRON TYPE
RESI.         0                    : RESIST       - RESISTIVITY TYPE
RMC .OHMM     0.533                : RMC          - RESISTIVITY OF MUD CAKE
RMF .OHMM     0.533                : RMF          - RESISTIVITY OF MUD FILTRATE
SUFT.C        15                   : SUFT         - SURFACE TEMPERATURE
~A  DEPTH     RESD     PHID     PHIN       GR
  125.000    2.780    0.268    0.566  105.115
  125.250    2.886    0.275    0.573  105.100
  125.500    2.996    0.279    0.511  102.022
  125.750    3.052    0.276    0.490   98.340
  126.000    3.169    0.277    0.494   95.273
  126.250    3.352    0.280    0.505   93.425
  126.500    3.547    0.277    0.514   93.406
  126.750    3.824    0.270    0.524   92.780
  127.000    4.202    0.263    0.522   90.935
  127.250    4.706    0.254    0.522   84.198
  127.500    5.578    0.250    0.452   76.238
  127.750    5.791    0.254    0.433   62.164
  128.000    6.363    0.257    0.439   55.427
  128.250    6.482    0.179    0.344   68.856
  128.500    6.239    0.173    0.311   71.900
  128.750    5.567    0.266    0.381   84.719
  129.000    4.782    0.267    0.518   91.426
  129.250    4.031    0.263    0.526   93.851
  129.500    3.463    0.263    0.538   95.059
  129.750    4.428    0.265    0.564   73.655
  130.000    8.267    0.271    0.421   67.528
  130.250    9.987    0.279    0.422   72.402
  130.500   11.615    0.296    0.434   70.554
  130.750   13.766    0.331    0.450   67.480
  131.000   14.844    0.344    0.416   70.520
  131.250   13.496    0.335    0.405   73.564
  131.500   11.816    0.328    0.402   79.046
  131.750   10.150    0.340    0.427   82.090
  132.000    8.719    0.355    0.449   85.130
  132.250    8.393    0.305    0.455   88.171
  132.500    7.631    0.285    0.463   90.600
  132.750    7.344    0.274    0.465   93.637
  133.000    7.341    0.268    0.477   94.233
  133.250    7.339    0.263    0.488   91.166
  133.500    7.763    0.266    0.506   88.703
  133.750    8.061    0.275    0.520   89.295
  134.000    8.691    0.290    0.511   88.066
  134.250    9.732    0.313    0.481   80.713
  134.500   10.695    0.311    0.476   66.639
  134.750   11.975    0.320    0.479   61.739
  135.000   13.157    0.596    0.518   55.613
  135.250   13.662    0.632    0.695   56.820
  135.500   15.011    0.575    0.641   70.860
  135.750   15.882    0.513    0.616   80.623
  136.000   16.489    0.444    0.493   83.664
  136.250   17.113    0.311    0.439   78.149
  136.500   17.108    0.314    0.406   77.522
  136.750   16.784    0.302    0.387   81.781
  137.000   15.553    0.273    0.398   81.763
  137.250   13.616    0.267    0.407   85.422
  137.500   11.695    0.266    0.408   87.847
  137.750   11.045    0.267    0.416   85.392
  138.000   11.250    0.249    0.425   87.210
  138.250   11.462    0.248    0.441   89.028
  138.500   11.899    0.256    0.455   83.513
  138.750   12.121    0.261    0.462   76.768
  139.000   12.116    0.257    0.435   79.201
  139.250   12.111    0.249    0.395   82.242
  139.500   12.107    0.244    0.382   83.445
  139.750   11.872    0.243    0.389   80.379
  140.000   12.097    0.246    0.416   50.419
  140.250   13.291    0.249    0.447   36.960
  140.500   15.755    0.269    0.465   32.052
  140.750   24.809    0.316    0.426   29.596
  141.000   29.968    0.330    0.382   27.744
  141.250   36.200    0.340    0.383   27.729
  141.500   40.538    0.336    0.378   28.325
  141.750   43.710    0.333    0.346   28.306
  142.000   45.368    0.333    0.330   27.680
  142.250   45.354    0.337    0.344   30.110
  142.500   43.641    0.332    0.367   33.765
  142.750   42.006    0.328    0.386   45.965
  143.000   41.209    0.327    0.382   48.401
  143.250   41.188    0.329    0.387   53.275
  143.500   41.175    0.328    0.392   61.205
  143.750   41.944    0.326    0.382   52.023
  144.000   43.545    0.326    0.391   46.508
  144.250   45.202    0.328    0.387   45.882
  144.500   46.926    0.331    0.383   47.700
  144.750   46.902    0.326    0.377   48.296
  145.000   46.877    0.316    0.370   47.666
  145.250   46.867    0.312    0.358   45.207
  145.500   45.964    0.306    0.348   44.581
  145.750   45.950    0.300    0.358   47.617
  146.000   44.219    0.302    0.360   48.832
  146.250   41.755    0.310    0.353   48.817
  146.500   40.963    0.316    0.348   48.798
  146.750   38.681    0.315    0.370   49.394
  147.000   37.232    0.323    0.416   51.824
  147.250   35.833    0.334    0.417   55.475
  147.500   33.202    0.334    0.396   60.349
  147.750   30.764    0.326    0.402   60.941
  148.000   30.181    0.321    0.413   58.486
  148.250   27.437    0.314    0.419   56.026
  148.500   25.914    0.304    0.412   54.178
  148.750   25.417    0.297    0.405   55.996
  149.000   24.930    0.293    0.394   67.592
  149.250   24.919    0.304    0.390   69.410
  149.500   25.385    0.322    0.394   70.618
  149.750   25.857    0.351    0.404   71.214
  150.000   25.846    0.356    0.422   68.754
  150.250   25.838    0.347    0.434   67.517
  150.500   24.867    0.339    0.427   69.946
  150.750   23.484    0.339    0.430   72.376
  151.000   21.354    0.343    0.438   77.249
  151.250   19.052    0.334    0.431   83.346
  151.500   14.889    0.321    0.399   91.275
  151.750   12.316    0.302    0.425  102.871
  152.000   10.382    0.279    0.440  112.023
  152.250    6.972    0.271    0.479  108.952
  152.500    6.340    0.260    0.516  107.711
  152.750    5.445    0.261    0.512  107.696
  153.000    5.241    0.260    0.521  108.907
  153.250    5.140    0.205    0.521  107.058
  153.500    5.542    0.169    0.508  102.154
  153.750    5.977    0.249    0.521   97.247
  154.000    6.821    0.275    0.535   90.510
  154.250   10.946    0.299    0.532   77.046
  154.500   11.581    0.321    0.463   80.702
  154.750   12.725    0.317    0.422   83.742
  155.000   18.224    0.295    0.466   78.227
  155.250   18.566    0.309    0.479   59.879
  155.500   19.641    0.326    0.439   48.864
  155.750   20.012    0.305    0.402   50.071
  156.000   20.002    0.260    0.390   53.722
  156.250   19.248    0.256    0.421   59.819
  156.500   18.881    0.304    0.418   64.692
  156.750   18.871    0.318    0.411   68.344
  157.000   18.513    0.340    0.411   70.773
  157.250   19.216    0.347    0.411   72.592
  157.500   19.210    0.346    0.411   67.680
  157.750   19.200    0.344    0.416   64.610
  158.000   18.480    0.340    0.423   62.154
  158.250   17.786    0.334    0.427   63.972
  158.500   16.799    0.331    0.420   68.235
  158.750   14.706    0.328    0.428   73.109
  159.000   13.373    0.321    0.434   81.038
  159.250   11.486    0.317    0.433   90.801
  159.500   10.248    0.310    0.419   98.730
  159.750    9.144    0.296    0.491  106.049
  160.000    8.315    0.266    0.477  109.700
  160.250    7.561    0.234    0.459  106.018
  160.500    6.619    0.171    0.486  109.666
  160.750    6.491    0.196    0.501  112.099
  161.000    6.613    0.245    0.538  113.918
  161.250    6.738    0.238    0.521  115.125
  161.500    7.543    0.224    0.481  112.054
  161.750    8.289    0.209    0.483  113.869
  162.000   10.803    0.217    0.491  117.524
  162.250   11.214    0.267    0.500  108.343
  162.500   12.091    0.310    0.501   96.105
  162.750   13.286    0.332    0.475   86.312
  163.000   14.601    0.328    0.457   80.790
  163.250   16.041    0.322    0.436   80.771
  163.500   16.036    0.316    0.445   82.597
  163.750   15.730    0.308    0.445   86.860
  164.000   14.575    0.302    0.444   94.178
  164.250   13.764    0.296    0.451   97.826
  164.500   13.502    0.291    0.461   98.422
  164.750   13.495    0.296    0.476  100.851
  165.000   13.489    0.288    0.487   94.118
  165.250   14.272    0.277    0.440   84.325
  165.500   15.386    0.265    0.397   75.754
  165.750   15.975    0.264    0.378   67.795
  166.000   17.223    0.304    0.389   65.943
  166.250   17.880    0.304    0.405   72.043
  166.500   17.875    0.287    0.407   79.357
  166.750   16.879    0.278    0.398   83.009
  167.000   15.942    0.287    0.395   85.438
  167.250   14.770    0.280    0.426   90.312
  167.500   14.488    0.253    0.461   86.634
  167.750   14.480    0.259    0.459   78.671
  168.000   15.033    0.261    0.432   76.822
  168.250   15.316    0.234    0.409   79.252
