~VERSION INFORMATION
 VERS.                 2.0:   CWLS LOG ASCII STANDARD -VERSION 2.0
 WRAP.                  NO:   ONE LINE PER DEPTH STEP
~WELL INFORMATION BLOCK
#MNEM.UNIT           DATA                    DESCRIPTION OF MNEMONIC
#---------    -------------------            -------------------------------
# Generated from Intellog Unique Number	CW_79_81/WELL/2484
WELL.         11-12-081-25W4                 : Well_name    - WELL
LOC .         00/11-12-081-25W4/0            : Location     - LOCATION
UWI .         00/11-12-081-25W4/0            : Uwi          - UNIQUE WELL ID
ENTR.         MAX                            : Entered      - ENTERED BY
SRVC.         SCHLUMBERGER                   : Scn          - SERVICE COMPANY
STRT.M        250                            : top_depth    - START DEPTH
STOP.M        464.75                         : bot_depth    - STOP DEPTH
STEP.M        0.25                           : increment    - STEP LENGTH
 NULL. -999.2500:NULL Value
~CURVE INFORMATION BLOCK
#MNEM UNIT       ERCB CURVE CODE    CURVE DESCRIPTION
#-----------   ------------------   ----------------------------------
DEPT.M        00 001 00 00         : DEPTH        - DEPTH
ILD .OHMM     00 120 00 00         : RESD         - DEEP RESISTIVITY (DIL)
NPHI.V/V      00 330 00 00         : PHIN         - NEUTRON POROSITY (SANDSTONE)
DPHI.V/V      00 890 00 00         : PHID         - DENSITY POROSITY (SANDSTONE)
GR  .API      00 310 00 00         : GR           - GAMMA RAY
CALI.MM       00 280 01 00         : CAL          - CALIPER
~PARAMETER INFORMATION
#MNEM.UNIT           DATA             DESCRIPTION OF MNEMONIC
#---------         -----------     ------------------------------
GL  .M        605.55               : gl           - GROUND LEVEL ELEVATION
EREF.M        609.55               : kb           - ELEVATION OF DEPTH REFERENCE
DATM.M        605.55               : datum        - DATUM ELEVATION
TDD .M        511                  : tdd          - TOTAL DEPTH DRILLER
RUN .         ONE                  : Run          - RUN NUMBER
ENG .         BILL                 : Engineer     - RECORDING ENGINEER
WIT .         JIM                  : Witness      - WITNESSED BY
MUD .         GEL                  : Mud_type     - MUD TYPE
MATR.         SANDSTONE            : Logunit      - NEUTRON MATRIX
TMAX.C        34.2                 : BHT          - MAXIMUM RECORDED TEMPERATURE
BHTD.M        511                  : BHTDEP       - MAXIMUM RECORDED TEMPERATURE
MATR.         1                    : LOGUNIT      - NEUTRON MATRIX
RMT .C        13.3                 : MDTP         - TEMPERATURE OF MUD
NEUT.         1                    : NEUTRON      - NEUTRON TYPE
RESI.         0                    : RESIST       - RESISTIVITY TYPE
RMC .OHMM     7                    : RMC          - RESISTIVITY OF MUD CAKE
RMF .OHMM     6.8                  : RMF          - RESISTIVITY OF MUD FILTRATE
SUFT.C        -20                  : SUFT         - SURFACE TEMPERATURE
~A  DEPTH     RESD     PHIN     PHID       GR      CAL
# ...
  323.000    6.151    0.468    0.278   70.517  218.216
  323.250    6.876    0.456    0.285   65.042  219.732
  323.500    7.728    0.448    0.295   57.696  219.695
  323.750    8.745    0.453    0.313   53.455  217.700
  324.000    9.803    0.455    0.319   50.972  215.709
  324.250   10.502    0.452    0.321   49.775  214.305
  324.500   10.622    0.447    0.322   49.397  213.684
  324.750   10.361    0.442    0.319   49.369  213.717
  325.000   10.205    0.440    0.315   49.345  214.080
  325.250   10.058    0.447    0.313   49.561  214.428
  325.500    9.968    0.453    0.314   50.119  214.784
  325.750    9.897    0.458    0.316   50.563  214.945
  326.000    9.809    0.459    0.318   50.720  215.005
  326.250    9.653    0.458    0.317   50.792  215.433
  326.500    9.581    0.457    0.316   51.258  215.795
  326.750    9.374    0.464    0.316   51.470  216.151
  327.000    9.273    0.472    0.313   51.679  216.794
  327.250    9.207    0.475    0.307   51.771  217.339
  327.500    9.159    0.471    0.301   51.805  217.594
  327.750    9.203    0.452    0.300   51.965  217.549
  328.000    9.420    0.429    0.296   51.696  217.501
  328.250    9.991    0.390    0.286   51.207  217.072
  328.500   10.598    0.356    0.266   50.185  216.944
  328.750   11.559    0.331    0.216   49.106  216.909
  329.000   12.688    0.320    0.157   48.324  216.868
  329.250   12.583    0.324    0.156   48.211  216.822
  329.500   11.663    0.323    0.161   48.921  216.786
  329.750   11.158    0.339    0.175   49.833  216.357
  330.000   10.616    0.358    0.197   50.221  215.339
  330.250   10.122    0.380    0.230   50.666  214.324
  330.500    9.725    0.410    0.270   51.169  213.700
  330.750    9.417    0.456    0.315   51.143  213.648
  331.000    9.275    0.449    0.305   51.119  213.615
  331.250    9.210    0.428    0.295   51.091  213.577
  331.500    9.093    0.426    0.287   51.072  213.538
  331.750    8.929    0.445    0.293   51.051  213.306
  332.000    8.753    0.468    0.309   51.026  212.880
  332.250    8.600    0.456    0.321   50.999  212.442
  332.500    8.471    0.449    0.329   50.977  212.397
  332.750    8.349    0.445    0.330   50.246  212.362
  333.000    8.274    0.445    0.325   50.224  212.322
  333.250    8.215    0.453    0.318   50.319  212.281
  333.500    8.172    0.464    0.309   50.179  212.243
  333.750    8.174    0.472    0.303   49.587  212.197
  334.000    8.177    0.465    0.294   49.072  212.160
  334.250    8.300    0.419    0.276   49.515  211.731
  334.500    8.378    0.382    0.247   50.489  211.598
  334.750    8.411    0.359    0.210   51.758  211.559
  335.000    8.335    0.361    0.187   53.318  211.419
  335.250    8.012    0.419    0.226   55.640  210.898
  335.500    7.892    0.454    0.293   56.834  210.459
  335.750    7.836    0.458    0.306   57.987  210.413
  336.000    7.866    0.467    0.307   58.959  210.961
  336.250    7.927    0.477    0.313   59.639  211.510
  336.500    7.972    0.487    0.324   59.969  211.763
  336.750    7.975    0.503    0.328   59.942  211.714
  337.000    7.977    0.515    0.332   59.913  211.682
  337.250    8.038    0.507    0.328   60.129  212.037
  337.500    8.054    0.506    0.321   60.514  212.097
  337.750    8.027    0.507    0.313   60.841  212.055
  338.000    7.955    0.508    0.307   61.113  212.109
  338.250    7.792    0.508    0.305   61.848  212.457
  338.500    7.559    0.506    0.306   63.288  212.421
  338.750    7.395    0.500    0.315   64.202  212.382
  339.000    7.234    0.499    0.311   64.062  212.636
  339.250    7.078    0.499    0.305   63.687  212.988
  339.500    6.925    0.499    0.299   63.723  213.341
  339.750    6.733    0.502    0.293   65.169  213.930
  340.000    6.532    0.513    0.287   67.832  215.098
  340.250    6.390    0.507    0.278   69.917  216.625
  340.500    6.216    0.498    0.274   71.296  217.567
  340.750    6.060    0.488    0.271   71.391  218.116
  341.000    5.940    0.480    0.266   70.493  218.566
  341.250    5.855    0.480    0.262   69.958  219.629
  341.500    5.856    0.490    0.256   70.906  221.216
  341.750    5.901    0.487    0.249   71.590  221.174
  342.000    6.044    0.479    0.240   72.093  221.137
  342.250    6.182    0.470    0.236   72.656  221.100
  342.500    6.287    0.463    0.237   72.927  221.062
  342.750    6.439    0.457    0.240   71.910  221.099
  343.000    6.491    0.457    0.234   71.642  221.458
  343.250    6.445    0.471    0.235   73.493  221.427
  343.500    6.363    0.482    0.229   75.170  221.677
  343.750    6.225    0.487    0.230   76.087  221.832
  344.000    6.034    0.483    0.237   75.948  221.796
  344.250    5.800    0.475    0.245   74.160  221.748
  344.500    5.713    0.476    0.250   71.210  221.704
  344.750    5.799    0.480    0.250   65.799  220.107
  345.000    6.114    0.473    0.256   62.142  217.635
  345.250    6.694    0.461    0.262   59.541  215.452
  345.500    7.838    0.438    0.270   57.703  214.046
  345.750   11.044    0.386    0.288   56.882  213.132
  346.000   12.412    0.381    0.301   57.590  212.681
  346.250   11.352    0.430    0.283   58.741  212.643
  346.500   10.149    0.470    0.261   60.065  212.607
  346.750    9.130    0.489    0.238   61.565  212.752
  347.000    8.466    0.487    0.217   63.417  212.993
  347.250    8.321    0.479    0.199   66.505  212.978
  347.500    8.518    0.471    0.197   69.166  212.937
  347.750    8.646    0.470    0.222   68.674  213.679
  348.000    8.633    0.480    0.238   68.532  215.010
  348.250    8.571    0.488    0.238   68.624  217.315
  348.500    8.494    0.487    0.229   68.894  219.712
  348.750    8.359    0.475    0.226   69.188  220.131
  349.000    8.297    0.463    0.221   68.432  220.510
  349.250    8.299    0.472    0.223   67.942  220.471
  349.500    8.301    0.477    0.226   67.629  220.134
  349.750    8.334    0.474    0.230   67.840  219.900
  350.000    8.367    0.469    0.233   68.751  219.867
  350.250    8.308    0.469    0.233   70.703  219.820
  350.500    8.310    0.480    0.227   72.387  219.775
  350.750    8.250    0.481    0.231   72.835  219.737
  351.000    8.283    0.478    0.236   72.052  219.994
  351.250    8.346    0.474    0.239   70.622  220.154
  351.500    8.379    0.469    0.239   69.541  220.117
  351.750    8.281    0.464    0.241   70.315  219.985
  352.000    8.095    0.459    0.244   70.786  219.534
  352.250    8.037    0.463    0.242   72.637  219.503
  352.500    8.024    0.464    0.234   72.907  219.756
  352.750    7.997    0.463    0.231   71.944  219.912
  353.000    7.984    0.459    0.233   70.513  219.973
  353.250    8.154    0.443    0.231   69.835  220.233
  353.500    8.411    0.433    0.224   70.055  219.790
  353.750    8.664    0.426    0.225   70.032  219.751
  354.000    8.974    0.436    0.231   70.359  219.715
  354.250    9.145    0.450    0.235   71.389  219.676
  354.500    9.113    0.461    0.236   72.713  219.636
  354.750    8.927    0.465    0.234   72.864  219.593
  355.000    8.660    0.460    0.225   71.378  219.553
  355.250    8.598    0.452    0.224   69.949  219.120
  355.500    8.775    0.446    0.229   67.993  216.932
  355.750    9.137    0.441    0.238   65.508  214.746
  356.000    9.659    0.436    0.247   62.672  213.145
  356.250   10.543    0.431    0.258   59.445  211.455
  356.500   11.759    0.425    0.272   57.468  211.008
  356.750   11.502    0.421    0.286   56.737  210.973
  357.000   11.441    0.422    0.291   56.892  210.936
  357.250   11.147    0.436    0.291   57.339  211.094
  357.500   10.651    0.456    0.286   57.899  211.448
  357.750   10.314    0.461    0.279   59.099  211.869
  358.000   10.159    0.450    0.273   60.544  212.236
  358.250   10.236    0.446    0.255   61.693  212.587
  358.500   10.486    0.446    0.248   61.259  212.649
  358.750   10.957    0.447    0.253   60.652  212.612
  359.000   11.668    0.444    0.262   60.572  212.573
  359.250   12.885    0.436    0.259   60.768  212.523
