~VERSION INFORMATION
 VERS.                 2.0:   CWLS LOG ASCII STANDARD -VERSION 2.0
 WRAP.                  NO:   ONE LINE PER DEPTH STEP
~WELL INFORMATION BLOCK
#MNEM.UNIT           DATA                    DESCRIPTION OF MNEMONIC
#---------    -------------------            -------------------------------
# Generated from Intellog Unique Number	CW_70_72/WELL/3032
NULL.         -999.25                        : NULL_VALUE
WELL.         DECALTA ET AL SMITH 11-27      : Well_name    - WELL              
LOC .         11-27-070-01W5                 : Location     - LOCATION          
UWI .         00/11-27-070-01W5/0            : Uwi          - UNIQUE WELL ID    
ENTR.         JAYE                           : Entered      - ENTERED BY        
SRVC.         SCHLUMBERGER                   : Scn          - SERVICE COMPANY   
DATE.         7 FEB 78                       : Date         - LOG DATE          
STRT.M        384.048                        : top_depth    - START DEPTH       
STOP.M        634.048                        : bot_depth    - STOP DEPTH        
STEP.M        0.25                           : increment    - STEP LENGTH       
~CURVE INFORMATION BLOCK
#MNEM UNIT       ERCB CURVE CODE    CURVE DESCRIPTION
#-----------   ------------------   ----------------------------------
DEPT.M        00 001 00 00         : DEPTH        - DEPTH                       
ILD .OHMM     00 120 00 00         : RESD         - DEEP RESISTIVITY (DIL)      
CALI.MM       00 280 01 00         : CAL          - CALIPER                     
GR  .API      00 310 00 00         : GR           - GAMMA RAY                   
NPHI.V/V      00 330 00 00         : PHIN         - NEUTRON POROSITY (SANDSTONE)
DPHI.V/V      00 890 00 00         : PHID         - DENSITY POROSITY (SANDSTONE)
~PARAMETER INFORMATION       
#MNEM.UNIT           DATA             DESCRIPTION OF MNEMONIC
#---------         -----------     ------------------------------
GL  .M        559.918              : gl           - GROUND LEVEL ELEVATION      
EREF.M        562.966              : kb           - ELEVATION OF DEPTH REFERENCE
DATM.M        559.918              : datum        - DATUM ELEVATION             
TDD .M        642.214              : tdd          - TOTAL DEPTH DRILLER         
RUN .         ONE                  : Run          - RUN NUMBER                  
ENG .         GUNN                 : Engineer     - RECORDING ENGINEER          
WIT .         WALLGREN             : Witness      - WITNESSED BY                
BASE.         EDM                  : Branch       - HOME BASE OF LOGGING UNIT   
MUD .         GEL CHEM             : Mud_type     - MUD TYPE                    
MATR.         SANDSTONE            : Logunit      - NEUTRON MATRIX              
TMAX.C        -17.7778             : BHT          - MAXIMUM RECORDED TEMPERATURE
BHTD.M        641.604              : BHTDEP       - MAXIMUM RECORDED TEMPERATURE
RMT .C        15.5556              : MDTP         - TEMPERATURE OF MUD          
MUDD.KG/M     1152                 : MWT          - MUD DENSITY                 
NEUT.         1                    : NEUTRON      - NEUTRON TYPE                
RESI.         0                    : RESIST       - RESISTIVITY TYPE            
RM  .OHMM     2.61                 : RM           - RESISTIVITY OF MUD          
RMC .OHMM     0.25                 : RMC          - RESISTIVITY OF MUD CAKE     
RMF .OHMM     1.93                 : RMF          - RESISTIVITY OF MUD FILTRATE 
SUFT.C        -17.7778             : SUFT         - SURFACE TEMPERATURE         
~A  DEPTH     RESD      CAL       GR     PHIN     PHID
# ...
  420.548    3.134  165.367  111.864    0.418    0.197
  420.798    3.129  162.323  104.111    0.447    0.205
  421.048    3.219  156.547   97.412    0.477    0.214
  421.298    3.355  154.342   95.924    0.461    0.233
  421.548    3.490  150.983  101.880    0.442    0.223
  421.798    3.571  150.039  105.479    0.431    0.201
  422.048    3.480  152.036  102.441    0.426    0.174
  422.298    3.366  153.929   98.534    0.454    0.179
  422.548    3.137  149.833   95.060    0.476    0.185
  422.798    2.946  144.057   90.161    0.468    0.199
  423.048    2.855  143.114   86.501    0.448    0.231
  423.298    2.808  147.527   83.773    0.434    0.222
  423.548    2.815  151.311   87.062    0.419    0.241
  423.798    2.842  151.838   92.584    0.411    0.264
  424.048    2.811  152.679   85.265    0.435    0.266
  424.298    2.720  154.572   76.519    0.425    0.259
  424.548    2.631  152.998   72.363    0.412    0.257
  424.798    2.535  149.113   69.324    0.412    0.253
  425.048    2.421  146.488   66.658    0.426    0.240
  425.298    2.337  144.704   65.356    0.431    0.230
  425.548    2.261  143.760   64.737    0.422    0.241
  425.798    2.216  143.026   64.365    0.443    0.262
  426.048    2.263  143.553   63.994    0.429    0.274
  426.298    2.354  144.815   65.794    0.414    0.254
  426.548    2.527  148.283   72.123    0.407    0.260
  426.798    2.674  154.903   82.359    0.413    0.271
  427.048    2.871  158.161   88.316    0.425    0.251
  427.298    2.992  158.058   93.776    0.439    0.237
  427.548    2.982  156.693   94.707    0.447    0.218
  427.798    2.869  153.964   90.366    0.461    0.227
  428.048    2.785  148.083   85.776    0.466    0.248
  428.298    2.818  146.509   91.981    0.446    0.252
  428.548    3.043  153.024  101.287    0.438    0.236
  428.798    3.201  155.231  102.590    0.441    0.219
  429.048    3.202  155.653   95.333    0.442    0.206
  429.298    3.132  156.180   89.999    0.437    0.199
  429.548    3.047  156.497   91.055    0.432    0.204
  429.798    2.986  156.603   90.497    0.424    0.228
  430.048    2.868  156.290   79.642    0.417    0.247
  430.298    2.795  156.607   70.958    0.411    0.256
  430.548    2.749  156.818   71.890    0.424    0.242
  430.798    2.664  157.135   71.767    0.428    0.242
  431.048    2.568  157.346   73.318    0.434    0.253
  431.298    2.530  156.928   75.677    0.429    0.258
  431.548    2.579  156.614   78.841    0.463    0.263
  431.798    2.723  155.671   82.068    0.477    0.287
  432.048    3.035  154.727   85.667    0.490    0.312
  432.298    3.414  155.464   86.165    0.529    0.319
  432.548    3.820  158.617   74.379    0.557    0.340
  432.798    3.417  162.085   63.772    0.597    0.368
  433.048    2.869  162.717   54.902    0.481    0.416
  433.298    2.505  155.365   56.143    0.442    0.329
  433.548    2.123  150.219   61.603    0.419    0.302
  433.798    2.004  148.750   67.374    0.412    0.315
  434.048    2.097  149.487   73.702    0.417    0.325
  434.298    2.197  151.800   80.651    0.431    0.304
  434.548    2.329  154.008   89.585    0.455    0.300
  434.798    2.369  155.900   89.462    0.448    0.296
  435.048    2.374  156.532   87.168    0.437    0.282
  435.298    2.384  157.374   85.431    0.421    0.275
  435.548    2.381  157.376   85.308    0.409    0.284
  435.798    2.372  156.957   88.845    0.405    0.280
  436.048    2.373  157.064   91.390    0.413    0.270
  436.298    2.379  157.486   93.500    0.430    0.259
  436.548    2.371  158.012   96.789    0.441    0.274
  436.798    2.298  158.119  101.628    0.455    0.267
  437.048    2.268  157.805  102.622    0.468    0.263
  437.298    2.274  157.282   88.107    0.448    0.270
  437.548    2.287  155.182   79.174    0.426    0.290
  437.798    2.353  151.508   76.570    0.409    0.305
  438.048    2.498  150.984   77.688    0.421    0.273
  438.298    2.541  154.662   70.182    0.449    0.286
  438.548    2.528  156.344   60.010    0.485    0.313
  438.798    2.347  156.136   52.380    0.430    0.341
  439.048    2.088  155.612   50.582    0.410    0.277
  439.298    1.889  154.143   49.342    0.407    0.263
  439.548    1.767  152.884   49.095    0.413    0.275
  439.798    1.690  151.625   49.654    0.422    0.287
  440.048    1.653  150.681   50.586    0.429    0.281
  440.298    1.632  151.104   51.145    0.421    0.305
  440.548    1.624  152.891   51.270    0.405    0.273
  440.798    1.612  154.468   52.078    0.408    0.269
  441.048    1.604  155.941   52.947    0.419    0.284
  441.298    1.607  156.257   53.196    0.412    0.294
  441.548    1.605  156.679   51.894    0.408    0.296
  441.798    1.615  156.576   52.764    0.415    0.290
  442.048    1.615  156.157   54.874    0.420    0.283
  442.298    1.610  154.478   56.302    0.400    0.283
  442.548    1.563  153.114   57.357    0.397    0.293
  442.798    1.555  152.905   59.591    0.396    0.279
  443.048    1.561  152.907   58.662    0.397    0.288
  443.298    1.553  153.119   60.276    0.410    0.283
  443.548    1.554  153.226   61.393    0.404    0.289
  443.798    1.560  152.912   61.394    0.401    0.301
  444.048    1.564  153.334   59.720    0.406    0.309
  444.298    1.570  153.335   61.396    0.432    0.315
  444.548    1.565  153.127   64.003    0.431    0.322
  444.798    1.565  152.603   62.949    0.422    0.311
  445.048    1.569  151.134   61.275    0.425    0.299
  445.298    1.560  149.980   59.477    0.430    0.302
  445.548    1.570  149.142   59.416    0.428    0.299
  445.798    1.562  149.248   61.092    0.430    0.290
  446.048    1.548  149.986   61.961    0.433    0.297
  446.298    1.534  150.302   60.225    0.436    0.312
  446.548    1.529  150.619   59.420    0.432    0.315
  446.798    1.526  150.936   59.483    0.426    0.313
  447.048    1.516  151.042   59.608    0.421    0.316
  447.298    1.516  151.569   59.422    0.416    0.319
  447.548    1.519  151.990   58.865    0.423    0.319
  447.798    1.537  152.412   59.052    0.448    0.312
  448.048    1.555  152.940   59.363    0.435    0.299
  448.298    1.564  152.941   58.868    0.424    0.318
  448.548    1.565  153.048   55.271    0.426    0.275
  448.798    1.568  153.365   53.349    0.441    0.276
  449.048    1.575  153.681   52.605    0.436    0.294
  449.298    1.569  153.998   54.529    0.436    0.308
  449.548    1.579  154.104   57.632    0.438    0.319
  449.798    1.591  154.106   59.184    0.448    0.290
  450.048    1.613  153.373   58.812    0.453    0.281
  450.298    1.616  152.639   58.627    0.438    0.297
  450.548    1.623  150.751   59.001    0.429    0.306
  450.798    1.626  150.541   58.815    0.441    0.288
  451.048    1.630  150.648   57.824    0.426    0.295
  451.298    1.649  151.175   58.507    0.435    0.311
  451.548    1.671  151.175   60.742    0.433    0.311
  451.798    1.781  153.489   62.665    0.420    0.304
  452.048    1.884  154.120   63.659    0.422    0.297
  452.298    2.027  149.290   63.288    0.424    0.283
  452.548    2.085  145.825   62.234    0.401    0.260
  452.798    2.090  148.034   60.622    0.439    0.262
  453.048    2.110  149.610   63.228    0.444    0.286
  453.298    2.183  152.868   65.649    0.431    0.309
  453.548    2.309  155.391   65.712    0.423    0.324
  453.798    2.448  155.077   64.348    0.436    0.332
  454.048    2.527  154.449   65.403    0.457    0.294
  454.298    2.514  153.820   66.645    0.461    0.311
  454.548    2.436  153.611   66.894    0.460    0.310
  454.798    2.279  153.298   69.004    0.456    0.287
  455.048    2.164  152.459   70.928    0.452    0.299
  455.298    2.055  151.621   71.364    0.440    0.301
  455.548    1.951  151.621   69.628    0.433    0.282
  455.798    1.905  149.838   67.519    0.432    0.292
  456.048    1.881  149.630   65.907    0.445    0.285
  456.298    1.906  149.631   65.226    0.449    0.275
  456.548    1.939  149.631   66.716    0.428    0.266
  456.798    1.995  149.319   68.764    0.425    0.267
