~VERSION INFORMATION
 VERS.                 2.0:   CWLS LOG ASCII STANDARD -VERSION 2.0
 WRAP.                  NO:   ONE LINE PER DEPTH STEP
~WELL INFORMATION BLOCK
#MNEM.UNIT           DATA                    DESCRIPTION OF MNEMONIC
#---------    -------------------            -------------------------------
# Generated from Intellog Unique Number	CS_71_72/WELL/902
WELL.         BVX PCP WANDER                 : Well_name    - WELL
LOC .         00/11-22-071-14W4/0            : Location     - LOCATION
UWI .         00/11-22-071-14W4/0            : Uwi          - UNIQUE WELL ID
ENTR.         SP                             : Entered      - ENTERED BY
SRVC.         SCHLUMBERGER                   : Scn          - SERVICE COMPANY
STRT.M        335.28                         : top_depth    - START DEPTH
STOP.M        535.28                         : bot_depth    - STOP DEPTH
STEP.M        0.25                           : increment    - STEP LENGTH
 NULL. -999.2500:NULL Value
~CURVE INFORMATION BLOCK
#MNEM UNIT       ERCB CURVE CODE    CURVE DESCRIPTION
#-----------   ------------------   ----------------------------------
DEPT.M        00 001 00 00         : DEPTH        - DEPTH
GR  .API      00 310 00 00         : GR           - GAMMA RAY
DPHI.V/V      00 890 00 00         : PHID         - DENSITY POROSITY (SANDSTONE)
NPHI.V/V      00 330 00 00         : PHIN         - NEUTRON POROSITY (SANDSTONE)
ILD .OHMM     00 120 00 00         : RESD         - DEEP RESISTIVITY (DIL)
~PARAMETER INFORMATION
#MNEM.UNIT           DATA             DESCRIPTION OF MNEMONIC
#---------         -----------     ------------------------------
GL  .M        646.176              : gl           - GROUND LEVEL ELEVATION
EREF.M        649.224              : kb           - ELEVATION OF DEPTH REFERENCE
DATM.M        646.176              : datum        - DATUM ELEVATION
TDD .M        543.154              : tdd          - TOTAL DEPTH DRILLER
RUN .         ONE                  : Run          - RUN NUMBER
ENG .         BILL                 : Engineer     - RECORDING ENGINEER
WIT .         JIM                  : Witness      - WITNESSED BY
MUD .         GEL                  : Mud_type     - MUD TYPE
MATR.         SANDSTONE            : Logunit      - NEUTRON MATRIX
TMAX.C        25                   : BHT          - MAXIMUM RECORDED TEMPERATURE
BHTD.M        543.154              : BHTDEP       - MAXIMUM RECORDED TEMPERATURE
MATR.         1                    : LOGUNIT      - NEUTRON MATRIX
RMT .C        25                   : MDTP         - TEMPERATURE OF MUD
NEUT.         1                    : NEUTRON      - NEUTRON TYPE
RESI.         0                    : RESIST       - RESISTIVITY TYPE
RMC .OHMM     0.25                 : RMC          - RESISTIVITY OF MUD CAKE
RMF .OHMM     0.25                 : RMF          - RESISTIVITY OF MUD FILTRATE
SUFT.C        15                   : SUFT         - SURFACE TEMPERATURE
~A  DEPTH       GR     PHID     PHIN     RESD
  335.280   91.707    0.222    0.573    3.260
  335.530   91.039    0.172    0.508    3.398
  335.780   93.094    0.155    0.517    3.456
  336.030   95.254    0.127    0.535    3.443
  336.280   93.225    0.248    0.542    3.409
  336.530   94.298    0.221    0.571    3.321
  336.780   96.055    0.223    0.595    3.215
  337.030   95.090    0.228    0.610    3.121
  337.280   96.876    0.224    0.601    3.036
  337.530   99.188    0.236    0.605    2.964
  337.780  102.632    0.232    0.631    2.907
  338.030  104.020    0.224    0.648    2.844
  338.280  104.524    0.224    0.651    2.796
  338.530  100.345    0.212    0.631    2.808
  338.780   95.960    0.198    0.617    2.889
  339.030   92.698    0.227    0.607    2.972
  339.280   90.412    0.216    0.637    3.046
  339.530   88.769    0.210    0.669    3.070
  339.780   88.152    0.205    0.610    3.016
  340.030   87.668    0.235    0.580    2.900
  340.280   88.391    0.241    0.609    2.820
  340.530   88.235    0.246    0.636    2.937
  340.780   86.708    0.234    0.673    3.247
  341.030   83.906    0.215    0.632    3.472
  341.280   85.324    0.174    0.571    3.719
  341.530   94.143    0.226    0.513    3.723
  341.780  101.136    0.293    0.564    3.543
  342.030  105.838    0.319    0.624    3.325
  342.280  110.669    0.302    0.665    3.170
  342.530  111.331    0.276    0.702    2.969
  342.780  107.434    0.276    0.725    2.906
  343.030   95.997    0.273    0.734    3.017
  343.280   82.776    0.279    0.748    3.148
  343.530   67.066    0.310    0.753    3.301
  343.780   60.056    0.324    0.645    3.505
  344.030   66.787    0.307    0.460    3.728
  344.280   69.749    0.288    0.425    3.926
  344.530   71.901    0.277    0.446    4.097
  344.780   74.980    0.254    0.441    4.244
  345.030   81.091    0.226    0.429    4.491
  345.280   84.752    0.228    0.420    4.649
  345.530   87.778    0.260    0.435    4.799
  345.780   89.708    0.264    0.434    4.898
  346.030   92.865    0.239    0.453    4.929
  346.280   92.922    0.227    0.499    4.991
  346.530   96.115    0.253    0.525    4.993
  346.780   98.870    0.237    0.549    4.956
  347.030   99.720    0.240    0.544    4.919
  347.280   99.277    0.231    0.559    4.880
  347.530   93.650    0.234    0.579    4.723
  347.780   82.540    0.264    0.597    4.577
  348.030   72.398    0.298    0.619    4.352
  348.280   64.552    0.326    0.632    3.988
  348.530   62.978    0.337    0.491    3.693
  348.780   62.927    0.327    0.447    3.529
  349.030   64.020    0.331    0.481    3.618
  349.280   66.973    0.305    0.473    3.852
  349.530   73.203    0.281    0.441    4.147
  349.780   79.856    0.257    0.461    4.436
  350.030   84.561    0.257    0.457    4.704
  350.280   86.802    0.245    0.436    5.008
  350.530   84.042    0.233    0.412    5.304
  350.780   81.078    0.226    0.395    5.560
  351.030   79.482    0.215    0.379    5.696
  351.280   79.794    0.225    0.423    5.660
  351.530   84.744    0.237    0.441    5.452
  351.780   87.406    0.241    0.433    5.219
  352.030   88.845    0.215    0.444    4.952
  352.280   82.117    0.273    0.458    4.695
  352.530   71.050    0.277    0.453    4.403
  352.780   66.212    0.292    0.448    4.102
  353.030   69.118    0.297    0.454    3.916
  353.280   76.522    0.247    0.458    3.898
  353.530   81.801    0.211    0.432    3.990
  353.780   88.224    0.173    0.449    4.184
  354.030   94.118    0.193    0.484    4.338
  354.280   98.837    0.160    0.515    4.377
  354.530  101.632    0.144    0.546    4.279
  354.780  102.213    0.157    0.574    4.170
  355.030  105.985    0.183    0.569    4.158
  355.280  106.683    0.192    0.572    4.213
  355.530  106.667    0.197    0.574    4.316
  355.780  105.766    0.185    0.562    4.249
  356.030  105.283    0.163    0.557    4.040
  356.280  108.021    0.131    0.633    3.752
  356.530  109.821    0.173    0.613    3.464
  356.780  108.957    0.200    0.608    3.206
  357.030  106.206    0.208    0.610    2.998
  357.280  106.120    0.224    0.596    2.845
  357.530  101.189    0.250    0.605    3.035
  357.780   91.713    0.280    0.581    3.242
  358.030   78.255    0.300    0.555    3.447
  358.280   73.450    0.319    0.528    3.649
  358.530   75.653    0.290    0.502    3.792
  358.780   78.435    0.277    0.484    3.790
  359.030   81.359    0.299    0.495    3.713
  359.280   82.504    0.317    0.539    3.703
  359.530   79.967    0.328    0.518    3.723
  359.780   82.872    0.310    0.509    3.862
  360.030   85.016    0.295    0.522    4.215
  360.280   86.364    0.285    0.540    4.682
  360.530   81.179    0.278    0.579    4.967
  360.780   74.107    0.273    0.513    5.146
  361.030   73.169    0.276    0.488    5.363
  361.280   74.613    0.278    0.484    5.479
  361.530   77.414    0.279    0.511    5.443
  361.780   83.290    0.274    0.541    5.275
  362.030   85.787    0.272    0.568    5.196
  362.280   84.698    0.264    0.576    5.208
  362.530   84.163    0.253    0.574    5.172
  362.780   86.702    0.242    0.576    4.928
  363.030   87.279    0.261    0.548    4.670
  363.280   90.818    0.253    0.491    4.450
  363.530   98.104    0.220    0.491    4.196
  363.780  104.157    0.230    0.564    4.016
  364.030  107.132    0.234    0.567    3.922
  364.280  110.012    0.213    0.590    3.874
  364.530  112.489    0.224    0.612    3.860
  364.780  113.537    0.202    0.628    3.907
  365.030  114.295    0.166    0.612    4.102
  365.280  115.357    0.198    0.601    4.322
  365.530  115.479    0.227    0.581    4.584
  365.780  113.231    0.223    0.540    4.849
  366.030  111.626    0.243    0.537    5.096
  366.280  107.813    0.277    0.552    5.312
  366.530  106.226    0.309    0.563    5.460
  366.780  103.762    0.329    0.519    5.542
  367.030  104.674    0.287    0.480    5.658
  367.280  103.399    0.272    0.502    5.636
  367.530   99.096    0.279    0.515    5.542
  367.780   94.708    0.273    0.525    5.426
  368.030   89.564    0.278    0.478    5.289
  368.280   84.691    0.284    0.500    5.139
  368.530   80.415    0.299    0.523    4.990
  368.780   79.343    0.304    0.498    4.801
  369.030   85.930    0.309    0.482    4.743
  369.280   91.776    0.282    0.476    4.737
  369.530   97.456    0.259    0.491    4.849
  369.780  100.646    0.243    0.528    5.001
  370.030   99.501    0.239    0.529    5.094
  370.280  100.055    0.249    0.519    5.089
  370.530  103.429    0.258    0.531    5.075
  370.780  102.047    0.278    0.566    5.080
  371.030   99.876    0.280    0.528    5.150
  371.280  100.718    0.260    0.489    5.302
  371.530  102.486    0.245    0.465    5.416
  371.780  103.167    0.228    0.452    5.497
  372.030  102.412    0.215    0.458    5.541
  372.280  104.680    0.237    0.500    5.569
  372.530  106.852    0.262    0.495    5.586
  372.780  105.662    0.263    0.477    5.592
  373.030  103.645    0.269    0.476    5.464
  373.280  100.885    0.218    0.519    5.244
  373.530   99.046    0.222    0.528    4.947
  373.780  103.273    0.234    0.552    4.691
  374.030  107.728    0.202    0.627    4.500
  374.280  110.095    0.231    0.592    4.404
  374.530  109.589    0.265    0.591    4.351
  374.780  106.903    0.245    0.611    4.394
  375.030  103.038    0.280    0.571    4.426
  375.280   97.746    0.285    0.519    4.257
  375.530   93.287    0.270    0.501    4.120
  375.780   92.146    0.298    0.512    4.056
  376.030   92.910    0.283    0.570    4.107
  376.280   94.034    0.302    0.626    4.309
  376.530   90.242    0.308    0.577    4.535
  376.780   87.492    0.284    0.546    4.722
  377.030   85.076    0.291    0.512    4.898
  377.280   82.018    0.304    0.498    4.897
  377.530   79.053    0.328    0.531    4.799
  377.780   77.250    0.344    0.542    4.782
  378.030   80.063    0.319    0.507    4.814
  378.280   85.140    0.281    0.545    4.871
  378.530   88.980    0.251    0.542    4.964
