~VERSION INFORMATION
 VERS.                 2.0:   CWLS LOG ASCII STANDARD -VERSION 2.0
 WRAP.                  NO:   ONE LINE PER DEPTH STEP
~WELL INFORMATION BLOCK
#MNEM.UNIT           DATA                    DESCRIPTION OF MNEMONIC
#---------    -------------------            -------------------------------
# Generated from Intellog Unique Number	CW_79_81/WELL/875
WELL.         PARAMOUNT ET AL HORIZON        : Well_name    - WELL
LOC .         00/10-29-079-19W4/0            : Location     - LOCATION
UWI .         00/10-29-079-19W4/0            : Uwi          - UNIQUE WELL ID
ENTR.         MAX                            : Entered      - ENTERED BY
SRVC.         SCHLUMBERGER                   : Scn          - SERVICE COMPANY
STRT.M        198.12                         : top_depth    - START DEPTH
STOP.M        381.62                         : bot_depth    - STOP DEPTH
STEP.M        0.25                           : increment    - STEP LENGTH
 NULL. -999.2500:NULL Value
~CURVE INFORMATION BLOCK
#MNEM UNIT       ERCB CURVE CODE    CURVE DESCRIPTION
#-----------   ------------------   ----------------------------------
DEPT.M        00 001 00 00         : DEPTH        - DEPTH
ILD .OHMM     00 120 00 00         : RESD         - DEEP RESISTIVITY (DIL)
NPHI.V/V      00 330 00 00         : PHIN         - NEUTRON POROSITY (SANDSTONE)
DPHI.V/V      00 890 00 00         : PHID         - DENSITY POROSITY (SANDSTONE)
CALI.MM       00 280 01 00         : CAL          - CALIPER
GR  .API      00 310 00 00         : GR           - GAMMA RAY
~PARAMETER INFORMATION
#MNEM.UNIT           DATA             DESCRIPTION OF MNEMONIC
#---------         -----------     ------------------------------
GL  .M        568.604              : gl           - GROUND LEVEL ELEVATION
EREF.M        571.652              : kb           - ELEVATION OF DEPTH REFERENCE
DATM.M        568.604              : datum        - DATUM ELEVATION
TDD .M        381.61               : tdd          - TOTAL DEPTH DRILLER
RUN .         ONE                  : Run          - RUN NUMBER
ENG .         BILL                 : Engineer     - RECORDING ENGINEER
WIT .         JIM                  : Witness      - WITNESSED BY
MUD .         GEL                  : Mud_type     - MUD TYPE
MATR.         SANDSTONE            : Logunit      - NEUTRON MATRIX
TMAX.C        21.1111              : BHT          - MAXIMUM RECORDED TEMPERATURE
BHTD.M        381.61               : BHTDEP       - MAXIMUM RECORDED TEMPERATURE
RMT .C        21.1111              : MDTP         - TEMPERATURE OF MUD
MUDD.KG/M     9700                 : MWT          - MUD DENSITY
NEUT.         1                    : NEUTRON      - NEUTRON TYPE
RESI.         0                    : RESIST       - RESISTIVITY TYPE
RM  .OHMM     0                    : RM           - RESISTIVITY OF MUD
RMC .OHMM     0                    : RMC          - RESISTIVITY OF MUD CAKE
RMF .OHMM     0                    : RMF          - RESISTIVITY OF MUD FILTRATE
SUFT.C        -15                  : SUFT         - SURFACE TEMPERATURE
~A  DEPTH     RESD     PHIN     PHID      CAL       GR
  198.120    4.766    0.541    0.242  161.649  115.559
  198.370    4.881    0.563    0.245  163.275  113.559
  198.620    4.706    0.569    0.267  165.903  104.750
  198.870    4.330    0.578    0.280  169.519   99.781
  199.120    4.053    0.587    0.292  169.641   97.781
  199.370    3.778    0.593    0.266  162.745   95.494
  199.620    3.697    0.589    0.275  160.878   94.965
  199.870    3.616    0.591    0.272  159.982   95.037
  200.120    3.639    0.593    0.287  160.621   95.127
  200.370    3.756    0.594    0.301  162.763   93.118
  200.620    3.776    0.597    0.301  165.376   91.118
  200.870    4.096    0.596    0.334  166.015   89.109
  201.120    4.513    0.592    0.340  167.641   85.915
  201.370    5.128    0.584    0.332  169.768   81.852
  201.620    6.139    0.551    0.323  170.391   83.987
  201.870    9.234    0.484    0.327  167.521   85.854
  202.120   11.536    0.491    0.317  163.116   81.763
  202.370   12.547    0.495    0.318  156.722   67.025
  202.620   13.465    0.502    0.325  152.332   57.319
  202.870   14.377    0.490    0.322  153.472   54.431
  203.120   15.584    0.497    0.323  155.569   56.575
  203.370   17.888    0.490    0.317  156.709   59.922
  203.620   18.800    0.491    0.318  155.312   58.209
  203.870   19.814    0.495    0.321  153.945   56.791
  204.120   20.333    0.489    0.325  153.581   58.066
  204.370   20.747    0.473    0.328  153.688   59.914
  204.620   21.461    0.469    0.335  153.825   61.457
  204.870   21.382    0.464    0.335  153.932   63.907
  205.120   17.236    0.463    0.328  155.573   69.603
  205.370   13.392    0.464    0.299  156.182   77.085
  205.620   11.331    0.458    0.261  157.823   84.280
  205.870   10.358    0.475    0.269  158.947   87.895
  206.120    8.694    0.500    0.265  159.100   87.967
  206.370    7.523    0.507    0.235  158.690   86.855
  206.620    6.453    0.521    0.212  157.308   87.242
  206.870    5.684    0.517    0.195  156.945   86.416
  207.120    5.404    0.501    0.229  156.565   86.785
  207.370    5.127    0.509    0.270  155.685   88.337
  207.620    5.148    0.510    0.265  155.321   89.297
  207.870    5.173    0.496    0.261  155.412   89.674
  208.120    5.392    0.504    0.247  155.049   89.746
  208.370    5.509    0.524    0.256  154.669   91.299
  208.620    5.727    0.525    0.261  155.308   90.483
  208.870    5.847    0.519    0.251  156.417   87.289
  209.120    5.969    0.511    0.258  160.064   82.329
  209.370    6.284    0.509    0.262  159.198   80.625
  209.620    6.802    0.510    0.263  159.290   79.531
  209.870    7.120    0.503    0.260  161.448   79.594
  210.120    7.344    0.499    0.237  162.040   80.267
  210.370    7.359    0.531    0.251  162.163   76.177
  210.620    7.577    0.550    0.263  157.804   69.135
  210.870    8.195    0.540    0.301  154.903   63.583
  211.120    9.407    0.509    0.312  155.010   59.510
  211.370   10.118    0.503    0.319  154.646   57.815
  211.620   10.736    0.483    0.282  152.763   58.183
  211.870   11.051    0.482    0.297  150.378   59.727
  212.120   10.975    0.492    0.309  149.513   62.167
  212.370   10.601    0.490    0.289  148.116   63.728
  212.620   10.319    0.488    0.292  146.750   62.912
  212.870   10.043    0.495    0.307  147.373   62.087
  213.120    9.966    0.510    0.303  149.485   62.473
  213.370   10.091    0.512    0.284  150.108   63.730
  213.620    9.911    0.496    0.259  148.772   64.089
  213.870    9.636    0.480    0.272  147.861   60.617
  214.120    9.850    0.485    0.278  147.467   58.303
  214.370   10.267    0.475    0.289  149.093   55.415
  214.620   11.377    0.449    0.269  150.719   55.200
  214.870   12.693    0.459    0.306  150.339   56.447
  215.120   13.006    0.477    0.317  150.492   55.945
  215.370   12.635    0.495    0.325  152.087   55.712
  215.620   12.160    0.508    0.329  151.207   58.754
  215.870   11.779    0.499    0.323  147.835   60.593
  216.120   11.009    0.494    0.323  142.975   61.849
  216.370   10.237    0.501    0.323  143.051   63.428
  216.620    9.266    0.497    0.317  143.174   65.259
  216.870    8.491    0.489    0.273  144.298   69.780
  217.120    7.521    0.492    0.260  146.441   76.670
  217.370    6.649    0.501    0.276  154.082   78.222
  217.620    5.781    0.523    0.307  159.232   82.143
  217.870    5.400    0.549    0.294  158.853   83.399
  218.120    4.734    0.572    0.307  159.476   82.592
  218.370    4.452    0.591    0.322  165.629   85.633
  218.620    4.371    0.592    0.302  162.728   87.186
  218.870    4.391    0.566    0.273  156.835   86.657
  219.120    4.412    0.563    0.250  158.962   91.474
  219.370    4.531    0.594    0.269  160.603   96.292
  219.620    4.851    0.593    0.297  153.191   98.140
  219.870    5.962    0.543    0.279  144.791   97.324
  220.120    7.567    0.464    0.254  142.437   95.315
  220.370   10.365    0.451    0.267  144.048   94.212
  220.620   12.964    0.455    0.263  144.656   91.315
  220.870   14.473    0.456    0.272  143.791   86.363
  221.120   14.395    0.469    0.289  144.399   82.883
  221.370   13.920    0.468    0.277  143.518   82.354
  221.620   13.442    0.454    0.255  142.653   84.803
  221.870   12.970    0.456    0.225  143.763   83.395
  222.120   12.693    0.459    0.224  146.908   84.050
  222.370   12.416    0.460    0.246  144.037   86.796
  222.620   12.037    0.456    0.256  143.658   89.254
  222.870   11.562    0.459    0.264  143.765   91.094
  223.120   11.087    0.465    0.249  143.902   93.229
  223.370   10.810    0.477    0.218  144.024   97.759
  223.620   10.633    0.472    0.232  145.635   96.342
  223.870   10.556    0.455    0.246  144.754   94.342
  224.120   10.676    0.453    0.248  142.887   96.782
  224.370   10.895    0.439    0.245  143.525   96.567
  224.620   10.915    0.434    0.238  149.161   99.295
  224.870   10.737    0.445    0.220  156.301  106.481
  225.120    9.774    0.454    0.208  162.970  108.338
  225.370    9.193    0.462    0.223  163.062  116.412
  225.620    8.024    0.485    0.246  172.708  116.780
  225.870    6.754    0.528    0.247  171.874  114.780
  226.120    5.689    0.552    0.210  169.444  115.148
  226.370    5.209    0.553    0.188  166.057  115.812
  226.620    4.833    0.574    0.195  165.693  115.588
  226.870    4.658    0.562    0.247  163.810  116.566
  227.120    4.579    0.566    0.249  163.917  117.814
  227.370    4.498    0.596    0.282  167.062  122.030
  227.620    4.419    0.600    0.285  170.191  123.286
  227.870    4.244    0.591    0.261  166.804  121.286
  228.120    4.262    0.596    0.284  162.430  121.071
  228.370    4.282    0.597    0.273  167.049  123.512
  228.620    4.503    0.593    0.280  168.674  125.952
  228.870    4.923    0.578    0.262  162.781  125.432
  229.120    5.337    0.549    0.255  159.394  121.961
  229.370    6.254    0.491    0.253  158.013  118.166
  229.620    6.965    0.466    0.252  158.636  111.134
  229.870    7.977    0.472    0.254  164.272  113.000
  230.120    8.597    0.499    0.269  170.941  116.902
  230.370    8.513    0.484    0.260  169.058  119.352
  230.620    8.239    0.482    0.226  159.626  117.648
  230.870    8.058    0.518    0.250  162.771  111.790
  231.120    8.180    0.540    0.293  156.376  104.749
  231.370    8.696    0.518    0.285  152.989   96.828
  231.620    9.509    0.497    0.261  151.091   93.052
  231.870   10.719    0.482    0.250  149.740   93.124
  232.120   12.132    0.461    0.249  149.345   95.573
  232.370   13.044    0.471    0.291  149.452   98.004
  232.620   13.656    0.478    0.304  148.602   96.596
  232.870   13.880    0.492    0.298  146.719   92.524
  233.120   13.898    0.494    0.314  145.337   87.860
  233.370   13.923    0.505    0.348  144.457   78.154
  233.620   14.040    0.538    0.406  147.070   66.367
  233.870   14.556    0.581    0.421  150.732   56.661
  234.120   15.171    0.565    0.321  150.823   51.108
  234.370   15.786    0.476    0.338  148.940   53.549
