~VERSION INFORMATION
 VERS.                 2.0:   CWLS LOG ASCII STANDARD -VERSION 2.0
 WRAP.                  NO:   ONE LINE PER DEPTH STEP
~WELL INFORMATION BLOCK
#MNEM.UNIT           DATA                    DESCRIPTION OF MNEMONIC
#---------    -------------------            -------------------------------
# Generated from Intellog Unique Number	CW_73_75/WELL/1054
WELL.         HOME UNIT MARTIN HILLS 16-21   : Well_name    - WELL
LOC .         00/16-21-074-24W4/0            : Location     - LOCATION
UWI .         00/16-21-074-24W4/0            : Uwi          - UNIQUE WELL ID
ENTR.         JAYE                           : Entered      - ENTERED BY
SRVC.         SCHLUMBERGER                   : Scn          - SERVICE COMPANY
DATE.         23 NOV 77                      : Date         - LOG DATE
STRT.M        374.904                        : top_depth    - START DEPTH
STOP.M        585.154                        : bot_depth    - STOP DEPTH
STEP.M        0.25                           : increment    - STEP LENGTH
 NULL. -999.2500:NULL Value
~CURVE INFORMATION BLOCK
#MNEM UNIT       ERCB CURVE CODE    CURVE DESCRIPTION
#-----------   ------------------   ----------------------------------
DEPT.M        00 001 00 00         : DEPTH        - DEPTH
ILD .OHMM     00 120 00 00         : RESD         - DEEP RESISTIVITY (DIL)
NPHI.V/V      00 330 00 00         : PHIN         - NEUTRON POROSITY (SANDSTONE)
DPHI.V/V      00 890 00 00         : PHID         - DENSITY POROSITY (SANDSTONE)
CALI.MM       00 280 01 00         : CAL          - CALIPER
GR  .API      00 310 00 00         : GR           - GAMMA RAY
~PARAMETER INFORMATION
#MNEM.UNIT           DATA             DESCRIPTION OF MNEMONIC
#---------         -----------     ------------------------------
GL  .M        649.224              : gl           - GROUND LEVEL ELEVATION
EREF.M        653.796              : kb           - ELEVATION OF DEPTH REFERENCE
DATM.M        649.224              : datum        - DATUM ELEVATION
TDD .M        585.216              : tdd          - TOTAL DEPTH DRILLER
RUN .         ONE                  : Run          - RUN NUMBER
BASE.         EDM                  : Branch       - HOME BASE OF LOGGING UNIT
MATR.         SANDSTONE            : Logunit      - NEUTRON MATRIX
TMAX.C        28.8889              : BHT          - MAXIMUM RECORDED TEMPERATURE
BHTD.M        585.826              : BHTDEP       - MAXIMUM RECORDED TEMPERATURE
RMT .C        13.8889              : MDTP         - TEMPERATURE OF MUD
MUDD.KG/M     0                    : MWT          - MUD DENSITY
NEUT.         1                    : NEUTRON      - NEUTRON TYPE
RESI.         0                    : RESIST       - RESISTIVITY TYPE
RM  .OHMM     6.22                 : RM           - RESISTIVITY OF MUD
RMC .OHMM     0                    : RMC          - RESISTIVITY OF MUD CAKE
RMF .OHMM     6.72                 : RMF          - RESISTIVITY OF MUD FILTRATE
SUFT.C        -17.7778             : SUFT         - SURFACE TEMPERATURE
~A  DEPTH     RESD     PHIN     PHID      CAL       GR
# ...
  447.904    9.155    0.441    0.245  178.523   58.264
  448.154    9.312    0.437    0.254  178.358   57.670
  448.404    9.295    0.423    0.269  177.246   58.762
  448.654    9.226    0.405    0.250  176.876   58.536
  448.904    9.243    0.410    0.245  176.607   55.824
  449.154    9.348    0.411    0.261  176.342   53.111
  449.404    9.175    0.404    0.274  176.388   49.968
  449.654    9.039    0.398    0.265  176.437   47.314
  449.904    8.772    0.394    0.254  176.480   45.351
  450.154    8.200    0.390    0.236  177.165   45.257
  450.404    7.300    0.392    0.252  177.738   46.156
  450.654    6.573    0.399    0.253  177.788   47.124
  450.904    5.974    0.413    0.245  176.779   47.774
  451.154    5.450    0.418    0.228  174.406   47.923
  451.404    4.934    0.407    0.241  171.079   47.890
  451.654    4.612    0.410    0.248  169.652   48.539
  451.904    4.295    0.416    0.231  169.379   46.201
  452.154    4.114    0.403    0.215  170.065   44.363
  452.404    4.138    0.392    0.233  170.847   45.139
  452.654    4.280    0.387    0.221  170.579   47.719
  452.904    4.386    0.381    0.234  170.522   48.060
  453.154    4.361    0.376    0.222  170.781   46.530
  453.404    4.313    0.375    0.245  170.518   46.187
  453.654    4.281    0.383    0.261  170.033   46.777
  453.904    4.139    0.390    0.275  169.345   48.422
  454.154    4.002    0.409    0.277  169.082   51.066
  454.404    3.854    0.412    0.271  168.808   52.713
  454.654    3.755    0.410    0.262  168.750   53.490
  454.904    3.748    0.414    0.253  169.960   53.831
  455.154    3.841    0.426    0.273  170.850   53.858
  455.404    3.950    0.409    0.256  171.533   55.194
  455.654    4.048    0.399    0.258  171.161   58.523
  455.904    4.125    0.397    0.249  171.207   61.353
  456.154    4.179    0.392    0.249  172.942   63.749
  456.404    4.180    0.408    0.262  175.415   62.970
  456.654    4.195    0.408    0.255  175.148   61.439
  456.904    4.243    0.405    0.242  173.405   60.036
  457.154    4.332    0.400    0.243  172.715   59.068
  457.404    4.439    0.387    0.227  171.813   59.781
  457.654    4.515    0.378    0.215  170.384   60.560
  457.904    4.515    0.386    0.219  169.700   61.457
  458.154    4.464    0.402    0.248  170.171   62.108
  458.404    4.374    0.414    0.274  170.320   62.262
  458.654    4.236    0.418    0.258  170.576   63.162
  458.904    4.058    0.409    0.253  170.838   63.377
  459.154    3.938    0.413    0.238  171.520   65.648
  459.404    4.013    0.417    0.222  171.883   69.911
  459.654    4.317    0.405    0.205  172.562   70.873
  459.904    4.585    0.385    0.184  174.299   71.898
  460.154    4.707    0.363    0.202  177.510   64.391
  460.404    4.734    0.367    0.230  179.984   61.057
  460.654    4.698    0.390    0.250  178.450   64.573
  460.904    4.646    0.404    0.240  175.545   72.636
  461.154    4.586    0.417    0.235  174.117   81.942
  461.404    4.577    0.439    0.227  171.848   78.111
  461.654    4.647    0.447    0.217  169.679   73.468
  461.904    4.852    0.433    0.222  168.886   69.635
  462.154    4.972    0.418    0.220  169.669   71.532
  462.404    5.028    0.408    0.190  170.666   72.494
  462.654    5.028    0.393    0.207  172.089   70.906
  462.904    5.029    0.389    0.195  172.877   72.925
  463.154    5.019    0.387    0.192  173.659   76.071
  463.404    5.029    0.386    0.196  175.081   79.336
  463.654    5.058    0.381    0.207  175.973   82.165
  463.904    5.058    0.396    0.196  176.231   84.374
  464.154    5.020    0.409    0.197  176.595   84.029
  464.404    4.983    0.410    0.206  177.696   82.690
  464.654    4.946    0.405    0.219  177.644   83.405
  464.904    4.928    0.411    0.211  175.896   83.367
  465.154    4.882    0.421    0.211  176.260   83.208
  465.404    4.864    0.425    0.199  178.734   82.240
  465.654    4.855    0.424    0.178  182.896   79.403
  465.904    4.819    0.426    0.150  184.315   82.173
  466.154    4.738    0.429    0.179  184.573   85.378
  466.404    4.624    0.429    0.204  184.621   86.402
  466.654    4.471    0.435    0.209  184.670   84.811
  466.904    4.323    0.440    0.213  183.771   80.108
  467.154    4.195    0.425    0.236  178.228   75.156
  467.404    4.141    0.416    0.268  171.947   71.694
  467.654    4.149    0.424    0.274  169.153   67.925
  467.904    4.149    0.432    0.252  169.410   64.528
  468.154    4.188    0.443    0.268  169.879   62.377
  468.404    4.228    0.424    0.266  171.614   60.973
  468.654    4.284    0.394    0.247  170.504   59.941
  468.904    4.423    0.372    0.263  173.608   58.974
  469.154    4.714    0.362    0.234  175.661   58.255
  469.404    4.978    0.356    0.205  169.066   57.910
  469.654    4.997    0.364    0.225  170.069   60.180
  469.904    4.951    0.376    0.240  172.641   60.211
  470.154    4.777    0.399    0.243  175.326   58.743
  470.404    4.576    0.425    0.242  176.114   58.340
  470.654    4.466    0.433    0.255  174.478   59.551
  470.904    4.375    0.419    0.274  172.940   59.451
  471.154    4.343    0.406    0.286  172.046   57.551
  471.404    4.318    0.405    0.277  172.195   57.889
  471.654    4.327    0.420    0.273  172.557   57.981
  471.904    4.442    0.429    0.267  172.715   56.264
  472.154    4.535    0.424    0.256  173.184   56.482
  472.404    4.726    0.424    0.252  173.759   57.567
  472.654    4.953    0.430    0.258  175.915   58.280
  472.904    5.269    0.410    0.243  177.123   56.752
  473.154    5.842    0.395    0.255  175.908   55.972
  473.404    6.501    0.385    0.251  173.855   56.372
  473.654    7.221    0.375    0.240  172.948   57.960
  473.904    8.470    0.367    0.229  172.886   58.422
  474.154    9.878    0.357    0.214  173.146   58.391
  474.404   10.870    0.344    0.204  173.626   58.298
  474.654   11.564    0.321    0.191  173.456   57.636
  474.904   11.916    0.294    0.171  173.080   56.359
  475.154   11.895    0.272    0.115  172.389   55.515
  475.404   11.740    0.271    0.127  174.019   54.920
  475.654   11.161    0.304    0.132  179.449   55.073
  475.904   10.087    0.336    0.171  181.287   56.159
  476.154    8.913    0.363    0.208  178.382   56.749
  476.404    7.965    0.379    0.214  174.422   57.151
  476.654    7.198    0.387    0.195  173.100   58.487
  476.904    6.629    0.376    0.201  172.413   62.316
  477.154    6.208    0.368    0.217  172.459   61.471
  477.404    5.868    0.375    0.213  173.034   60.817
  477.654    5.579    0.391    0.215  173.195   60.658
  477.904    5.294    0.396    0.220  173.666   58.256
  478.154    5.080    0.383    0.238  174.022   55.108
  478.404    4.903    0.378    0.249  174.599   54.576
  478.654    4.678    0.391    0.243  174.860   54.295
  478.904    4.456    0.394    0.247  173.639   54.072
  479.154    4.244    0.405    0.257  166.516   54.600
  479.404    4.126    0.437    0.282  161.930   55.314
  479.654    4.104    0.456    0.298  162.503   56.089
  479.904    4.245    0.446    0.286  169.511   56.867
  480.154    4.507    0.416    0.262  167.877   57.889
  480.404    4.804    0.414    0.222  164.758   59.661
  480.654    5.111    0.429    0.196  163.012   65.296
  480.904    5.317    0.427    0.195  165.273   72.548
  481.154    5.438    0.415    0.221  171.230   78.554
  481.404    5.469    0.396    0.214  176.337   82.319
  481.654    5.469    0.395    0.183  179.762   85.773
  481.904    5.428    0.400    0.178  180.236   87.857
  482.154    5.459    0.407    0.173  180.494   88.321
  482.404    5.563    0.401    0.168  180.116   86.793
  482.654    5.668    0.388    0.202  177.422   84.330
  482.904    5.852    0.386    0.194  173.252   83.239
  483.154    5.963    0.401    0.187  174.040   85.507
  483.404    6.076    0.391    0.183  178.306   89.462
  483.654    6.157    0.376    0.187  180.357   88.370
  483.904    6.297    0.372    0.180  181.461   87.772
  484.154    6.453    0.386    0.171  180.665   88.550
