~VERSION INFORMATION
 VERS.                 2.0:   CWLS LOG ASCII STANDARD -VERSION 2.0
 WRAP.                  NO:   ONE LINE PER DEPTH STEP
~WELL INFORMATION BLOCK
#MNEM.UNIT           DATA                    DESCRIPTION OF MNEMONIC
#---------    -------------------            -------------------------------
# Generated from Intellog Unique Number	CS_69_70/WELL/866
WELL.         BRALORNE RESOURCES LIMITED     : Well_name    - WELL
LOC .         00/10-12-069-10W4/0            : Location     - LOCATION
UWI .         00/10-12-069-10W4/0            : Uwi          - UNIQUE WELL ID
ENTR.         SP                             : Entered      - ENTERED BY
SRVC.         SCHLUMBERGER                   : Scn          - SERVICE COMPANY
STRT.M        478.536                        : top_depth    - START DEPTH
STOP.M        685.536                        : bot_depth    - STOP DEPTH
STEP.M        0.25                           : increment    - STEP LENGTH
 NULL. -999.2500:NULL Value
~CURVE INFORMATION BLOCK
#MNEM UNIT       ERCB CURVE CODE    CURVE DESCRIPTION
#-----------   ------------------   ----------------------------------
DEPT.M        00 001 00 00         : DEPTH        - DEPTH
GR  .API      00 310 00 00         : GR           - GAMMA RAY
DPHI.V/V      00 890 00 00         : PHID         - DENSITY POROSITY (SANDSTONE)
NPHI.V/V      00 330 00 00         : PHIN         - NEUTRON POROSITY (SANDSTONE)
ILD .OHMM     00 120 00 00         : RESD         - DEEP RESISTIVITY (DIL)
~PARAMETER INFORMATION
#MNEM.UNIT           DATA             DESCRIPTION OF MNEMONIC
#---------         -----------     ------------------------------
GL  .M        798.119              : gl           - GROUND LEVEL ELEVATION
EREF.M        801.624              : kb           - ELEVATION OF DEPTH REFERENCE
DATM.M        798.119              : datum        - DATUM ELEVATION
TDD .M        687.019              : tdd          - TOTAL DEPTH DRILLER
RUN .         ONE                  : Run          - RUN NUMBER
ENG .         BILL                 : Engineer     - RECORDING ENGINEER
WIT .         JIM                  : Witness      - WITNESSED BY
MUD .         GEL                  : Mud_type     - MUD TYPE
MATR.         SANDSTONE            : Logunit      - NEUTRON MATRIX
TMAX.C        20                   : BHT          - MAXIMUM RECORDED TEMPERATURE
BHTD.M        687.019              : BHTDEP       - MAXIMUM RECORDED TEMPERATURE
MATR.         1                    : LOGUNIT      - NEUTRON MATRIX
RMT .C        25                   : MDTP         - TEMPERATURE OF MUD
NEUT.         1                    : NEUTRON      - NEUTRON TYPE
RESI.         0                    : RESIST       - RESISTIVITY TYPE
RMC .OHMM     0.25                 : RMC          - RESISTIVITY OF MUD CAKE
RMF .OHMM     0.25                 : RMF          - RESISTIVITY OF MUD FILTRATE
SUFT.C        15                   : SUFT         - SURFACE TEMPERATURE
~A  DEPTH       GR     PHID     PHIN     RESD
  478.536  117.641    0.179    0.532    2.388
  478.786  116.461    0.180    0.523    2.381
  479.036  115.251    0.184    0.523    2.391
  479.286  113.930    0.176    0.528    2.475
  479.536  114.897    0.183    0.513    2.575
  479.786  117.250    0.192    0.516    2.681
  480.036  118.002    0.201    0.511    2.819
  480.286  117.013    0.207    0.499    2.879
  480.536  116.055    0.187    0.492    2.875
  480.786  115.179    0.181    0.487    2.814
  481.036  114.300    0.175    0.477    2.715
  481.286  113.489    0.173    0.470    2.610
  481.536  114.409    0.180    0.491    2.508
  481.786  114.135    0.185    0.506    2.429
  482.036  112.151    0.185    0.524    2.400
  482.286  113.969    0.196    0.508    2.425
  482.536  112.921    0.187    0.499    2.477
  482.786  112.096    0.185    0.504    2.579
  483.036  115.020    0.182    0.516    2.676
  483.286  117.477    0.182    0.527    2.764
  483.536  118.825    0.181    0.542    2.861
  483.786  117.505    0.197    0.516    2.958
  484.036  114.628    0.207    0.504    3.028
  484.286  114.935    0.203    0.498    3.051
  484.536  117.445    0.194    0.497    3.015
  484.786  123.125    0.187    0.492    2.915
  485.036  127.006    0.184    0.484    2.793
  485.286  127.538    0.183    0.478    2.695
  485.536  117.906    0.183    0.478    2.663
  485.786  113.332    0.199    0.489    2.775
  486.036  109.267    0.211    0.501    3.062
  486.286  102.870    0.217    0.498    3.460
  486.536   96.664    0.235    0.440    3.796
  486.786   89.921    0.247    0.429    4.077
  487.036   83.113    0.248    0.428    4.415
  487.286   75.768    0.255    0.405    4.659
  487.536   68.905    0.274    0.389    4.884
  487.786   61.828    0.256    0.384    4.929
  488.036   60.669    0.250    0.388    4.908
  488.286   57.292    0.245    0.370    4.883
  488.536   53.278    0.253    0.357    4.743
  488.786   49.383    0.261    0.344    4.649
  489.036   47.371    0.264    0.367    4.546
  489.286   53.178    0.266    0.381    4.479
  489.536   57.789    0.262    0.388    4.434
  489.786   62.854    0.267    0.392    4.459
  490.036   68.205    0.274    0.394    4.526
  490.286   73.201    0.274    0.400    4.672
  490.536   79.575    0.249    0.404    4.844
  490.786   93.395    0.237    0.397    5.031
  491.036   97.698    0.225    0.406    5.187
  491.286  100.200    0.207    0.412    5.342
  491.536  102.604    0.193    0.407    5.430
  491.786  106.911    0.168    0.404    5.485
  492.036  111.231    0.161    0.408    5.476
  492.286  114.260    0.162    0.424    5.426
  492.536  115.195    0.181    0.422    5.400
  492.786  115.650    0.199    0.426    5.359
  493.036  117.065    0.204    0.437    5.344
  493.286  119.085    0.205    0.443    5.395
  493.536  117.106    0.192    0.433    5.517
  493.786  114.431    0.180    0.418    5.671
  494.036  110.438    0.178    0.409    5.811
  494.286  102.437    0.208    0.405    5.834
  494.536   93.981    0.218    0.410    5.732
  494.786   94.175    0.229    0.426    5.629
  495.036   95.484    0.241    0.432    5.560
  495.286   90.417    0.198    0.414    5.551
  495.536   83.175    0.179    0.405    5.593
  495.786   76.745    0.197    0.394    5.661
  496.036   73.865    0.193    0.382    5.654
  496.286   74.338    0.188    0.376    5.553
  496.536   75.256    0.215    0.375    5.407
  496.786   77.528    0.224    0.371    5.186
  497.036   83.511    0.198    0.373    4.949
  497.286   92.491    0.176    0.382    4.738
  497.536  101.008    0.163    0.405    4.602
  497.786  110.337    0.150    0.421    4.470
  498.036  116.466    0.139    0.439    4.247
  498.286  119.213    0.123    0.453    4.079
  498.536  122.000    0.096    0.466    3.869
  498.786  125.508    0.129    0.483    3.611
  499.036  128.854    0.140    0.495    3.342
  499.286  131.052    0.158    0.505    3.128
  499.536  131.127    0.170    0.513    2.942
  499.786  131.404    0.191    0.491    2.794
  500.036  131.472    0.203    0.477    2.688
  500.286  130.606    0.213    0.479    2.754
  500.536  124.577    0.227    0.510    3.038
  500.786  116.589    0.244    0.534    3.460
  501.036   96.097    0.265    0.545    4.079
  501.286   79.025    0.287    0.543    4.515
  501.536   67.871    0.311    0.478    4.987
  501.786   62.596    0.313    0.448    5.452
  502.036   55.659    0.291    0.420    5.492
  502.286   51.464    0.293    0.402    5.144
  502.536   48.231    0.274    0.384    4.847
  502.786   47.137    0.279    0.373    4.563
  503.036   47.328    0.282    0.372    4.389
  503.286   45.600    0.299    0.380    4.299
  503.536   44.260    0.304    0.383    4.246
  503.786   42.383    0.300    0.393    4.229
  504.036   41.466    0.306    0.403    4.246
  504.286   41.715    0.304    0.411    4.256
  504.536   42.946    0.286    0.410    4.269
  504.786   43.025    0.293    0.400    4.280
  505.036   42.767    0.304    0.397    4.289
  505.286   42.771    0.285    0.397    4.304
  505.536   42.943    0.275    0.395    4.319
  505.786   43.516    0.286    0.404    4.316
  506.036   44.310    0.281    0.400    4.293
  506.286   45.281    0.281    0.401    4.247
  506.536   46.887    0.292    0.415    4.193
  506.786   48.304    0.299    0.412    4.151
  507.036   49.830    0.292    0.401    4.134
  507.286   51.155    0.281    0.394    4.106
  507.536   52.706    0.302    0.400    4.088
  507.786   54.064    0.317    0.402    4.068
  508.036   55.418    0.299    0.395    4.022
  508.286   56.963    0.297    0.396    3.977
  508.536   59.695    0.291    0.398    3.952
  508.786   66.030    0.283    0.419    3.938
  509.036   74.118    0.286    0.424    3.982
  509.286   79.681    0.291    0.434    4.081
  509.536   84.029    0.293    0.443    4.160
  509.786   86.495    0.289    0.441    4.240
  510.036   83.151    0.281    0.429    4.320
  510.286   81.232    0.273    0.425    4.411
  510.536   81.385    0.268    0.433    4.525
  510.786   87.461    0.262    0.446    4.621
  511.036   92.400    0.255    0.450    4.684
  511.286   95.748    0.255    0.450    4.724
  511.536   95.712    0.259    0.451    4.733
  511.786   94.534    0.258    0.455    4.662
  512.036   93.255    0.256    0.462    4.576
  512.286   93.070    0.256    0.465    4.485
  512.536   94.363    0.257    0.461    4.443
  512.786  100.710    0.270    0.462    4.474
  513.036  103.133    0.254    0.467    4.527
  513.286   98.835    0.268    0.475    4.580
  513.536   95.529    0.282    0.485    4.584
  513.786   93.663    0.286    0.494    4.560
  514.036   93.769    0.274    0.502    4.508
  514.286   94.287    0.272    0.480    4.430
  514.536   94.767    0.278    0.468    4.346
  514.786   95.393    0.285    0.458    4.306
  515.036   96.187    0.279    0.451    4.255
  515.286   93.675    0.288    0.453    4.244
  515.536   91.349    0.283    0.472    4.235
  515.786   90.550    0.278    0.489    4.203
  516.036   94.826    0.266    0.484    4.166
  516.286   99.010    0.257    0.483    4.112
  516.536  100.960    0.248    0.498    4.066
  516.786  101.683    0.247    0.481    4.024
  517.036   98.903    0.255    0.472    3.999
  517.286   94.532    0.258    0.461    3.991
  517.536   93.304    0.255    0.465    3.975
  517.786   97.713    0.252    0.478    3.968
  518.036  100.518    0.247    0.478    3.981
  518.286  102.039    0.242    0.486    4.034
  518.536  102.922    0.232    0.491    4.169
  518.786  102.463    0.213    0.491    4.304
  519.036   99.821    0.164    0.457    4.539
  519.286   94.076    0.145    0.381    4.759
  519.536   88.250    0.136    0.315    5.068
  519.786   94.719    0.203    0.350    5.470
  520.036  101.434    0.240    0.387    5.731
  520.286  104.718    0.255    0.432    5.330
  520.536  106.546    0.267    0.471    4.914
  520.786  108.820    0.263    0.467    4.624
  521.036  111.915    0.250    0.458    4.499
  521.286  114.634    0.242    0.456    4.525
  521.536  116.480    0.237    0.453    4.588
  521.786  111.312    0.246    0.456    4.682
