~VERSION INFORMATION
 VERS.                 2.0:   CWLS LOG ASCII STANDARD -VERSION 2.0
 WRAP.                  NO:   ONE LINE PER DEPTH STEP
~WELL INFORMATION BLOCK
#MNEM.UNIT           DATA                    DESCRIPTION OF MNEMONIC
#---------    -------------------            -------------------------------
# Generated from Intellog Unique Number	CW_73_75/WELL/1053
LOC .         00/15-13-075-02W5/0            : Location     - LOCATION
UWI .         00/15-13-075-02W5/0            : Uwi          - UNIQUE WELL ID
ENTR.         JAYE                           : Entered      - ENTERED BY
SRVC.         SCHLUMBERGER                   : Scn          - SERVICE COMPANY
DATE.         19 DEC 75                      : Date         - LOG DATE
STRT.M        533.4                          : top_depth    - START DEPTH
STOP.M        722.4                          : bot_depth    - STOP DEPTH
STEP.M        0.25                           : increment    - STEP LENGTH
 NULL. -999.2500:NULL Value
~CURVE INFORMATION BLOCK
#MNEM UNIT       ERCB CURVE CODE    CURVE DESCRIPTION
#-----------   ------------------   ----------------------------------
DEPT.M        00 001 00 00         : DEPTH        - DEPTH
ILD .OHMM     00 120 00 00         : RESD         - DEEP RESISTIVITY (DIL)
NPHI.V/V      00 330 00 00         : PHIN         - NEUTRON POROSITY (SANDSTONE)
DPHI.V/V      00 890 00 00         : PHID         - DENSITY POROSITY (SANDSTONE)
GR  .API      00 310 00 00         : GR           - GAMMA RAY
CALI.MM       00 280 01 00         : CAL          - CALIPER
~PARAMETER INFORMATION
#MNEM.UNIT           DATA             DESCRIPTION OF MNEMONIC
#---------         -----------     ------------------------------
GL  .M        814.426              : gl           - GROUND LEVEL ELEVATION
EREF.M        818.54               : kb           - ELEVATION OF DEPTH REFERENCE
DATM.M        814.426              : datum        - DATUM ELEVATION
TDD .M        727.253              : tdd          - TOTAL DEPTH DRILLER
RUN .         ONE                  : Run          - RUN NUMBER
ENG .         MACDONALD            : Engineer     - RECORDING ENGINEER
BASE.         EDM                  : Branch       - HOME BASE OF LOGGING UNIT
MUD .         GEL CHEM             : Mud_type     - MUD TYPE
MATR.         SANDSTONE            : Logunit      - NEUTRON MATRIX
TMAX.C        31.1111              : BHT          - MAXIMUM RECORDED TEMPERATURE
BHTD.M        726.643              : BHTDEP       - MAXIMUM RECORDED TEMPERATURE
RMT .C        20                   : MDTP         - TEMPERATURE OF MUD
MUDD.KG/M     1056                 : MWT          - MUD DENSITY
NEUT.         1                    : NEUTRON      - NEUTRON TYPE
RESI.         0                    : RESIST       - RESISTIVITY TYPE
RM  .OHMM     2.8                  : RM           - RESISTIVITY OF MUD
RMC .OHMM     0                    : RMC          - RESISTIVITY OF MUD CAKE
RMF .OHMM     3.77                 : RMF          - RESISTIVITY OF MUD FILTRATE
SUFT.C        -17.7778             : SUFT         - SURFACE TEMPERATURE
~A  DEPTH     RESD     PHIN     PHID       GR      CAL
  533.400    2.277    0.531    0.184   97.296  226.474
  533.650    2.301    0.536    0.192   97.930  231.890
  533.900    2.320    0.538    0.201   98.078  234.609
  534.150    2.340    0.537    0.206   98.829  234.128
  534.400    2.377    0.527    0.211  100.985  230.142
  534.650    2.419    0.484    0.210  102.899  226.150
  534.900    2.449    0.488    0.205  103.226  223.194
  535.150    2.483    0.503    0.200  101.418  221.679
  535.400    2.541    0.515    0.192   96.867  220.687
  535.650    2.629    0.523    0.189   94.022  222.477
  535.900    2.715    0.515    0.179   91.970  225.717
  536.150    2.849    0.493    0.193   90.162  227.931
  536.400    2.984    0.495    0.203   87.013  227.241
  536.650    3.218    0.490    0.216   84.657  224.077
  536.900    3.490    0.478    0.213   81.631  220.912
  537.150    3.730    0.457    0.176   78.115  219.503
  537.400    3.929    0.402    0.231   77.344  222.022
  537.650    4.020    0.407    0.224   80.172  224.125
  537.900    3.785    0.435    0.192   83.793  221.995
  538.150    3.550    0.462    0.177   85.401  221.727
  538.400    3.212    0.480    0.179   85.242  223.722
  538.650    2.906    0.500    0.181   82.336  227.895
  538.900    2.600    0.534    0.191   83.334  230.413
  539.150    2.343    0.546    0.198   87.260  231.069
  539.400    2.242    0.557    0.202   88.625  232.660
  539.650    2.375    0.543    0.208   87.733  234.036
  539.900    2.613    0.497    0.215   86.658  230.873
  540.150    2.991    0.467    0.246   84.182  228.230
  540.400    3.494    0.445    0.207   79.565  232.292
  540.650    4.404    0.424    0.184   71.535  232.639
  540.900    5.228    0.423    0.184   65.641  227.411
  541.150    5.868    0.434    0.200   64.141  225.484
  541.400    6.444    0.443    0.213   62.881  225.626
  541.650    6.949    0.437    0.217   61.502  223.808
  541.900    7.815    0.425    0.189   59.997  219.402
  542.150    8.473    0.403    0.197   56.603  215.619
  542.400    9.006    0.386    0.209   52.480  216.174
  542.650    8.920    0.358    0.228   53.904  218.484
  542.900    8.505    0.370    0.268   56.734  221.516
  543.150    8.051    0.383    0.228   57.855  218.445
  543.400    7.579    0.386    0.266   58.059  216.496
  543.650    7.123    0.406    0.272   57.411  213.098
  543.900    6.940    0.429    0.271   55.419  209.067
  544.150    7.417    0.445    0.278   51.538  208.590
  544.400    8.461    0.408    0.257   52.965  210.899
  544.650    9.412    0.377    0.171   56.464  212.283
  544.900   10.114    0.345    0.137   57.648  214.281
  545.150   10.366    0.333    0.114   57.730  219.176
  545.400    9.795    0.415    0.101   56.962  221.898
  545.650    9.039    0.446    0.219   56.677  224.725
  545.900    8.759    0.446    0.247   56.332  225.592
  546.150    8.980    0.438    0.238   54.893  225.526
  546.400    9.685    0.444    0.227   53.327  225.774
  546.650   10.128    0.437    0.230   51.824  225.911
  546.900   10.478    0.381    0.208   48.674  225.742
  547.150   10.760    0.336    0.159   50.100  225.368
  547.400   11.010    0.329    0.125   54.334  225.824
  547.650   10.983    0.379    0.103   56.858  226.271
  547.900   10.567    0.427    0.180   57.184  226.311
  548.150    9.859    0.413    0.182   57.144  225.831
  548.400    9.033    0.401    0.161   57.044  225.765
  548.650    8.596    0.418    0.227   57.617  224.771
  548.900    8.437    0.437    0.228   57.641  223.053
  549.150    8.711    0.442    0.229   56.931  221.437
  549.400    9.226    0.436    0.238   56.159  220.652
  549.650    9.952    0.427    0.234   55.024  219.758
  549.900   10.481    0.419    0.227   53.397  219.285
  550.150   11.161    0.401    0.216   51.225  219.627
  550.400   11.715    0.419    0.241   50.578  220.701
  550.650   12.163    0.439    0.267   49.868  220.944
  550.900   12.604    0.435    0.292   48.607  220.671
  551.150   13.109    0.431    0.317   46.739  220.507
  551.400   13.489    0.441    0.309   46.151  221.369
  551.650   13.431    0.453    0.285   47.886  222.025
  551.900   12.898    0.457    0.292   49.615  223.101
  552.150   11.563    0.450    0.286   51.587  222.931
  552.400   10.329    0.434    0.278   54.415  221.829
  552.650    9.293    0.418    0.259   55.780  220.009
  552.900    8.330    0.414    0.270   55.315  218.600
  553.150    7.086    0.423    0.280   53.873  217.503
  553.400    6.082    0.439    0.293   54.384  217.128
  553.650    5.422    0.448    0.290   54.956  216.960
  553.900    5.123    0.451    0.279   53.515  217.001
  554.150    4.975    0.447    0.278   51.279  217.862
  554.400    4.900    0.444    0.284   49.595  218.725
  554.650    4.872    0.434    0.284   53.764  218.867
  554.900    4.894    0.422    0.272   56.107  219.009
  555.150    4.936    0.412    0.257   57.774  219.358
  555.400    4.942    0.409    0.234   60.605  221.150
  555.650    4.957    0.417    0.231   63.493  223.778
  555.900    4.991    0.410    0.254   66.687  224.947
  556.150    5.097    0.405    0.247   73.481  226.434
  556.400    5.341    0.405    0.225   79.114  226.365
  556.650    5.677    0.407    0.186   76.758  224.646
  556.900    6.077    0.402    0.203   68.120  222.105
  557.150    6.496    0.394    0.213   58.870  219.764
  557.400    6.528    0.390    0.237   46.084  215.672
  557.650    6.314    0.388    0.277   44.030  213.955
  557.900    5.848    0.386    0.292   44.423  213.474
  558.150    5.367    0.390    0.283   44.686  213.823
  558.400    4.821    0.399    0.289   44.709  214.585
  558.650    4.393    0.410    0.295   42.290  215.964
  558.900    4.061    0.411    0.297   42.009  216.416
  559.150    3.845    0.393    0.291   46.178  215.834
  559.400    3.814    0.381    0.283   49.436  214.739
  559.650    3.812    0.386    0.275   49.334  213.538
  559.900    3.845    0.398    0.262   46.980  212.027
  560.150    3.870    0.406    0.248   44.926  211.236
  560.400    3.953    0.400    0.225   44.949  210.860
  560.650    4.038    0.371    0.238   55.342  212.139
  560.900    4.162    0.386    0.247   66.590  214.145
  561.150    4.322    0.402    0.234   74.725  215.731
  561.400    4.477    0.416    0.212   79.810  217.315
  561.650    4.700    0.413    0.194   76.295  218.800
  561.900    4.914    0.410    0.184   73.633  220.385
  562.150    5.149    0.409    0.187   74.328  222.182
  562.400    5.278    0.416    0.200   72.945  222.941
  562.650    5.154    0.434    0.207   63.696  224.433
  562.900    5.002    0.419    0.244   68.724  225.397
  563.150    4.786    0.415    0.264   74.783  226.574
  563.400    4.457    0.424    0.245   82.187  227.435
  563.650    4.151    0.438    0.224   92.151  227.993
  563.900    3.734    0.460    0.188   99.067  227.511
  564.150    3.171    0.484    0.163  101.409  226.927
  564.400    2.853    0.492    0.165  102.589  225.729
  564.650    2.662    0.488    0.140  105.051  224.731
  564.900    2.589    0.495    0.108  107.879  223.323
  565.150    2.620    0.492    0.145  103.024  221.711
  565.400    2.862    0.456    0.187   88.160  220.406
  565.650    3.331    0.425    0.223   83.304  219.310
  565.900    3.724    0.408    0.231   86.195  219.038
  566.150    4.195    0.406    0.198   90.488  219.387
  566.400    4.709    0.413    0.196   93.863  220.039
  566.650    5.125    0.435    0.214   96.388  222.144
  566.900    5.150    0.449    0.198   96.530  226.624
  567.150    4.936    0.472    0.202   88.806  227.179
  567.400    4.724    0.457    0.203   76.872  224.529
  567.650    4.439    0.425    0.183   74.273  219.300
  567.900    4.052    0.455    0.160   83.505  215.002
  568.150    3.808    0.515    0.183   81.149  213.079
  568.400    4.033    0.481    0.214   69.826  212.398
  568.650    4.866    0.438    0.241   66.189  213.359
  568.900    5.757    0.446    0.253   69.017  217.428
  569.150    6.402    0.438    0.250   71.906  220.975
  569.400    6.855    0.438    0.250   72.050  223.906
  569.650    7.054    0.447    0.225   70.794  224.466
