~VERSION INFORMATION
 VERS.                 2.0:   CWLS LOG ASCII STANDARD -VERSION 2.0
 WRAP.                  NO:   ONE LINE PER DEPTH STEP
~WELL INFORMATION BLOCK
#MNEM.UNIT           DATA                    DESCRIPTION OF MNEMONIC
#---------    -------------------            -------------------------------
# Generated from Intellog Unique Number	nealta/WELL/2359
WELL.         HB MARTEN HILLS 10-34          : Well_name    - WELL              
LOC .         10-34-074-01W5                 : Location     - LOCATION          
UWI .         00/10-34-074-01W5/0            : Uwi          - UNIQUE WELL ID    
ENTR.         JAYE                           : Entered      - ENTERED BY        
SRVC.         SCHLUMBERGER                   : Scn          - SERVICE COMPANY   
DATE.         27 MAR 74                      : Date         - LOG DATE          
STRT.M        454.152                        : top_depth    - START DEPTH       
STOP.M        655.402                        : bot_depth    - STOP DEPTH        
STEP.M        0.25                           : increment    - STEP LENGTH       
NULL.         -999.250                       : null         - NULL VALUE       
~CURVE INFORMATION BLOCK
#MNEM UNIT       ERCB CURVE CODE    CURVE DESCRIPTION
#-----------   ------------------   ----------------------------------
DEPT.M        00 001 00 00         : DEPTH        - DEPTH                       
DPHI.V/V      00 890 00 00         : PHID         - DENSITY POROSITY (SANDSTONE)
CALI.MM       00 280 01 00         : CAL          - CALIPER                     
GR  .API      00 310 00 00         : GR           - GAMMA RAY                   
ILD .OHMM     00 120 00 00         : RESD         - DEEP RESISTIVITY (DIL)      
NPHI.V/V      00 330 00 00         : PHIN         - NEUTRON POROSITY (SANDSTONE)
~PARAMETER INFORMATION       
#MNEM.UNIT           DATA             DESCRIPTION OF MNEMONIC
#---------         -----------     ------------------------------
GL  .M        721.766              : gl           - GROUND LEVEL ELEVATION      
EREF.M        725.119              : kb           - ELEVATION OF DEPTH REFERENCE
DATM.M        721.766              : datum        - DATUM ELEVATION             
TDD .M        685.8                : tdd          - TOTAL DEPTH DRILLER         
RUN .         ONE                  : Run          - RUN NUMBER                  
ENG .         SIROIS/SMILEY        : Engineer     - RECORDING ENGINEER          
WIT .         FILLO/JASTER         : Witness      - WITNESSED BY                
BASE.         EDM                  : Branch       - HOME BASE OF LOGGING UNIT   
MUD .         GEL CHEM             : Mud_type     - MUD TYPE                    
MATR.         SANDSTONE            : Logunit      - NEUTRON MATRIX              
TMAX.C        26.6667              : BHT          - MAXIMUM RECORDED TEMPERATURE
BHTD.M        685.8                : BHTDEP       - MAXIMUM RECORDED TEMPERATURE
RMT .C        -12.3889             : MDTP         - TEMPERATURE OF MUD          
MUDD.KG/M     7800                 : MWT          - MUD DENSITY                 
NEUT.         1                    : NEUTRON      - NEUTRON TYPE                
RESI.         0                    : RESIST       - RESISTIVITY TYPE            
RM  .OHMM     4.1                  : RM           - RESISTIVITY OF MUD          
RMC .OHMM     2.5                  : RMC          - RESISTIVITY OF MUD CAKE     
RMF .OHMM     2.13                 : RMF          - RESISTIVITY OF MUD FILTRATE 
SUFT.C        -17.7778             : SUFT         - SURFACE TEMPERATURE         
~A  DEPTH     PHID      CAL       GR     RESD     PHIN
  454.152    0.181  210.633   97.488    3.202    0.548
  454.402    0.184  211.542   91.445    3.316    0.539
  454.652    0.179  212.946   87.182    3.286    0.488
  454.902    0.174  214.772   86.359    3.121    0.522
  455.152    0.175  215.777   86.213    2.925    0.558
  455.402    0.180  216.774   86.124    2.697    0.564
  455.652    0.179  216.834   86.099    2.519    0.586
  455.902    0.198  217.526   86.320    2.327    0.580
  456.152    0.213  217.375   87.094    2.157    0.549
  456.402    0.211  217.442   89.096    1.992    0.548
  456.652    0.223  217.080   92.019    2.018    0.529
  456.902    0.231  214.543   94.514    2.146    0.501
  457.152    0.196  212.008   98.236    2.443    0.518
  457.402    0.178  216.441   99.073    2.791    0.545
  457.652    0.166  219.307   95.425    3.303    0.541
  457.902    0.142  217.085   90.608    3.945    0.466
  458.152    0.142  213.088   70.926    5.028    0.422
  458.402    0.164  206.497   59.968    6.337    0.375
  458.652    0.154  203.953   54.291    7.335    0.346
  458.902    0.109  203.597   52.424    7.769    0.284
  459.152    0.138  203.770   53.076    7.515    0.393
  459.402    0.194  204.145   54.339    6.954    0.423
  459.652    0.232  204.420   60.213    6.340    0.458
  459.902    0.271  204.576   61.417    5.489    0.491
  460.152    0.279  204.341   57.582    4.895    0.492
  460.402    0.272  203.276   55.902    4.538    0.492
  460.652    0.262  202.606   57.779    4.293    0.475
  460.902    0.257  202.244   60.151    4.184    0.445
  461.152    0.254  201.891   59.572    4.100    0.440
  461.402    0.245  201.741   57.524    4.048    0.503
  461.652    0.250  201.894   60.082    3.996    0.532
  461.902    0.261  202.163   62.021    3.946    0.535
  462.152    0.274  202.535   61.073    3.939    0.513
  462.402    0.268  202.811   59.517    3.939    0.486
  462.652    0.261  202.660   58.750    3.910    0.490
  462.902    0.265  203.038   58.724    3.882    0.491
  463.152    0.264  203.102   56.611    3.847    0.492
  463.402    0.252  203.169   55.480    3.826    0.494
  463.652    0.247  203.223   56.687    3.777    0.506
  463.902    0.262  202.978   59.117    3.715    0.498
  464.152    0.257  202.620   62.230    3.668    0.482
  464.402    0.233  202.691   64.106    3.594    0.468
  464.652    0.240  202.637   65.126    3.575    0.452
  464.902    0.239  202.295   61.662    3.549    0.484
  465.152    0.206  202.041   58.563    3.549    0.499
  465.402    0.209  201.483   55.837    3.589    0.469
  465.652    0.222  201.016   56.120    3.650    0.464
  465.902    0.240  200.874   58.612    3.719    0.490
  466.152    0.251  201.038   59.574    3.761    0.466
  466.402    0.255  201.212   57.396    3.803    0.471
  466.652    0.245  200.758   57.064    3.889    0.485
  466.902    0.242  200.814   56.367    3.925    0.492
  467.152    0.243  201.601   54.987    4.036    0.478
  467.402    0.222  203.327   54.963    4.251    0.459
  467.652    0.217  204.217   55.127    4.478    0.489
  467.902    0.244  204.084   55.650    4.454    0.493
  468.152    0.258  203.626   57.228    4.380    0.485
  468.402    0.241  203.165   58.865    4.237    0.497
  468.652    0.242  203.742   60.001    4.039    0.478
  468.902    0.246  205.063   61.575    4.199    0.492
  469.152    0.236  206.056   63.574    4.684    0.482
  469.402    0.201  206.943   58.268    5.689    0.465
  469.652    0.134  207.633   54.803    6.923    0.345
  469.902    0.082  208.009   51.891    8.238    0.248
  470.152    0.074  209.416   49.593    9.055    0.260
  470.402    0.091  209.277   50.922    8.694    0.282
  470.652    0.125  205.594   54.215    7.854    0.316
  470.902    0.178  202.425   53.881    6.638    0.359
  471.152    0.209  200.830   52.445    5.694    0.390
  471.402    0.232  200.893   52.666    4.948    0.447
  471.652    0.251  200.965   54.240    4.486    0.485
  471.902    0.256  201.535   56.669    4.159    0.527
  472.152    0.263  201.907   60.453    3.855    0.526
  472.402    0.257  202.494   63.192    3.682    0.483
  472.652    0.246  202.864   61.450    3.608    0.488
  472.902    0.245  203.039   59.519    3.608    0.463
  473.152    0.250  203.300   58.946    3.609    0.462
  473.402    0.254  203.092   59.964    3.609    0.474
  473.652    0.262  203.114   63.621    3.563    0.458
  473.902    0.257  203.603   71.341    3.403    0.449
  474.152    0.245  204.079   77.701    3.261    0.444
  474.402    0.217  205.276   83.880    3.143    0.443
  474.652    0.197  207.104   91.965    3.029    0.451
  474.902    0.178  211.434  104.780    3.080    0.519
  475.152    0.171  221.067  100.825    3.354    0.490
  475.402    0.153  226.535   93.795    3.527    0.465
  475.652    0.184  226.285   86.091    3.694    0.430
  475.902    0.200  216.361   73.413    3.763    0.408
  476.152    0.226  205.090   64.235    3.695    0.393
  476.402    0.251  198.390   55.364    3.641    0.379
  476.652    0.268  194.293   44.222    3.555    0.369
  476.902    0.263  197.160   37.992    3.523    0.385
  477.152    0.258  198.471   38.768    3.503    0.394
  477.402    0.241  199.884   38.068    3.491    0.405
  477.652    0.254  200.470   35.588    3.453    0.390
  477.902    0.261  199.697   33.228    3.428    0.388
  478.152    0.266  200.175   31.729    3.434    0.387
  478.402    0.275  201.077   32.936    3.435    0.391
  478.652    0.271  202.174   35.616    3.512    0.404
  478.902    0.276  201.926   40.134    3.592    0.419
  479.152    0.284  201.779   46.744    3.680    0.408
  479.402    0.252  202.472   52.366    3.728    0.389
  479.652    0.232  202.949   57.260    3.791    0.399
  479.902    0.210  203.633   62.944    3.841    0.407
  480.152    0.195  204.007   81.841    3.870    0.409
  480.402    0.176  204.486   92.442    3.870    0.411
  480.652    0.142  204.229   96.410    3.849    0.418
  480.902    0.129  204.199   96.941    3.786    0.429
  481.152    0.138  204.673  100.480    3.745    0.462
  481.402    0.184  205.881  104.690    3.752    0.479
  481.652    0.164  207.082  102.273    3.774    0.516
  481.902    0.177  209.226   96.594    3.816    0.511
  482.152    0.189  211.264   92.824    3.881    0.486
  482.402    0.186  217.255   92.984    3.924    0.477
  482.652    0.172  222.619  100.269    2.839    0.541
  482.902    0.179  219.465  106.876    2.657    0.589
  483.152    0.172  217.446  113.487    2.509    0.631
  483.402    0.163  215.117  120.587    2.334    0.630
  483.652    0.178  214.346  119.459    2.117    0.594
  483.902    0.189  213.676  125.821    2.082    0.597
  484.152    0.204  214.675  129.791    2.213    0.615
  484.402    0.218  216.723  124.421    2.410    0.589
  484.652    0.202  218.436  116.660    2.759    0.557
  484.902    0.207  220.585  104.223    3.060    0.459
  485.152    0.193  222.617   93.754    3.408    0.475
  485.402    0.191  225.593   96.373    3.609    0.501
  485.652    0.195  226.071   98.314    3.603    0.510
  485.902    0.221  224.053  100.315    3.623    0.524
  486.152    0.264  217.772   97.404    3.570    0.558
  486.402    0.236  212.531   88.535    3.422    0.536
  486.652    0.218  208.535   78.743    3.410    0.554
  486.902    0.204  205.686   69.194    3.545    0.477
  487.152    0.251  201.688   64.625    3.734    0.495
  487.402    0.261  199.154   65.714    3.833    0.517
  487.652    0.257  198.588   66.172    3.798    0.545
  487.902    0.261  198.556   66.086    3.600    0.510
  488.152    0.251  199.027   69.325    3.419    0.466
  488.402    0.233  200.131   71.689    3.381    0.473
  488.652    0.195  202.798   76.029    3.357    0.454
  488.902    0.180  206.495   84.294    3.369    0.471
  489.152    0.216  211.346   90.842    3.420    0.496
  489.402    0.234  213.068   86.273    3.472    0.534
  489.652    0.246  213.441   81.582    3.550    0.533
  489.902    0.267  213.926   77.437    3.711    0.501
  490.152    0.260  213.879   73.791    3.967    0.502
  490.402    0.258  214.047   72.478    4.409    0.517
