~VERSION INFORMATION
 VERS.                 2.0:   CWLS LOG ASCII STANDARD -VERSION 2.0
 WRAP.                  NO:   ONE LINE PER DEPTH STEP
~WELL INFORMATION BLOCK
#MNEM.UNIT           DATA                    DESCRIPTION OF MNEMONIC
#---------    -------------------            -------------------------------
# Generated from Intellog Unique Number	CW_70_72/WELL/3032
NULL.         -999.25                        : NULL_VALUE
WELL.         DECALTA ET AL SMITH 11-27      : Well_name    - WELL              
LOC .         11-27-070-01W5                 : Location     - LOCATION          
UWI .         00/11-27-070-01W5/0            : Uwi          - UNIQUE WELL ID    
ENTR.         JAYE                           : Entered      - ENTERED BY        
SRVC.         SCHLUMBERGER                   : Scn          - SERVICE COMPANY   
DATE.         7 FEB 78                       : Date         - LOG DATE          
STRT.M        384.048                        : top_depth    - START DEPTH       
STOP.M        634.048                        : bot_depth    - STOP DEPTH        
STEP.M        0.25                           : increment    - STEP LENGTH       
~CURVE INFORMATION BLOCK
#MNEM UNIT       ERCB CURVE CODE    CURVE DESCRIPTION
#-----------   ------------------   ----------------------------------
DEPT.M        00 001 00 00         : DEPTH        - DEPTH                       
ILD .OHMM     00 120 00 00         : RESD         - DEEP RESISTIVITY (DIL)      
CALI.MM       00 280 01 00         : CAL          - CALIPER                     
GR  .API      00 310 00 00         : GR           - GAMMA RAY                   
NPHI.V/V      00 330 00 00         : PHIN         - NEUTRON POROSITY (SANDSTONE)
DPHI.V/V      00 890 00 00         : PHID         - DENSITY POROSITY (SANDSTONE)
~PARAMETER INFORMATION       
#MNEM.UNIT           DATA             DESCRIPTION OF MNEMONIC
#---------         -----------     ------------------------------
GL  .M        559.918              : gl           - GROUND LEVEL ELEVATION      
EREF.M        562.966              : kb           - ELEVATION OF DEPTH REFERENCE
DATM.M        559.918              : datum        - DATUM ELEVATION             
TDD .M        642.214              : tdd          - TOTAL DEPTH DRILLER         
RUN .         ONE                  : Run          - RUN NUMBER                  
ENG .         GUNN                 : Engineer     - RECORDING ENGINEER          
WIT .         WALLGREN             : Witness      - WITNESSED BY                
BASE.         EDM                  : Branch       - HOME BASE OF LOGGING UNIT   
MUD .         GEL CHEM             : Mud_type     - MUD TYPE                    
MATR.         SANDSTONE            : Logunit      - NEUTRON MATRIX              
TMAX.C        -17.7778             : BHT          - MAXIMUM RECORDED TEMPERATURE
BHTD.M        641.604              : BHTDEP       - MAXIMUM RECORDED TEMPERATURE
RMT .C        15.5556              : MDTP         - TEMPERATURE OF MUD          
MUDD.KG/M     1152                 : MWT          - MUD DENSITY                 
NEUT.         1                    : NEUTRON      - NEUTRON TYPE                
RESI.         0                    : RESIST       - RESISTIVITY TYPE            
RM  .OHMM     2.61                 : RM           - RESISTIVITY OF MUD          
RMC .OHMM     0.25                 : RMC          - RESISTIVITY OF MUD CAKE     
RMF .OHMM     1.93                 : RMF          - RESISTIVITY OF MUD FILTRATE 
SUFT.C        -17.7778             : SUFT         - SURFACE TEMPERATURE         
~A  DEPTH     RESD      CAL       GR     PHIN     PHID
# ...
  603.048    6.402  153.152  109.339    0.345    0.158
  603.298    6.799  158.656  108.872    0.359    0.151
  603.548    7.330  164.676  106.096    0.364    0.146
  603.798    7.684  163.354  100.601    0.346    0.130
  604.048    7.995  160.131   97.710    0.325    0.148
  604.298    8.288  161.430   98.227    0.332    0.164
  604.548    8.787  164.622   99.556    0.335    0.129
  604.798    9.261  166.664  100.444    0.330    0.109
  605.048    9.855  167.541  100.341    0.342    0.095
  605.298    9.643  168.105   94.473    0.333    0.064
  605.548    9.039  168.772   86.310    0.299    0.030
  605.798    8.193  169.021   96.317    0.293    0.060
  606.048    7.412  169.261  111.411    0.349    0.120
  606.298    6.782  168.778  124.890    0.387    0.148
  606.548    6.501  168.715  126.712    0.418    0.146
  606.798    7.275  168.647  118.982    0.392    0.119
  607.048    8.155  168.366  104.000    0.386    0.106
  607.298    8.206  168.091   99.121    0.372    0.077
  607.548    7.493  168.456   97.097    0.340    0.057
  607.798    6.742  168.803  111.817    0.315    0.022
  608.048    6.021  169.264  130.137    0.337    0.098
  608.298    5.612  170.356  138.843    0.404    0.150
  608.548    5.764  171.328  131.239    0.427    0.123
  608.798    6.202  172.745  124.623    0.418    0.089
  609.048    6.046  172.042  115.901    0.405    0.059
  609.298    5.439  169.764  109.104    0.369    0.069
  609.548    4.732  166.557   98.768    0.337    0.142
  609.798    4.195  165.545   88.558    0.315    0.170
  610.048    3.874  165.470   79.217    0.329    0.190
  610.298    3.748  165.932   74.649    0.334    0.208
  610.548    3.814  166.601   83.852    0.322    0.225
  610.798    4.058  167.058   83.998    0.316    0.215
  611.048    4.254  167.094   83.030    0.314    0.215
  611.298    4.055  165.564   85.160    0.313    0.182
  611.548    3.938  163.498   89.156    0.320    0.171
  611.798    3.970  161.541   93.893    0.321    0.171
  612.048    4.240  165.045   96.764    0.321    0.174
  612.298    4.571  168.338  101.441    0.317    0.173
  612.548    4.927  168.384  104.935    0.312    0.162
  612.798    4.680  167.890  107.873    0.300    0.135
  613.048    4.305  167.406   98.716    0.327    0.133
  613.298    3.991  165.776   86.149    0.333    0.161
  613.548    3.790  164.130   78.360    0.333    0.187
  613.798    3.653  162.174   84.088    0.329    0.202
  614.048    3.628  160.525   88.139    0.318    0.168
  614.298    3.678  158.889   91.266    0.307    0.161
  614.548    3.885  158.712   93.767    0.307    0.171
  614.798    4.196  159.277   97.388    0.315    0.178
  615.048    4.582  160.152  101.382    0.316    0.174
  615.298    5.051  162.403  105.309    0.317    0.121
  615.548    6.090  164.855   96.155    0.315    0.110
  615.798    7.166  166.361   80.799    0.303    0.103
  616.048    8.308  164.933   67.360    0.287    0.064
  616.298    9.597  162.975   54.484    0.270    0.034
  616.548   10.500  161.329   59.593    0.244   -0.006
  616.798   10.545  160.529   79.835    0.223    0.022
  617.048    8.659  161.732   92.942    0.246    0.061
  617.298    7.271  162.396  104.935    0.313    0.103
  617.548    5.796  162.430  109.547    0.331    0.135
  617.798    5.215  162.478  106.468    0.317    0.167
  618.048    5.345  162.202  105.250    0.332    0.161
  618.298    5.699  162.128  113.959    0.321    0.141
  618.548    6.086  162.270  118.942    0.313    0.127
  618.798    6.204  163.463  124.236    0.312    0.114
  619.048    6.048  167.393  129.591    0.346    0.105
  619.298    5.862  166.485  122.670    0.341    0.120
  619.548    5.736  164.315  113.761    0.315    0.155
  619.798    5.633  162.778  108.266    0.306    0.140
  620.048    5.711  161.035  115.232    0.313    0.148
  620.298    5.986  160.238  122.387    0.316    0.171
  620.548    6.322  161.214  121.667    0.317    0.115
  620.798    6.690  163.354  120.261    0.313    0.107
  621.048    6.909  164.768  122.524    0.304    0.095
  621.298    6.862  165.323  124.653    0.288    0.091
  621.548    6.553  166.097  126.040    0.291    0.102
  621.798    6.131  166.133  122.463    0.307    0.141
  622.048    5.662  165.857  105.803    0.309    0.118
  622.298    5.190  164.954   87.716    0.297    0.102
  622.548    4.626  163.629   77.012    0.278    0.109
  622.798    4.304  161.458   62.706    0.247    0.123
  623.048    4.020  159.079   92.128    0.221    0.138
  623.298    3.748  159.330  118.940    0.234    0.129
  623.548    3.632  163.043  133.042    0.276    0.109
  623.798    3.773  169.068  135.857    0.371    0.098
  624.048    3.984  170.897  136.994    0.426    0.084
  624.298    4.287  169.676  141.357    0.461    0.106
  624.548    4.752  168.874  142.871    0.401    0.107
  624.798    5.123  168.701  149.899    0.356    0.098
  625.048    4.893  168.000  164.745    0.321    0.126
  625.298    4.468  167.830  169.418    0.355    0.140
  625.548    3.773  167.668  173.845    0.383    0.119
  625.798    3.133  168.122  177.651    0.386    0.094
  626.048    2.976  168.155  186.542    0.386    0.065
  626.298    3.190  167.777  192.767    0.389    0.024
  626.548    3.471  167.499  194.714    0.404    0.069
  626.798    3.906  168.796  191.882    0.421    0.117
  627.048    4.346  169.261  182.478    0.410    0.102
  627.298    4.809  168.989  157.818    0.392    0.081
  627.548    4.038  168.914  143.329    0.387    0.089
  627.798    2.512  168.957  139.072    0.402    0.094
  628.048    1.767  168.569  138.852    0.431    0.024
  628.298    1.490  168.510  140.732    0.421   -0.001
  628.548    1.874  168.339  144.475    0.403   -0.004
  628.798    2.206  167.856  147.784    0.392    0.074
  629.048    2.590  167.683  150.165    0.378    0.107
  629.298    3.141  167.405  151.613    0.405    0.075
  629.548    3.738  167.235  149.899    0.420    0.029
  629.798    3.523  167.269  143.598    0.431    0.065
  630.048    2.792  166.677  136.426    0.440    0.101
  630.298    2.622  166.611  132.977    0.444    0.092
  630.548    3.227  166.121  129.156    0.447    0.059
  630.798    3.524  165.949  124.959    0.442    0.043
  631.048    3.715  166.201  114.129    0.424    0.076
  631.298    3.582  165.925   87.359    0.395    0.087
  631.548    3.597  165.436   41.179    0.377    0.075
  631.798    4.070  164.110   30.225    0.360    0.085
  632.048    4.727  161.838   23.862    0.372    0.113
  632.298    6.175  161.353   21.218    0.385    0.102
  632.548    8.837  160.763   19.814    0.320    0.073
  632.798   13.934  160.485   19.773    0.193    0.040
  633.048   21.565  159.790   25.379    0.161    0.001
  633.298   26.441  158.570  111.047    0.139    0.003
  633.548   28.662  157.978  120.559    0.142    0.024
  633.798   30.384  158.538  121.637    0.149    0.038
  634.048   30.744  159.527  122.279    0.143    0.021
