~VERSION INFORMATION
 VERS.                 2.0:   CWLS LOG ASCII STANDARD -VERSION 2.0
 WRAP.                  NO:   ONE LINE PER DEPTH STEP
~WELL INFORMATION BLOCK
#MNEM.UNIT           DATA                    DESCRIPTION OF MNEMONIC
#---------    -------------------            -------------------------------
# Generated from Intellog Unique Number	CS_73_76/WELL/2022
WELL.         AMOCO CANADA PETROLEUM CO.LTD. : Well_name    - WELL
LOC .         00/10-19-073-04W4/0            : Location     - LOCATION
UWI .         00/10-19-073-04W4/0            : Uwi          - UNIQUE WELL ID
ENTR.         JOETTE                         : Entered      - ENTERED BY
SRVC.         SCHLUMBERGER                   : Scn          - SERVICE COMPANY
DATE.         05/13/92                       : Date         - LOG DATE
STRT.M        300                            : top_depth    - START DEPTH
STOP.M        470                            : bot_depth    - STOP DEPTH
STEP.M        0.25                           : increment    - STEP LENGTH
 NULL. -999.2500:NULL Value
~CURVE INFORMATION BLOCK
#MNEM UNIT       ERCB CURVE CODE    CURVE DESCRIPTION
#-----------   ------------------   ----------------------------------
DEPT.M        00 001 00 00         : DEPTH        - DEPTH
CALI.MM       00 280 01 00         : CAL          - CALIPER
GR  .API      00 310 00 00         : GR           - GAMMA RAY
NPHI.V/V      00 330 00 00         : PHIN         - NEUTRON POROSITY (SANDSTONE)
DPHI.V/V      00 890 00 00         : PHID         - DENSITY POROSITY (SANDSTONE)
ILD .OHMM     00 120 00 00         : RESD         - DEEP RESISTIVITY (DIL)
~PARAMETER INFORMATION
#MNEM.UNIT           DATA             DESCRIPTION OF MNEMONIC
#---------         -----------     ------------------------------
GL  .M        630                  : gl           - GROUND LEVEL ELEVATION
EREF.M        634.4                : kb           - ELEVATION OF DEPTH REFERENCE
DATM.M        634.4                : datum        - DATUM ELEVATION
TDD .M        475.7                : tdd          - TOTAL DEPTH DRILLER
RUN .         ONE                  : Run          - RUN NUMBER
ENG .         BILL                 : Engineer     - RECORDING ENGINEER
WIT .         JIM                  : Witness      - WITNESSED BY
MUD .         GEL                  : Mud_type     - MUD TYPE
MATR.         SANDSTONE            : Logunit      - NEUTRON MATRIX
TMAX.C        20                   : BHT          - MAXIMUM RECORDED TEMPERATURE
BHTD.M        475.7                : BHTDEP       - MAXIMUM RECORDED TEMPERATURE
MATR.         1                    : LOGUNIT      - NEUTRON MATRIX
RMT .C        17                   : MDTP         - TEMPERATURE OF MUD
NEUT.         1                    : NEUTRON      - NEUTRON TYPE
RESI.         0                    : RESIST       - RESISTIVITY TYPE
RMC .OHMM     6.3                  : RMC          - RESISTIVITY OF MUD CAKE
RMF .OHMM     5.3                  : RMF          - RESISTIVITY OF MUD FILTRATE
SUFT.C        15                   : SUFT         - SURFACE TEMPERATURE
~A  DEPTH      CAL       GR     PHIN     PHID     RESD
# ...
  373.000  219.246   56.548    0.469    0.348    1.614
  373.250  217.371   59.858    0.470    0.341    1.617
  373.500  216.497   59.283    0.470    0.342    1.593
  373.750  217.711   56.253    0.465    0.348    1.566
  374.000  221.013   53.223    0.463    0.354    1.485
  374.250  223.313   50.819    0.465    0.358    1.463
  374.500  223.483   52.174    0.463    0.354    1.467
  374.750  222.609   56.034    0.456    0.346    1.498
  375.000  219.647   61.173    0.453    0.339    1.559
  375.250  216.685   62.528    0.454    0.340    1.562
  375.500  213.765   62.604    0.458    0.346    1.596
  375.750  213.850   62.732    0.463    0.352    1.599
  376.000  214.063   62.808    0.466    0.354    1.575
  376.250  214.233   65.492    0.467    0.351    1.550
  376.500  214.445   66.796    0.467    0.343    1.584
  376.750  213.486   66.898    0.467    0.331    1.680
  377.000  213.656   65.747    0.467    0.325    1.714
  377.250  213.826   64.597    0.467    0.324    1.752
  377.500  214.039   65.325    0.470    0.324    1.754
  377.750  213.164   69.812    0.472    0.318    1.727
  378.000  212.290   76.830    0.473    0.306    1.639
  378.250  212.460   78.185    0.472    0.302    1.582
  378.500  215.762   73.902    0.470    0.323    1.557
  378.750  219.107   68.391    0.465    0.337    1.560
  379.000  220.321   65.310    0.460    0.331    1.594
  379.250  216.272   62.907    0.461    0.327    1.598
  379.500  215.441   64.262    0.473    0.327    1.632
  379.750  215.568   66.869    0.481    0.319    1.667
  380.000  218.870   70.806    0.484    0.315    1.672
  380.250  217.996   73.363    0.483    0.306    1.707
  380.500  216.078   73.465    0.482    0.302    1.713
  380.750  217.335   70.460    0.479    0.308    1.747
  381.000  220.637   70.562    0.477    0.316    1.818
  381.250  222.937   73.144    0.482    0.314    2.001
  381.500  224.066   76.404    0.493    0.301    2.204
  381.750  222.148   80.264    0.505    0.285    2.290
  382.000  219.229   82.872    0.505    0.270    2.474
  382.250  218.355   86.783    0.500    0.266    2.574
  382.500  219.569   87.461    0.495    0.269    2.627
  382.750  221.784   89.442    0.491    0.260    2.684
  383.000  223.041   91.449    0.490    0.239    2.691
  383.250  222.209   88.419    0.481    0.245    2.701
  383.500  219.247   87.894    0.470    0.262    2.705
  383.750  218.373   88.022    0.471    0.279    2.715
  384.000  222.676   89.351    0.473    0.281    2.720
  384.250  227.065   91.959    0.485    0.273    2.727
  384.500  226.191   93.313    0.501    0.269    2.732
  384.750  223.186   92.814    0.509    0.272    2.790
  385.000  221.268   93.517    0.510    0.274    2.799
  385.250  220.437   94.872    0.507    0.270    2.804
  385.500  221.693   94.348    0.503    0.264    2.869
  385.750  223.866   89.438    0.497    0.254    2.928
  386.000  227.168   88.313    0.486    0.253    2.934
  386.250  232.643   90.269    0.478    0.256    3.056
  386.500  232.813   90.997    0.472    0.253    3.117
  386.750  228.765   87.967    0.471    0.248    3.184
  387.000  222.671   84.937    0.471    0.248    3.251
  387.250  220.710   82.559    0.476    0.249    3.323
  387.500  224.055   83.262    0.485    0.257    3.333
  387.750  227.442   84.617    0.492    0.256    3.339
  388.000  227.569   86.623    0.497    0.252    3.286
  388.250  228.783   88.605    0.510    0.251    3.236
  388.500  227.909   89.959    0.512    0.251    3.183
  388.750  228.079   91.314    0.508    0.252    3.075
  389.000  231.423   94.574    0.509    0.255    2.972
  389.250  232.552   95.928    0.521    0.260    2.818
  389.500  232.765   94.126    0.535    0.264    2.825
  389.750  229.803   93.601    0.540    0.265    2.831
  390.000  224.710   94.956    0.542    0.259    2.947
  390.250  212.395   98.868    0.537    0.246    3.008
  390.500  212.564   96.464    0.530    0.234    3.129
  390.750  213.736   94.035    0.490    0.232    3.198
  391.000  218.125   94.111    0.480    0.239    3.268
  391.250  222.513   95.517    0.486    0.241    3.276
  391.500  226.817   91.835    0.493    0.246    3.284
  391.750  228.073   88.805    0.494    0.238    3.354
  392.000  228.243   88.255    0.489    0.232    3.363
  392.250  228.413   89.610    0.481    0.228    3.369
  392.500  227.539   94.749    0.476    0.226    3.382
  392.750  227.666   96.730    0.475    0.227    3.388
  393.000  228.923   97.458    0.475    0.229    3.395
  393.250  230.094   98.187    0.478    0.225    3.405
  393.500  230.307   99.541    0.485    0.222    3.478
  393.750  230.434  100.896    0.494    0.219    3.423
  394.000  231.691  102.928    0.498    0.218    3.372
  394.250  231.818  103.030    0.500    0.219    3.315
  394.500  232.116  103.132    0.508    0.229    3.206
  394.750  232.158  101.330    0.509    0.236    3.095
  395.000  232.328   98.926    0.503    0.245    2.933
  395.250  232.541   99.028    0.495    0.250    2.732
  395.500  232.753  100.408    0.496    0.246    2.687
  395.750  232.838  104.243    0.504    0.233    2.597
  396.000  232.007  109.382    0.516    0.225    2.604
  396.250  232.219  106.953    0.517    0.226    2.659
  396.500  232.432  107.707    0.518    0.227    2.714
  396.750  232.517  108.435    0.524    0.227    2.772
  397.000  231.685  106.006    0.531    0.223    2.779
  397.250  231.898  106.108    0.536    0.224    2.790
  397.500  231.983  107.514    0.542    0.234    2.743
  397.750  232.152  108.242    0.545    0.241    2.702
  398.000  231.363  107.692    0.543    0.254    2.707
  398.250  231.448  109.673    0.534    0.263    2.715
  398.500  231.618  106.017    0.517    0.267    2.720
  398.750  230.829  101.108    0.504    0.258    2.782
  399.000  229.870   94.920    0.478    0.251    2.839
  399.250  229.039   91.890    0.455    0.252    2.898
  399.500  229.166   88.885    0.450    0.257    2.905
  399.750  228.335   87.108    0.446    0.275    2.914
  400.000  228.462   85.331    0.453    0.291    2.921
  400.250  226.544   83.554    0.463    0.296    2.929
  400.500  224.669   83.656    0.483    0.286    2.831
  400.750  220.662   86.263    0.506    0.275    2.784
  401.000  218.744   88.871    0.516    0.272    2.642
  401.250  218.872   90.852    0.511    0.272    2.600
  401.500  219.084   92.833    0.504    0.269    2.605
  401.750  220.298   92.935    0.503    0.286    2.764
  402.000  217.379   90.506    0.501    0.286    2.770
  402.250  215.376   83.718    0.499    0.276    2.827
  402.500  214.502   80.688    0.483    0.274    2.785
  402.750  214.714   83.922    0.470    0.284    2.789
  403.000  215.928   87.181    0.464    0.298    2.694
  403.250  216.098   87.283    0.454    0.325    2.509
  403.500  215.224   83.601    0.430    0.357    2.381
  403.750  214.350   74.933    0.439    0.387    2.297
  404.000  213.476   71.277    0.472    0.349    2.219
  404.250  213.646   70.126    0.487    0.331    2.109
  404.500  214.817   69.602    0.500    0.319    2.074
  404.750  219.206   70.957    0.495    0.322    2.039
  405.000  222.508   76.696    0.478    0.321    2.046
  405.250  222.678   78.051    0.462    0.312    2.088
  405.500  221.804   78.153    0.456    0.297    2.174
  405.750  217.840   80.761    0.455    0.289    2.179
  406.000  215.922   85.299    0.456    0.285    2.105
  406.250  215.006   84.774    0.460    0.290    1.960
  406.500  216.262   81.092    0.462    0.300    1.824
  406.750  217.434   77.410    0.467    0.306    1.794
  407.000  218.690   73.779    0.469    0.314    1.800
  407.250  219.904   73.255    0.470    0.317    1.803
  407.500  220.032   72.756    0.470    0.320    1.878
  407.750  221.331   72.180    0.471    0.320    1.953
  408.000  221.416   71.681    0.473    0.311    2.032
  408.250  221.671   71.157    0.476    0.303    2.075
  408.500  221.756   71.259    0.470    0.294    2.162
  408.750  222.011   71.987    0.464    0.290    2.206
  409.000  218.963   73.342    0.460    0.284    2.295
  409.250  213.956   75.349    0.454    0.275    2.301
