~VERSION INFORMATION
 VERS.                 2.0:   CWLS LOG ASCII STANDARD -VERSION 2.0
 WRAP.                  NO:   ONE LINE PER DEPTH STEP
~WELL INFORMATION BLOCK
#MNEM.UNIT           DATA                    DESCRIPTION OF MNEMONIC
#---------    -------------------            -------------------------------
# Generated from Intellog Unique Number	CW_76_78/WELL/2587
WELL.         SCURRY ET AL MISTAHAE          : Well_name    - WELL
LOC .         00/13-06-078-01W5/0            : Location     - LOCATION
UWI .         00/13-06-078-01W5/0            : Uwi          - UNIQUE WELL ID
ENTR.         MAX                            : Entered      - ENTERED BY
SRVC.         WESTERN ATLAS                  : Scn          - SERVICE COMPANY
STRT.M        330                            : top_depth    - START DEPTH
STOP.M        585                            : bot_depth    - STOP DEPTH
STEP.M        0.25                           : increment    - STEP LENGTH
 NULL. -999.2500:NULL Value
~CURVE INFORMATION BLOCK
#MNEM UNIT       ERCB CURVE CODE    CURVE DESCRIPTION
#-----------   ------------------   ----------------------------------
DEPT.M        00 001 00 00         : DEPTH        - DEPTH
ILD .OHMM     00 120 00 00         : RESD         - DEEP RESISTIVITY (DIL)
NPHI.V/V      00 330 00 00         : PHIN         - NEUTRON POROSITY (SANDSTONE)
DPHI.V/V      00 890 00 00         : PHID         - DENSITY POROSITY (SANDSTONE)
CALI.MM       00 280 01 00         : CAL          - CALIPER
GR  .API      00 310 00 00         : GR           - GAMMA RAY
~PARAMETER INFORMATION
#MNEM.UNIT           DATA             DESCRIPTION OF MNEMONIC
#---------         -----------     ------------------------------
GL  .M        633.3                : gl           - GROUND LEVEL ELEVATION
EREF.M        637.67               : kb           - ELEVATION OF DEPTH REFERENCE
DATM.M        633.3                : datum        - DATUM ELEVATION
TDD .M        611                  : tdd          - TOTAL DEPTH DRILLER
RUN .         ONE                  : Run          - RUN NUMBER
ENG .         BILL                 : Engineer     - RECORDING ENGINEER
WIT .         JIM                  : Witness      - WITNESSED BY
MUD .         GEL                  : Mud_type     - MUD TYPE
MATR.         SANDSTONE            : Logunit      - NEUTRON MATRIX
TMAX.C        29                   : BHT          - MAXIMUM RECORDED TEMPERATURE
BHTD.M        611                  : BHTDEP       - MAXIMUM RECORDED TEMPERATURE
RMT .C        17                   : MDTP         - TEMPERATURE OF MUD
MUDD.KG/M     1220                 : MWT          - MUD DENSITY
NEUT.         1                    : NEUTRON      - NEUTRON TYPE
RESI.         0                    : RESIST       - RESISTIVITY TYPE
RM  .OHMM     3.7                  : RM           - RESISTIVITY OF MUD
RMC .OHMM     2                    : RMC          - RESISTIVITY OF MUD CAKE
RMF .OHMM     4                    : RMF          - RESISTIVITY OF MUD FILTRATE
SUFT.C        -10                  : SUFT         - SURFACE TEMPERATURE
~A  DEPTH     RESD     PHIN     PHID      CAL       GR
# ...
  549.000    4.632    0.382    0.209  202.789  109.115
  549.250    4.888    0.382    0.206  202.765  110.270
  549.500    5.158    0.377    0.183  203.716  109.379
  549.750    5.542    0.369    0.133  205.151  100.892
  550.000    5.693    0.340    0.026  203.660   95.032
  550.250    5.953    0.344    0.044  202.669   95.018
  550.500    6.170    0.369    0.097  202.161  104.355
  550.750    6.224    0.378    0.172  203.103  111.939
  551.000    6.166    0.377    0.179  205.512  116.598
  551.250    6.000    0.376    0.191  208.416  113.664
  551.500    5.891    0.371    0.182  209.370   93.484
  551.750    5.942    0.359    0.160  207.398   82.658
  552.000    6.103    0.329    0.127  202.499   80.301
  552.250    6.617    0.340    0.115  198.582   83.797
  552.500    6.736    0.366    0.153  194.175   91.673
  552.750    6.794    0.365    0.184  193.177   90.781
  553.000    6.791    0.364    0.187  196.563   87.554
  553.250    6.729    0.395    0.280  203.843   83.156
  553.500    6.607    0.414    0.301  203.819   81.385
  553.750    6.909    0.397    0.278  203.306   81.371
  554.000    7.292    0.391    0.262  204.253   80.188
  554.250    7.557    0.417    0.392  204.723   81.929
  554.500    7.222    0.441    0.429  206.161   86.005
  554.750    6.778    0.451    0.387  208.079   84.822
  555.000    6.362    0.435    0.320  206.108   84.223
  555.250    6.025    0.427    0.265  203.162   85.084
  555.500    5.758    0.415    0.241  202.165   86.825
  555.750    5.502    0.405    0.286  203.602   90.902
  556.000    5.306    0.427    0.291  206.985   94.687
  556.250    4.847    0.450    0.244  207.446   99.055
  556.500    4.427    0.455    0.197  208.396  107.223
  556.750    4.347    0.440    0.177  209.840  111.298
  557.000    4.307    0.412    0.138  212.252  103.980
  557.250    4.586    0.391    0.096  211.735   95.784
  557.500    5.108    0.347    0.063  211.228   87.292
  557.750    5.846    0.329    0.087  209.740   87.864
  558.000    6.512    0.329    0.133  209.720   90.772
  558.250    6.628    0.356    0.154  210.180   98.064
  558.500    6.508    0.379    0.156  210.151  105.938
  558.750    6.333    0.400    0.149  210.133  109.723
  559.000    5.837    0.398    0.161  211.568  108.244
  559.250    5.628    0.386    0.200  210.084  108.526
  559.500    5.628    0.382    0.207  212.008  107.925
  559.750    5.625    0.367    0.184  213.933  106.744
  560.000    6.044    0.351    0.168  210.984  101.178
  560.250    6.612    0.346    0.193  211.451   92.686
  560.500    7.041    0.363    0.218  214.344   94.425
  560.750    7.364    0.371    0.238  216.269   97.627
  561.000    7.631    0.368    0.236  216.732   97.319
  561.250    7.839    0.352    0.221  213.789   94.090
  561.500    8.272    0.343    0.232  206.455   83.556
  561.750    8.968    0.336    0.251  205.947   79.451
  562.000   10.450    0.195    0.251  209.823   73.591
  562.250   11.229    0.130    0.024  209.793   65.394
  562.500   13.323    0.119   -0.011  209.283   53.983
  562.750   14.841    0.180   -0.025  208.772   60.104
  563.000   16.382    0.219    0.119  208.265   72.072
  563.250   16.377    0.281    0.178  208.729   78.779
  563.500   14.694    0.306    0.183  208.699   82.271
  563.750   11.726    0.319    0.184  208.679   86.348
  564.000    9.356    0.326    0.183  208.655   90.425
  564.250    9.356    0.338    0.200  209.603   97.425
  564.500    8.938    0.351    0.225  210.067  103.838
  564.750    8.855    0.354    0.232  209.553  104.702
  565.000    8.933    0.341    0.207  208.558   91.827
  565.250    9.427    0.327    0.198  208.042   87.137
  565.500   10.220    0.323    0.204  207.050   85.079
  565.750   10.689    0.324    0.225  204.589   82.432
  566.000   10.494    0.329    0.231  204.562   78.328
  566.250    9.587    0.336    0.238  207.948   74.806
  566.500    7.789    0.349    0.249  210.850   76.254
  566.750    7.648    0.352    0.249  210.827   80.330
  567.000    7.645    0.337    0.240  209.336   83.240
  567.250    7.782    0.320    0.233  208.829   83.224
  567.500    7.993    0.318    0.235  206.854   81.453
  567.750    8.134    0.322    0.247  204.885   78.520
  568.000    8.281    0.332    0.253  204.862   74.123
  568.250    8.429    0.337    0.274  208.732   75.274
  568.500    8.128    0.334    0.261  207.731   77.015
  568.750    7.629    0.331    0.239  206.250   80.214
  569.000    7.357    0.327    0.225  205.736   82.830
  569.250    7.094    0.319    0.233  206.690   83.691
  569.500    6.779    0.307    0.208  206.666   84.849
  569.750    6.596    0.298    0.204  207.608   86.586
  570.000    6.418    0.298    0.201  208.562   88.030
  570.250    6.302    0.301    0.192  210.490   89.771
  570.500    6.187    0.306    0.183  210.463   92.679
  570.750    6.128    0.319    0.169  209.466   94.128
  571.000    6.128    0.354    0.217  207.004   94.406
  571.250    6.071    0.396    0.313  205.516   90.007
  571.500    6.069    0.438    0.371  202.577   90.577
  571.750    6.067    0.398    0.351  204.988  115.987
  572.000    6.065    0.356    0.270  210.807  135.261
  572.250    6.118    0.350    0.206  209.809  125.893
  572.500    6.117    0.346    0.207  209.299  120.328
  572.750    6.170    0.337    0.183  209.759  113.593
  573.000    6.003    0.329    0.163  210.226  101.011
  573.250    5.534    0.321    0.149  210.683   96.614
  573.500    4.965    0.316    0.131  211.150   93.093
  573.750    4.660    0.318    0.131  212.098   90.447
  574.000    4.575    0.323    0.137  213.538   90.431
  574.250    4.615    0.331    0.165  214.973   93.633
  574.500    4.827    0.339    0.173  216.411  101.217
  574.750    5.186    0.336    0.133  216.871  100.619
  575.000    5.573    0.330    0.129  216.361   92.128
  575.250    6.320    0.327    0.170  216.337   91.238
  575.500    6.852    0.328    0.196  216.314   92.683
  575.750    7.231    0.334    0.202  217.265   96.175
  576.000    6.848    0.348    0.204  217.722   99.962
  576.250    6.089    0.384    0.201  217.705   97.899
  576.500    4.131    0.400    0.154  218.168   95.547
  576.750    3.511    0.411    0.135  218.626   97.286
  577.000    3.236    0.417    0.155  218.603  102.826
  577.250    3.206    0.416    0.194  218.579  110.408
  577.500    3.264    0.422    0.199  219.043  109.810
  577.750    3.322    0.429    0.205  219.996  106.870
  578.000    3.474    0.430    0.205  219.967  107.152
  578.250    3.350    0.422    0.202  218.488  112.398
  578.500    2.979    0.424    0.187  216.024  114.135
  578.750    1.657    0.423    0.145  215.029  111.201
  579.000    1.749    0.421    0.109  214.516  105.631
  579.250    2.038    0.414    0.090  216.443  107.080
  579.500    2.418    0.414    0.158  219.826  109.402
  579.750    2.895    0.413    0.145  220.777  107.050
  580.000    3.593    0.408    0.121  219.776   99.730
  580.250    4.881    0.346    0.076  218.782   94.164
  580.500    6.003    0.297    0.047  217.784   77.201
  580.750    7.518    0.191    0.026  214.352   61.989
  581.000    9.083    0.160    0.047  209.942   42.394
  581.250   10.875    0.151    0.050  208.454   27.184
  581.500   15.314    0.150    0.050  207.457   20.157
  581.750   22.155    0.150    0.066  206.456   16.925
  582.000   22.960    0.154    0.065  205.946   16.326
  582.250   20.976    0.165    0.070  205.435   16.326
  582.500   17.989    0.178    0.089  205.412   16.296
  582.750   16.434    0.184    0.111  205.878   16.576
  583.000   15.285    0.186    0.118  206.342   18.023
  583.250   15.285    0.188    0.115  205.339   19.761
  583.500   15.003    0.192    0.107  204.341   21.210
  583.750   15.003    0.201    0.102  204.318   20.023
  584.000   14.461    0.215    0.108  204.277   18.551
  584.250   14.072    0.215    0.116  203.781   17.949
  584.500   13.942    0.211    0.117  202.783   18.227
  584.750   14.191    0.214    0.125  203.250   17.045
  585.000   14.576    0.221    0.134  203.226   16.738
