~VERSION INFORMATION
 VERS.                 2.0:   CWLS LOG ASCII STANDARD -VERSION 2.0
 WRAP.                  NO:   ONE LINE PER DEPTH STEP
~WELL INFORMATION BLOCK
#MNEM.UNIT           DATA                    DESCRIPTION OF MNEMONIC
#---------    -------------------            -------------------------------
# Generated from Intellog Unique Number	CW_73_75/WELL/1041
WELL.         11-18-075-23W4                 : Well_name    - WELL
LOC .         00/11-18-075-23W4/0            : Location     - LOCATION
UWI .         00/11-18-075-23W4/0            : Uwi          - UNIQUE WELL ID
ENTR.         JAYE                           : Entered      - ENTERED BY
SRVC.         SCHLUMBERGER                   : Scn          - SERVICE COMPANY
DATE.         23 FEB 77                      : Date         - LOG DATE
STRT.M        408.432                        : top_depth    - START DEPTH
STOP.M        606.432                        : bot_depth    - STOP DEPTH
STEP.M        0.25                           : increment    - STEP LENGTH
 NULL. -999.2500:NULL Value
~CURVE INFORMATION BLOCK
#MNEM UNIT       ERCB CURVE CODE    CURVE DESCRIPTION
#-----------   ------------------   ----------------------------------
DEPT.M        00 001 00 00         : DEPTH        - DEPTH
ILD .OHMM     00 120 00 00         : RESD         - DEEP RESISTIVITY (DIL)
GR  .API      00 310 00 00         : GR           - GAMMA RAY
CALI.MM       00 280 01 00         : CAL          - CALIPER
NPHI.V/V      00 330 00 00         : PHIN         - NEUTRON POROSITY (SANDSTONE)
DPHI.V/V      00 890 00 00         : PHID         - DENSITY POROSITY (SANDSTONE)
~PARAMETER INFORMATION
#MNEM.UNIT           DATA             DESCRIPTION OF MNEMONIC
#---------         -----------     ------------------------------
GL  .M        694.213              : gl           - GROUND LEVEL ELEVATION
EREF.M        698.906              : kb           - ELEVATION OF DEPTH REFERENCE
DATM.M        694.213              : datum        - DATUM ELEVATION
TDD .M        605.942              : tdd          - TOTAL DEPTH DRILLER
RUN .         ONE                  : Run          - RUN NUMBER
ENG .         SEDGWICK             : Engineer     - RECORDING ENGINEER
WIT .         BRAUN                : Witness      - WITNESSED BY
BASE.         EDM                  : Branch       - HOME BASE OF LOGGING UNIT
MUD .         GEL                  : Mud_type     - MUD TYPE
MATR.         SANDSTONE            : Logunit      - NEUTRON MATRIX
TMAX.C        28.8889              : BHT          - MAXIMUM RECORDED TEMPERATURE
BHTD.M        605.942              : BHTDEP       - MAXIMUM RECORDED TEMPERATURE
RMT .C        15.5556              : MDTP         - TEMPERATURE OF MUD
MUDD.KG/M     1104                 : MWT          - MUD DENSITY
NEUT.         1                    : NEUTRON      - NEUTRON TYPE
RESI.         0                    : RESIST       - RESISTIVITY TYPE
RM  .OHMM     5.18                 : RM           - RESISTIVITY OF MUD
RMC .OHMM     3.16                 : RMC          - RESISTIVITY OF MUD CAKE
RMF .OHMM     5.47                 : RMF          - RESISTIVITY OF MUD FILTRATE
SUFT.C        -17.7778             : SUFT         - SURFACE TEMPERATURE
~A  DEPTH     RESD       GR      CAL     PHIN     PHID
# ...
  481.432    4.750  130.269  243.877    0.305    0.191
  481.682    4.634  127.567  244.460    0.303    0.172
  481.932    4.431  130.269  244.818    0.320    0.168
  482.182    4.291  128.870  246.034    0.344    0.167
  482.432    4.280  132.566  247.132    0.372    0.157
  482.682    4.373  149.244  248.659    0.372    0.155
  482.932    4.595  163.189  249.758    0.379    0.164
  483.182    4.737  171.047  248.126    0.378    0.199
  483.432    4.875  175.178  240.083    0.358    0.172
  483.682    4.963  185.520  236.029    0.336    0.170
  483.932    4.978  196.608  235.664    0.367    0.176
  484.182    4.985  181.047  236.133    0.392    0.189
  484.432    5.019  168.280  236.613    0.384    0.200
  484.682    5.071  155.576  236.665    0.385    0.170
  484.932    5.076  133.246  236.077    0.400    0.151
  485.182    5.187  113.894  233.814    0.397    0.163
  485.432    5.212   98.333  223.562    0.361    0.180
  485.682    5.248   94.822  221.199    0.319    0.198
  485.932    5.293   97.837  222.612    0.316    0.216
  486.182    5.260  102.959  224.239    0.277    0.233
  486.432    5.266  110.695  225.242    0.248    0.252
  486.682    5.273  113.332  225.711    0.267    0.250
  486.932    5.280  103.796  225.985    0.292    0.237
  487.182    5.296   94.697  226.032    0.305    0.223
  487.432    5.331   96.714  225.769    0.332    0.210
  487.682    5.367   99.975  225.498    0.381    0.220
  487.932    5.464   96.775  225.659    0.331    0.226
  488.182    5.739   95.129  226.136    0.293    0.086
  488.432    6.453   95.905  227.336    0.238    0.070
  488.682    7.530   91.962  230.229    0.217    0.038
  488.932    9.182   85.411  233.444    0.177    0.004
  489.182   13.895   78.727  234.751    0.161    0.067
  489.432   19.034   68.880  234.491    0.246    0.091
  489.682   18.988   67.546  233.912    0.286    0.130
  489.932   16.103   68.199  232.597    0.343    0.156
  490.182   12.592   70.651  230.960    0.377    0.185
  490.432    9.130   71.368  229.545    0.379    0.213
  490.682    7.545   71.272  228.652    0.350    0.210
  490.932    6.364   70.991  228.188    0.335    0.210
  491.182    5.632   71.083  228.122    0.359    0.211
  491.432    5.266   71.986  228.177    0.372    0.216
  491.682    4.962   72.888  228.021    0.392    0.217
  491.932    4.753   74.036  227.647    0.418    0.227
  492.182    4.619   75.927  227.485    0.428    0.255
  492.432    4.467   84.220  227.432    0.422    0.280
  492.682    4.382   86.363  227.591    0.422    0.275
  492.932    4.347   85.898  227.538    0.428    0.276
  493.182    4.296   83.506  227.481    0.433    0.269
  493.432    4.223   80.739  227.535    0.437    0.243
  493.682    4.174   83.068  227.593    0.432    0.257
  493.932    4.140   88.194  227.643    0.429    0.272
  494.182    4.122   92.761  227.808    0.434    0.266
  494.432    4.119   95.646  227.855    0.436    0.247
  494.682    4.155   88.347  227.900    0.432    0.236
  494.932    4.230   87.259  228.167    0.441    0.232
  495.182    4.378   87.974  228.212    0.422    0.239
  495.432    4.506   86.701  228.068    0.408    0.239
  495.682    4.613   84.931  228.010    0.395    0.244
  495.932    4.626   86.387  228.066    0.400    0.261
  496.182    4.606   91.450  228.112    0.419    0.255
  496.432    4.569   92.041  228.051    0.432    0.238
  496.682    4.575   83.375  228.003    0.366    0.217
  496.932    4.709   84.960  227.948    0.347    0.180
  497.182    4.846   90.394  227.906    0.356    0.143
  497.432    5.008   99.681  227.951    0.374    0.151
  497.682    5.107  109.276  228.109    0.400    0.172
  497.932    5.140  113.904  228.481    0.420    0.174
  498.182    5.015  113.315  228.627    0.440    0.160
  498.432    4.823  114.338  228.888    0.444    0.175
  498.682    4.628  118.039  229.463    0.427    0.186
  498.932    4.473  117.877  230.149    0.414    0.199
  499.182    4.381  119.647  230.951    0.414    0.226
  499.432    4.560  126.014  231.211    0.396    0.195
  499.682    4.914  130.269  231.467    0.373    0.129
  499.932    5.396  121.727  231.516    0.350    0.114
  500.182    5.858  120.457  231.682    0.337    0.127
  500.432    6.760  118.373  231.932    0.337    0.160
  500.682    7.844  111.072  231.887    0.347    0.195
  500.932    7.711  105.574  231.833    0.360    0.210
  501.182    7.344  100.698  232.088    0.373    0.204
  501.432    6.534  100.979  232.671    0.381    0.165
  501.682    5.729  105.356  233.452    0.370    0.134
  501.932    5.116  109.424  234.875    0.337    0.133
  502.182    4.784  113.804  235.975    0.309    0.152
  502.432    4.617  116.878  236.557    0.301    0.161
  502.682    4.555  120.635  236.617    0.322    0.163
  502.932    4.494  122.656  236.659    0.341    0.179
  503.182    4.475  118.709  236.720    0.363    0.171
  503.432    4.472  119.920  236.976    0.384    0.164
  503.682    4.484  121.690  237.658    0.402    0.131
  503.932    4.549  119.857  238.342    0.423    0.146
  504.182    4.588  113.365  239.026    0.425    0.161
  504.432    4.635  112.340  238.967    0.418    0.152
  504.682    4.659  116.533  238.598    0.433    0.155
  504.932    4.681  121.288  234.129    0.416    0.188
  505.182    4.704  125.974  236.284    0.404    0.167
  505.432    4.770  129.608  239.701    0.389    0.183
  505.682    4.875  120.321  231.549    0.368    0.202
  505.932    5.008  112.338  227.812    0.364    0.207
  506.182    5.212   91.744  226.813    0.336    0.181
  506.432    5.576   90.285  226.664    0.320    0.171
  506.682    6.352   91.432  226.818    0.328    0.155
  506.932    7.223   94.757  226.969    0.345    0.110
  507.182    7.959   97.396  227.342    0.325    0.128
  507.432    8.770   99.168  227.813    0.326    0.169
  507.682    9.314  100.500  228.291    0.350    0.186
  507.932    9.309  100.969  228.652    0.347    0.181
  508.182    8.932  102.239  229.016    0.359    0.190
  508.432    8.247  104.072  229.390    0.383    0.214
  508.682    7.447  106.277  229.330    0.411    0.225
  508.932    6.602  111.899  229.494    0.429    0.217
  509.182    6.083  109.012  229.434    0.417    0.201
  509.432    5.689  110.347  229.591    0.398    0.183
  509.682    5.469  115.594  229.856    0.393    0.181
  509.932    5.278  130.049  230.224    0.405    0.193
  510.182    5.169  134.413  230.070    0.416    0.189
  510.432    5.098  152.273  229.801    0.425    0.188
  510.682    5.029  170.380  228.911    0.428    0.205
  510.932    4.989  183.766  228.645    0.416    0.189
  511.182    5.014  211.129  228.484    0.429    0.187
  511.432    5.104  222.157  228.325    0.420    0.180
  511.682    5.206  210.571  229.429    0.401    0.193
  511.932    5.221  197.493  231.271    0.413    0.198
  512.182    5.218  163.917  233.005    0.426    0.194
  512.432    5.214  168.547  233.474    0.428    0.194
  512.682    5.193  170.008  232.904    0.421    0.159
  512.932    5.208  167.366  231.591    0.402    0.162
  513.182    5.272  168.016  229.748    0.378    0.168
  513.432    5.327  175.875  229.059    0.361    0.171
  513.682    5.432  186.712  228.896    0.306    0.175
  513.932    5.480  204.633  229.367    0.267    0.180
  514.182    5.426  224.356  230.471    0.297    0.174
  514.432    5.255  237.432  231.792    0.325    0.132
  514.682    5.127  248.086  233.110    0.347    0.076
  514.932    5.162  263.894  234.100    0.308    0.053
  515.182    5.689  271.068  234.791    0.232    0.038
  515.432    6.256  276.379  234.950    0.214    0.046
  515.682    8.214  224.850  234.571    0.223    0.069
  515.932    9.889  180.714  233.473    0.236    0.119
  516.182   11.753  177.019  232.263    0.263    0.154
  516.432   11.383  165.059  231.156    0.270    0.166
  516.682    8.902  143.410  231.103    0.259    0.180
  516.932    7.170  120.395  231.160    0.237    0.177
  517.182    5.936   92.224  231.306    0.210    0.147
  517.432    5.252   90.018  231.370    0.193    0.120
  517.682    5.704   90.048  231.409    0.190    0.133
