~VERSION INFORMATION
 VERS.                 2.0:   CWLS LOG ASCII STANDARD -VERSION 2.0
 WRAP.                  NO:   ONE LINE PER DEPTH STEP
~WELL INFORMATION BLOCK
#MNEM.UNIT           DATA                    DESCRIPTION OF MNEMONIC
#---------    -------------------            -------------------------------
# Generated from Intellog Unique Number	CW_73_75/WELL/3526
WELL.         G W ET AL SPUR                 : Well_name    - WELL
LOC .         00/11-06-073-01W5/0            : Location     - LOCATION
UWI .         00/11-06-073-01W5/0            : Uwi          - UNIQUE WELL ID
ENTR.         TIM                            : Entered      - ENTERED BY
SRVC.         SCHLUMBERGER                   : Scn          - SERVICE COMPANY
STRT.M        370                            : top_depth    - START DEPTH
STOP.M        615                            : bot_depth    - STOP DEPTH
STEP.M        0.25                           : increment    - STEP LENGTH
 NULL. -999.2500:NULL Value
~CURVE INFORMATION BLOCK
#MNEM UNIT       ERCB CURVE CODE    CURVE DESCRIPTION
#-----------   ------------------   ----------------------------------
DEPT.M        00 001 00 00         : DEPTH        - DEPTH
GR  .API      00 310 00 00         : GR           - GAMMA RAY
CALI.MM       00 280 01 00         : CAL          - CALIPER
NPHI.V/V      00 330 00 00         : PHIN         - NEUTRON POROSITY (SANDSTONE)
ILD .OHMM     00 120 00 00         : RESD         - DEEP RESISTIVITY (DIL)
~PARAMETER INFORMATION
#MNEM.UNIT           DATA             DESCRIPTION OF MNEMONIC
#---------         -----------     ------------------------------
GL  .M        612.1                : gl           - GROUND LEVEL ELEVATION
EREF.M        615.2                : kb           - ELEVATION OF DEPTH REFERENCE
DATM.M        615.2                : datum        - DATUM ELEVATION
TDD .M        624                  : tdd          - TOTAL DEPTH DRILLER
RUN .         ONE                  : Run          - RUN NUMBER
ENG .         BILL                 : Engineer     - RECORDING ENGINEER
WIT .         JIM                  : Witness      - WITNESSED BY
MUD .         GEL                  : Mud_type     - MUD TYPE
MATR.         SANDSTONE            : Logunit      - NEUTRON MATRIX
TMAX.C        28                   : BHT          - MAXIMUM RECORDED TEMPERATURE
BHTD.M        624                  : BHTDEP       - MAXIMUM RECORDED TEMPERATURE
MATR.         1                    : LOGUNIT      - NEUTRON MATRIX
RMT .C        23                   : MDTP         - TEMPERATURE OF MUD
NEUT.         1                    : NEUTRON      - NEUTRON TYPE
RESI.         0                    : RESIST       - RESISTIVITY TYPE
RMC .OHMM     3.417                : RMC          - RESISTIVITY OF MUD CAKE
RMF .OHMM     3.8                  : RMF          - RESISTIVITY OF MUD FILTRATE
SUFT.C        5                    : SUFT         - SURFACE TEMPERATURE
~A  DEPTH       GR      CAL     PHIN     RESD
# ...
  500.500   66.676  144.961    0.405    3.160
  500.750   70.189  144.956    0.401    3.221
  501.000   67.240  143.946    0.395    3.222
  501.250   61.348  143.932    0.393    3.223
  501.500   57.220  143.917    0.388    3.225
  501.750   56.620  143.893    0.384    3.226
  502.000   58.960  143.858    0.384    3.227
  502.250   60.713  143.844    0.388    3.170
  502.500   61.286  143.829    0.394    3.172
  502.750   60.098  143.815    0.405    3.173
  503.000   58.319  143.790    0.405    3.174
  503.250   56.541  143.766    0.398    3.118
  503.500   55.944  143.751    0.393    3.120
  503.750   55.347  143.731    0.391    3.122
  504.000   54.744  143.717    0.398    3.123
  504.250   56.497  144.672    0.405    3.067
  504.500   58.249  145.638    0.409    3.069
  504.750   58.237  146.594    0.402    3.070
  505.000   55.873  147.544    0.396    3.071
  505.250   56.450  147.530    0.390    3.073
  505.500   58.790  148.495    0.389    3.074
  505.750   61.719  148.466    0.392    3.132
  506.000   64.647  149.436    0.396    3.133
  506.250   62.871  149.417    0.401    3.193
  506.500   61.096  149.397    0.394    3.254
  506.750   59.317  150.353    0.390    3.255
  507.000   57.541  150.333    0.385    3.256
  507.250   56.941  150.314    0.389    3.257
  507.500   55.753  150.294    0.395    3.260
  507.750   55.153  150.279    0.394    3.260
  508.000   54.554  150.255    0.389    3.322
  508.250   55.718  150.221    0.390    3.324
  508.500   56.297  150.206    0.396    3.325
  508.750   58.638  150.192    0.400    3.327
  509.000   60.387  150.167    0.393    3.328
  509.250   62.140  151.137    0.381    3.330
  509.500   60.364  152.088    0.386    3.332
  509.750   58.588  153.054    0.399    3.333
  510.000   57.397  154.019    0.399    3.334
  510.250   57.974  155.950    0.397    3.336
  510.500   59.726  156.920    0.394    3.337
  510.750   62.066  157.871    0.392    3.219
  511.000   64.404  157.857    0.396    3.161
  511.250   65.574  157.842    0.399    3.049
  511.500   66.145  158.788    0.411    2.941
  511.750   65.551  159.753    0.420    2.889
  512.000   64.945  159.739    0.427    2.944
  512.250   63.763  159.719    0.431    2.999
  512.500   60.217  159.699    0.424    3.113
  512.750   59.615  159.680    0.420    3.171
  513.000   60.197  159.660    0.408    3.172
  513.250   60.767  159.641    0.399    3.174
  513.500   60.761  159.621    0.391    3.118
  513.750   60.159  159.587    0.393    3.063
  514.000   59.562  160.557    0.397    3.008
  514.250   58.959  160.543    0.403    2.849
  514.500   58.950  160.518    0.413    2.747
  514.750   59.524  161.469    0.418    2.749
  515.000   60.103  161.454    0.418    2.852
  515.250   60.091  161.440    0.413    3.015
  515.500   58.315  162.391    0.403    3.187
  515.750   55.357  162.381    0.396    3.431
  516.000   54.169  162.356    0.419    3.693
  516.250   55.922  162.342    0.428    3.832
  516.500   59.442  162.317    0.377    3.764
  516.750   63.546  162.303    0.382    3.501
  517.000   68.824  162.283    0.390    3.255
  517.250   72.341  163.239    0.398    3.026
  517.500   75.855  163.224    0.401    2.918
  517.750   78.786  163.195    0.403    2.814
  518.000   81.127  163.175    0.401    2.765
  518.250   77.590  163.156    0.400    2.766
  518.500   68.169  163.136    0.399    2.767
  518.750   66.390  163.122    0.398    2.768
  519.000   66.378  163.097    0.398    2.770
  519.250   66.952  163.073    0.399    2.771
  519.500   67.531  163.063    0.419    2.773
  519.750   67.519  163.038    0.422    2.773
  520.000   67.502  163.019    0.421    2.774
  520.250   67.493  162.019    0.419    2.827
  520.500   67.478  162.005    0.418    2.934
  520.750   68.057  161.985    0.414    2.935
  521.000   68.631  160.980    0.413    2.991
  521.250   68.625  160.956    0.413    3.047
  521.500   69.195  159.961    0.413    3.162
  521.750   69.775  159.937    0.412    3.405
  522.000   70.939  159.917    0.411    3.533
  522.250   71.515  160.878    0.404    3.874
  522.500   71.504  161.838    0.396    4.326
  522.750   71.489  162.804    0.383    4.489
  523.000   72.650  163.764    0.355    4.922
  523.250   73.230  163.745    0.312    5.108
  523.500   73.806  164.705    0.328    5.110
  523.750   74.379  165.666    0.357    4.928
  524.000   74.374  166.617    0.379    4.582
  524.250   74.356  166.597    0.400    4.183
  524.500   74.350  166.583    0.407    3.890
  524.750   73.156  166.563    0.393    3.551
  525.000   72.562  167.519    0.378    3.362
  525.250   70.784  167.504    0.384    3.364
  525.500   69.596  167.485    0.399    3.304
  525.750   68.408  167.460    0.396    3.306
  526.000   67.805  167.441    0.388    3.430
  526.250   67.205  167.421    0.379    3.560
  526.500   67.197  167.402    0.383    3.694
  526.750   67.185  167.387    0.381    3.765
  527.000   67.173  167.362    0.361    3.766
  527.250   68.926  167.328    0.330    3.768
  527.500   73.615  167.314    0.352    3.769
  527.750   77.135  168.284    0.381    3.703
  528.000   80.064  168.264    0.396    3.705
  528.250   80.052  168.245    0.407    3.706
  528.500   80.628  169.196    0.405    3.708
  528.750   77.082  169.181    0.394    3.709
  529.000   75.306  169.161    0.392    3.711
  529.250   74.710  169.147    0.397    3.713
  529.500   76.456  169.127    0.406    3.714
  529.750   77.624  169.103    0.419    3.716
  530.000   79.964  169.088    0.420    3.717
  530.250   81.129  169.059    0.418    3.720
  530.500   81.705  169.039    0.413    3.721
  530.750   80.517  169.020    0.412    3.722
  531.000   76.977  169.000    0.412    3.794
  531.250   76.965  168.976    0.411    3.794
  531.500   78.718  168.966    0.410    3.796
  531.750   81.058  168.946    0.407    3.798
  532.000   83.984  168.927    0.408    3.800
  532.250   86.915  168.907    0.413    3.801
  532.500   89.253  168.883    0.412    3.803
  532.750   89.829  168.868    0.404    3.805
  533.000   89.818  168.844    0.399    3.807
  533.250   89.221  168.819    0.404    3.808
  533.500   88.618  168.805    0.405    3.810
  533.750   88.606  168.775    0.399    3.811
  534.000   89.180  168.761    0.389    3.813
  534.250   89.174  168.746    0.394    3.815
  534.500   89.750  168.722    0.414    3.817
  534.750   90.326  168.707    0.411    3.819
  535.000   91.488  168.678    0.410    3.820
  535.250   91.476  168.663    0.406    3.822
  535.500   88.524  167.668    0.404    3.824
  535.750   86.748  167.639    0.396    3.826
  536.000   86.145  167.624    0.387    3.897
  536.250   86.725  167.600    0.380    3.899
  536.500   87.301  166.605    0.387    3.901
  536.750   88.463  166.581    0.401    3.975
  537.000   88.454  166.566    0.404    3.976
  537.250   90.200  165.561    0.401    4.052
  537.500   90.780  165.542    0.396    4.129
  537.750   91.356  165.522    0.393    4.207
  538.000   89.577  164.528    0.387    4.209
  538.250   88.983  164.508    0.384    4.211
  538.500   88.380  164.488    0.376    4.136
  538.750   87.775  163.489    0.384    3.916
  539.000   87.181  163.469    0.403    3.778
  539.250   84.817  162.465    0.400    3.710
  539.500   87.746  162.450    0.389    3.712
  539.750   98.313  162.416    0.383    3.853
  540.000   99.483  162.401    0.380    3.998
  540.250   98.296  162.387    0.389    4.149
  540.500   83.579  162.367    0.405    4.634
  540.750   80.042  161.367    0.415    4.897
  541.000   75.908  161.343    0.440    5.271
  541.250   75.896  161.318    0.428    6.107
  541.500   72.947  162.279    0.394    6.818
  541.750   68.816  163.244    0.371    7.898
  542.000   71.159  164.210    0.321    9.490
  542.250   77.616  164.190    0.305   10.216
  542.500   82.897  164.166    0.294    9.329
  542.750   69.360  165.126    0.283    8.995
  543.000   58.175  166.077    0.272    8.212
  543.250   69.925  167.048    0.259    7.497
  543.500   73.438  168.008    0.278    6.844
  543.750   81.660  167.984    0.347    6.480
