~VERSION INFORMATION
 VERS.                 2.0:   CWLS LOG ASCII STANDARD -VERSION 2.0
 WRAP.                  NO:   ONE LINE PER DEPTH STEP
~WELL INFORMATION BLOCK
#MNEM.UNIT           DATA                    DESCRIPTION OF MNEMONIC
#---------    -------------------            -------------------------------
# Generated from Intellog Unique Number	CS_67_68/WELL/806
WELL.         BURNT LAKE                     : Well_name    - WELL
LOC .         00/10-26-068-04W4/0            : Location     - LOCATION
UWI .         00/10-26-068-04W4/0            : Uwi          - UNIQUE WELL ID
ENTR.         SP                             : Entered      - ENTERED BY
SRVC.         SCHLUMBERGER                   : Scn          - SERVICE COMPANY
STRT.M        365                            : top_depth    - START DEPTH
STOP.M        595                            : bot_depth    - STOP DEPTH
STEP.M        0.25                           : increment    - STEP LENGTH
 NULL. -999.2500:NULL Value
~CURVE INFORMATION BLOCK
#MNEM UNIT       ERCB CURVE CODE    CURVE DESCRIPTION
#-----------   ------------------   ----------------------------------
DEPT.M        00 001 00 00         : DEPTH        - DEPTH
GR  .API      00 310 00 00         : GR           - GAMMA RAY
NPHI.V/V      00 330 00 00         : PHIN         - NEUTRON POROSITY (LIMESTONE)
DPHI.V/V      00 890 00 00         : PHID         - DENSITY POROSITY (LIMESTONE)
ILD .OHMM     00 120 00 00         : RESD         - DEEP RESISTIVITY (DIL)
~PARAMETER INFORMATION
#MNEM.UNIT           DATA             DESCRIPTION OF MNEMONIC
#---------         -----------     ------------------------------
GL  .M        731.85               : gl           - GROUND LEVEL ELEVATION
EREF.M        735.7                : kb           - ELEVATION OF DEPTH REFERENCE
DATM.M        731.85               : datum        - DATUM ELEVATION
TDD .M        600.34               : tdd          - TOTAL DEPTH DRILLER
RUN .         ONE                  : Run          - RUN NUMBER
ENG .         BILL                 : Engineer     - RECORDING ENGINEER
WIT .         JIM                  : Witness      - WITNESSED BY
MUD .         GEL                  : Mud_type     - MUD TYPE
MATR.         LIMESTONE            : Logunit      - NEUTRON MATRIX
TMAX.C        20                   : BHT          - MAXIMUM RECORDED TEMPERATURE
BHTD.M        600.34               : BHTDEP       - MAXIMUM RECORDED TEMPERATURE
MATR.         1                    : LOGUNIT      - NEUTRON MATRIX
RMT .C        25                   : MDTP         - TEMPERATURE OF MUD
NEUT.         1                    : NEUTRON      - NEUTRON TYPE
RESI.         0                    : RESIST       - RESISTIVITY TYPE
RMC .OHMM     0.25                 : RMC          - RESISTIVITY OF MUD CAKE
RMF .OHMM     0.25                 : RMF          - RESISTIVITY OF MUD FILTRATE
SUFT.C        15                   : SUFT         - SURFACE TEMPERATURE
~A  DEPTH       GR     PHIN     PHID     RESD
# ...
  408.500   74.508    0.378    0.254    8.047
  408.750   75.889    0.374    0.250    8.092
  409.000   79.093    0.365    0.248    8.107
  409.250   80.412    0.366    0.247    8.092
  409.500   76.506    0.382    0.258    7.986
  409.750   71.932    0.384    0.275    7.722
  410.000   69.180    0.388    0.282    7.410
  410.250   67.951    0.402    0.284    7.178
  410.500   70.486    0.405    0.283    6.979
  410.750   77.154    0.394    0.279    6.799
  411.000   82.725    0.393    0.265    6.698
  411.250   86.112    0.397    0.253    6.537
  411.500   88.040    0.396    0.249    6.320
  411.750   86.687    0.403    0.257    6.238
  412.000   79.379    0.413    0.276    6.191
  412.250   74.987    0.416    0.281    6.145
  412.500   82.140    0.432    0.286    6.133
  412.750   90.081    0.438    0.280    6.133
  413.000   93.955    0.424    0.269    6.179
  413.250   93.573    0.428    0.263    6.296
  413.500   86.812    0.429    0.267    6.451
  413.750   74.706    0.413    0.279    6.585
  414.000   64.361    0.408    0.297    6.811
  414.250   61.003    0.398    0.303    7.018
  414.500   61.289    0.376    0.302    7.137
  414.750   61.273    0.366    0.301    7.258
  415.000   60.343    0.368    0.300    7.285
  415.250   61.116    0.360    0.298    7.340
  415.500   66.448    0.363    0.295    7.312
  415.750   73.053    0.370    0.292    6.810
  416.000   79.841    0.366    0.288    6.379
  416.250   85.111    0.364    0.284    6.237
  416.500   90.685    0.382    0.286    6.272
  416.750   95.285    0.405    0.274    6.721
  417.000   98.428    0.438    0.266    6.978
  417.250   93.849    0.462    0.272    7.367
  417.500   89.524    0.471    0.272    7.969
  417.750   85.498    0.469    0.261    8.105
  418.000   84.387    0.456    0.242    8.181
  418.250   78.536    0.437    0.220    8.211
  418.500   75.117    0.416    0.200    8.196
  418.750   79.232    0.422    0.229    8.119
  419.000   83.348    0.423    0.270    7.984
  419.250   85.034    0.417    0.269    7.806
  419.500   75.537    0.415    0.244    7.576
  419.750   68.899    0.414    0.295    7.353
  420.000   62.748    0.421    0.316    7.176
  420.250   58.600    0.436    0.335    7.029
  420.500   66.056    0.432    0.339    6.873
  420.750   70.717    0.431    0.336    6.784
  421.000   67.478    0.430    0.331    6.695
  421.250   67.343    0.429    0.327    6.608
  421.500   69.148    0.443    0.330    6.571
  421.750   70.772    0.440    0.336    6.498
  422.000   72.635    0.429    0.335    6.449
  422.250   73.473    0.424    0.339    6.401
  422.500   70.418    0.419    0.346    6.353
  422.750   68.092    0.415    0.348    6.329
  423.000   68.259    0.431    0.344    6.353
  423.250   70.124    0.460    0.330    6.449
  423.500   73.511    0.448    0.316    6.485
  423.750   75.802    0.433    0.307    6.522
  424.000   74.023    0.433    0.320    6.485
  424.250   73.644    0.434    0.335    6.449
  424.500   76.178    0.424    0.341    6.389
  424.750   76.950    0.417    0.338    6.353
  425.000   76.509    0.412    0.338    6.329
  425.250   76.251    0.452    0.347    6.353
  425.500   76.841    0.447    0.353    6.400
  425.750   79.315    0.437    0.351    6.436
  426.000   81.487    0.444    0.347    6.533
  426.250   78.492    0.444    0.345    6.619
  426.500   75.861    0.420    0.349    6.719
  426.750   74.024    0.413    0.343    6.808
  427.000   71.940    0.435    0.329    6.885
  427.250   70.950    0.418    0.304    6.885
  427.500   70.572    0.398    0.290    6.885
  427.750   70.492    0.402    0.292    6.846
  428.000   70.357    0.463    0.311    6.795
  428.250   72.649    0.445    0.328    6.706
  428.500   74.573    0.439    0.333    6.656
  428.750   74.497    0.441    0.335    6.681
  429.000   71.808    0.447    0.334    6.757
  429.250   68.632    0.467    0.259    7.027
  429.500   63.936    0.479    0.195    7.350
  429.750   59.360    0.452    0.162    7.517
  430.000   56.492    0.394    0.142    7.517
  430.250   56.416    0.346    0.218    7.309
  430.500   61.563    0.392    0.270    6.731
  430.750   65.493    0.400    0.306    6.234
  431.000   67.302    0.401    0.312    6.050
  431.250   70.627    0.405    0.297    6.061
  431.500   74.739    0.404    0.288    6.095
  431.750   75.028    0.410    0.284    6.210
  432.000   64.986    0.406    0.302    6.257
  432.250   57.617    0.396    0.319    6.304
  432.500   53.532    0.399    0.332    6.268
  432.750   50.780    0.396    0.338    6.233
  433.000   51.068    0.389    0.343    6.187
  433.250   51.901    0.391    0.347    6.106
  433.500   52.979    0.399    0.351    6.004
  433.750   52.294    0.391    0.349    5.926
  434.000   49.969    0.393    0.344    5.827
  434.250   51.224    0.394    0.346    5.773
  434.500   51.273    0.390    0.353    5.666
  434.750   49.979    0.394    0.360    5.550
  435.000   47.167    0.402    0.362    5.498
  435.250   45.512    0.407    0.362    5.447
  435.500   46.527    0.412    0.362    5.447
  435.750   48.875    0.415    0.363    5.478
  436.000   50.806    0.411    0.362    5.508
  436.250   53.524    0.403    0.357    5.539
  436.500   55.511    0.395    0.353    5.571
  436.750   55.011    0.397    0.350    5.591
  437.000   51.895    0.411    0.349    5.612
  437.250   52.608    0.421    0.350    5.633
  437.500   56.596    0.419    0.350    5.633
  437.750   58.588    0.402    0.353    5.633
  438.000   59.727    0.391    0.354    5.633
  438.250   58.314    0.393    0.356    5.612
  438.500   55.198    0.405    0.354    5.602
  438.750   54.574    0.414    0.356    5.612
  439.000   55.588    0.423    0.363    5.612
  439.250   57.577    0.436    0.368    5.612
  439.500   59.142    0.426    0.363    5.601
  439.750   53.111    0.416    0.356    5.601
  440.000   53.456    0.402    0.355    5.601
  440.250   56.661    0.389    0.352    5.591
  440.500   60.107    0.384    0.348    5.570
  440.750   62.947    0.388    0.345    5.559
  441.000   64.692    0.402    0.346    5.559
  441.250   63.522    0.422    0.347    5.518
  441.500   59.554    0.438    0.348    5.446
  441.750   58.321    0.434    0.356    5.375
  442.000   57.515    0.428    0.365    5.275
  442.250   56.344    0.437    0.363    5.236
  442.500   53.474    0.447    0.366    5.197
  442.750   54.369    0.447    0.362    5.158
  443.000   55.811    0.434    0.355    5.158
  443.250   56.156    0.419    0.361    5.158
  443.500   52.677    0.404    0.364    5.158
  443.750   49.017    0.415    0.356    5.167
  444.000   55.136    0.426    0.353    5.187
  444.250   61.803    0.429    0.347    5.236
  444.500   67.618    0.439    0.339    5.324
  444.750   71.795    0.444    0.343    5.455
  445.000   63.394    0.417    0.339    5.538
  445.250   59.307    0.409    0.329    5.558
  445.500   66.215    0.416    0.323    5.496
  445.750   75.858    0.392    0.321    5.186
  446.000   83.801    0.399    0.313    4.903
  446.250   80.443    0.425    0.314    4.541
  446.500   77.754    0.424    0.330    4.206
  446.750   92.622    0.428    0.323    3.946
  447.000  101.110    0.454    0.259    3.787
  447.250  102.916    0.480    0.245    3.780
  447.500   97.554    0.512    0.247    3.880
  447.750   92.312    0.486    0.262    4.066
  448.000   86.706    0.472    0.277    4.341
  448.250   82.801    0.460    0.296    4.705
  448.500   76.406    0.446    0.315    5.099
  448.750   68.977    0.440    0.334    5.344
  449.000   62.156    0.440    0.349    5.621
  449.250   64.750    0.437    0.356    5.824
  449.500   67.105    0.439    0.350    6.023
  449.750   69.029    0.438    0.339    6.172
  450.000   64.094    0.427    0.324    6.183
  450.250   60.371    0.418    0.315    6.183
  450.500   62.967    0.413    0.305    6.206
  450.750   64.226    0.419    0.300    6.265
  451.000   64.331    0.427    0.303    6.347
  451.250   64.679    0.420    0.301    6.467
  451.500   66.665    0.408    0.295    6.614
  451.750   62.762    0.398    0.291    6.751
