~VERSION INFORMATION
 VERS.                 2.0:   CWLS LOG ASCII STANDARD -VERSION 2.0
 WRAP.                  NO:   ONE LINE PER DEPTH STEP
~WELL INFORMATION BLOCK
#MNEM.UNIT           DATA                    DESCRIPTION OF MNEMONIC
#---------    -------------------            -------------------------------
# Generated from Intellog Unique Number	CW_76_78/WELL/2586
WELL.         SCURRY ET AL DOUCETTE          : Well_name    - WELL
LOC .         00/12-22-078-02W5/0            : Location     - LOCATION
UWI .         00/12-22-078-02W5/0            : Uwi          - UNIQUE WELL ID
ENTR.         MAX                            : Entered      - ENTERED BY
SRVC.         WESTERN ATLAS                  : Scn          - SERVICE COMPANY
STRT.M        330                            : top_depth    - START DEPTH
STOP.M        585                            : bot_depth    - STOP DEPTH
STEP.M        0.25                           : increment    - STEP LENGTH
 NULL. -999.2500:NULL Value
~CURVE INFORMATION BLOCK
#MNEM UNIT       ERCB CURVE CODE    CURVE DESCRIPTION
#-----------   ------------------   ----------------------------------
DEPT.M        00 001 00 00         : DEPTH        - DEPTH
ILD .OHMM     00 120 00 00         : RESD         - DEEP RESISTIVITY (DIL)
NPHI.V/V      00 330 00 00         : PHIN         - NEUTRON POROSITY (SANDSTONE)
DPHI.V/V      00 890 00 00         : PHID         - DENSITY POROSITY (SANDSTONE)
CALI.MM       00 280 01 00         : CAL          - CALIPER
GR  .API      00 310 00 00         : GR           - GAMMA RAY
~PARAMETER INFORMATION
#MNEM.UNIT           DATA             DESCRIPTION OF MNEMONIC
#---------         -----------     ------------------------------
GL  .M        625.1                : gl           - GROUND LEVEL ELEVATION
EREF.M        629.33               : kb           - ELEVATION OF DEPTH REFERENCE
DATM.M        625.1                : datum        - DATUM ELEVATION
TDD .M        611.3                : tdd          - TOTAL DEPTH DRILLER
RUN .         ONE                  : Run          - RUN NUMBER
ENG .         BILL                 : Engineer     - RECORDING ENGINEER
WIT .         JIM                  : Witness      - WITNESSED BY
MUD .         GEL                  : Mud_type     - MUD TYPE
MATR.         SANDSTONE            : Logunit      - NEUTRON MATRIX
TMAX.C        29                   : BHT          - MAXIMUM RECORDED TEMPERATURE
BHTD.M        611.3                : BHTDEP       - MAXIMUM RECORDED TEMPERATURE
RMT .C        13                   : MDTP         - TEMPERATURE OF MUD
MUDD.KG/M     1170                 : MWT          - MUD DENSITY
NEUT.         1                    : NEUTRON      - NEUTRON TYPE
RESI.         0                    : RESIST       - RESISTIVITY TYPE
RM  .OHMM     5                    : RM           - RESISTIVITY OF MUD
RMC .OHMM     3.5                  : RMC          - RESISTIVITY OF MUD CAKE
RMF .OHMM     6                    : RMF          - RESISTIVITY OF MUD FILTRATE
SUFT.C        -5                   : SUFT         - SURFACE TEMPERATURE
~A  DEPTH     RESD     PHIN     PHID      CAL       GR
# ...
  549.000    6.058    0.381    0.172  214.081   93.767
  549.250    6.058    0.375    0.167  210.683   89.092
  549.500    6.285    0.367    0.126  207.768   87.052
  549.750    6.344    0.359    0.103  204.369   91.158
  550.000    6.290    0.352    0.126  202.919   93.801
  550.250    6.290    0.348    0.150  202.445   92.931
  550.500    6.240    0.352    0.167  202.947   92.060
  550.750    5.969    0.367    0.235  201.985   90.899
  551.000    5.814    0.414    0.335  201.512   89.445
  551.250    5.816    0.477    0.429  202.500   89.160
  551.500    5.871    0.484    0.414  204.466   85.362
  551.750    5.874    0.442    0.368  204.968   84.202
  552.000    5.772    0.389    0.223  204.983   91.527
  552.250    5.424    0.417    0.267  204.995   95.339
  552.500    4.962    0.428    0.279  205.010   99.737
  552.750    4.580    0.452    0.285  205.025  104.723
  553.000    4.461    0.466    0.262  205.525  107.657
  553.250    4.544    0.475    0.227  206.514  108.251
  553.500    4.544    0.478    0.186  206.528   99.186
  553.750    4.714    0.438    0.158  205.569   92.171
  554.000    4.975    0.402    0.130  204.607   87.202
  554.250    5.394    0.384    0.109  202.670   87.504
  554.500    5.955    0.391    0.163  201.708   91.024
  554.750    6.874    0.399    0.190  202.209   92.788
  555.000    7.191    0.391    0.117  204.663   91.042
  555.250    7.390    0.378    0.106  202.236   91.637
  555.500    7.459    0.368    0.160  201.762   91.937
  555.750    7.597    0.358    0.186  202.265   88.432
  556.000    7.738    0.347    0.195  204.230   87.563
  556.250    7.811    0.348    0.204  205.219   91.963
  556.500    7.811    0.356    0.211  203.771   95.190
  556.750    7.820    0.365    0.209  203.788   93.441
  557.000    7.891    0.367    0.192  204.286   90.525
  557.250    8.256    0.358    0.188  204.789   90.532
  557.500    8.793    0.356    0.213  205.289   92.297
  557.750    9.449    0.384    0.218  204.330   89.378
  558.000   10.245    0.391    0.219  203.368   84.995
  558.250   11.411    0.391    0.237  203.380   76.808
  558.500   12.939    0.388    0.233  204.370   71.548
  558.750   14.934    0.371    0.200  204.873   63.071
  559.000   18.029    0.310    0.046  203.909   59.273
  559.250   19.030    0.212    0.020  201.485   58.403
  559.500   19.909    0.202    0.030  199.548   65.729
  559.750   19.918    0.226    0.087  201.026   72.469
  560.000   18.885    0.258    0.146  203.481   79.210
  560.250   14.974    0.298    0.173  203.986   81.851
  560.500   12.984    0.312    0.187  203.994   85.958
  560.750   11.772    0.343    0.238  205.473   89.772
  561.000   11.064    0.360    0.281  205.974   92.122
  561.250   10.775    0.386    0.282  205.990   93.008
  561.500   10.974    0.391    0.261  205.026   91.260
  561.750   11.379    0.375    0.235  204.555   83.951
  562.000   11.798    0.360    0.231  204.081   75.472
  562.250   12.125    0.347    0.223  204.093   69.919
  562.500   12.240    0.339    0.213  205.085   67.001
  562.750   12.028    0.324    0.201  206.073   68.472
  563.000   11.102    0.324    0.213  205.597   74.627
  563.250   10.341    0.341    0.237  205.612   80.196
  563.500   10.163    0.349    0.241  206.114   79.912
  563.750   10.166    0.350    0.262  205.640   76.994
  564.000   10.171    0.346    0.267  206.141   76.417
  564.250   10.266    0.344    0.279  206.646   77.304
  564.500   10.457    0.348    0.281  207.144   78.482
  564.750   10.457    0.346    0.278  206.673   78.783
  565.000   10.561    0.341    0.265  206.688   79.376
  565.250   10.659    0.327    0.252  206.688   81.727
  565.500   10.663    0.322    0.229  206.717   84.956
  565.750   10.294    0.311    0.225  206.727   86.427
  566.000    9.848    0.309    0.219  206.743   87.314
  566.250    9.421    0.313    0.216  207.242   87.322
  566.500    8.933    0.315    0.217  207.744   86.159
  566.750    8.547    0.314    0.211  206.787   86.754
  567.000    8.176    0.315    0.208  206.797   89.688
  567.250    7.822    0.321    0.213  207.302   94.672
  567.500    7.285    0.334    0.208  206.826   94.973
  567.750    6.907    0.361    0.198  205.376   85.908
  568.000    6.727    0.391    0.219  205.879   83.576
  568.250    6.914    0.442    0.263  207.846   88.559
  568.500    7.105    0.416    0.290  208.832  102.618
  568.750    7.367    0.361    0.253  208.358  114.918
  569.000    7.175    0.344    0.187  206.913  125.463
  569.250    5.538    0.340    0.180  206.923  118.740
  569.500    3.738    0.337    0.166  207.912  110.553
  569.750    3.045    0.333    0.145  206.466   95.927
  570.000    2.761    0.331    0.134  206.476   89.789
  570.250    2.914    0.328    0.113  208.443   85.114
  570.500    3.487    0.328    0.103  209.432   86.879
  570.750    3.780    0.330    0.101  209.445   95.084
  571.000    5.035    0.338    0.119  209.459  100.066
  571.250    5.812    0.346    0.132  209.474  107.684
  571.500    6.135    0.352    0.146  209.979   97.450
  571.750    6.138    0.348    0.122  212.432   92.189
  572.000    6.086    0.331    0.108  212.933   91.906
  572.250    6.311    0.327    0.122  213.924  101.280
  572.500    6.370    0.326    0.154  214.912  108.899
  572.750    5.828    0.333    0.171  215.411  108.028
  573.000    4.964    0.366    0.179  213.963   96.329
  573.250    4.043    0.399    0.170  211.538   92.826
  573.500    3.833    0.414    0.122  211.067   95.467
  573.750    3.444    0.427    0.091  212.541   99.867
  574.000    3.095    0.430    0.161  212.558  102.217
  574.250    2.782    0.438    0.181  210.618  100.176
  574.500    2.591    0.449    0.154  209.656   96.087
  574.750    2.615    0.450    0.099  210.647   95.510
  575.000    2.711    0.448    0.104  213.100  101.664
  575.250    2.888    0.438    0.167  213.601  115.137
  575.500    3.131    0.441    0.183  211.665  113.974
  575.750    3.365    0.440    0.177  210.216  111.348
  576.000    3.458    0.436    0.166  210.228  108.724
  576.250    3.491    0.430    0.151  209.753  109.024
  576.500    3.555    0.427    0.130  209.769  111.081
  576.750    3.686    0.436    0.150  210.272  112.847
  577.000    3.788    0.437    0.173  211.261  114.025
  577.250    3.790    0.431    0.174  210.785  113.447
  577.500    3.561    0.428    0.163  211.288  105.260
  577.750    2.980    0.428    0.125  212.277  100.293
  578.000    2.825    0.425    0.098  209.366   95.033
  578.250    2.679    0.422    0.040  207.916   94.749
  578.500    2.680    0.417    0.073  207.930   93.587
  578.750    2.779    0.411    0.086  207.943   79.839
  579.000    3.040    0.404    0.113  207.469   64.042
  579.250    3.703    0.397    0.251  205.044   33.612
  579.500    4.550    0.381    0.293  201.645   29.523
  579.750    5.022    0.369    0.342  200.193   30.410
  580.000    7.928    0.349    0.357  199.721   31.589
  580.250   10.097    0.324    0.337  200.222   31.305
  580.500   12.408    0.309    0.310  200.725   31.607
  580.750   15.386    0.293    0.271  201.225   31.615
  581.000   18.906    0.242    0.226  200.752   29.866
  581.250   23.653    0.223    0.149  199.304   27.241
  581.500   26.822    0.228    0.101  199.316   25.201
  581.750   28.059    0.223    0.108  199.330   22.575
  582.000   28.069    0.217    0.106  199.343   22.876
  582.250   25.000    0.224    0.121  198.871   25.810
  582.500   20.181    0.247    0.127  199.862   27.284
  582.750   18.465    0.265    0.111  201.337   25.242
  583.000   18.471    0.251    0.104  202.814   19.104
  583.250   19.324    0.206    0.101  202.342   16.186
  583.500   20.035    0.178    0.092  201.380   16.781
  583.750   20.407    0.173    0.079  201.883   17.373
  584.000   19.007    0.175    0.079  202.874   17.381
  584.250   16.777    0.189    0.092  203.859   16.804
  584.500   16.488    0.214    0.101  203.876   17.690
  584.750   16.943    0.235    0.115  204.380   21.797
  585.000   17.256    0.248    0.121  203.902   22.684
