~VERSION INFORMATION
 VERS.                 2.0:   CWLS LOG ASCII STANDARD -VERSION 2.0
 WRAP.                  NO:   ONE LINE PER DEPTH STEP
~WELL INFORMATION BLOCK
#MNEM.UNIT           DATA                    DESCRIPTION OF MNEMONIC
#---------    -------------------            -------------------------------
# Generated from Intellog Unique Number	CW_73_75/WELL/1053
LOC .         00/15-13-075-02W5/0            : Location     - LOCATION
UWI .         00/15-13-075-02W5/0            : Uwi          - UNIQUE WELL ID
ENTR.         JAYE                           : Entered      - ENTERED BY
SRVC.         SCHLUMBERGER                   : Scn          - SERVICE COMPANY
DATE.         19 DEC 75                      : Date         - LOG DATE
STRT.M        533.4                          : top_depth    - START DEPTH
STOP.M        722.4                          : bot_depth    - STOP DEPTH
STEP.M        0.25                           : increment    - STEP LENGTH
 NULL. -999.2500:NULL Value
~CURVE INFORMATION BLOCK
#MNEM UNIT       ERCB CURVE CODE    CURVE DESCRIPTION
#-----------   ------------------   ----------------------------------
DEPT.M        00 001 00 00         : DEPTH        - DEPTH
ILD .OHMM     00 120 00 00         : RESD         - DEEP RESISTIVITY (DIL)
NPHI.V/V      00 330 00 00         : PHIN         - NEUTRON POROSITY (SANDSTONE)
DPHI.V/V      00 890 00 00         : PHID         - DENSITY POROSITY (SANDSTONE)
GR  .API      00 310 00 00         : GR           - GAMMA RAY
CALI.MM       00 280 01 00         : CAL          - CALIPER
~PARAMETER INFORMATION
#MNEM.UNIT           DATA             DESCRIPTION OF MNEMONIC
#---------         -----------     ------------------------------
GL  .M        814.426              : gl           - GROUND LEVEL ELEVATION
EREF.M        818.54               : kb           - ELEVATION OF DEPTH REFERENCE
DATM.M        814.426              : datum        - DATUM ELEVATION
TDD .M        727.253              : tdd          - TOTAL DEPTH DRILLER
RUN .         ONE                  : Run          - RUN NUMBER
ENG .         MACDONALD            : Engineer     - RECORDING ENGINEER
BASE.         EDM                  : Branch       - HOME BASE OF LOGGING UNIT
MUD .         GEL CHEM             : Mud_type     - MUD TYPE
MATR.         SANDSTONE            : Logunit      - NEUTRON MATRIX
TMAX.C        31.1111              : BHT          - MAXIMUM RECORDED TEMPERATURE
BHTD.M        726.643              : BHTDEP       - MAXIMUM RECORDED TEMPERATURE
RMT .C        20                   : MDTP         - TEMPERATURE OF MUD
MUDD.KG/M     1056                 : MWT          - MUD DENSITY
NEUT.         1                    : NEUTRON      - NEUTRON TYPE
RESI.         0                    : RESIST       - RESISTIVITY TYPE
RM  .OHMM     2.8                  : RM           - RESISTIVITY OF MUD
RMC .OHMM     0                    : RMC          - RESISTIVITY OF MUD CAKE
RMF .OHMM     3.77                 : RMF          - RESISTIVITY OF MUD FILTRATE
SUFT.C        -17.7778             : SUFT         - SURFACE TEMPERATURE
~A  DEPTH     RESD     PHIN     PHID       GR      CAL
# ...
  606.400   24.284    0.260    0.068   58.729  228.002
  606.650   18.969    0.318    0.095   62.107  228.039
  606.900   13.582    0.397    0.153   66.645  228.074
  607.150   10.419    0.424    0.188   68.557  227.704
  607.400    9.290    0.424    0.177   66.325  227.020
  607.650    8.420    0.410    0.166   64.699  226.537
  607.900    7.783    0.393    0.155   65.696  226.576
  608.150    7.171    0.398    0.156   67.305  227.027
  608.400    6.665    0.408    0.169   70.805  227.376
  608.650    6.128    0.413    0.167   74.671  228.034
  608.900    5.769    0.409    0.152   74.693  228.378
  609.150    5.798    0.407    0.152   74.288  229.348
  609.400    5.932    0.405    0.161   74.981  230.005
  609.650    6.070    0.405    0.159   76.958  230.047
  609.900    6.133    0.408    0.157   78.689  229.772
  610.150    6.152    0.419    0.149   79.929  229.396
  610.400    6.171    0.425    0.148   80.805  228.917
  610.650    6.168    0.408    0.170   81.685  228.343
  610.900    6.167    0.403    0.154   82.623  228.173
  611.150    6.151    0.413    0.141   83.561  228.626
  611.400    6.091    0.428    0.153   84.373  229.696
  611.650    5.967    0.434    0.167   84.945  230.968
  611.900    5.857    0.468    0.170   85.332  232.042
  612.150    5.686    0.472    0.160   85.114  232.387
  612.400    5.500    0.462    0.147   85.927  231.394
  612.650    5.409    0.452    0.137   86.254  230.606
  612.900    5.395    0.446    0.133   85.606  229.198
  613.150    5.572    0.436    0.138   83.738  227.376
  613.400    6.053    0.429    0.163   80.162  225.245
  613.650    6.611    0.453    0.234   73.352  222.287
  613.900    6.989    0.427    0.251   71.178  220.052
  614.150    7.361    0.424    0.249   73.763  219.780
  614.400    7.867    0.440    0.257   75.919  221.264
  614.650    8.303    0.444    0.250   78.140  222.750
  614.900    8.388    0.441    0.239   78.956  222.786
  615.150    8.233    0.430    0.233   79.224  223.135
  615.400    7.879    0.424    0.227   79.732  223.172
  615.650    7.607    0.418    0.219   80.668  224.038
  615.900    7.240    0.432    0.178   81.729  226.039
  616.150    6.940    0.432    0.184   82.972  227.627
  616.400    6.751    0.423    0.180   83.666  228.186
  616.650    6.736    0.415    0.193   82.894  228.124
  616.900    6.742    0.414    0.193   82.004  227.744
  617.150    6.800    0.427    0.177   82.331  227.264
  617.400    6.911    0.430    0.173   83.754  226.886
  617.650    6.982    0.434    0.178   86.094  227.033
  617.900    6.952    0.446    0.180   85.812  226.661
  618.150    6.898    0.446    0.175   85.288  225.974
  618.400    6.818    0.442    0.145   86.529  224.871
  618.650    6.729    0.439    0.157   86.124  223.464
  618.900    6.627    0.435    0.174   85.048  222.574
  619.150    6.435    0.432    0.188   84.582  221.576
  619.400    6.281    0.428    0.169   83.935  220.478
  619.650    6.111    0.438    0.131   83.227  219.896
  619.900    6.018    0.447    0.112   81.234  219.314
  620.150    5.940    0.438    0.124   79.489  220.385
  620.400    5.882    0.454    0.131   83.353  223.634
  620.650    5.847    0.466    0.139   88.379  225.322
  620.900    5.907    0.472    0.150   84.192  226.697
  621.150    5.979    0.465    0.168   81.594  222.293
  621.400    6.097    0.466    0.203   80.088  219.233
  621.650    6.227    0.475    0.216   69.498  218.761
  621.900    6.406    0.476    0.234   67.507  218.797
  622.150    6.579    0.468    0.231   69.298  218.833
  622.400    6.782    0.460    0.215   71.762  218.869
  622.650    6.889    0.455    0.204   71.480  218.907
  622.900    6.974    0.441    0.200   67.109  219.464
  623.150    7.083    0.420    0.195   62.435  220.017
  623.400    7.262    0.400    0.195   60.993  220.473
  623.650    7.444    0.395    0.194   61.930  220.505
  623.900    7.729    0.411    0.186   63.966  217.651
  624.150    7.908    0.425    0.191   66.552  212.527
  624.400    7.832    0.433    0.216   66.451  218.246
  624.650    7.563    0.440    0.237   65.560  222.414
  624.900    7.277    0.451    0.239   65.153  221.321
  625.150    7.116    0.456    0.229   64.017  220.323
  625.400    7.073    0.421    0.212   62.148  219.739
  625.650    7.370    0.385    0.187   63.454  219.571
  625.900    7.708    0.356    0.153   65.243  220.233
  626.150    7.901    0.397    0.129   69.597  221.204
  626.400    7.925    0.442    0.110   74.804  221.545
  626.650    7.750    0.469    0.148   78.305  221.793
  626.900    7.231    0.474    0.186   77.474  221.413
  627.150    6.530    0.460    0.197   78.044  221.040
  627.400    6.213    0.429    0.154   78.738  222.420
  627.650    6.055    0.436    0.116   81.932  225.045
  627.900    5.975    0.447    0.132   85.005  227.148
  628.150    5.886    0.432    0.157   87.956  228.942
  628.400    5.861    0.432    0.170   89.441  230.941
  628.650    6.085    0.435    0.170   88.428  232.010
  628.900    7.031    0.417    0.188   79.117  223.270
  629.150    8.006    0.400    0.205   72.246  221.139
  629.400    9.574    0.378    0.197   62.814  220.355
  629.650   12.309    0.344    0.158   55.760  219.974
  629.900   16.589    0.323    0.113   51.878  218.980
  630.150   23.779    0.368    0.092   53.122  218.191
  630.400   32.168    0.380    0.118   56.194  217.508
  630.650   29.900    0.369    0.132   61.099  217.854
  630.900   18.487    0.370    0.127   69.354  219.237
  631.150   13.143    0.415    0.119   79.685  220.823
  631.400    9.325    0.480    0.159   87.332  225.410
  631.650    6.987    0.464    0.192   87.294  228.131
  631.900    6.286    0.450    0.202   87.380  228.788
  632.150    5.844    0.443    0.187   86.913  228.515
  632.400    5.602    0.436    0.183   86.081  228.863
  632.650    5.459    0.433    0.166   86.410  232.831
  632.900    5.426    0.446    0.151   89.847  235.448
  633.150    5.384    0.460    0.138   94.078  235.694
  633.400    5.371    0.467    0.138   95.082  235.527
  633.650    5.329    0.461    0.131   95.588  234.841
  633.900    5.202    0.463    0.115   91.950  234.670
  634.150    4.924    0.449    0.112   87.519  234.712
  634.400    4.644    0.452    0.115   87.481  234.540
  634.650    4.363    0.457    0.125   89.944  226.935
  634.900    4.168    0.457    0.143   88.929  224.494
  635.150    4.188    0.463    0.135   87.794  224.534
  635.400    4.318    0.447    0.130   88.670  224.574
  635.650    4.531    0.436    0.151   89.729  225.028
  635.900    4.932    0.448    0.161   88.166  225.265
  636.150    5.485    0.452    0.130   85.691  225.407
  636.400    6.291    0.438    0.153   82.232  226.068
  636.650    7.022    0.402    0.170   73.348  226.934
  636.900    7.981    0.352    0.136   67.454  228.004
  637.150    9.684    0.340    0.086   68.820  228.350
  637.400   11.088    0.357    0.097   71.222  227.150
  637.650   10.345    0.371    0.086   74.536  226.152
  637.900    9.107    0.385    0.131   79.623  225.468
  638.150    8.033    0.428    0.166   82.329  224.991
  638.400    7.097    0.426    0.184   85.097  223.684
  638.650    6.316    0.422    0.170   84.938  222.069
  638.900    5.661    0.438    0.137   83.860  220.250
  639.150    5.487    0.448    0.136   83.457  222.870
  639.400    5.885    0.457    0.126   82.869  226.833
  639.650    6.593    0.464    0.130   82.219  226.666
  639.900    7.604    0.467    0.184   81.327  224.124
  640.150    8.351    0.432    0.228   79.153  221.578
  640.400    7.638    0.446    0.214   78.993  221.822
  640.650    6.485    0.468    0.198   81.213  225.069
  640.900    5.535    0.477    0.201   81.479  227.787
  641.150    4.872    0.449    0.195   83.393  230.818
  641.400    4.521    0.449    0.169   87.745  233.026
  641.650    4.303    0.471    0.159   88.256  232.340
  641.900    4.231    0.489    0.202   90.230  230.312
  642.150    4.298    0.493    0.211   90.986  228.495
  642.400    4.495    0.477    0.190   85.396  227.089
  642.650    5.036    0.448    0.171   80.905  226.401
