~VERSION INFORMATION
 VERS.                 2.0:   CWLS LOG ASCII STANDARD -VERSION 2.0
 WRAP.                  NO:   ONE LINE PER DEPTH STEP
~WELL INFORMATION BLOCK
#MNEM.UNIT           DATA                    DESCRIPTION OF MNEMONIC
#---------    -------------------            -------------------------------
# Generated from Intellog Unique Number	CW_73_75/WELL/2744
WELL.         ALLIED ET AL CALLING 11-08     : Well_name    - WELL
LOC .         00/11-08-073-20W4/0            : Location     - LOCATION
UWI .         00/11-08-073-20W4/0            : Uwi          - UNIQUE WELL ID
ENTR.         JAYE                           : Entered      - ENTERED BY
SRVC.         SCHLUMBERGER                   : Scn          - SERVICE COMPANY
DATE.         20 JAN 77                      : Date         - LOG DATE
STRT.M        396.24                         : top_depth    - START DEPTH
STOP.M        624.74                         : bot_depth    - STOP DEPTH
STEP.M        0.25                           : increment    - STEP LENGTH
 NULL. -999.2500:NULL Value
~CURVE INFORMATION BLOCK
#MNEM UNIT       ERCB CURVE CODE    CURVE DESCRIPTION
#-----------   ------------------   ----------------------------------
DEPT.M        00 001 00 00         : DEPTH        - DEPTH
ILD .OHMM     00 120 00 00         : RESD         - DEEP RESISTIVITY (DIL)
NPHI.V/V      00 330 00 00         : PHIN         - NEUTRON POROSITY (SANDSTONE)
DPHI.V/V      00 890 00 00         : PHID         - DENSITY POROSITY (SANDSTONE)
GR  .API      00 310 00 00         : GR           - GAMMA RAY
CALI.MM       00 280 01 00         : CAL          - CALIPER
~PARAMETER INFORMATION
#MNEM.UNIT           DATA             DESCRIPTION OF MNEMONIC
#---------         -----------     ------------------------------
GL  .M        687.019              : gl           - GROUND LEVEL ELEVATION
EREF.M        690.22               : kb           - ELEVATION OF DEPTH REFERENCE
DATM.M        687.019              : datum        - DATUM ELEVATION
TDD .M        631.241              : tdd          - TOTAL DEPTH DRILLER
RUN .         ONE                  : Run          - RUN NUMBER
BASE.         EDM                  : Branch       - HOME BASE OF LOGGING UNIT
MATR.         SANDSTONE            : Logunit      - NEUTRON MATRIX
TMAX.C        21.1111              : BHT          - MAXIMUM RECORDED TEMPERATURE
BHTD.M        628.802              : BHTDEP       - MAXIMUM RECORDED TEMPERATURE
RMT .C        21.1111              : MDTP         - TEMPERATURE OF MUD
MUDD.KG/M     1176                 : MWT          - MUD DENSITY
NEUT.         1                    : NEUTRON      - NEUTRON TYPE
RESI.         0                    : RESIST       - RESISTIVITY TYPE
RM  .OHMM     2.8                  : RM           - RESISTIVITY OF MUD
RMC .OHMM     3.83                 : RMC          - RESISTIVITY OF MUD CAKE
RMF .OHMM     2.77                 : RMF          - RESISTIVITY OF MUD FILTRATE
SUFT.C        -17.7778             : SUFT         - SURFACE TEMPERATURE
~A  DEPTH     RESD     PHIN     PHID       GR      CAL
  396.240    6.087    0.484    0.197  103.656  167.271
  396.490    6.082    0.497    0.195   99.417  166.502
  396.740    5.764    0.494    0.190   95.239  166.140
  396.990    5.603    0.470    0.183   89.109  165.766
  397.240    5.520    0.389    0.170   80.728  165.198
  397.490    5.517    0.425    0.206   79.050  164.130
  397.740    5.631    0.400    0.238   75.483  163.558
  397.990    5.822    0.377    0.273   76.853  162.986
  398.240    6.015    0.362    0.284   81.215  162.419
  398.490    6.089    0.410    0.276   84.900  162.164
  398.740    6.085    0.427    0.269   89.809  162.101
  398.990    6.119    0.438    0.257   93.436  161.852
  399.240    6.116    0.418    0.250   92.672  161.681
  399.490    6.152    0.389    0.244   92.397  161.432
  399.740    6.186    0.371    0.231   88.830  161.268
  399.990    6.221    0.379    0.238   88.375  161.214
  400.240    6.257    0.385    0.249   90.049  161.386
  400.490    6.292    0.398    0.258   90.751  161.337
  400.740    6.288    0.379    0.253   89.865  161.265
  400.990    6.284    0.365    0.225   87.883  161.113
  401.240    6.279    0.365    0.155   90.230  160.960
  401.490    6.197    0.389    0.187   94.040  160.912
  401.740    5.879    0.385    0.255   99.377  160.950
  401.990    5.521    0.380    0.253  103.126  160.903
  402.240    5.281    0.384    0.232  106.265  161.162
  402.490    5.281    0.384    0.208  105.684  162.343
  402.740    5.194    0.398    0.206  106.691  164.251
  402.990    5.033    0.424    0.199  108.977  166.162
  403.240    5.029    0.449    0.205  110.958  167.148
  403.490    5.379    0.420    0.199  110.743  167.197
  403.740    5.650    0.423    0.239  105.656  166.108
  403.990    5.841    0.410    0.246  104.037  164.308
  404.240    5.681    0.384    0.248  100.590  163.121
  404.490    5.206    0.380    0.240   93.912  162.546
  404.740    5.005    0.397    0.245   97.483  162.392
  404.990    4.922    0.400    0.239  102.325  162.441
  405.240    4.801    0.415    0.259  103.880  163.006
  405.490    4.953    0.433    0.237  105.191  163.476
  405.740    5.107    0.430    0.227  106.928  164.346
  405.990    5.456    0.447    0.215  103.481  165.432
  406.240    5.845    0.446    0.233   99.487  165.485
  406.490    6.312    0.435    0.237  100.067  164.706
  406.740    6.661    0.418    0.231   99.003  163.418
  406.990    6.697    0.392    0.230   97.748  162.329
  407.240    6.731    0.371    0.235  101.133  161.560
  407.490    6.767    0.361    0.250  104.149  160.990
  407.740    6.920    0.366    0.263  103.696  160.641
  407.990    7.112    0.367    0.245   98.053  160.369
  408.240    7.265    0.360    0.233   92.229  160.217
  408.490    7.497    0.360    0.252   86.102  160.269
  408.740    7.688    0.361    0.246   80.520  160.321
  408.990    7.803    0.356    0.269   71.405  160.371
  409.240    7.759    0.353    0.274   62.414  160.629
  409.490    7.677    0.349    0.267   58.905  160.884
  409.740    7.241    0.365    0.233   62.715  161.139
  409.990    7.040    0.377    0.205   57.258  161.395
  410.240    7.036    0.344    0.202   56.560  161.441
  410.490    7.189    0.359    0.232   59.148  161.603
  410.740    7.459    0.374    0.316   65.155  161.549
  410.990    7.495    0.378    0.301   70.365  161.497
  411.240    7.452    0.393    0.305   75.517  161.332
  411.490    7.369    0.395    0.284   80.304  161.190
  411.740    7.365    0.390    0.283   83.868  161.129
  411.990    7.322    0.380    0.271   88.229  160.769
  412.240    7.278    0.377    0.255   92.037  160.616
  412.490    7.156    0.383    0.235   96.215  160.565
  412.740    6.995    0.388    0.234   97.584  160.300
  412.990    6.835    0.387    0.229   93.654  160.258
  413.240    6.555    0.377    0.239   96.305  160.297
  413.490    6.002    0.383    0.256   97.431  160.350
  413.740    5.251    0.378    0.265   97.769  160.919
  413.990    4.344    0.365    0.249  100.967  161.586
  414.240    3.908    0.368    0.230  104.107  162.670
  414.490    3.629    0.396    0.240  103.710  165.091
  414.740    3.468    0.420    0.223  107.033  167.826
  414.990    3.423    0.452    0.228  113.586  169.533
  415.240    3.420    0.498    0.202  121.603  170.824
  415.490    3.494    0.566    0.156  123.344  172.112
  415.740    3.646    0.582    0.157  120.810  173.196
  415.990    3.761    0.541    0.209  120.230  173.968
  416.240    3.993    0.531    0.208  124.468  174.326
  416.490    4.460    0.543    0.193  132.547  174.584
  416.740    5.045    0.511    0.206  133.551  174.636
  416.990    5.944    0.476    0.220  130.227  174.273
  417.240    6.372    0.436    0.237  125.745  173.601
  417.490    6.368    0.432    0.226  121.629  172.411
  417.740    6.286    0.432    0.234  118.610  171.027
  417.990    6.163    0.432    0.223  121.629  169.739
  418.240    6.002    0.417    0.218  121.659  168.955
  418.490    5.762    0.422    0.202  120.470  167.971
  418.740    5.563    0.443    0.185  120.316  166.997
  418.990    5.323    0.485    0.196  119.675  166.427
  419.240    5.279    0.467    0.192  116.168  165.547
  419.490    5.904    0.451    0.181  111.628  164.570
  419.740    6.764    0.493    0.205  108.547  163.793
  419.990    7.702    0.471    0.229  104.556  163.111
  420.240    9.072    0.450    0.237  100.680  161.933
  420.490   10.482    0.440    0.257   94.675  161.057
  420.740   11.813    0.437    0.273   90.070  160.487
  420.990   12.634    0.471    0.291   84.432  160.024
  421.240   12.865    0.452    0.302   79.827  159.859
  421.490   12.626    0.459    0.281   74.612  159.395
  421.740   11.286    0.436    0.264   70.130  159.343
  421.990   10.104    0.441    0.239   68.391  159.296
  422.240    8.804    0.434    0.262   70.375  159.237
  422.490    8.093    0.412    0.279   73.087  159.194
  422.740    7.657    0.416    0.299   76.960  159.230
  422.990    7.220    0.440    0.296   79.183  159.603
  423.240    6.942    0.447    0.282   79.154  159.953
  423.490    6.781    0.413    0.262   82.537  160.833
  423.740    6.698    0.428    0.262   87.324  162.020
  423.990    6.655    0.434    0.246   91.501  163.924
  424.240    6.651    0.412    0.247   95.002  166.868
  424.490    6.646    0.399    0.251   99.058  167.028
  424.740    6.642    0.396    0.245  103.785  166.659
  424.990    6.639    0.414    0.253  101.067  165.987
  425.240    6.516    0.412    0.265  102.684  165.524
  425.490    6.395    0.429    0.275  107.163  165.263
  425.740    6.390    0.432    0.283  112.925  165.422
  425.990    6.426    0.418    0.274  118.322  165.889
  426.240    6.656    0.404    0.266  117.255  166.343
  426.490    6.888    0.411    0.257  108.934  166.817
  426.740    7.042    0.416    0.261  100.606  167.068
  426.990    7.431    0.408    0.270   88.869  167.127
  427.240    7.897    0.388    0.269   81.521  166.968
  427.490    8.719    0.382    0.257   83.626  166.809
  427.740   10.796    0.390    0.239   89.325  166.443
  427.990   16.211    0.399    0.238   97.342  165.890
  428.240   17.425    0.427    0.256   87.864  165.526
  428.490   17.773    0.466    0.281   81.796  164.856
  428.740   17.887    0.482    0.308   76.580  164.185
  428.990   17.687    0.451    0.307   71.793  163.720
  429.240   17.250    0.436    0.312   71.092  163.548
  429.490   16.658    0.492    0.307   72.587  163.506
  429.740   15.829    0.478    0.318   73.468  163.448
  429.990   15.275    0.473    0.331   72.585  163.491
  430.240   14.721    0.447    0.331   73.409  163.341
  430.490   14.325    0.425    0.333   74.780  163.404
  430.740   14.006    0.423    0.320   77.070  163.347
  430.990   13.844    0.441    0.306   79.593  163.183
  431.240   13.919    0.433    0.309   82.306  163.131
  431.490   14.190    0.435    0.321   79.105  163.194
  431.740   14.579    0.449    0.329   75.358  163.242
  431.990   14.771    0.445    0.317   73.069  163.294
  432.240   13.707    0.438    0.320   72.246  163.448
  432.490   12.014    0.454    0.300   73.439  163.484
