~VERSION INFORMATION
 VERS.                 2.0:   CWLS LOG ASCII STANDARD -VERSION 2.0
 WRAP.                  NO:   ONE LINE PER DEPTH STEP
~WELL INFORMATION BLOCK
#MNEM.UNIT           DATA                    DESCRIPTION OF MNEMONIC
#---------    -------------------            -------------------------------
# Generated from Intellog Unique Number	CS_77_79/WELL/1008
WELL.         PCI PCEJ CHARD                 : Well_name    - WELL
LOC .         00/11-33-079-07W4/0            : Location     - LOCATION
UWI .         00/11-33-079-07W4/0            : Uwi          - UNIQUE WELL ID
ENTR.         JHS                            : Entered      - ENTERED BY
SRVC.         SCHLUMBERGER                   : Scn          - SERVICE COMPANY
STRT.M        140                            : top_depth    - START DEPTH
STOP.M        380                            : bot_depth    - STOP DEPTH
STEP.M        0.25                           : increment    - STEP LENGTH
 NULL. -999.2500:NULL Value
~CURVE INFORMATION BLOCK
#MNEM UNIT       ERCB CURVE CODE    CURVE DESCRIPTION
#-----------   ------------------   ----------------------------------
DEPT.M        00 001 00 00         : DEPTH        - DEPTH
DPHI.V/V      00 890 00 00         : PHID         - DENSITY POROSITY (LIMESTONE)
NPHI.V/V      00 330 00 00         : PHIN         - NEUTRON POROSITY (LIMESTONE)
GR  .API      00 310 00 00         : GR           - GAMMA RAY
ILD .OHMM     00 120 00 00         : RESD         - DEEP RESISTIVITY (DIL)
RHOB.KG/M3    00 350 00 00         : DENS         - BULK DENSITY
~PARAMETER INFORMATION
#MNEM.UNIT           DATA             DESCRIPTION OF MNEMONIC
#---------         -----------     ------------------------------
GL  .M        589.9                : gl           - GROUND LEVEL ELEVATION
EREF.M        593.55               : kb           - ELEVATION OF DEPTH REFERENCE
DATM.M        593.55               : datum        - DATUM ELEVATION
TDD .M        406                  : tdd          - TOTAL DEPTH DRILLER
RUN .         ONE                  : Run          - RUN NUMBER
ENG .         BILL                 : Engineer     - RECORDING ENGINEER
WIT .         JIM                  : Witness      - WITNESSED BY
MUD .         GEL                  : Mud_type     - MUD TYPE
MATR.         LIMESTONE            : Logunit      - NEUTRON MATRIX
TMAX.C        23                   : BHT          - MAXIMUM RECORDED TEMPERATURE
BHTD.M        406                  : BHTDEP       - MAXIMUM RECORDED TEMPERATURE
MATR.         1                    : LOGUNIT      - NEUTRON MATRIX
RMT .C        25                   : MDTP         - TEMPERATURE OF MUD
NEUT.         1                    : NEUTRON      - NEUTRON TYPE
RESI.         0                    : RESIST       - RESISTIVITY TYPE
RMC .OHMM     0.25                 : RMC          - RESISTIVITY OF MUD CAKE
RMF .OHMM     0.25                 : RMF          - RESISTIVITY OF MUD FILTRATE
SUFT.C        15                   : SUFT         - SURFACE TEMPERATURE
~A  DEPTH     PHID     PHIN       GR     RESD     DENS
# ...
  359.000    0.240    0.437   70.722   12.416 2299.270
  359.250    0.252    0.430   67.691   12.909 2278.400
  359.500    0.267    0.398   68.336   13.424 2253.340
  359.750    0.253    0.399   78.780   13.954 2276.550
  360.000    0.242    0.417   81.262   14.243 2295.550
  360.250    0.253    0.393   77.005   14.529 2276.770
  360.500    0.264    0.382   69.073   14.829 2258.000
  360.750    0.280    0.384   64.828   14.844 2230.850
  361.000    0.286    0.371   62.403   15.143 2220.490
  361.250    0.270    0.373   66.110   15.451 2247.880
  361.500    0.257    0.406   66.143   15.766 2271.080
  361.750    0.265    0.409   59.440   16.083 2256.520
  362.000    0.284    0.409   65.594   17.367 2225.170
  362.250    0.277    0.426   68.692   19.476 2235.760
  362.500    0.272    0.436   57.701   20.638 2244.260
  362.750    0.323    0.407   48.550   19.899 2158.350
  363.000    0.335    0.373   65.114   18.828 2137.490
  363.250    0.292    0.360   84.740   18.149 2211.060
  363.500    0.266    0.370   90.892   17.496 2255.220
  363.750    0.252    0.376   91.544   18.542 2278.430
  364.000    0.263    0.379   81.778   20.791 2259.690
  364.250    0.280    0.395   66.502   22.874 2230.410
  364.500    0.307    0.413   62.858   25.646 2184.370
  364.750    0.313    0.415   62.280   28.221 2174.020
  365.000    0.320    0.407   61.090   29.899 2163.610
  365.250    0.328    0.393   59.284   30.518 2149.050
  365.500    0.323    0.389   58.711   31.721 2157.550
  365.750    0.313    0.393   57.510   34.901 2174.460
  366.000    0.318    0.428   56.320   39.139 2166.190
  366.250    0.334    0.417   50.841   40.690 2139.020
  366.500    0.339    0.411   45.979   39.242 2130.750
  366.750    0.329    0.426   50.300   37.119 2147.650
  367.000    0.324    0.404   54.005   33.181 2156.170
  367.250    0.313    0.402   57.101   31.399 2175.170
  367.500    0.305    0.417   58.965   32.034 2187.870
  367.750    0.303    0.424   56.550   34.587 2192.180
  368.000    0.320    0.412   49.238   40.275 2162.930
  368.250    0.335    0.398   47.432   47.790 2137.900
  368.500    0.336    0.397   46.241   54.624 2135.940
  368.750    0.336    0.422   45.045   58.998 2136.040
  369.000    0.338    0.435   51.199   59.029 2131.940
  369.250    0.343    0.424   57.967   64.991 2123.670
  369.500    0.348    0.427   61.669   68.832 2115.390
  369.750    0.353    0.443   51.295   77.188 2107.110
  370.000    0.349    0.467   39.084   89.858 2113.550
  370.250    0.349    0.465   26.871  106.644 2113.640
  370.500    0.354    0.451   28.742  106.790 2105.370
  370.750    0.346    0.437   31.221   95.468 2118.090
  371.000    0.342    0.428   32.480   82.172 2124.490
  371.250    0.345    0.431   35.576   72.089 2120.400
  371.500    0.340    0.445   36.833   68.233 2128.940
  371.750    0.339    0.443   32.575   67.037 2131.140
  372.000    0.346    0.432   27.709   64.620 2118.660
  372.250    0.363    0.421   27.132   51.588 2089.410
  372.500    0.367    0.412   28.392   38.186 2083.230
  372.750    0.358    0.403   29.041   24.770 2098.040
  373.000    0.349    0.402   30.298   17.996 2112.850
  373.250    0.349    0.399   30.321   15.204 2112.970
  373.500    0.360    0.399   30.973   13.089 2094.190
  373.750    0.366    0.407   28.555   11.484 2083.810
  374.000    0.369    0.413   24.295   10.870 2079.760
  374.250    0.375    0.403   24.332   10.881 2069.370
  374.500    0.360    0.387   29.258   10.691 2094.650
  374.750    0.328    0.370   37.258   10.306 2149.340
  375.000    0.316    0.366   40.349    9.214 2170.420
  375.250    0.313    0.360   40.988    8.238 2174.780
  375.500    0.315    0.352   42.247    7.506 2170.650
  375.750    0.260    0.342   47.794    8.259 2265.200
  376.000    0.215    0.329   50.883   10.570 2342.940
  376.250    0.110    0.302   49.694   13.021    0.000
  376.500    0.056    0.262   43.599   17.635    0.000
  376.750    0.035    0.244   44.249   22.993    0.000
  377.000    0.017    0.236   46.731   28.876    0.000
  377.250    0.000    0.204   42.476   31.174    0.000
  377.500    0.000    0.185   36.385   28.406    0.000
  377.750    0.000    0.185   42.538   24.459    0.000
  378.000    0.017    0.272   52.375   21.052    0.000
  378.250    0.045    0.285   55.459   18.472    0.000
  378.500    0.062    0.274   57.339   17.477    0.000
  378.750    0.056    0.265   58.597   17.178    0.000
  379.000    0.047    0.273   60.462   17.527    0.000
  379.250    0.037    0.284   61.102   17.544    0.000
  379.500    0.031    0.296   60.523   17.562    0.000
  379.750    0.032    0.297   57.498   17.587    0.000
  380.000    0.042    0.292   59.978   17.280    0.000
