~VERSION INFORMATION
 VERS.                 2.0:   CWLS LOG ASCII STANDARD -VERSION 2.0
 WRAP.                  NO:   ONE LINE PER DEPTH STEP
~WELL INFORMATION BLOCK
#MNEM.UNIT           DATA                    DESCRIPTION OF MNEMONIC
#---------    -------------------            -------------------------------
# Generated from Intellog Unique Number	CS_73_76/WELL/3265
WELL.         CHEVRON N CLYDE                : Well_name    - WELL
LOC .         00/11-21-075-11W4/0            : Location     - LOCATION
UWI .         00/11-21-075-11W4/0            : Uwi          - UNIQUE WELL ID
ENTR.         SP                             : Entered      - ENTERED BY
SRVC.         SCHLUMBERGER                   : Scn          - SERVICE COMPANY
STRT.M        274.32                         : top_depth    - START DEPTH
STOP.M        502.57                         : bot_depth    - STOP DEPTH
STEP.M        0.25                           : increment    - STEP LENGTH
 NULL. -999.2500:NULL Value
~CURVE INFORMATION BLOCK
#MNEM UNIT       ERCB CURVE CODE    CURVE DESCRIPTION
#-----------   ------------------   ----------------------------------
DEPT.M        00 001 00 00         : DEPTH        - DEPTH
GR  .API      00 310 00 00         : GR           - GAMMA RAY
DPHI.V/V      00 890 00 00         : PHID         - DENSITY POROSITY (SANDSTONE)
NPHI.V/V      00 330 00 00         : PHIN         - NEUTRON POROSITY (SANDSTONE)
ILD .OHMM     00 120 00 00         : RESD         - DEEP RESISTIVITY (DIL)
~PARAMETER INFORMATION
#MNEM.UNIT           DATA             DESCRIPTION OF MNEMONIC
#---------         -----------     ------------------------------
GL  .M        656.387              : gl           - GROUND LEVEL ELEVATION
EREF.M        660.502              : kb           - ELEVATION OF DEPTH REFERENCE
DATM.M        656.387              : datum        - DATUM ELEVATION
TDD .M        506.273              : tdd          - TOTAL DEPTH DRILLER
RUN .         ONE                  : Run          - RUN NUMBER
ENG .         BILL                 : Engineer     - RECORDING ENGINEER
WIT .         JIM                  : Witness      - WITNESSED BY
MUD .         GEL                  : Mud_type     - MUD TYPE
MATR.         SANDSTONE            : Logunit      - NEUTRON MATRIX
TMAX.C        20.7264              : BHT          - MAXIMUM RECORDED TEMPERATURE
BHTD.M        905                  : BHTDEP       - MAXIMUM RECORDED TEMPERATURE
MATR.         1                    : LOGUNIT      - NEUTRON MATRIX
RMT .C        25                   : MDTP         - TEMPERATURE OF MUD
NEUT.         1                    : NEUTRON      - NEUTRON TYPE
RESI.         0                    : RESIST       - RESISTIVITY TYPE
RMC .OHMM     0.25                 : RMC          - RESISTIVITY OF MUD CAKE
RMF .OHMM     0.25                 : RMF          - RESISTIVITY OF MUD FILTRATE
SUFT.C        15                   : SUFT         - SURFACE TEMPERATURE
~A  DEPTH       GR     PHID     PHIN     RESD
# ...
  361.320   91.151    0.229    0.592    3.231
  361.570   93.703    0.251    0.665    3.311
  361.820   90.735    0.260    0.623    3.235
  362.070   91.695    0.268    0.580    3.046
  362.320   94.529    0.269    0.594    2.936
  362.570   95.774    0.260    0.633    2.906
  362.820   95.884    0.251    0.643    3.049
  363.070   97.620    0.249    0.645    3.220
  363.320   94.684    0.248    0.653    3.423
  363.570   89.024    0.242    0.658    3.456
  363.820   85.864    0.239    0.622    3.561
  364.070   84.436    0.245    0.569    3.492
  364.320   84.370    0.249    0.549    3.456
  364.570   85.112    0.230    0.609    3.430
  364.820   86.571    0.242    0.643    3.597
  365.070   88.386    0.217    0.630    3.714
  365.320   88.627    0.213    0.617    3.829
  365.570   88.196    0.222    0.601    4.002
  365.820   86.996    0.229    0.620    4.111
  366.070   85.625    0.242    0.607    4.191
  366.320   86.994    0.227    0.599    4.121
  366.570   91.567    0.215    0.618    3.925
  366.820   92.805    0.223    0.603    3.629
  367.070   93.913    0.225    0.588    3.523
  367.320   93.427    0.223    0.615    3.332
  367.570   92.434    0.213    0.621    3.189
  367.820   91.686    0.215    0.600    3.096
  368.070   91.015    0.236    0.591    3.008
  368.320   91.025    0.248    0.620    3.041
  368.570   91.971    0.255    0.599    3.418
  368.820   92.263    0.261    0.619    3.695
  369.070   91.910    0.276    0.642    4.050
  369.320   88.438    0.276    0.616    4.443
  369.570   80.946    0.275    0.546    4.677
  369.820   75.885    0.286    0.483    5.089
  370.070   81.236    0.285    0.544    5.165
  370.320   82.766    0.299    0.603    5.417
  370.570   79.474    0.287    0.566    5.427
  370.820   75.974    0.277    0.523    5.297
  371.070   72.539    0.265    0.517    5.237
  371.320   79.724    0.266    0.549    5.002
  371.570   80.871    0.273    0.567    4.557
  371.820   80.824    0.264    0.561    3.987
  372.070   82.827    0.252    0.539    3.522
  372.320   88.166    0.271    0.549    3.058
  372.570   90.386    0.283    0.570    2.634
  372.820   93.060    0.261    0.700    2.680
  373.070   92.379    0.256    0.755    3.340
  373.320   87.896    0.272    0.696    4.350
  373.570   82.200    0.271    0.633    5.453
  373.820   79.309    0.263    0.560    6.556
  374.070   76.636    0.246    0.562    7.096
  374.320   74.718    0.243    0.567    7.129
  374.570   73.075    0.255    0.521    6.895
  374.820   75.206    0.241    0.521    6.802
  375.070   78.621    0.225    0.501    6.384
  375.320   83.188    0.217    0.487    6.210
  375.570   86.593    0.226    0.503    5.892
  375.820   85.177    0.243    0.509    5.729
  376.070   82.519    0.250    0.526    5.619
  376.320   81.326    0.259    0.521    5.642
  376.570   78.668    0.268    0.538    5.828
  376.820   77.386    0.277    0.553    5.821
  377.070   75.480    0.286    0.564    5.951
  377.320   72.896    0.308    0.574    5.943
  377.570   71.512    0.315    0.572    5.993
  377.820   73.293    0.311    0.562    6.050
  378.070   75.097    0.304    0.567    6.056
  378.320   77.260    0.307    0.555    6.094
  378.570   78.589    0.291    0.552    6.163
  378.820   79.570    0.280    0.558    6.245
  379.070   80.443    0.286    0.556    6.276
  379.320   80.359    0.287    0.544    6.279
  379.570   80.641    0.281    0.515    6.276
  379.820   80.214    0.285    0.515    6.256
  380.070   78.127    0.286    0.543    6.162
  380.320   76.061    0.279    0.548    6.164
  380.570   76.489    0.264    0.529    6.164
  380.820   80.568    0.257    0.517    6.164
  381.070   82.049    0.265    0.532    6.162
  381.320   80.925    0.256    0.544    6.158
  381.570   79.365    0.245    0.545    6.045
  381.820   78.732    0.234    0.544    6.051
  382.070   79.811    0.238    0.559    6.052
  382.320   83.257    0.244    0.551    6.052
  382.570   85.745    0.248    0.527    6.054
  382.820   87.016    0.251    0.512    6.047
  383.070   85.546    0.271    0.525    6.163
  383.320   81.304    0.285    0.538    6.291
  383.570   79.924    0.294    0.527    6.269
  383.820   79.211    0.292    0.516    6.407
  384.070   79.340    0.277    0.539    6.398
  384.320   80.832    0.258    0.525    6.311
  384.570   83.409    0.251    0.503    6.130
  384.820   84.621    0.254    0.534    5.827
  385.070   82.947    0.241    0.561    5.574
  385.320   83.064    0.231    0.553    5.496
  385.570   86.368    0.208    0.536    5.420
  385.820   87.741    0.223    0.583    5.485
  386.070   86.767    0.251    0.582    5.540
  386.320   82.554    0.246    0.548    5.626
  386.570   79.029    0.253    0.529    5.624
  386.820   78.815    0.259    0.513    5.622
  387.070   82.373    0.254    0.547    5.633
  387.320   83.497    0.261    0.547    5.520
  387.570   82.808    0.270    0.519    5.416
  387.820   82.486    0.234    0.518    5.364
  388.070   85.848    0.207    0.535    5.078
  388.320   87.688    0.239    0.535    5.036
  388.570   88.697    0.239    0.534    4.928
  388.820   88.730    0.203    0.525    5.047
  389.070   87.775    0.241    0.541    5.032
  389.320   85.214    0.251    0.559    5.128
  389.570   87.361    0.218    0.575    5.235
  389.820   87.727    0.204    0.561    5.217
  390.070   86.550    0.231    0.550    5.330
  390.320   84.546    0.236    0.504    5.315
  390.570   82.879    0.244    0.486    5.145
  390.820   84.490    0.251    0.482    4.908
  391.070   84.715    0.248    0.494    4.328
  391.320   86.870    0.250    0.517    3.789
  391.570   90.660    0.255    0.520    3.064
  391.820   91.895    0.263    0.543    2.608
  392.070   93.187    0.276    0.578    2.156
  392.320   92.920    0.287    0.727    1.868
  392.570   91.716    0.274    0.741    1.766
  392.820   96.183    0.274    0.750    1.876
  393.070   96.102    0.284    0.764    1.951
  393.320   94.164    0.274    0.636    2.170
  393.570   90.790    0.262    0.585    2.508
  393.820   87.515    0.260    0.559    2.769
  394.070   85.299    0.270    0.534    3.377
  394.320   86.687    0.266    0.524    4.051
  394.570   86.554    0.257    0.542    4.432
  394.820   86.296    0.254    0.529    4.663
  395.070   83.613    0.275    0.557    4.678
  395.320   76.731    0.304    0.566    4.680
  395.570   67.741    0.307    0.510    4.680
  395.820   62.733    0.312    0.490    4.681
  396.070   59.291    0.319    0.469    4.674
  396.320   56.452    0.323    0.458    4.784
  396.570   56.004    0.331    0.451    4.674
  396.820   55.521    0.334    0.448    4.681
  397.070   54.458    0.333    0.438    4.687
  397.320   54.846    0.322    0.440    4.592
  397.570   56.858    0.316    0.455    4.596
  397.820   57.680    0.330    0.468    4.595
  398.070   56.597    0.342    0.462    4.594
  398.320   56.605    0.338    0.516    4.585
  398.570   56.609    0.324    0.485    4.688
  398.820   56.560    0.315    0.491    4.679
  399.070   56.929    0.339    0.487    4.679
  399.320   56.620    0.335    0.468    4.679
  399.570   56.626    0.327    0.459    4.682
  399.820   55.343    0.320    0.463    4.719
  400.070   55.471    0.316    0.468    4.765
  400.320   54.996    0.327    0.461    4.766
  400.570   54.170    0.338    0.471    4.761
  400.820   54.222    0.345    0.485    4.858
  401.070   54.221    0.331    0.485    4.949
  401.320   54.186    0.338    0.475    4.939
  401.570   54.812    0.339    0.450    5.034
  401.820   55.132    0.331    0.458    5.080
  402.070   56.177    0.323    0.466    5.229
  402.320   57.124    0.311    0.472    5.298
  402.570   58.872    0.311    0.478    5.527
  402.820   59.104    0.315    0.491    5.630
  403.070   57.162    0.314    0.527    5.690
  403.320   55.148    0.315    0.525    5.984
  403.570   54.877    0.321    0.501    6.281
  403.820   56.230    0.328    0.480    7.051
  404.070   59.024    0.320    0.466    7.582
  404.320   59.661    0.285    0.475    8.897
  404.570   58.905    0.168    0.502   10.048
