~VERSION INFORMATION
 VERS.                 2.0:   CWLS LOG ASCII STANDARD -VERSION 2.0
 WRAP.                  NO:   ONE LINE PER DEPTH STEP
~WELL INFORMATION BLOCK
#MNEM.UNIT           DATA                    DESCRIPTION OF MNEMONIC
#---------    -------------------            -------------------------------
# Generated from Intellog Unique Number	CW_73_75/WELL/3529
WELL.         ULSTER G&W MARTEN HILLS        : Well_name    - WELL
LOC .         00/12-12-074-02W5/0            : Location     - LOCATION
UWI .         00/12-12-074-02W5/0            : Uwi          - UNIQUE WELL ID
ENTR.         T                              : Entered      - ENTERED BY
SRVC.         SCHLUMBERGER                   : Scn          - SERVICE COMPANY
STRT.M        360                            : top_depth    - START DEPTH
STOP.M        600                            : bot_depth    - STOP DEPTH
STEP.M        0.25                           : increment    - STEP LENGTH
 NULL. -999.2500:NULL Value
~CURVE INFORMATION BLOCK
#MNEM UNIT       ERCB CURVE CODE    CURVE DESCRIPTION
#-----------   ------------------   ----------------------------------
DEPT.M        00 001 00 00         : DEPTH        - DEPTH
ILD .OHMM     00 120 00 00         : RESD         - DEEP RESISTIVITY (DIL)
DPHI.V/V      00 890 00 00         : PHID         - DENSITY POROSITY (SANDSTONE)
NPHI.V/V      00 330 00 00         : PHIN         - NEUTRON POROSITY (SANDSTONE)
GR  .API      00 310 00 00         : GR           - GAMMA RAY
~PARAMETER INFORMATION
#MNEM.UNIT           DATA             DESCRIPTION OF MNEMONIC
#---------         -----------     ------------------------------
GL  .M        644                  : gl           - GROUND LEVEL ELEVATION
EREF.M        647.2                : kb           - ELEVATION OF DEPTH REFERENCE
DATM.M        647.2                : datum        - DATUM ELEVATION
TDD .M        606                  : tdd          - TOTAL DEPTH DRILLER
RUN .         ONE                  : Run          - RUN NUMBER
ENG .         BILL                 : Engineer     - RECORDING ENGINEER
WIT .         JIM                  : Witness      - WITNESSED BY
MUD .         GEL                  : Mud_type     - MUD TYPE
MATR.         SANDSTONE            : Logunit      - NEUTRON MATRIX
TMAX.C        23                   : BHT          - MAXIMUM RECORDED TEMPERATURE
BHTD.M        606                  : BHTDEP       - MAXIMUM RECORDED TEMPERATURE
MATR.         1                    : LOGUNIT      - NEUTRON MATRIX
RMT .C        17                   : MDTP         - TEMPERATURE OF MUD
NEUT.         1                    : NEUTRON      - NEUTRON TYPE
RESI.         0                    : RESIST       - RESISTIVITY TYPE
RMC .OHMM     2.6                  : RMC          - RESISTIVITY OF MUD CAKE
RMF .OHMM     1.7                  : RMF          - RESISTIVITY OF MUD FILTRATE
SUFT.C        15                   : SUFT         - SURFACE TEMPERATURE
~A  DEPTH     RESD     PHID     PHIN       GR
# ...
  490.500    5.096    0.204    0.338   91.155
  490.750    5.192    0.194    0.333   92.932
  491.000    5.195    0.183    0.333   95.300
  491.250    5.292    0.177    0.335   96.486
  491.500    5.393    0.175    0.337   95.310
  491.750    5.596    0.185    0.335   93.541
  492.000    5.701    0.189    0.312   88.231
  492.250    6.025    0.181    0.312   85.282
  492.500    6.369    0.170    0.309   80.562
  492.750    6.256    0.157    0.312   79.385
  493.000    5.817    0.162    0.320   80.571
  493.250    5.609    0.181    0.329   84.121
  493.500    5.509    0.187    0.337   90.032
  493.750    5.312    0.176    0.343   97.715
  494.000    5.123    0.164    0.347   97.129
  494.250    5.032    0.170    0.349   88.274
  494.500    4.943    0.175    0.344   90.051
  494.750    4.854    0.178    0.348   96.553
  495.000    4.857    0.188    0.355  104.236
  495.250    5.040    0.206    0.348  119.009
  495.500    5.231    0.224    0.323  123.739
  495.750    5.427    0.231    0.321   88.304
  496.000    5.632    0.237    0.325   84.765
  496.250    5.532    0.251    0.334   91.857
  496.500    5.335    0.261    0.341   89.499
  496.750    5.144    0.266    0.345   80.644
  497.000    5.053    0.255    0.334   82.422
  497.250    5.341    0.243    0.316   79.472
  497.500    5.964    0.224    0.312   73.570
  497.750    6.420    0.166    0.306   65.307
  498.000    6.661    0.137    0.294   61.178
  498.250    7.040    0.109    0.272   61.183
  498.500    7.305    0.095    0.264   59.415
  498.750    7.046    0.179    0.310   61.191
  499.000    6.920    0.249    0.335   65.922
  499.250    6.553    0.275    0.354   70.654
  499.500    6.437    0.277    0.346   70.068
  499.750    6.322    0.275    0.332   68.893
  500.000    6.325    0.266    0.335   68.896
  500.250    6.443    0.252    0.338   68.309
  500.500    6.565    0.244    0.346   67.723
  500.750    6.689    0.262    0.357   64.775
  501.000    6.941    0.277    0.354   63.598
  501.250    7.073    0.276    0.350   65.375
  501.500    6.947    0.272    0.357   67.742
  501.750    6.700    0.259    0.367   70.112
  502.000    6.580    0.248    0.369   68.934
  502.250    6.582    0.256    0.361   64.214
  502.500    6.957    0.261    0.355   61.856
  502.750    7.628    0.254    0.349   65.404
  503.000    7.914    0.244    0.346   69.545
  503.250    8.837    0.230    0.341   71.321
  503.500   10.051    0.212    0.327   70.735
  503.750   11.431    0.174    0.303   69.559
  504.000   12.081    0.144    0.251   67.201
  504.250   11.440    0.082    0.203   64.253
  504.500   10.635    0.071    0.154   60.123
  504.750    9.359    0.051    0.119   54.812
  505.000    9.024    0.052    0.175   51.274
  505.250    8.238    0.099    0.240   54.231
  505.500    7.659    0.152    0.301   59.551
  505.750    7.120    0.182    0.344   65.463
  506.000    6.620    0.245    0.363   66.650
  506.250    6.044    0.269    0.359   59.567
  506.500    5.828    0.263    0.345   55.438
  506.750    5.620    0.260    0.328   60.758
  507.000    5.520    0.264    0.327   67.260
  507.250    5.423    0.270    0.327   70.808
  507.500    5.424    0.272    0.331   70.222
  507.750    5.231    0.273    0.336   70.228
  508.000    5.045    0.278    0.339   71.414
  508.250    4.954    0.274    0.343   73.784
  508.500    4.778    0.247    0.354   74.377
  508.750    4.694    0.235    0.374   75.563
  509.000    4.695    0.217    0.373   78.521
  509.250    4.784    0.216    0.369   82.071
  509.500    4.785    0.216    0.364   83.257
  509.750    4.966    0.217    0.358   81.492
  510.000    5.153    0.217    0.354   81.495
  510.250    5.348    0.216    0.345   82.090
  510.500    5.349    0.211    0.338   84.458
  510.750    5.352    0.206    0.339   86.825
  511.000    5.354    0.199    0.344   90.374
  511.250    5.356    0.184    0.345   89.788
  511.500    5.358    0.184    0.344   82.705
  511.750    5.359    0.192    0.340   86.254
  512.000    5.362    0.186    0.334   88.622
  512.250    5.462    0.171    0.332   83.901
  512.500    5.464    0.177    0.324   80.954
  512.750    5.568    0.190    0.334   86.273
  513.000    5.571    0.187    0.340   89.232
  513.250    5.676    0.181    0.341   89.827
  513.500    5.678    0.187    0.339   88.650
  513.750    5.679    0.187    0.339   90.427
  514.000    5.682    0.182    0.339   89.842
  514.250    5.580    0.182    0.335   92.800
  514.500    5.583    0.183    0.329   95.758
  514.750    5.584    0.184    0.321   98.126
  515.000    5.485    0.185    0.310   93.407
  515.250    6.238    0.161    0.298   84.550
  515.500    7.359    0.121    0.282   69.788
  515.750    9.006    0.030    0.260   62.116
  516.000    9.873    0.033    0.265   64.483
  516.250    8.689    0.042    0.289   68.623
  516.500    7.931    0.061    0.313   76.306
  516.750    6.979    0.133    0.342   83.989
  517.000    6.608    0.172    0.351   92.263
  517.250    5.923    0.193    0.353   97.584
  517.500    5.712    0.182    0.348  102.314
  517.750    5.410    0.171    0.345   91.096
  518.000    5.410    0.167    0.343   93.463
  518.250    5.412    0.171    0.345   98.196
  518.500    5.415    0.176    0.343   98.201
  518.750    5.516    0.176    0.343   98.795
  519.000    5.621    0.176    0.344   97.618
  519.250    5.623    0.177    0.347   99.987
  519.500    5.624    0.172    0.347  100.581
  519.750    5.627    0.155    0.348   98.224
  520.000    5.840    0.131    0.346   99.409
  520.250    5.950    0.140    0.344   91.737
  520.500    6.174    0.156    0.343  100.601
  520.750    6.291    0.174    0.347  100.606
  521.000    6.293    0.175    0.352   99.431
  521.250    6.295    0.175    0.349  101.209
  521.500    6.297    0.175    0.348  101.211
  521.750    6.416    0.179    0.346   99.446
  522.000    6.659    0.181    0.343   98.858
  522.250    6.910    0.175    0.338   97.684
  522.500    7.040    0.168    0.333   94.736
  522.750    7.172    0.161    0.331   93.558
  523.000    7.308    0.145    0.329   92.973
  523.250    7.445    0.132    0.326   93.568
  523.500    7.869    0.121    0.322   93.572
  523.750    8.628    0.116    0.320   93.576
  524.000    8.474    0.121    0.316   90.037
  524.250    7.878    0.147    0.314   88.862
  524.500    7.460    0.164    0.316   93.592
  524.750    7.194    0.167    0.321   98.322
  525.000    6.938    0.162    0.327  102.461
  525.250    6.814    0.159    0.325  105.419
  525.500    6.814    0.157    0.324  106.606
  525.750    6.820    0.153    0.325  102.475
  526.000    6.001    0.150    0.325   97.164
  526.250    6.004    0.148    0.325   97.762
  526.500    6.118    0.156    0.323   95.404
  526.750    6.348    0.165    0.323   93.045
  527.000    6.587    0.174    0.322   89.507
  527.250    6.835    0.176    0.326   93.056
  527.500    7.357    0.174    0.332   96.603
  527.750    8.368    0.165    0.339  100.152
  528.000    9.173    0.156    0.337  103.701
  528.250   10.244    0.141    0.332  109.023
  528.500   11.026    0.123    0.314  106.665
  528.750   13.248    0.064    0.257   98.400
  529.000   15.346    0.041    0.201   54.696
  529.250   17.773    0.019    0.156   43.478
  529.500   17.779    0.013    0.178   47.028
  529.750   19.138    0.023    0.212   50.576
  530.000   21.372    0.128    0.227   54.716
  530.250   24.754    0.164    0.154   55.310
  530.500   29.201    0.048    0.089   51.771
  530.750   33.209   -0.006    0.081   44.691
  531.000   35.101   -0.006    0.082   43.513
  531.250   34.480    0.005    0.082   42.336
  531.500   34.486   -0.000    0.077   42.342
  531.750   36.451   -0.008    0.073   42.937
  532.000   39.237   -0.017    0.082   43.533
  532.250   42.236   -0.017    0.106   45.900
  532.500   45.463   -0.014    0.136   50.038
  532.750   45.480    0.001    0.187   54.770
  533.000   40.761    0.066    0.257   54.774
  533.250   33.334    0.130    0.290   54.188
  533.500   25.803    0.223    0.327   57.737
  533.750   19.973    0.283    0.354   61.286
