~VERSION INFORMATION
 VERS.                 2.0:   CWLS LOG ASCII STANDARD -VERSION 2.0
 WRAP.                  NO:   ONE LINE PER DEPTH STEP
~WELL INFORMATION BLOCK
#MNEM.UNIT           DATA                    DESCRIPTION OF MNEMONIC
#---------    -------------------            -------------------------------
# Generated from Intellog Unique Number	CS_69_70/WELL/878
NULL.         -999.25                        : NULL_VALUE
WELL.         SULPETRO LIMITED               : Well_name    - WELL              
LOC .         00/10-32-070-10W4/0            : Location     - LOCATION          
UWI .         00/10-32-070-10W4/0            : Uwi          - UNIQUE WELL ID    
ENTR.         SP                             : Entered      - ENTERED BY        
SRVC.         SCHLUMBERGER                   : Scn          - SERVICE COMPANY   
STRT.M        315                            : top_depth    - START DEPTH       
STOP.M        540                            : bot_depth    - STOP DEPTH        
STEP.M        0.25                           : increment    - STEP LENGTH       
~CURVE INFORMATION BLOCK
#MNEM UNIT       ERCB CURVE CODE    CURVE DESCRIPTION
#-----------   ------------------   ----------------------------------
DEPT.M        00 001 00 00         : DEPTH        - DEPTH                       
DPHI.V/V      00 890 00 00         : PHID         - DENSITY POROSITY (LIMESTONE)
NPHI.V/V      00 330 00 00         : PHIN         - NEUTRON POROSITY (LIMESTONE)
GR  .API      00 310 00 00         : GR           - GAMMA RAY                   
ILD .OHMM     00 120 00 00         : RESD         - DEEP RESISTIVITY (DIL)      
~PARAMETER INFORMATION       
#MNEM.UNIT           DATA             DESCRIPTION OF MNEMONIC
#---------         -----------     ------------------------------
GL  .M        657.1                : gl           - GROUND LEVEL ELEVATION      
EREF.M        660.4                : kb           - ELEVATION OF DEPTH REFERENCE
DATM.M        657.1                : datum        - DATUM ELEVATION             
TDD .M        545                  : tdd          - TOTAL DEPTH DRILLER         
RUN .         ONE                  : Run          - RUN NUMBER                  
ENG .         BILL                 : Engineer     - RECORDING ENGINEER          
WIT .         JIM                  : Witness      - WITNESSED BY                
MUD .         GEL                  : Mud_type     - MUD TYPE                    
MATR.         LIMESTONE            : Logunit      - NEUTRON MATRIX              
TMAX.C        15                   : BHT          - MAXIMUM RECORDED TEMPERATURE
BHTD.M        545                  : BHTDEP       - MAXIMUM RECORDED TEMPERATURE
MATR.         1                    : LOGUNIT      - NEUTRON MATRIX              
RMT .C        25                   : MDTP         - TEMPERATURE OF MUD          
NEUT.         1                    : NEUTRON      - NEUTRON TYPE                
RESI.         0                    : RESIST       - RESISTIVITY TYPE            
RMC .OHMM     0.25                 : RMC          - RESISTIVITY OF MUD CAKE     
RMF .OHMM     0.25                 : RMF          - RESISTIVITY OF MUD FILTRATE 
SUFT.C        15                   : SUFT         - SURFACE TEMPERATURE         
~A  DEPTH     PHID     PHIN       GR     RESD
# ...
  358.500    0.308    0.484   91.418    7.355
  358.750    0.300    0.493   92.023    7.384
  359.000    0.289    0.502   91.296    7.399
  359.250    0.280    0.507   91.841    7.346
  359.500    0.266    0.489   93.658    7.226
  359.750    0.264    0.476   92.871    7.093
  360.000    0.284    0.471   88.934    7.016
  360.250    0.292    0.476   81.183    7.177
  360.500    0.305    0.461   71.312    7.620
  360.750    0.343    0.442   63.318    8.243
  361.000    0.364    0.429   58.655    9.240
  361.250    0.365    0.424   56.838   10.356
  361.500    0.359    0.423   58.110   10.753
  361.750    0.349    0.430   60.714   10.596
  362.000    0.332    0.440   64.105   10.248
  362.250    0.323    0.449   66.890    9.894
  362.500    0.318    0.452   68.646    9.677
  362.750    0.303    0.456   70.463    9.447
  363.000    0.286    0.432   72.461    9.069
  363.250    0.268    0.412   73.793    8.530
  363.500    0.254    0.427   76.942    8.296
  363.750    0.294    0.448   80.636    8.175
  364.000    0.346    0.473   78.213    8.192
  364.250    0.379    0.493   74.338    8.505
  364.500    0.412    0.512   71.734    8.914
  364.750    0.429    0.524   77.668    9.084
  365.000    0.329    0.507   83.542    8.852
  365.250    0.295    0.485   86.812    8.674
  365.500    0.283    0.475   82.088    8.692
  365.750    0.289    0.460   76.093    8.858
  366.000    0.299    0.434   73.004    9.318
  366.250    0.308    0.425   71.551   10.329
  366.500    0.314    0.434   72.459   10.947
  366.750    0.307    0.441   71.853   11.259
  367.000    0.298    0.436   70.642   11.756
  367.250    0.289    0.443   69.249   12.070
  367.500    0.293    0.441   68.644   12.073
  367.750    0.289    0.426   68.946   11.897
  368.000    0.254    0.402   68.280   11.811
  368.250    0.178    0.346   65.070   11.924
  368.500    0.118    0.287   61.194   12.662
  368.750    0.101    0.289   56.895   13.344
  369.000    0.209    0.321   56.107   13.624
  369.250    0.251    0.398   61.436   13.652
  369.500    0.291    0.419   65.796   13.404
  369.750    0.320    0.427   69.975   12.844
  370.000    0.332    0.433   72.942   12.539
  370.250    0.343    0.445   73.487   12.241
  370.500    0.354    0.474   72.033   12.017
  370.750    0.358    0.495   70.519   11.931
  371.000    0.336    0.473   69.974   11.889
  371.250    0.333    0.486   70.640   11.781
  371.500    0.338    0.493   71.669   11.609
  371.750    0.331    0.490   72.820   11.125
  372.000    0.315    0.473   73.910   10.860
  372.250    0.310    0.442   76.271   10.623
  372.500    0.312    0.421   78.391   10.546
  372.750    0.304    0.415   80.389   10.372
  373.000    0.289    0.410   81.358   10.126
  373.250    0.272    0.409   81.903    9.886
  373.500    0.261    0.416   80.812    9.669
  373.750    0.274    0.425   82.205    9.387
  374.000    0.284    0.430   84.385    9.062
  374.250    0.288    0.434   85.778    8.814
  374.500    0.287    0.438   85.838    8.493
  374.750    0.282    0.435   86.322    8.199
  375.000    0.273    0.433   89.108    7.885
  375.250    0.268    0.432   91.469    7.570
  375.500    0.265    0.436   91.227    7.254
  375.750    0.262    0.435   90.742    7.134
  376.000    0.263    0.428   90.742    7.017
  376.250    0.260    0.423   91.227    6.876
  376.500    0.244    0.425   92.559    6.675
  376.750    0.235    0.452   94.557    6.338
  377.000    0.238    0.479   91.045    6.256
  377.250    0.261    0.495   86.321    6.423
  377.500    0.280    0.478   84.020    7.336
  377.750    0.313    0.457   78.206    8.377
  378.000    0.336    0.443   67.487    9.459
  378.250    0.350    0.438   62.400   10.843
  378.500    0.354    0.451   60.584   11.708
  378.750    0.345    0.459   60.886   12.595
  379.000    0.347    0.455   62.218   13.151
  379.250    0.339    0.449   63.066   13.303
  379.500    0.331    0.444   62.824   13.330
  379.750    0.328    0.444   62.339   13.358
  380.000    0.330    0.446   62.036   13.362
  380.250    0.332    0.447   62.520   13.168
  380.500    0.333    0.448   63.489   13.071
  380.750    0.331    0.456   64.821   12.834
  381.000    0.329    0.452   64.276   12.764
  381.250    0.326    0.459   62.217   12.508
  381.500    0.322    0.461   60.461   12.008
  381.750    0.318    0.452   64.276   11.570
  382.000    0.310    0.444   75.176   11.149
  382.250    0.313    0.453   80.263   10.683
  382.500    0.326    0.450   84.865   10.606
  382.750    0.336    0.441   86.015   10.649
  383.000    0.343    0.433   82.261   10.710
  383.250    0.340    0.426   73.903   11.652
  383.500    0.328    0.418   69.785   11.720
  383.750    0.316    0.411   71.723   11.657
  384.000    0.309    0.406   71.662   11.380
  384.250    0.299    0.404   71.481   10.986
  384.500    0.288    0.403   76.386   10.236
  384.750    0.271    0.403   78.445    9.484
  385.000    0.256    0.403   81.593    8.626
  385.250    0.249    0.408   83.955    8.158
  385.500    0.262    0.427   85.772    7.846
  385.750    0.279    0.448   80.806    8.177
  386.000    0.298    0.464   66.272    9.046
  386.250    0.324    0.469   60.822    9.841
  386.500    0.347    0.472   59.307   10.469
  386.750    0.358    0.471   59.852   10.930
  387.000    0.369    0.457   61.548   11.139
  387.250    0.355    0.449   63.122   11.121
  387.500    0.332    0.440   68.572   10.756
  387.750    0.316    0.438   72.932   10.403
  388.000    0.313    0.454   71.176   10.329
  388.250    0.313    0.465   66.089   10.428
  388.500    0.318    0.474   61.426   11.155
  388.750    0.328    0.435   58.580   12.135
  389.000    0.339    0.422   57.308   13.226
  389.250    0.346    0.432   57.368   14.149
  389.500    0.343    0.438   56.641   14.746
  389.750    0.337    0.424   55.854   15.141
  390.000    0.332    0.415   57.368   15.171
  390.250    0.339    0.413   58.215   15.317
  390.500    0.334    0.422   56.399   15.263
  390.750    0.339    0.436   55.006   15.069
  391.000    0.350    0.439   54.642   14.766
  391.250    0.356    0.419   55.127   14.660
  391.500    0.344    0.423   56.216   14.528
  391.750    0.347    0.432   57.185   14.477
  392.000    0.357    0.441   58.517   14.426
  392.250    0.359    0.436   58.336   14.377
  392.500    0.355    0.424   57.488   14.113
  392.750    0.349    0.415   56.821   14.195
  393.000    0.344    0.413   58.335   14.332
  393.250    0.342    0.425   60.394   14.524
  393.500    0.346    0.437   60.939   14.691
  393.750    0.355    0.443   60.333   14.777
  394.000    0.359    0.436   60.394   14.836
  394.250    0.355    0.429   61.362   14.896
  394.500    0.351    0.430   61.483   14.873
  394.750    0.350    0.429   60.211   14.847
  395.000    0.353    0.424   58.213   14.822
  395.250    0.353    0.420   57.728   14.715
  395.500    0.348    0.418   57.486   14.636
  395.750    0.343    0.429   57.244   14.640
  396.000    0.340    0.446   57.243   14.644
  396.250    0.340    0.437   57.304   14.702
  396.500    0.346    0.434   57.606   14.732
  396.750    0.348    0.439   57.667   14.736
  397.000    0.341    0.446   57.727   14.739
  397.250    0.336    0.440   57.667   14.661
  397.500    0.335    0.430   57.545   14.474
  397.750    0.337    0.423   57.364   14.264
  398.000    0.342    0.430   57.787   14.159
  398.250    0.344    0.439   58.029   14.006
  398.500    0.346    0.434   58.151   14.008
  398.750    0.350    0.438   58.393   13.934
  399.000    0.361    0.459   58.271   13.911
  399.250    0.356    0.449   58.150   13.888
  399.500    0.347    0.440   57.665   13.866
  399.750    0.356    0.438   57.241   13.843
  400.000    0.367    0.440   56.817   13.846
  400.250    0.359    0.463   56.212   13.798
  400.500    0.354    0.467   55.424   13.699
  400.750    0.353    0.456   54.637   13.600
  401.000    0.358    0.448   54.334   13.579
  401.250    0.359    0.441   55.121   13.505
  401.500    0.364    0.460   56.817   13.484
  401.750    0.369    0.478   58.875   13.436
