~VERSION INFORMATION
 VERS.                 2.0:   CWLS LOG ASCII STANDARD -VERSION 2.0
 WRAP.                  NO:   ONE LINE PER DEPTH STEP
~WELL INFORMATION BLOCK
#MNEM.UNIT           DATA                    DESCRIPTION OF MNEMONIC
#---------    -------------------            -------------------------------
# Generated from Intellog Unique Number	CS_67_68/WELL/849
WELL.         PENNANT-PUMA OILS LTD          : Well_name    - WELL
LOC .         00/11-31-068-15W4/0            : Location     - LOCATION
UWI .         00/11-31-068-15W4/0            : Uwi          - UNIQUE WELL ID
ENTR.         SP                             : Entered      - ENTERED BY
SRVC.         SCHLUMBERGER                   : Scn          - SERVICE COMPANY
STRT.M        268.224                        : top_depth    - START DEPTH
STOP.M        441.724                        : bot_depth    - STOP DEPTH
STEP.M        0.25                           : increment    - STEP LENGTH
 NULL. -999.2500:NULL Value
~CURVE INFORMATION BLOCK
#MNEM UNIT       ERCB CURVE CODE    CURVE DESCRIPTION
#-----------   ------------------   ----------------------------------
DEPT.M        00 001 00 00         : DEPTH        - DEPTH
GR  .API      00 310 00 00         : GR           - GAMMA RAY
DPHI.V/V      00 890 00 00         : PHID         - DENSITY POROSITY (SANDSTONE)
NPHI.V/V      00 330 00 00         : PHIN         - NEUTRON POROSITY (SANDSTONE)
ILD .OHMM     00 120 00 00         : RESD         - DEEP RESISTIVITY (DIL)
~PARAMETER INFORMATION
#MNEM.UNIT           DATA             DESCRIPTION OF MNEMONIC
#---------         -----------     ------------------------------
GL  .M        546.506              : gl           - GROUND LEVEL ELEVATION
EREF.M        549.554              : kb           - ELEVATION OF DEPTH REFERENCE
DATM.M        546.506              : datum        - DATUM ELEVATION
TDD .M        441.35               : tdd          - TOTAL DEPTH DRILLER
RUN .         ONE                  : Run          - RUN NUMBER
ENG .         BILL                 : Engineer     - RECORDING ENGINEER
WIT .         JIM                  : Witness      - WITNESSED BY
MUD .         GEL                  : Mud_type     - MUD TYPE
MATR.         SANDSTONE            : Logunit      - NEUTRON MATRIX
TMAX.C        20.5556              : BHT          - MAXIMUM RECORDED TEMPERATURE
BHTD.M        441.35               : BHTDEP       - MAXIMUM RECORDED TEMPERATURE
MATR.         1                    : LOGUNIT      - NEUTRON MATRIX
RMT .C        25                   : MDTP         - TEMPERATURE OF MUD
NEUT.         1                    : NEUTRON      - NEUTRON TYPE
RESI.         0                    : RESIST       - RESISTIVITY TYPE
RMC .OHMM     0.25                 : RMC          - RESISTIVITY OF MUD CAKE
RMF .OHMM     0.25                 : RMF          - RESISTIVITY OF MUD FILTRATE
SUFT.C        15                   : SUFT         - SURFACE TEMPERATURE
~A  DEPTH       GR     PHID     PHIN     RESD
# ...
  355.224   93.674    0.255    0.481    3.425
  355.474   94.559    0.260    0.474    3.224
  355.724   92.534    0.275    0.464    3.228
  355.974   91.069    0.286    0.454    3.359
  356.224   91.166    0.265    0.444    3.564
  356.474   92.283    0.249    0.444    3.738
  356.724   93.115    0.239    0.450    3.890
  356.974   94.914    0.226    0.454    4.011
  357.224   98.161    0.211    0.450    4.107
  357.474  100.824    0.205    0.445    4.168
  357.724  103.622    0.214    0.459    4.232
  357.974  106.158    0.215    0.484    4.257
  358.224  108.596    0.212    0.483    4.270
  358.474  110.115    0.209    0.471    4.314
  358.724  110.806    0.215    0.465    4.401
  358.974  106.858    0.217    0.463    4.536
  359.224  102.010    0.197    0.471    4.710
  359.474  100.561    0.181    0.472    4.984
  359.724  101.945    0.169    0.463    5.333
  359.974  103.027    0.170    0.456    5.649
  360.224  102.805    0.186    0.453    5.816
  360.474  103.373    0.207    0.449    5.704
  360.724  102.106    0.207    0.443    5.530
  360.974   98.497    0.204    0.445    5.173
  361.224   98.226    0.202    0.456    4.775
  361.474  103.262    0.201    0.471    4.413
  361.724  106.309    0.211    0.483    4.148
  361.974  107.659    0.222    0.494    4.002
  362.224  107.729    0.221    0.487    3.937
  362.474  109.647    0.215    0.481    3.895
  362.724  111.464    0.204    0.479    3.855
  362.974  113.128    0.188    0.473    3.824
  363.224  112.226    0.195    0.466    3.800
  363.474  110.153    0.210    0.466    3.797
  363.724  110.736    0.204    0.473    3.810
  363.974  114.938    0.204    0.473    3.861
  364.224  118.636    0.215    0.471    3.899
  364.474  120.840    0.220    0.469    3.918
  364.724  120.115    0.222    0.472    3.741
  364.974  113.322    0.225    0.466    2.881
  365.224  108.896    0.235    0.459    2.382
  365.474  105.806    0.256    0.456    2.103
  365.724  110.907    0.283    0.456    1.901
  365.974  116.222    0.278    0.479    1.808
  366.224  119.922    0.249    0.520    1.842
  366.474  120.418    0.255    0.554    2.025
  366.724  116.301    0.248    0.532    2.205
  366.974  114.503    0.242    0.516    2.454
  367.224  113.319    0.236    0.524    2.670
  367.474  113.867    0.222    0.522    2.819
  367.724  112.389    0.220    0.517    2.830
  367.974  110.940    0.231    0.508    2.790
  368.224  110.884    0.236    0.503    2.785
  368.474  113.486    0.252    0.513    2.857
  368.724  114.397    0.246    0.521    2.990
  368.974  110.617    0.250    0.508    3.119
  369.224  108.987    0.246    0.492    3.259
  369.474  108.496    0.238    0.477    3.425
  369.724  108.647    0.226    0.462    3.560
  369.974  107.733    0.212    0.459    3.727
  370.224  106.751    0.201    0.448    3.860
  370.474  102.601    0.232    0.427    4.033
  370.724   98.695    0.277    0.403    4.263
  370.974   95.247    0.307    0.387    4.478
  371.224   91.733    0.326    0.377    4.445
  371.474   88.998    0.317    0.381    4.212
  371.724   86.898    0.302    0.392    3.955
  371.974   84.481    0.291    0.401    3.636
  372.224   81.928    0.311    0.389    3.348
  372.474   80.237    0.330    0.413    3.172
  372.724   78.444    0.337    0.448    3.062
  372.974   76.721    0.299    0.457    3.070
  373.224   74.416    0.262    0.435    3.071
  373.474   72.830    0.226    0.427    3.017
  373.724   74.770    0.223    0.425    2.813
  373.974   74.999    0.233    0.433    2.483
  374.224   72.937    0.253    0.449    2.137
  374.474   70.097    0.274    0.460    2.117
  374.724   69.665    0.297    0.466    2.177
  374.974   68.141    0.325    0.474    2.263
  375.224   68.478    0.323    0.490    2.345
  375.474   69.503    0.333    0.474    2.449
  375.724   69.263    0.334    0.464    2.400
  375.974   68.460    0.320    0.461    2.289
  376.224   67.596    0.330    0.462    2.418
  376.474   66.836    0.317    0.449    2.850
  376.724   65.935    0.287    0.437    3.272
  376.974   65.262    0.240    0.243    4.365
  377.224   64.501    0.162    0.214    5.614
  377.474   63.415    0.098    0.174    6.900
  377.724   61.768    0.055    0.161    8.040
  377.974   59.988    0.041    0.153    8.708
  378.224   58.999    0.044    0.171    7.068
  378.474   59.224    0.070    0.186    4.593
  378.724   60.798    0.120    0.213    3.240
  378.974   64.634    0.197    0.257    2.390
  379.224   67.294    0.293    0.376    2.059
  379.474   68.956    0.321    0.432    1.908
  379.724   70.243    0.323    0.446    1.834
  379.974   70.820    0.306    0.450    1.809
  380.224   72.065    0.315    0.448    1.853
  380.474   73.073    0.326    0.464    1.886
  380.724   72.710    0.306    0.455    1.936
  380.974   71.486    0.295    0.448    1.975
  381.224   70.481    0.285    0.448    1.927
  381.474   69.941    0.280    0.452    1.866
  381.724   69.951    0.303    0.456    1.816
  381.974   70.616    0.324    0.453    1.832
  382.224   71.427    0.337    0.452    1.858
  382.474   72.354    0.328    0.457    1.894
  382.724   72.432    0.327    0.461    1.917
  382.974   71.732    0.327    0.454    1.950
  383.224   70.633    0.312    0.450    1.968
  383.474   69.861    0.299    0.456    1.986
  383.724   70.538    0.304    0.461    1.996
  383.974   72.467    0.329    0.462    1.997
  384.224   75.622    0.324    0.464    1.994
  384.474   77.571    0.314    0.464    1.986
  384.724   79.639    0.323    0.463    1.970
  384.974   81.485    0.313    0.465    1.959
  385.224   84.533    0.303    0.467    1.954
  385.474   85.691    0.299    0.482    1.954
  385.724   85.692    0.297    0.476    1.951
  385.974   87.297    0.306    0.470    1.959
  386.224   89.165    0.292    0.467    2.018
  386.474   91.163    0.283    0.465    2.136
  386.724   94.094    0.268    0.474    2.273
  386.974   97.100    0.252    0.480    2.447
  387.224  100.018    0.240    0.476    2.639
  387.474  101.345    0.231    0.478    2.907
  387.724  101.946    0.225    0.467    3.166
  387.974  100.554    0.222    0.457    3.344
  388.224   99.218    0.222    0.463    3.426
  388.474   99.470    0.230    0.472    3.319
  388.724  101.975    0.229    0.457    3.165
  388.974  104.307    0.213    0.449    3.037
  389.224  107.520    0.198    0.457    2.888
  389.474  109.431    0.187    0.467    2.779
  389.724  109.584    0.184    0.473    2.681
  389.974  110.465    0.194    0.478    2.628
  390.224  111.570    0.191    0.478    2.622
  390.474  112.965    0.186    0.478    2.695
  390.724  113.310    0.199    0.478    2.786
  390.974  112.353    0.206    0.475    2.837
  391.224  109.502    0.221    0.467    2.847
  391.474  110.287    0.196    0.450    2.799
  391.724  112.944    0.163    0.449    2.722
  391.974  117.416    0.187    0.492    2.554
  392.224  119.816    0.238    0.524    2.379
  392.474  121.814    0.253    0.548    2.251
  392.724  122.903    0.239    0.548    2.176
  392.974  124.811    0.232    0.537    2.172
  393.224  126.238    0.227    0.540    2.170
  393.474  127.478    0.225    0.559    2.150
  393.724  125.629    0.238    0.570    2.103
  393.974  124.077    0.228    0.581    2.121
  394.224  123.516    0.217    0.589    2.202
  394.474  123.359    0.229    0.581    2.302
  394.724  122.373    0.244    0.565    2.400
  394.974  121.213    0.226    0.551    2.496
  395.224  117.853    0.205    0.527    2.647
  395.474  117.771    0.187    0.497    2.803
  395.724  120.636    0.208    0.491    3.005
  395.974  118.359    0.228    0.505    3.265
  396.224  114.390    0.225    0.472    3.509
  396.474  109.365    0.233    0.445    3.798
  396.724  105.903    0.251    0.433    4.077
  396.974  102.469    0.260    0.421    4.258
  397.224   99.799    0.223    0.409    4.206
  397.474   97.563    0.195    0.418    3.954
  397.724  101.572    0.196    0.426    3.762
  397.974  104.546    0.227    0.430    3.783
  398.224  106.252    0.233    0.438    3.918
  398.474  107.317    0.228    0.441    4.025
