~VERSION INFORMATION
 VERS.                 2.0:   CWLS LOG ASCII STANDARD -VERSION 2.0
 WRAP.                  NO:   ONE LINE PER DEPTH STEP
~WELL INFORMATION BLOCK
#MNEM.UNIT           DATA                    DESCRIPTION OF MNEMONIC
#---------    -------------------            -------------------------------
# Generated from Intellog Unique Number	CW_79_81/WELL/2476
WELL.         10-32-080-20W4                 : Well_name    - WELL
LOC .         00/10-32-080-20W4/0            : Location     - LOCATION
UWI .         00/10-32-080-20W4/0            : Uwi          - UNIQUE WELL ID
ENTR.         MAX                            : Entered      - ENTERED BY
SRVC.         SCHLUMBERGER                   : Scn          - SERVICE COMPANY
STRT.M        149.602                        : top_depth    - START DEPTH
STOP.M        396.102                        : bot_depth    - STOP DEPTH
STEP.M        0.25                           : increment    - STEP LENGTH
 NULL. -999.2500:NULL Value
~CURVE INFORMATION BLOCK
#MNEM UNIT       ERCB CURVE CODE    CURVE DESCRIPTION
#-----------   ------------------   ----------------------------------
DEPT.M        00 001 00 00         : DEPTH        - DEPTH
ILD .OHMM     00 120 00 00         : RESD         - DEEP RESISTIVITY (DIL)
NPHI.V/V      00 330 00 00         : PHIN         - NEUTRON POROSITY (SANDSTONE)
DPHI.V/V      00 890 00 00         : PHID         - DENSITY POROSITY (SANDSTONE)
GR  .API      00 310 00 00         : GR           - GAMMA RAY
CALI.MM       00 280 01 00         : CAL          - CALIPER
~PARAMETER INFORMATION
#MNEM.UNIT           DATA             DESCRIPTION OF MNEMONIC
#---------         -----------     ------------------------------
GL  .M        578.815              : gl           - GROUND LEVEL ELEVATION
EREF.M        581.254              : kb           - ELEVATION OF DEPTH REFERENCE
DATM.M        578.815              : datum        - DATUM ELEVATION
TDD .M        403.25               : tdd          - TOTAL DEPTH DRILLER
RUN .         ONE                  : Run          - RUN NUMBER
ENG .         BILL                 : Engineer     - RECORDING ENGINEER
WIT .         JIM                  : Witness      - WITNESSED BY
MUD .         GEL                  : Mud_type     - MUD TYPE
MATR.         SANDSTONE            : Logunit      - NEUTRON MATRIX
TMAX.C        21.1111              : BHT          - MAXIMUM RECORDED TEMPERATURE
BHTD.M        403.25               : BHTDEP       - MAXIMUM RECORDED TEMPERATURE
MATR.         1                    : LOGUNIT      - NEUTRON MATRIX
RMT .C        13.3333              : MDTP         - TEMPERATURE OF MUD
NEUT.         1                    : NEUTRON      - NEUTRON TYPE
RESI.         0                    : RESIST       - RESISTIVITY TYPE
RMC .OHMM     8                    : RMC          - RESISTIVITY OF MUD CAKE
RMF .OHMM     4.46                 : RMF          - RESISTIVITY OF MUD FILTRATE
SUFT.C        -20.5556             : SUFT         - SURFACE TEMPERATURE
~A  DEPTH     RESD     PHIN     PHID       GR      CAL
  149.602    0.000    0.460    0.227  102.473  167.003
  149.852    4.202    0.550    0.263  122.589  199.159
  150.102    4.643    0.537    0.252  120.196  200.496
  150.352    5.280    0.513    0.244  115.975  203.933
  150.602    6.592    0.487    0.240  109.271  203.664
  150.852    8.571    0.470    0.242   95.967  198.617
  151.102   11.399    0.476    0.241   78.239  194.160
  151.352   15.404    0.447    0.253   64.757  188.812
  151.602   20.262    0.403    0.268   50.213  182.164
  151.852   25.061    0.366    0.277   35.314  174.410
  152.102   30.179    0.355    0.269   26.625  166.675
  152.352   30.370    0.357    0.264   25.863  168.291
  152.602   29.672    0.353    0.263   25.825  166.635
  152.852   29.157    0.347    0.268   26.320  164.675
  153.102   28.699    0.346    0.274   26.522  164.218
  153.352   28.247    0.353    0.279   25.839  167.159
  153.602   27.634    0.377    0.287   23.715  176.891
  153.852   26.774    0.391    0.298   22.700  183.903
  154.102   25.975    0.415    0.315   23.605  195.440
  154.352   24.090    0.421    0.343   25.931  205.764
  154.602   21.793    0.428    0.339   31.562  211.701
  154.852   19.413    0.444    0.315   39.726  213.548
  155.102   16.583    0.474    0.339   49.258  212.245
  155.352   14.586    0.483    0.355   60.528  198.033
  155.602    8.578    0.503    0.333   60.965  186.786
  155.852    9.114    0.473    0.320   52.381  184.534
  156.102   11.270    0.430    0.300   42.790  187.674
  156.352   13.321    0.403    0.279   37.621  193.509
  156.602   13.402    0.422    0.287   40.739  200.233
  156.852   10.724    0.447    0.298   45.866  200.166
  157.102    7.449    0.452    0.291   51.257  188.132
  157.352    5.961    0.457    0.287   58.950  178.481
  157.602    5.151    0.479    0.278   72.481  176.020
  157.852    4.945    0.516    0.268   87.074  178.658
  158.102    6.043    0.541    0.274   88.401  177.475
  158.352    6.879    0.540    0.256   82.216  177.843
  158.602    9.333    0.537    0.246   71.567  180.980
  158.852   12.412    0.514    0.260   54.197  181.720
  159.102   17.230    0.442    0.275   38.122  175.672
  159.352   25.135    0.363    0.281   27.765  166.325
  159.602   28.931    0.384    0.275   24.048  165.135
  159.852   26.211    0.381    0.284   24.503  165.497
  160.102   21.251    0.371    0.306   29.658  167.829
  160.352   16.754    0.380    0.318   37.464  169.867
  160.602   13.497    0.397    0.316   44.270  176.604
  160.852   11.078    0.419    0.306   49.370  187.139
  161.102    8.736    0.449    0.303   57.158  192.495
  161.352    7.352    0.471    0.291   67.933  181.616
  161.602    7.028    0.494    0.281   70.258  180.360
  161.852    6.757    0.475    0.288   72.756  178.804
  162.102    6.409    0.462    0.290   75.318  175.348
  162.352    5.985    0.471    0.280   78.001  172.691
  162.602    5.474    0.489    0.252   81.320  177.817
  162.852    5.073    0.479    0.224   82.755  177.751
  163.102    4.673    0.493    0.217   84.851  174.903
  163.352    4.258    0.500    0.254   87.646  173.244
  163.602    3.824    0.505    0.276   91.269  173.183
  163.852    3.437    0.510    0.272   96.547  174.125
  164.102    3.150    0.515    0.278  105.389  174.876
  164.352    3.053    0.520    0.267  107.311  176.895
  164.602    2.983    0.534    0.263  109.407  182.828
  164.852    2.948    0.562    0.277  110.438  183.374
  165.102    2.923    0.573    0.287  110.168  181.119
  165.352    2.897    0.567    0.281  108.834  180.558
  165.602    2.868    0.581    0.256  106.994  188.497
  165.852    2.843    0.580    0.248  106.225  190.511
  166.102    2.799    0.587    0.261  104.540  192.861
  166.352    2.786    0.584    0.265  105.682  195.801
  166.602    2.802    0.584    0.258  106.238  196.337
  166.852    2.845    0.589    0.251  104.850  193.276
  167.102    2.938    0.596    0.265  102.213  186.389
  167.352    3.118    0.594    0.269  102.178  182.174
  167.602    3.324    0.580    0.253  103.787  186.509
  167.852    3.600    0.577    0.250  103.816  186.951
  168.102    3.990    0.581    0.250   99.657  185.089
  168.352    4.514    0.586    0.247   91.013  183.225
  168.602    5.249    0.575    0.240   78.260  184.106
  168.852    6.065    0.539    0.228   70.117  182.809
  169.102    6.280    0.512    0.210   68.188  177.160
  169.352    6.296    0.478    0.205   66.624  173.003
  169.602    6.402    0.452    0.211   67.419  172.146
  169.852    6.761    0.446    0.227   70.570  175.687
  170.102    7.538    0.477    0.252   72.693  184.086
  170.352    8.125    0.490    0.258   65.774  184.436
  170.602    8.720    0.500    0.293   60.551  175.996
  170.852    9.069    0.487    0.306   59.391  166.049
  171.102    9.160    0.488    0.307   58.057  161.395
  171.352    8.964    0.495    0.303   55.609  162.637
  171.602    8.233    0.462    0.304   54.784  164.251
  171.852    7.295    0.451    0.299   56.710  164.594
  172.102    6.622    0.454    0.294   59.978  167.743
  172.352    6.326    0.455    0.285   64.309  170.583
  172.602    6.251    0.454    0.273   68.287  174.722
  172.852    6.266    0.457    0.259   71.673  177.961
  173.102    6.173    0.481    0.246   74.914  174.042
  173.352    5.981    0.496    0.264   72.425  172.740
  173.602    5.717    0.484    0.273   70.268  176.270
  173.852    5.375    0.472    0.259   71.651  179.515
  174.102    5.048    0.468    0.243   77.044  185.054
  174.352    4.776    0.476    0.238   84.617  191.087
  174.602    4.532    0.495    0.253   91.124  190.250
  174.852    4.358    0.514    0.248   95.507  184.358
  175.102    4.166    0.517    0.247   98.071  181.111
  175.352    3.982    0.512    0.244   99.924  181.753
  175.602    3.822    0.515    0.241  100.008  186.288
  175.852    3.675    0.525    0.240   99.325  192.619
  176.102    3.486    0.530    0.248  100.738  197.621
  176.352    3.353    0.544    0.266   99.719  202.981
  176.602    3.252    0.567    0.272  101.336  204.521
  176.852    2.999    0.576    0.280  101.361  199.171
  177.102    2.831    0.579    0.293  100.267  194.919
  177.352    2.772    0.581    0.300   97.758  195.658
  177.602    2.703    0.595    0.278   93.402  201.091
  177.852    2.579    0.588    0.294   96.561  200.621
  178.102    2.502    0.588    0.283   99.821  201.362
  178.352    2.401    0.578    0.280  100.790  202.098
  178.602    2.321    0.572    0.276  101.231  202.841
  178.852    2.277    0.576    0.272  102.143  203.092
  179.102    2.257    0.589    0.287  104.097  200.824
  179.352    2.254    0.596    0.295  105.785  195.764
  179.602    2.285    0.590    0.293  104.568  194.913
  179.852    2.303    0.586    0.294  105.125  196.454
  180.102    2.308    0.588    0.295  105.443  198.792
  180.352    2.306    0.592    0.291  104.462  201.630
  180.602    2.302    0.588    0.264  101.429  205.536
  180.852    2.299    0.577    0.232   98.199  203.389
  181.102    2.297    0.582    0.229   95.564  201.328
  181.352    2.294    0.588    0.247   94.353  204.676
  181.602    2.308    0.591    0.264   94.676  207.822
  181.852    2.342    0.587    0.271   96.527  207.964
  182.102    2.394    0.576    0.279   99.930  204.597
  182.352    2.410    0.578    0.281  100.643  202.034
  182.602    2.407    0.588    0.257  100.372  198.781
  182.852    2.417    0.592    0.247  101.871  200.924
  183.102    2.431    0.589    0.255  104.783  201.265
  183.352    2.446    0.584    0.267  107.341  199.107
  183.602    2.468    0.586    0.257  106.209  199.492
  183.852    2.502    0.592    0.260  105.436  195.687
  184.102    2.555    0.595    0.243  106.588  193.232
  184.352    2.608    0.595    0.244  107.381  192.870
  184.602    2.662    0.595    0.247  108.524  192.014
  184.852    2.707    0.593    0.245  109.842  188.964
  185.102    2.728    0.590    0.241  110.123  183.069
  185.352    2.745    0.588    0.251  109.353  183.841
  185.602    2.762    0.592    0.248  106.961  185.779
  185.852    2.779    0.592    0.239  104.747  185.921
