~VERSION INFORMATION
 VERS.                 2.0:   CWLS LOG ASCII STANDARD -VERSION 2.0
 WRAP.                  NO:   ONE LINE PER DEPTH STEP
~WELL INFORMATION BLOCK
#MNEM.UNIT           DATA                    DESCRIPTION OF MNEMONIC
#---------    -------------------            -------------------------------
# Generated from Intellog Unique Number	CW_73_75/WELL/2748
WELL.         UNEX ET AL MITSUE 12-20        : Well_name    - WELL
LOC .         00/12-20-073-05W5/0            : Location     - LOCATION
UWI .         00/12-20-073-05W5/0            : Uwi          - UNIQUE WELL ID
ENTR.         JAYE                           : Entered      - ENTERED BY
SRVC.         SCHLUMBERGER                   : Scn          - SERVICE COMPANY
DATE.         15 JAN 77                      : Date         - LOG DATE
STRT.M        365.76                         : top_depth    - START DEPTH
STOP.M        612.76                         : bot_depth    - STOP DEPTH
STEP.M        0.25                           : increment    - STEP LENGTH
 NULL. -999.2500:NULL Value
~CURVE INFORMATION BLOCK
#MNEM UNIT       ERCB CURVE CODE    CURVE DESCRIPTION
#-----------   ------------------   ----------------------------------
DEPT.M        00 001 00 00         : DEPTH        - DEPTH
DPHI.V/V      00 890 00 00         : PHID         - DENSITY POROSITY (SANDSTONE)
NPHI.V/V      00 330 00 00         : PHIN         - NEUTRON POROSITY (SANDSTONE)
GR  .API      00 310 00 00         : GR           - GAMMA RAY
CALI.MM       00 280 01 00         : CAL          - CALIPER
ILD .OHMM     00 120 00 00         : RESD         - DEEP RESISTIVITY (DIL)
~PARAMETER INFORMATION
#MNEM.UNIT           DATA             DESCRIPTION OF MNEMONIC
#---------         -----------     ------------------------------
GL  .M        577.291              : gl           - GROUND LEVEL ELEVATION
EREF.M        581.254              : kb           - ELEVATION OF DEPTH REFERENCE
DATM.M        577.291              : datum        - DATUM ELEVATION
TDD .M        1689.2               : tdd          - TOTAL DEPTH DRILLER
RUN .         ONE                  : Run          - RUN NUMBER
BASE.         EDM                  : Branch       - HOME BASE OF LOGGING UNIT
MATR.         SANDSTONE            : Logunit      - NEUTRON MATRIX
TMAX.C        51.1111              : BHT          - MAXIMUM RECORDED TEMPERATURE
BHTD.M        1688.29              : BHTDEP       - MAXIMUM RECORDED TEMPERATURE
RMT .C        17.7778              : MDTP         - TEMPERATURE OF MUD
MUDD.KG/M     0                    : MWT          - MUD DENSITY
NEUT.         1                    : NEUTRON      - NEUTRON TYPE
RESI.         0                    : RESIST       - RESISTIVITY TYPE
RM  .OHMM     0.75                 : RM           - RESISTIVITY OF MUD
RMC .OHMM     0                    : RMC          - RESISTIVITY OF MUD CAKE
RMF .OHMM     0.55                 : RMF          - RESISTIVITY OF MUD FILTRATE
SUFT.C        0                    : SUFT         - SURFACE TEMPERATURE
~A  DEPTH     PHID     PHIN       GR      CAL     RESD
# ...
  584.760    0.405    0.495   76.405  370.912    3.702
  585.010    0.360    0.485   76.117  378.057    3.521
  585.260    0.385    0.491   74.874  383.003    3.349
  585.510    0.410    0.503   73.424  386.435    3.221
  585.760    0.366    0.497   72.179  388.598    3.161
  586.010    0.379    0.478   71.004  389.143    3.085
  586.260    0.375    0.493   73.173  387.509    2.989
  586.510    0.344    0.474   79.430  387.586    2.987
  586.760    0.294    0.439   85.060  360.781    3.017
  587.010    0.260    0.414   88.330  334.424    3.083
  587.260    0.235    0.395   91.447  368.222    3.208
  587.510    0.251    0.412   90.680  377.654    3.400
  587.760    0.291    0.436   85.814  382.138    3.571
  588.010    0.384    0.458   81.378  385.466    3.785
  588.260    0.468    0.455   76.790  389.122    3.895
  588.510    0.436    0.437   77.992  391.618    3.801
  588.760    0.318    0.436   80.981  389.176    3.511
  589.010    0.337    0.422   83.220  375.544    3.315
  589.260    0.367    0.453   85.860  356.462    3.295
  589.510    0.326    0.439   86.393  362.548    3.379
  589.760    0.295    0.438   85.424  378.112    3.477
  590.010    0.304    0.465   84.918  374.737    3.626
  590.260    0.316    0.530   84.704  369.055    3.738
  590.510    0.353    0.519   83.942  383.115    3.854
  590.760    0.405    0.515   82.150  359.761    3.803
  591.010    0.432    0.536   83.093  366.081    3.698
  591.260    0.384    0.557   81.573  356.005    3.562
  591.510    0.407    0.562   75.418  289.237    3.388
  591.760    0.405    0.543   74.108  261.615    3.205
  592.010    0.385    0.547   77.161  358.813    2.987
  592.260    0.422    0.557   75.028  366.749    2.714
  592.510    0.361    0.445   81.492  333.347    2.553
  592.760    0.236    0.366   88.020  298.571    2.468
  593.010    0.195    0.344   93.119  243.232    2.749
  593.260    0.150    0.371   91.264  223.451    3.211
  593.510    0.117    0.390   85.516  272.377    3.800
  593.760    0.096    0.329   81.403  292.919    4.318
  594.010    0.113    0.283   75.390  305.472    5.035
  594.260    0.126    0.267   69.310  288.928    6.204
  594.510    0.106    0.285   69.429  286.225    6.908
  594.760    0.114    0.282   68.454  282.298    8.129
  595.010    0.111    0.276   65.369  272.568    9.742
  595.260    0.096    0.265   60.166  270.927   11.318
  595.510    0.082    0.255   57.965  272.591   13.665
  595.760    0.067    0.290   64.641  272.817   15.845
  596.010    0.090    0.308   70.351  271.967   15.182
  596.260    0.099    0.317   78.785  269.971   13.616
  596.510    0.090    0.324   82.659  271.120   11.795
  596.760    0.099    0.335   76.502  272.258   10.734
  597.010    0.099    0.327   73.215  271.876    9.987
  597.260    0.099    0.310   72.176  269.883    9.783
  597.510    0.115    0.286   75.089  269.264    9.996
  597.760    0.114    0.284   77.741  269.938   10.342
  598.010    0.116    0.312   65.446  265.311   10.862
  598.260    0.126    0.323   61.409  256.500   11.683
  598.510    0.124    0.291   64.524  252.553   13.059
  598.760    0.116    0.258   72.355  252.755   14.123
  599.010    0.120    0.288   80.652  255.817   14.941
  599.260    0.142    0.312   83.094  257.889   14.081
  599.510    0.177    0.330   70.252  258.552   12.582
  599.760    0.155    0.335   67.582  256.318   11.665
  600.010    0.160    0.327   68.933  254.202   12.093
  600.260    0.149    0.312   71.570  252.687   12.653
  600.510    0.160    0.336   73.741  251.043   13.192
  600.760    0.147    0.352   69.498  248.826   13.088
  601.010    0.129    0.338   66.884  246.269   12.380
  601.260    0.112    0.315   64.145  244.038   11.392
  601.510    0.099    0.336   54.650  241.230    9.994
  601.760    0.130    0.377   46.313  237.646    9.682
  602.010    0.166    0.342   38.457  228.954    9.588
  602.260    0.208    0.313   23.915  213.452   10.313
  602.510    0.222    0.265   12.919  206.263   13.574
  602.760    0.158    0.233    9.832  207.361   16.478
  603.010    0.131    0.220    8.238  209.894   20.788
  603.260    0.121    0.223   12.664  212.879   32.630
  603.510    0.130    0.271   21.855  216.077   49.644
  603.760    0.149    0.327   27.703  214.674   52.907
  604.010    0.200    0.327   30.203  207.357   39.426
  604.260    0.177    0.312   30.875  206.398   30.309
  604.510    0.173    0.290   37.133  208.694   25.445
  604.760    0.184    0.293   45.091  216.171   23.416
  605.010    0.158    0.324   57.352  228.623   21.311
  605.260    0.194    0.361   59.245  256.192   16.625
  605.510    0.251    0.345   39.452  259.047   12.074
  605.760    0.233    0.241   25.519  224.380    9.772
  606.010    0.138    0.290   19.511  209.553    8.387
  606.260    0.171    0.330   21.123  209.080    7.605
  606.510    0.208    0.328   26.434  208.932    7.930
  606.760    0.255    0.316   27.500  210.841    8.311
  607.010    0.248    0.308   28.715  212.696    8.648
  607.260    0.230    0.299   34.491  216.237    7.328
  607.510    0.217    0.293   40.404  221.522    6.548
  607.760    0.163    0.289   44.491  227.950    5.971
  608.010    0.151    0.284   48.347  235.333    5.784
  608.260    0.187    0.290   49.156  236.566    5.676
  608.510    0.219    0.281   51.394  235.279    5.746
  608.760    0.207    0.281   56.565  248.871    5.904
  609.010    0.210    0.307   60.093  250.562    6.086
  609.260    0.227    0.313   42.279  241.548    6.393
  609.510    0.222    0.299   50.019  246.833    6.713
  609.760    0.228    0.296   53.896  251.178    7.063
  610.010    0.252    0.343   55.662  248.150    7.377
  610.260    0.297    0.373   53.666  250.079    7.495
  610.510    0.338    0.408   48.735  265.887    7.587
  610.760    0.399    0.358   40.881  251.298    7.611
  611.010    0.184    0.277   34.932  248.269    7.414
  611.260    0.150    0.266   33.625  254.355    7.143
  611.510    0.105    0.249   35.305  261.273    7.298
  611.760    0.069    0.229   37.062  270.833    7.594
  612.010    0.065    0.212   35.137  271.497    8.124
  612.260    0.073    0.199   31.920  268.112    8.850
  612.510    0.024    0.192   29.294  262.311    9.500
  612.760    0.020    0.197   28.684  258.828   10.332
