~VERSION INFORMATION
 VERS.                 2.0:   CWLS LOG ASCII STANDARD -VERSION 2.0
 WRAP.                  NO:   ONE LINE PER DEPTH STEP
~WELL INFORMATION BLOCK
#MNEM.UNIT           DATA                    DESCRIPTION OF MNEMONIC
#---------    -------------------            -------------------------------
# Generated from Intellog Unique Number	CC_84_87/WELL/2318
NULL.         -999.25                        : NULL_VALUE
WELL.         PEX PCEJ HANGST OV             : Well_name    - WELL
LOC .         10-32-084-11W4                 : Location     - LOCATION          
UWI .         00/10-32-084-11W400            : Uwi          - UNIQUE WELL ID    
ENTR.         DW                             : Entered      - ENTERED BY        
SRVC.         DRESSER ATLAS                  : Scn          - SERVICE COMPANY   
DATE.         17 FEB 81                      : Date         - LOG DATE
STRT.M        110                            : top_depth    - START DEPTH       
STOP.M        299.9                          : bot_depth    - STOP DEPTH        
STEP.M        0.3                            : increment    - STEP LENGTH       
~CURVE INFORMATION BLOCK
#MNEM UNIT       ERCB CURVE CODE    CURVE DESCRIPTION
#-----------   ------------------   ----------------------------------
DEPT.M        00 001 00 00         : DEPTH        - DEPTH                       
DPHI.V/V      00 890 00 00         : PHID         - DENSITY POROSITY (LIMESTONE)
NPHI.V/V      00 330 00 00         : PHIN         - NEUTRON POROSITY (LIMESTONE)
GR  .API      00 310 00 00         : GR           - GAMMA RAY                   
ILD .OHMM     00 120 00 00         : RESD         - DEEP RESISTIVITY (DIL)      
~PARAMETER INFORMATION       
#MNEM.UNIT           DATA             DESCRIPTION OF MNEMONIC
#---------         -----------     ------------------------------
GL  .M        542.43               : gl           - GROUND LEVEL ELEVATION      
EREF.M        545.8                : kb           - ELEVATION OF DEPTH REFERENCE
DATM.M        545.8                : datum        - DATUM ELEVATION             
TDD .M        303                  : tdd          - TOTAL DEPTH DRILLER         
RUN .         ONE                  : Run          - RUN NUMBER                  
ENG .         BILL                 : Engineer     - RECORDING ENGINEER          
WIT .         JIM                  : Witness      - WITNESSED BY                
MUD .         GEL                  : Mud_type     - MUD TYPE                    
MATR.         LIMESTONE            : Logunit      - NEUTRON MATRIX              
TMAX.C        15                   : BHT          - MAXIMUM RECORDED TEMPERATURE
BHTD.M        3032                 : BHTDEP       - MAXIMUM RECORDED TEMPERATURE
MATR.         1                    : LOGUNIT      - NEUTRON MATRIX              
RMT .C        25                   : MDTP         - TEMPERATURE OF MUD          
NEUT.         1                    : NEUTRON      - NEUTRON TYPE                
RESI.         0                    : RESIST       - RESISTIVITY TYPE            
RMC .OHMM     0.25                 : RMC          - RESISTIVITY OF MUD CAKE     
RMF .OHMM     0.25                 : RMF          - RESISTIVITY OF MUD FILTRATE 
SUFT.C        15                   : SUFT         - SURFACE TEMPERATURE         
~A  DEPTH     PHID     PHIN       GR     RESD
# ...
  214.401    0.189    0.315   92.164   11.506
  214.701    0.028    0.280   79.810   14.965
  215.001    0.016    0.230   55.113   15.533
  215.301    0.118    0.374   58.187   15.235
  215.601    0.204    0.413   93.962   14.669
  215.901    0.212    0.401  102.587   12.852
  216.201    0.205    0.399  100.724   10.642
  216.501    0.198    0.414   98.857    9.323
  216.801    0.194    0.407  104.398    8.809
  217.101    0.196    0.424   96.364    8.321
  217.401    0.312    0.477   92.646    8.163
  217.701    0.399    0.488   95.102    8.006
  218.001    0.406    0.459   92.621    8.156
  218.301    0.278    0.406   90.752    8.957
  218.601    0.226    0.408   93.827    9.837
  218.901    0.235    0.401   91.346   10.600
  219.201    0.233    0.399   98.120   10.796
  219.501    0.240    0.390   91.319   10.592
  219.801    0.255    0.407   94.388   10.195
  220.101    0.251    0.392   82.653   10.189
  220.401    0.213    0.408   74.614   10.185
  220.701    0.257    0.401   78.301   10.182
  221.001    0.265    0.395   83.229    9.986
  221.301    0.263    0.416   85.684    9.796
  221.601    0.261    0.426   91.222    9.792
  221.901    0.260    0.417   94.909    9.974
  222.201    0.239    0.383   93.046   10.352
  222.501    0.203    0.367   85.010   10.348
  222.801    0.220    0.390   83.147    9.962
  223.101    0.213    0.401   93.625    9.233
  223.401    0.268    0.405  101.631    8.887
  223.701    0.297    0.413   89.894    8.718
  224.001    0.262    0.422   92.344    8.879
  224.301    0.285    0.437   91.099    9.044
  224.601    0.315    0.451   86.769    9.389
  224.901    0.239    0.458   78.731    9.930
  225.201    0.234    0.434   84.273   10.502
  225.501    0.212    0.413   86.725   10.899
  225.801    0.208    0.418   83.628   10.693
  226.101    0.230    0.424   78.679   10.488
  226.401    0.185    0.421   87.303    9.723
  226.701    0.271    0.420   76.184    8.847
  227.001    0.370    0.445   82.958    7.326
  227.301    0.429    0.477   79.237    6.300
  227.601    0.377    0.479   77.373    5.024
  227.901    0.321    0.461   84.768    4.083
  228.201    0.342    0.485   97.095    3.510
  228.501    0.357    0.513   88.444    3.509
  228.801    0.368    0.477   90.896    3.782
  229.101    0.298    0.468   98.908    5.405
  229.401    0.286    0.453  106.294    7.580
  229.701    0.265    0.423  103.199    9.860
  230.001    0.330    0.440   91.462   11.034
  230.301    0.369    0.426   84.043   11.669
  230.601    0.211    0.390   83.412   11.885
  230.901    0.245    0.425   94.506   11.659
  231.201    0.233    0.410   91.403   11.224
  231.501    0.145    0.374   85.221   11.220
  231.801    0.176    0.380   80.890   11.428
  232.101    0.239    0.410   80.874   11.860
  232.401    0.223    0.401   97.524   11.855
  232.701    0.200    0.386   99.977   11.411
  233.001    0.188    0.384   93.794   10.780
  233.301    0.185    0.388   98.101    9.994
  233.601    0.300    0.407   85.745    9.093
  233.901    0.358    0.411   86.965    7.819
  234.201    0.320    0.438   93.739    6.236
  234.501    0.294    0.473   90.025    4.527
  234.801    0.319    0.495   95.564    3.477
  235.101    0.385    0.491   88.762    3.104
  235.401    0.416    0.511   86.281    3.222
  235.701    0.396    0.503   78.243    3.815
  236.001    0.366    0.477   71.444    5.350
  236.301    0.347    0.460   72.661    8.244
  236.601    0.340    0.452   67.096    9.225
  236.901    0.390    0.479   66.465    8.715
  237.201    0.386    0.480   73.858    7.217
  237.501    0.348    0.493   71.372    5.756
  237.801    0.332    0.498   71.361    5.139
  238.101    0.391    0.527   75.668    5.136
  238.401    0.407    0.516   81.825    5.433
  238.701    0.423    0.480   81.196    7.338
  239.001    0.385    0.453   76.241    8.854
  239.301    0.395    0.475   76.846    9.363
  239.601    0.351    0.464   71.894    8.360
  239.901    0.291    0.401   68.798    5.735
  240.201    0.404    0.443   79.276    4.323
  240.501    0.416    0.482   95.921    3.198
  240.801    0.355    0.546  102.079    2.964
  241.101    0.341    0.506   98.366    3.077
  241.401    0.299    0.509   90.330    3.782
  241.701    0.309    0.502   90.930    4.233
  242.001    0.318    0.469   85.365    4.737
  242.301    0.299    0.480   94.609    4.824
  242.601    0.302    0.462   93.977    4.643
  242.901    0.297    0.471   87.788    4.555
  243.201    0.288    0.473   92.097    4.385
  243.501    0.289    0.471   93.934    4.222
  243.801    0.224    0.453   96.391    3.989
  244.101    0.251    0.447  105.635    3.697
  244.401    0.257    0.460  106.850    3.493
  244.701    0.262    0.470  100.053    3.492
  245.001    0.256    0.431  106.827    3.693
  245.301    0.245    0.395  109.283    4.714
  245.601    0.293    0.390   91.374    7.686
  245.901    0.266    0.373   77.168    9.449
  246.201    0.096    0.346   71.600    9.096
  246.501    0.200    0.379   65.416    7.676
  246.801    0.331    0.465   81.447    7.115
  247.101    0.388    0.479   82.668    7.111
  247.401    0.362    0.410   74.014    7.522
  247.701    0.234    0.406   80.788    8.907
  248.001    0.261    0.436   88.181   11.157
  248.301    0.287    0.421   77.676   13.211
  248.601    0.285    0.399   62.850   15.940
  248.901    0.259    0.384   58.517   18.520
  249.201    0.264    0.374   60.355   18.512
  249.501    0.270    0.374   67.128   15.045
  249.801    0.298    0.404   70.203   13.181
  250.101    0.325    0.384   63.400   12.450
  250.401    0.282    0.382   57.834   12.216
  250.701    0.261    0.396   66.459   11.982
  251.001    0.277    0.411   77.554   10.302
  251.301    0.267    0.414   84.328    9.197
  251.601    0.249    0.404   92.337    9.024
  251.901    0.249    0.390  103.432    9.020
  252.201    0.202    0.395   97.245   10.880
  252.501    0.240    0.405   99.082   11.294
  252.801    0.223    0.406   89.195   11.503
  253.101    0.127    0.378   81.162   10.665
  253.401    0.265    0.420  100.894    9.887
  253.701    0.256    0.419   99.030    9.884
  254.001    0.272    0.383   93.464   10.256
  254.301    0.226    0.362   83.577   10.647
  254.601    0.222    0.395   92.818   11.473
  254.901    0.271    0.405   95.274   11.686
  255.201    0.282    0.398   83.533   12.359
  255.501    0.287    0.416   94.010   13.318
  255.801    0.261    0.404   98.936   13.825
  256.101    0.239    0.365   77.942   14.081
  256.401    0.228    0.367   73.608   13.812
  256.701    0.237    0.389   89.635   13.296
  257.001    0.248    0.403   91.475   12.558
  257.301    0.266    0.426   90.228   12.320
  257.601    0.272    0.409   87.744   12.548
  257.901    0.249    0.405   90.198   12.782
  258.201    0.229    0.425   87.103   14.034
  258.501    0.265    0.416   82.149   14.569
  258.801    0.267    0.402   84.605   15.407
  259.101    0.266    0.390   93.231   15.993
  259.401    0.252    0.393  102.476   17.560
  259.701    0.275    0.376   90.738   18.574
  260.001    0.263    0.367   96.894   20.398
  260.301    0.238    0.362  106.752   25.551
  260.601    0.242    0.393   88.229   29.135
  260.901    0.272    0.395   77.103   31.400
  261.201    0.271    0.398   73.390   31.388
  261.501    0.295    0.382   62.270   24.566
  261.801    0.299    0.382   57.321   21.525
  262.101    0.279    0.398   82.608   18.507
  262.401    0.256    0.424   91.848   16.524
  262.701    0.225    0.432   81.344   14.480
  263.001    0.240    0.395   73.928   11.990
  263.301    0.218    0.383   86.873   10.706
  263.601    0.206    0.370   99.199   10.112
  263.901    0.213    0.362   93.632   10.108
  264.201    0.222    0.360   93.001   10.297
  264.501    0.222    0.386  102.244   11.307
  264.801    0.222    0.402  101.612   15.563
  265.101    0.226    0.424   92.345   21.420
  265.401    0.228    0.394   75.053   26.335
  265.701    0.248    0.347   68.869   32.992
  266.001    0.228    0.336   88.601   41.328
  266.301    0.274    0.386   75.628   45.386
