~VERSION INFORMATION
 VERS.                 2.0:   CWLS LOG ASCII STANDARD -VERSION 2.0
 WRAP.                  NO:   ONE LINE PER DEPTH STEP
~WELL INFORMATION BLOCK
#MNEM.UNIT           DATA                    DESCRIPTION OF MNEMONIC
#---------    -------------------            -------------------------------
# Generated from Intellog Unique Number	CW_82_90/WELL/3083
WELL.         UNION ET AL MCLEAN             : Well_name    - WELL
LOC .         00/14-22-087-19W4/0            : Location     - LOCATION
UWI .         00/14-22-087-19W4/0            : Uwi          - UNIQUE WELL ID
ENTR.         MAX                            : Entered      - ENTERED BY
SRVC.         SCHLUMBERGER                   : Scn          - SERVICE COMPANY
STRT.M        50                             : top_depth    - START DEPTH
STOP.M        237                            : bot_depth    - STOP DEPTH
STEP.M        0.25                           : increment    - STEP LENGTH
 NULL. -999.2500:NULL Value
~CURVE INFORMATION BLOCK
#MNEM UNIT       ERCB CURVE CODE    CURVE DESCRIPTION
#-----------   ------------------   ----------------------------------
DEPT.M        00 001 00 00         : DEPTH        - DEPTH
GR  .API      00 310 00 00         : GR           - GAMMA RAY
CALI.MM       00 280 01 00         : CAL          - CALIPER
DPHI.V/V      00 890 00 00         : PHID         - DENSITY POROSITY (SANDSTONE)
NPHI.V/V      00 330 00 00         : PHIN         - NEUTRON POROSITY (SANDSTONE)
ILD .OHMM     00 120 00 00         : RESD         - DEEP RESISTIVITY (DIL)
~PARAMETER INFORMATION
#MNEM.UNIT           DATA             DESCRIPTION OF MNEMONIC
#---------         -----------     ------------------------------
GL  .M        515                  : gl           - GROUND LEVEL ELEVATION
EREF.M        518.6                : kb           - ELEVATION OF DEPTH REFERENCE
DATM.M        515                  : datum        - DATUM ELEVATION
TDD .M        238                  : tdd          - TOTAL DEPTH DRILLER
RUN .         ONE                  : Run          - RUN NUMBER
ENG .         BILL                 : Engineer     - RECORDING ENGINEER
WIT .         JIM                  : Witness      - WITNESSED BY
MUD .         GEL                  : Mud_type     - MUD TYPE
MATR.         SANDSTONE            : Logunit      - NEUTRON MATRIX
TMAX.C        21.4                 : BHT          - MAXIMUM RECORDED TEMPERATURE
BHTD.M        238                  : BHTDEP       - MAXIMUM RECORDED TEMPERATURE
MATR.         1                    : LOGUNIT      - NEUTRON MATRIX
RMT .C        18.8                 : MDTP         - TEMPERATURE OF MUD
NEUT.         1                    : NEUTRON      - NEUTRON TYPE
RESI.         0                    : RESIST       - RESISTIVITY TYPE
RMC .OHMM     6.85                 : RMC          - RESISTIVITY OF MUD CAKE
RMF .OHMM     7.06                 : RMF          - RESISTIVITY OF MUD FILTRATE
SUFT.C        -15                  : SUFT         - SURFACE TEMPERATURE
~A  DEPTH       GR      CAL     PHID     PHIN     RESD
# ...
  123.000  106.612  317.599    0.210    0.513    8.338
  123.250  106.002  318.576    0.216    0.512    8.347
  123.500  103.608  319.554    0.211    0.514    8.280
  123.750   99.718  321.028    0.224    0.538    8.290
  124.000   95.829  326.974    0.243    0.583    8.300
  124.250   93.729  331.930    0.265    0.580    8.009
  124.500   94.018  332.906    0.274    0.571    7.517
  124.750   95.794  320.952    0.248    0.571    7.457
  125.000   97.573  316.959    0.230    0.581    7.195
  125.250   98.460  313.958    0.219    0.506    7.008
  125.500   99.938  310.458    0.258    0.503    7.214
  125.750  100.229  308.949    0.266    0.530    6.707
  126.000   97.235  308.931    0.270    0.596    6.295
  126.250   92.449  308.913    0.282    0.597    6.304
  126.500   91.542  309.395    0.283    0.567    6.255
  126.750   93.322  308.875    0.285    0.551    6.204
  127.000   96.891  308.862    0.289    0.582    6.042
  127.250   98.670  308.340    0.283    0.569    5.831
  127.500   96.572  308.325    0.277    0.560    5.731
  127.750   94.772  307.812    0.282    0.564    5.685
  128.000   90.884  307.794    0.287    0.570    5.852
  128.250   88.784  307.274    0.280    0.543    5.699
  128.500   87.879  306.764    0.263    0.538    5.813
  128.750   84.883  305.749    0.218    0.541    5.928
  129.000   86.960  305.237    0.233    0.521    5.881
  129.250   86.353  310.688    0.262    0.529    5.675
  129.500   84.852  346.962    0.267    0.552    5.789
  129.750   79.472  365.339    0.275    0.532    6.126
  130.000   76.777  373.274    0.274    0.531    6.307
  130.250   76.167  377.235    0.313    0.537    6.673
  130.500   76.754  371.749    0.378    0.546    6.869
  130.750   78.235  322.013    0.382    0.553    6.814
  131.000   79.419  306.583    0.355    0.528    7.146
  131.250   80.899  304.570    0.302    0.492    7.704
  131.500   81.784  304.556    0.268    0.459    8.859
  131.750   77.894  305.533    0.261    0.456    8.873
  132.000   73.409  310.986    0.241    0.463    9.651
  132.250   71.905  313.452    0.239    0.450   11.308
  132.500   71.597  310.950    0.288    0.481   10.613
  132.750   71.287  307.452    0.272    0.492    8.436
  133.000   69.487  314.393    0.198    0.461    8.603
  133.250   67.388  323.321    0.249    0.471   11.259
  133.500   65.587  324.797    0.329    0.482   13.563
  133.750   66.174  322.293    0.319    0.466   13.581
  134.000   66.759  309.844    0.298    0.450   14.108
  134.250   63.467  309.829    0.291    0.448   14.657
  134.500   62.560  307.820    0.297    0.460   15.514
  134.750   64.341  304.819    0.295    0.473   14.969
  135.000   68.506  304.304    0.289    0.495   13.790
  135.250   69.092  304.786    0.275    0.512   13.063
  135.500   72.659  306.757    0.264    0.498   11.178
  135.750   71.752  308.723    0.260    0.486    8.967
  136.000   68.463  308.703    0.244    0.473    7.744
  136.250   60.995  308.190    0.218    0.479    8.197
  136.500   54.121  306.683    0.246    0.473   10.530
  136.750   52.619  305.666    0.274    0.473   14.841
  137.000   52.609  305.154    0.281    0.479   18.041
  137.250   54.387  304.139    0.289    0.475   18.071
  137.500   58.553  303.624    0.301    0.469   17.594
  137.750   60.035  303.111    0.287    0.468   18.448
  138.000   57.339  302.099    0.280    0.465   19.890
  138.250   54.942  299.596    0.274    0.455   20.100
  138.500   54.334  298.084    0.276    0.449   19.756
  138.750   54.622  297.070    0.293    0.469   19.419
  139.000   53.717  297.052    0.295    0.469   19.087
  139.250   54.898  297.038    0.291    0.453   19.291
  139.500   56.674  297.020    0.288    0.458   19.311
  139.750   57.260  297.000    0.284    0.453   18.807
  140.000   57.249  296.985    0.280    0.425   17.815
  140.250   57.241  296.467    0.282    0.410   17.349
  140.500   58.423  295.955    0.296    0.407   17.371
  140.750   60.501  296.931    0.294    0.431   15.424
  141.000   63.770  301.388    0.280    0.449   12.144
  141.250   65.251  305.345    0.244    0.467   12.159
  141.500   67.627  306.321    0.216    0.464   13.606
  141.750   71.197  307.296    0.194    0.467   11.968
  142.000   74.764  307.775    0.217    0.480    9.166
  142.250   77.438  307.757    0.247    0.499    7.771
  142.500   80.111  307.739    0.257    0.510    7.160
  142.750   81.593  307.222    0.271    0.520    6.658
  143.000   81.584  307.209    0.282    0.533    5.912
  143.250   80.080  306.694    0.278    0.547    4.922
  143.500   77.085  306.676    0.272    0.551    5.354
  143.750   74.986  306.158    0.269    0.526    7.204
  144.000   72.589  305.144    0.269    0.508    8.678
  144.250   70.789  304.132    0.273    0.503    8.452
  144.500   68.393  303.117    0.272    0.509    8.231
  144.750   64.803  302.602    0.268    0.505    9.379
  145.000   61.510  302.589    0.246    0.489   12.277
  145.250   57.918  302.074    0.216    0.441   15.485
  145.500   55.522  301.062    0.290    0.420   18.484
  145.750   53.125  301.040    0.318    0.429   19.378
  146.000   54.903  301.024    0.302    0.459   19.402
  146.250   57.875  301.008    0.287    0.458   17.391
  146.500   63.235  300.988    0.282    0.446   14.743
  146.750   69.489  300.970    0.280    0.439   11.717
  147.000   74.549  301.447    0.277    0.440    9.226
  147.250   76.924  301.929    0.274    0.429    7.608
  147.500   75.123  301.911    0.280    0.425    6.511
  147.750   68.551  301.891    0.295    0.472    5.889
  148.000   57.800  301.875    0.308    0.495    6.710
  148.250   53.315  300.366    0.321    0.469   12.362
  148.500   55.390  299.352    0.317    0.462   14.754
  148.750   57.768  298.839    0.325    0.459   15.759
  149.000   62.828  298.322    0.336    0.462   13.865
  149.250   63.116  297.807    0.346    0.471   11.225
  149.500   63.404  297.292    0.346    0.464   11.134
  149.750   65.181  297.276    0.344    0.448   11.462
  150.000   64.277  296.754    0.340    0.447   10.464
  150.250   61.880  296.242    0.336    0.482   11.705
  150.500   61.569  295.232    0.326    0.484   13.095
  150.750   60.366  295.711    0.313    0.464   12.753
  151.000   58.864  296.186    0.306    0.452   13.622
  151.250   58.851  296.669    0.301    0.460   15.100
  151.500   57.051  297.147    0.282    0.476   15.400
  151.750   54.654  297.126    0.249    0.482   15.417
  152.000   56.136  297.610    0.250    0.491   15.014
  152.250   58.810  298.582    0.255    0.483   14.093
  152.500   57.306  299.563    0.244    0.468   13.106
  152.750   54.313  302.528    0.209    0.455   13.618
  153.000   52.214  305.491    0.181    0.449   14.407
  153.250   52.203  304.479    0.171    0.441   18.686
  153.500   53.087  303.465    0.187    0.431   19.596
  153.750   55.760  304.443    0.194    0.429   18.052
  154.000   57.239  307.903    0.196    0.437   16.792
  154.250   56.038  308.385    0.180    0.466   17.121
  154.500   56.025  307.370    0.130    0.447   18.122
  154.750   57.210  305.364    0.097    0.335   18.825
  155.000   60.480  306.343    0.127    0.283   19.383
  155.250   66.136  308.808    0.162    0.334   18.022
  155.500   70.003  309.290    0.194    0.369   15.420
  155.750   72.977  309.765    0.212    0.386   13.195
  156.000   75.351  309.749    0.221    0.399   10.295
  156.250   77.428  308.735    0.227    0.419    9.487
  156.500   80.699  308.220    0.228    0.438    9.412
  156.750   80.390  308.200    0.227    0.431    9.512
  157.000   78.889  308.186    0.224    0.437    9.698
  157.250   76.492  307.667    0.220    0.447    9.893
  157.500   74.689  307.156    0.217    0.446   10.091
  157.750   74.677  306.641    0.216    0.467   10.113
  158.000   75.861  306.124    0.209    0.459   10.210
  158.250   77.043  305.112    0.180    0.427   10.509
  158.500   75.542  303.105    0.203    0.418   10.817
  158.750   74.039  301.094    0.216    0.424   11.556
  159.000   71.941  300.087    0.218    0.420   12.805
  159.250   68.351  299.572    0.227    0.421   13.937
