~VERSION INFORMATION
 VERS.                 2.0:   CWLS LOG ASCII STANDARD -VERSION 2.0
 WRAP.                  NO:   ONE LINE PER DEPTH STEP
~WELL INFORMATION BLOCK
#MNEM.UNIT           DATA                    DESCRIPTION OF MNEMONIC
#---------    -------------------            -------------------------------
# Generated from Intellog Unique Number	CS_77_79/WELL/3309
WELL.         COLUMBIA GAS DEVELOPMENT       : Well_name    - WELL
LOC .         00/16-24-079-16W4/0            : Location     - LOCATION
UWI .         00/16-24-079-16W4/0            : Uwi          - UNIQUE WELL ID
ENTR.         JOETTE                         : Entered      - ENTERED BY
SRVC.         SCHLUMBERGER                   : Scn          - SERVICE COMPANY
DATE.         08-24-92                       : Date         - LOG DATE
STRT.M        180                            : top_depth    - START DEPTH
STOP.M        400                            : bot_depth    - STOP DEPTH
STEP.M        0.25                           : increment    - STEP LENGTH
 NULL. -999.2500:NULL Value
~CURVE INFORMATION BLOCK
#MNEM UNIT       ERCB CURVE CODE    CURVE DESCRIPTION
#-----------   ------------------   ----------------------------------
DEPT.M        00 001 00 00         : DEPTH        - DEPTH
ILD .OHMM     00 120 00 00         : RESD         - DEEP RESISTIVITY (DIL)
DPHI.V/V      00 890 00 00         : PHID         - DENSITY POROSITY (SANDSTONE)
NPHI.V/V      00 330 00 00         : PHIN         - NEUTRON POROSITY (SANDSTONE)
GR  .API      00 310 00 00         : GR           - GAMMA RAY
~PARAMETER INFORMATION
#MNEM.UNIT           DATA             DESCRIPTION OF MNEMONIC
#---------         -----------     ------------------------------
GL  .M        584.7                : gl           - GROUND LEVEL ELEVATION
EREF.M        588.2                : kb           - ELEVATION OF DEPTH REFERENCE
DATM.M        588.2                : datum        - DATUM ELEVATION
TDD .M        406                  : tdd          - TOTAL DEPTH DRILLER
RUN .         ONE                  : Run          - RUN NUMBER
ENG .         BILL                 : Engineer     - RECORDING ENGINEER
WIT .         JIM                  : Witness      - WITNESSED BY
MUD .         GEL                  : Mud_type     - MUD TYPE
MATR.         SANDSTONE            : Logunit      - NEUTRON MATRIX
TMAX.C        25                   : BHT          - MAXIMUM RECORDED TEMPERATURE
BHTD.M        406                  : BHTDEP       - MAXIMUM RECORDED TEMPERATURE
MATR.         1                    : LOGUNIT      - NEUTRON MATRIX
RMT .C        22                   : MDTP         - TEMPERATURE OF MUD
NEUT.         1                    : NEUTRON      - NEUTRON TYPE
RESI.         0                    : RESIST       - RESISTIVITY TYPE
RMC .OHMM     5                    : RMC          - RESISTIVITY OF MUD CAKE
RMF .OHMM     5                    : RMF          - RESISTIVITY OF MUD FILTRATE
SUFT.C        15                   : SUFT         - SURFACE TEMPERATURE
~A  DEPTH     RESD     PHID     PHIN       GR
  180.000    2.909    0.236    0.468   99.563
  180.250    2.907    0.238    0.478  103.713
  180.500    2.905    0.235    0.467  104.299
  180.750    2.958    0.235    0.444  103.684
  181.000    2.956    0.234    0.454  101.275
  181.250    3.010    0.233    0.473   99.473
  181.500    3.065    0.234    0.473  102.430
  181.750    3.065    0.235    0.443  102.411
  182.000    3.618    0.228    0.459  104.776
  182.250    3.483    0.219    0.452  107.147
  182.500    3.482    0.219    0.479  114.277
  182.750    3.546    0.223    0.465  111.282
  183.000    3.610    0.224    0.464  111.263
  183.250    3.676    0.213    0.487  111.244
  183.500    3.742    0.212    0.487  105.258
  183.750    3.740    0.218    0.441   99.873
  184.000    3.669    0.228    0.437  102.835
  184.250    3.533    0.232    0.428  101.027
  184.500    3.402    0.223    0.441  104.585
  184.750    3.337    0.225    0.470  101.585
  185.000    3.274    0.228    0.456  105.143
  185.250    3.334    0.234    0.452   99.162
  185.500    3.394    0.236    0.429  103.913
  185.750    3.586    0.236    0.427  108.062
  186.000    3.652    0.237    0.435  109.836
  186.250    3.718    0.238    0.430  105.048
  186.500    3.715    0.241    0.427  100.855
  186.750    3.714    0.248    0.440  110.971
  187.000    3.644    0.247    0.449  109.750
  187.250    3.508    0.242    0.451  107.952
  187.500    3.506    0.240    0.425  104.952
  187.750    3.440    0.240    0.411  104.337
  188.000    3.438    0.243    0.424  106.698
  188.250    3.566    0.235    0.439  103.703
  188.500    3.911    0.236    0.433  106.665
  188.750    4.452    0.240    0.445  103.068
  189.000    6.698    0.250    0.407   90.529
  189.250    7.768    0.274    0.363   77.389
  189.500    9.886    0.321    0.365   69.023
  189.750   11.253    0.320    0.372   69.601
  190.000   12.810    0.315    0.380   74.351
  190.250   13.285    0.315    0.390   80.294
  190.500   12.795    0.304    0.389   74.909
  190.750   12.321    0.287    0.393   68.332
  191.000   12.543    0.289    0.389   77.256
  191.250   12.771    0.291    0.378   82.602
  191.500   12.528    0.295    0.379   78.410
  191.750   12.066    0.296    0.371   79.583
  192.000   10.987    0.294    0.385   77.771
  192.250   10.004    0.282    0.381   83.718
  192.500    9.283    0.266    0.367   83.694
  192.750    8.613    0.255    0.358   87.853
  193.000    7.991    0.245    0.365   95.585
  193.250    7.278    0.232    0.376   99.143
  193.500    6.752    0.219    0.378   98.527
  193.750    6.383    0.216    0.377   93.143
  194.000    5.705    0.221    0.389   88.354
  194.250    5.195    0.226    0.405   92.508
  194.500    4.731    0.225    0.416   96.662
  194.750    4.472    0.221    0.408  103.201
  195.000    4.150    0.226    0.415  113.318
  195.250    3.850    0.218    0.443  122.236
  195.500    3.920    0.219    0.471  117.453
  195.750    4.299    0.219    0.472  112.068
  196.000    5.080    0.224    0.449  107.279
  196.250    6.228    0.235    0.436   94.144
  196.500    6.959    0.244    0.400   88.759
  196.750    8.071    0.241    0.383   95.298
  197.000    8.689    0.287    0.381   69.638
  197.250    9.528    0.303    0.392   64.249
  197.500    9.883    0.274    0.396   76.754
  197.750    9.878    0.257    0.396   83.293
  198.000    9.873    0.239    0.386   97.583
  198.250    9.505    0.205    0.387   95.179
  198.500    8.985    0.169    0.371   82.044
  198.750    8.494    0.175    0.368   76.659
  199.000    7.592    0.196    0.381   94.525
  199.250    7.449    0.221    0.393   93.905
  199.500    6.910    0.227    0.390   99.853
  199.750    6.907    0.230    0.387  105.791
  200.000    7.163    0.231    0.394  110.546
  200.250    7.294    0.233    0.401  112.316
  200.500    7.852    0.220    0.398  109.912
  200.750    8.612    0.215    0.397  116.451
  201.000    9.102    0.242    0.395   99.738
  201.250    9.983    0.248    0.385   80.045
  201.500   10.354    0.260    0.368   65.718
  201.750   10.540    0.271    0.374   78.814
  202.000   10.343    0.257    0.387   97.873
  202.250    9.960    0.257    0.385  100.830
  202.500   10.723    0.248    0.379   96.643
  202.750   11.760    0.258    0.384   91.258
  203.000   12.659    0.263    0.393   92.431
  203.250   13.131    0.265    0.381   82.277
  203.500   13.876    0.306    0.373   79.868
  203.750   14.393    0.311    0.377   78.061
  204.000   14.653    0.287    0.378   85.196
  204.250   14.646    0.277    0.389   91.735
  204.500   14.640    0.271    0.381   90.523
  204.750   14.362    0.269    0.375  103.625
  205.000   14.354    0.272    0.385  103.010
  205.250   14.345    0.280    0.390  102.986
  205.500   14.604    0.285    0.384  103.568
  205.750   14.871    0.287    0.384  101.751
  206.000   15.421    0.280    0.390  100.539
  206.250   15.417    0.271    0.395  103.501
  206.500   15.697    0.260    0.393  104.083
  206.750   15.688    0.257    0.387   89.755
  207.000   15.679    0.262    0.372   76.620
  207.250   15.377    0.269    0.367   67.658
  207.500   15.372    0.278    0.365   57.499
  207.750   16.245    0.278    0.343   52.711
  208.000   17.164    0.276    0.355   45.537
  208.250   16.840    0.283    0.362   35.383
  208.500   15.918    0.291    0.353   28.210
  208.750   14.766    0.288    0.350   32.960
  209.000   13.959    0.260    0.356   60.957
  209.250   13.193    0.250    0.392   71.679
  209.500   12.704    0.264    0.400   73.448
  209.750   12.694    0.254    0.370   72.833
  210.000   12.685    0.254    0.369   72.814
  210.250   12.682    0.264    0.367   88.291
  210.500   11.987    0.263    0.372   91.253
  210.750   10.715    0.253    0.362   91.835
  211.000    9.402    0.250    0.343   91.219
  211.250    8.098    0.239    0.377  100.739
  211.500    7.106    0.153    0.413  117.413
  211.750    6.472    0.085    0.417  115.010
  212.000    5.894    0.077    0.411  112.606
  212.250    5.268    0.086    0.400  110.197
  212.500    5.073    0.106    0.397  111.971
  212.750    4.885    0.120    0.397  106.587
  213.000    4.883    0.140    0.407  111.337
  213.250    4.880    0.172    0.420  120.261
  213.500    4.877    0.198    0.427  125.006
  213.750    4.966    0.175    0.424  120.819
  214.000    4.963    0.167    0.434  117.213
  214.250    4.778    0.147    0.405  116.607
  214.500    4.602    0.158    0.416  116.588
  214.750    4.269    0.187    0.451  123.718
  215.000    4.110    0.210    0.446  121.916
  215.250    4.344    0.222    0.434  125.474
  215.500    5.427    0.225    0.432  132.013
  215.750    8.164    0.226    0.416  124.238
  216.000    9.293    0.235    0.400  116.464
  216.250   10.383    0.247    0.386  111.680
  216.500   10.972    0.252    0.380  106.887
  216.750   11.382    0.243    0.373  115.219
  217.000   11.164    0.221    0.380  114.008
  217.250   10.955    0.215    0.392  115.777
  217.500   10.747    0.212    0.408  112.181
  217.750    9.970    0.225    0.407  109.176
  218.000    9.251    0.223    0.397  111.546
  218.250    9.593    0.159    0.390  121.066
  218.500   10.326    0.149    0.400  122.836
  218.750   10.914    0.161    0.414  119.240
  219.000   11.321    0.204    0.409  114.451
  219.250   11.961    0.224    0.379  109.662
  219.500   12.182    0.241    0.380  104.278
  219.750   12.400    0.265    0.384  103.061
  220.000   12.396    0.261    0.393  104.836
  220.250   12.386    0.260    0.390  104.817
  220.500   12.380    0.256    0.376  104.797
  220.750   12.375    0.245    0.368  107.163
  221.000   12.368    0.257    0.376   98.793
  221.250   12.361    0.271    0.387  101.754
  221.500   12.353    0.268    0.377  111.279
  221.750   12.115    0.233    0.366  117.818
  222.000   11.889    0.230    0.363  122.568
  222.250   11.880    0.237    0.370  115.982
  222.500   11.875    0.230    0.359  117.160
  222.750   11.649    0.222    0.362  114.160
  223.000   11.216    0.236    0.374  108.179
  223.250   11.005    0.203    0.379   99.217
