~VERSION INFORMATION
 VERS.                 2.0:   CWLS LOG ASCII STANDARD -VERSION 2.0
 WRAP.                  NO:   ONE LINE PER DEPTH STEP
~WELL INFORMATION BLOCK
#MNEM.UNIT           DATA                    DESCRIPTION OF MNEMONIC
#---------    -------------------            -------------------------------
# Generated from Intellog Unique Number	CW_70_72/WELL/1066
NULL.         -999.25                        : NULL_VALUE
WELL.         LARIO ET AL MITSUE 12-20       : Well_name    - WELL              
LOC .         12-20-071-03W5                 : Location     - LOCATION          
UWI .         00/12-20-071-03W5/0            : Uwi          - UNIQUE WELL ID    
ENTR.         JAYE                           : Entered      - ENTERED BY        
SRVC.         SCHLUMBERGER                   : Scn          - SERVICE COMPANY   
DATE.         9 JAN 82                       : Date         - LOG DATE          
STRT.M        475                            : top_depth    - START DEPTH       
STOP.M        740                            : bot_depth    - STOP DEPTH        
STEP.M        0.25                           : increment    - STEP LENGTH       
~CURVE INFORMATION BLOCK
#MNEM UNIT       ERCB CURVE CODE    CURVE DESCRIPTION
#-----------   ------------------   ----------------------------------
DEPT.M        00 001 00 00         : DEPTH        - DEPTH                       
DPHI.V/V      00 890 00 00         : PHID         - DENSITY POROSITY (SANDSTONE)
NPHI.V/V      00 330 00 00         : PHIN         - NEUTRON POROSITY (SANDSTONE)
GR  .API      00 310 00 00         : GR           - GAMMA RAY                   
CALI.MM       00 280 01 00         : CAL          - CALIPER                     
ILD .OHMM     00 120 00 00         : RESD         - DEEP RESISTIVITY (DIL)      
~PARAMETER INFORMATION       
#MNEM.UNIT           DATA             DESCRIPTION OF MNEMONIC
#---------         -----------     ------------------------------
GL  .M        676                  : gl           - GROUND LEVEL ELEVATION      
EREF.M        679.9                : kb           - ELEVATION OF DEPTH REFERENCE
DATM.M        676                  : datum        - DATUM ELEVATION             
TDD .M        750                  : tdd          - TOTAL DEPTH DRILLER         
RUN .         ONE                  : Run          - RUN NUMBER                  
ENG .         BOHN                 : Engineer     - RECORDING ENGINEER          
WIT .         MYERS                : Witness      - WITNESSED BY                
BASE.         EDSON                : Branch       - HOME BASE OF LOGGING UNIT   
MUD .         GEL CHEM             : Mud_type     - MUD TYPE                    
MATR.         SANDSTONE            : Logunit      - NEUTRON MATRIX              
TMAX.C        31.1                 : BHT          - MAXIMUM RECORDED TEMPERATURE
BHTD.M        749                  : BHTDEP       - MAXIMUM RECORDED TEMPERATURE
RMT .C        30.5                 : MDTP         - TEMPERATURE OF MUD          
MUDD.KG/M     1200                 : MWT          - MUD DENSITY                 
NEUT.         1                    : NEUTRON      - NEUTRON TYPE                
RESI.         0                    : RESIST       - RESISTIVITY TYPE            
RM  .OHMM     3.19                 : RM           - RESISTIVITY OF MUD          
RMC .OHMM     0                    : RMC          - RESISTIVITY OF MUD CAKE     
RMF .OHMM     2.52                 : RMF          - RESISTIVITY OF MUD FILTRATE 
SUFT.C        0                    : SUFT         - SURFACE TEMPERATURE         
~A  DEPTH     PHID     PHIN       GR      CAL     RESD
# ...
  621.000    0.315    0.422   53.700  199.887    1.757
  621.250    0.322    0.398   55.849  199.642    1.777
  621.500    0.327    0.417   55.761  199.377    1.793
  621.750    0.323    0.426   56.605  199.129    1.820
  622.000    0.317    0.435   60.309  198.876    1.833
  622.250    0.314    0.442   59.908  198.933    1.823
  622.500    0.318    0.425   59.821  198.576    1.812
  622.750    0.317    0.415   62.526  198.550    1.802
  623.000    0.314    0.419   61.880  198.291    1.798
  623.250    0.316    0.441   60.674  198.146    1.791
  623.500    0.322    0.453   59.529  198.108    1.787
  623.750    0.325    0.434   56.830  197.961    1.764
  624.000    0.328    0.415   56.180  198.020    1.744
  624.250    0.332    0.399   58.581  198.072    1.711
  624.500    0.333    0.397   57.187  198.033    1.676
  624.750    0.329    0.396   57.779  197.988    1.654
  625.000    0.326    0.407   59.322  197.847    1.629
  625.250    0.321    0.427   55.698  197.389    1.557
  625.500    0.317    0.422   54.177  196.805    1.555
  625.750    0.317    0.412   56.132  196.462    1.555
  626.000    0.324    0.431   60.130  196.393    1.577
  626.250    0.317    0.437   66.733  196.238    1.622
  626.500    0.296    0.424   69.178  196.604    1.697
  626.750    0.275    0.438   70.325  196.656    1.874
  627.000    0.273    0.454   70.793  196.415    2.082
  627.250    0.280    0.461   72.374  196.253    2.295
  627.500    0.270    0.456   75.568  196.307    2.460
  627.750    0.261    0.430   73.428  196.349    2.480
  628.000    0.263    0.425   72.656  196.398    2.462
  628.250    0.276    0.434   71.942  196.345    2.441
  628.500    0.283    0.437   71.169  196.203    2.401
  628.750    0.285    0.448   70.206  196.261    2.371
  629.000    0.277    0.443   68.936  196.296    2.399
  629.250    0.258    0.417   66.921  196.355    2.487
  629.500    0.238    0.410   64.535  196.401    2.680
  629.750    0.218    0.380   62.337  196.469    2.999
  630.000    0.171    0.321   65.527  196.418    3.331
  630.250    0.193    0.346   69.963  196.256    3.618
  630.500    0.222    0.377   71.913  196.107    4.064
  630.750    0.219    0.399   72.998  196.047    4.430
  631.000    0.125    0.392   72.037  196.310    4.678
  631.250    0.080    0.281   68.105  196.465    5.225
  631.500    0.059    0.235   65.158  196.716    5.846
  631.750    0.048    0.205   62.153  196.473    6.970
  632.000    0.054    0.212   61.811  196.417    8.658
  632.250    0.084    0.264   68.537  196.378    9.093
  632.500    0.131    0.290   70.429  196.311    8.287
  632.750    0.157    0.309   67.174  196.459    7.510
  633.000    0.150    0.319   66.648  196.824    6.948
  633.250    0.143    0.310   69.471  197.088    6.261
  633.500    0.138    0.301   73.653  197.253    5.549
  633.750    0.148    0.355   77.962  196.988    4.964
  634.000    0.177    0.413   84.687  196.724    4.482
  634.250    0.219    0.422   79.264  196.476    4.054
  634.500    0.228    0.412   80.165  196.331    3.647
  634.750    0.211    0.410   83.110  196.468    3.412
  635.000    0.184    0.427   83.449  196.739    3.413
  635.250    0.195    0.441   85.463  197.093    3.598
  635.500    0.200    0.416   88.408  197.346    3.709
  635.750    0.196    0.428   91.292  197.515    3.773
  636.000    0.198    0.450   89.650  197.458    3.817
  636.250    0.202    0.426   86.706  197.519    3.863
  636.500    0.206    0.404   84.319  197.568    3.886
  636.750    0.189    0.423   81.252  197.615    3.924
  637.000    0.170    0.425   83.638  197.661    3.963
  637.250    0.150    0.408   89.187  197.933    3.980
  637.500    0.132    0.406   89.530  198.073    3.996
  637.750    0.137    0.422   90.801  198.553    3.991
  638.000    0.147    0.418   92.813  198.598    4.023
  638.250    0.146    0.402   94.646  198.644    4.217
  638.500    0.120    0.407   93.373  198.295    4.605
  638.750    0.082    0.422   81.440  197.842    5.279
  639.000    0.051    0.356   69.818  197.680    5.639
  639.250    0.110    0.249   68.176  197.734    5.557
  639.500    0.166    0.369   79.737  198.307    5.277
  639.750    0.185    0.399   93.343  198.547    4.936
  640.000    0.191    0.408   91.825  199.019    4.441
  640.250    0.184    0.397   86.466  199.177    4.062
  640.500    0.176    0.398   84.325  199.435    3.930
  640.750    0.180    0.409   86.092  199.496    3.852
  641.000    0.183    0.418   86.000  199.543    3.832
  641.250    0.187    0.424   84.546  199.588    3.827
  641.500    0.190    0.414   85.318  199.736    3.836
  641.750    0.185    0.407   88.884  200.106    3.845
  642.000    0.172    0.410   92.138  200.357    3.854
  642.250    0.163    0.413   95.392  200.210    3.892
  642.500    0.158    0.410   99.763  200.267    3.916
  642.750    0.164    0.412   99.113  200.322    3.954
  643.000    0.173    0.418   94.374  200.367    3.993
  643.250    0.173    0.420   93.907  200.424    4.062
  643.500    0.168    0.410   95.550  200.367    4.156
  643.750    0.171    0.397   96.015  200.104    4.308
  644.000    0.176    0.392   95.737  200.054    4.466
  644.250    0.184    0.409   93.412  200.005    4.603
  644.500    0.192    0.419   87.741  200.171    4.614
  644.750    0.182    0.415   81.389  200.120    4.398
  645.000    0.182    0.416   82.412  200.274    4.168
  645.250    0.205    0.436   86.533  200.429    3.799
  645.500    0.190    0.458   90.160  200.787    3.540
  645.750    0.175    0.471   90.443  201.565    3.845
  646.000    0.169    0.459   88.302  202.025    4.145
  646.250    0.160    0.438   87.962  202.498    4.209
  646.500    0.142    0.410   89.355  202.649    4.203
  646.750    0.142    0.407   88.643  202.596    4.112
  647.000    0.143    0.418   91.401  202.548    3.861
  647.250    0.141    0.435   95.340  202.600    3.687
  647.500    0.148    0.460   95.186  202.851    3.614
  647.750    0.159    0.463   93.417  203.219    3.636
  648.000    0.156    0.454   93.882  202.546    3.713
  648.250    0.155    0.433   93.790  197.845    3.757
  648.500    0.159    0.452   91.342  194.075    3.744
  648.750    0.162    0.457   87.782  193.512    3.725
  649.000    0.164    0.458   87.192  193.460    3.706
  649.250    0.168    0.449   88.215  193.203    3.673
  649.500    0.165    0.429   95.744  192.747    3.627
  649.750    0.161    0.415   98.503  192.582    3.549
  650.000    0.155    0.407   95.869  192.429    3.485
  650.250    0.151    0.398   93.732  192.283    3.441
  650.500    0.153    0.405   92.152  192.017    3.354
  650.750    0.160    0.423   89.707  191.971    3.306
  651.000    0.176    0.449   86.761  191.098    3.246
  651.250    0.166    0.406   79.787  190.619    3.212
  651.500    0.202    0.389   73.125  189.537    3.166
  651.750    0.233    0.398   68.880  188.870    3.144
  652.000    0.267    0.396   64.757  188.609    3.128
  652.250    0.290    0.410   61.937  188.250    3.112
  652.500    0.287    0.423   59.802  188.092    3.107
  652.750    0.285    0.423   58.468  187.938    3.126
  653.000    0.281    0.399   58.125  187.996    3.133
  653.250    0.279    0.410   58.779  188.147    3.153
  653.500    0.275    0.412   59.927  188.511    3.178
  653.750    0.272    0.401   61.568  188.874    3.203
  654.000    0.269    0.390   58.747  189.030    3.234
  654.250    0.263    0.402   57.479  189.296    3.347
  654.500    0.248    0.411   61.040  189.448    3.469
  654.750    0.208    0.362   62.004  189.606    3.810
  655.000    0.120    0.298   57.446  189.754    4.368
  655.250    0.084    0.258   58.471  189.609    5.497
  655.500    0.056    0.215   56.580  189.855    6.995
  655.750    0.036    0.181   53.511  190.125    8.625
  656.000    0.024    0.158   51.373  190.373   10.225
  656.250    0.017    0.142   50.357  190.538   11.877
  656.500    0.014    0.130   49.453  190.590   13.566
  656.750    0.012    0.124   48.617  190.649   15.094
  657.000    0.008    0.127   47.656  190.587   14.494
  657.250    0.031    0.152   47.688  190.636   13.234
