~VERSION INFORMATION
 VERS.                 2.0:   CWLS LOG ASCII STANDARD -VERSION 2.0
 WRAP.                  NO:   ONE LINE PER DEPTH STEP
~WELL INFORMATION BLOCK
#MNEM.UNIT           DATA                    DESCRIPTION OF MNEMONIC
#---------    -------------------            -------------------------------
# Generated from Intellog Unique Number	CC_80_83/WELL/2374
NULL.         -999.25                        : NULL_VALUE
WELL.         PEX HOUSE                      : Well_name    - WELL
LOC .         10-26-081-16W4                 : Location     - LOCATION          
UWI .         00/10-26-081-16W400            : Uwi          - UNIQUE WELL ID    
ENTR.         DW                             : Entered      - ENTERED BY        
SRVC.         SCHLUMBERGER                   : Scn          - SERVICE COMPANY   
DATE.         14 JAN 82                      : Date         - LOG DATE
STRT.M        160                            : top_depth    - START DEPTH       
STOP.M        330.098                        : bot_depth    - STOP DEPTH        
STEP.M        0.3                            : increment    - STEP LENGTH       
~CURVE INFORMATION BLOCK
#MNEM UNIT       ERCB CURVE CODE    CURVE DESCRIPTION
#-----------   ------------------   ----------------------------------
DEPT.M        00 001 00 00         : DEPTH        - DEPTH                       
DPHI.V/V      00 890 00 00         : PHID         - DENSITY POROSITY (LIMESTONE)
NPHI.V/V      00 330 00 00         : PHIN         - NEUTRON POROSITY (LIMESTONE)
GR  .API      00 310 00 00         : GR           - GAMMA RAY                   
ILD .OHMM     00 120 00 00         : RESD         - DEEP RESISTIVITY (DIL)      
~PARAMETER INFORMATION       
#MNEM.UNIT           DATA             DESCRIPTION OF MNEMONIC
#---------         -----------     ------------------------------
GL  .M        555.3                : gl           - GROUND LEVEL ELEVATION      
EREF.M        558.9                : kb           - ELEVATION OF DEPTH REFERENCE
DATM.M        558.9                : datum        - DATUM ELEVATION             
TDD .M        332                  : tdd          - TOTAL DEPTH DRILLER         
RUN .         ONE                  : Run          - RUN NUMBER                  
ENG .         BILL                 : Engineer     - RECORDING ENGINEER          
WIT .         JIM                  : Witness      - WITNESSED BY                
MUD .         GEL                  : Mud_type     - MUD TYPE                    
MATR.         LIMESTONE            : Logunit      - NEUTRON MATRIX              
TMAX.C        26                   : BHT          - MAXIMUM RECORDED TEMPERATURE
BHTD.M        332                  : BHTDEP       - MAXIMUM RECORDED TEMPERATURE
MATR.         1                    : LOGUNIT      - NEUTRON MATRIX              
RMT .C        25                   : MDTP         - TEMPERATURE OF MUD          
NEUT.         1                    : NEUTRON      - NEUTRON TYPE                
RESI.         0                    : RESIST       - RESISTIVITY TYPE            
RMC .OHMM     0.25                 : RMC          - RESISTIVITY OF MUD CAKE     
RMF .OHMM     0.25                 : RMF          - RESISTIVITY OF MUD FILTRATE 
SUFT.C        15                   : SUFT         - SURFACE TEMPERATURE         
~A  DEPTH     PHID     PHIN       GR     RESD
# ...
  212.201    0.332    0.435   65.318   13.248
  212.501    0.325    0.422   64.708   12.752
  212.801    0.346    0.427   65.340   12.273
  213.101    0.333    0.449   67.831   12.272
  213.401    0.301    0.462   68.465   12.039
  213.701    0.316    0.473   68.475   12.268
  214.001    0.342    0.469   66.629   12.987
  214.301    0.353    0.481   64.781   12.986
  214.601    0.355    0.493   64.792   12.984
  214.901    0.331    0.483   67.284   12.738
  215.201    0.316    0.459   67.916   12.260
  215.501    0.329    0.453   66.071   12.493
  215.801    0.325    0.443   64.839   12.492
  216.101    0.293    0.433   62.992   12.024
  216.401    0.182    0.345   64.245   11.141
  216.701    0.181    0.359   70.454    9.750
  217.001    0.255    0.428   78.527    8.371
  217.301    0.294    0.468   81.638    7.052
  217.601    0.276    0.470   82.889    6.411
  217.901    0.267    0.479   82.901    6.533
  218.201    0.265    0.465   83.535    6.916
  218.501    0.258    0.443   82.928    7.322
  218.801    0.251    0.434   81.697    8.051
  219.101    0.272    0.451   79.231    8.205
  219.401    0.281    0.450   77.382    8.204
  219.701    0.274    0.448   78.014    8.203
  220.001    0.277    0.495   79.270    7.601
  220.301    0.267    0.486   80.520    7.178
  220.601    0.264    0.470   81.772    7.041
  220.901    0.269    0.456   81.782    7.597
  221.201    0.266    0.459   79.933    7.891
  221.501    0.263    0.462   78.705    8.514
  221.801    0.279    0.419   80.576    8.677
  222.101    0.290    0.444   81.211    8.676
  222.401    0.295    0.461   78.742    8.350
  222.701    0.303    0.475   75.654    8.037
  223.001    0.291    0.521   76.285    7.736
  223.301    0.284    0.528   79.400    8.189
  223.601    0.291    0.492   77.550    9.355
  223.901    0.298    0.452   71.363   10.288
  224.201    0.314    0.443   65.794   10.686
  224.501    0.362    0.445   65.808   11.313
  224.801    0.364    0.461   67.677   11.976
  225.101    0.351    0.478   65.831   12.921
  225.401    0.327    0.483   62.123   13.678
  225.701    0.271    0.407   58.419   13.677
  226.001    0.154    0.315   57.809   13.675
  226.301    0.193    0.352   62.161   13.162
  226.601    0.302    0.435   67.130   12.669
  226.901    0.347    0.461   67.761   11.517
  227.201    0.345    0.458   65.296   10.876
  227.501    0.343    0.477   68.405   10.271
  227.801    0.348    0.458   75.856    9.517
  228.101    0.334    0.459   77.110    9.698
  228.401    0.329    0.483   71.545    9.697
  228.701    0.338    0.471   68.455   10.072
  229.001    0.345    0.471   66.608   10.264
  229.301    0.353    0.470   65.379   10.069
  229.601    0.361    0.474   65.391    9.878
  229.901    0.355    0.471   68.501    9.152
  230.201    0.338    0.438   73.476    8.979
  230.501    0.324    0.459   74.105    8.977
  230.801    0.322    0.466   71.640    8.976
  231.101    0.332    0.495   70.408    9.323
  231.401    0.329    0.517   71.041    9.501
  231.701    0.310    0.518   70.433    9.321
  232.001    0.324    0.503   68.588    8.971
  232.301    0.348    0.500   68.597    8.312
  232.601    0.347    0.514   69.848    7.701
  232.901    0.319    0.519   74.201    7.413
  233.201    0.288    0.485   81.655    7.272
  233.501    0.276    0.465   83.527    7.134
  233.801    0.298    0.477   82.917    7.133
  234.101    0.281    0.462   82.930    7.269
  234.401    0.285    0.467   83.562    7.131
  234.701    0.304    0.499   84.814    6.864
  235.001    0.282    0.512   87.925    6.607
  235.301    0.245    0.525   87.314    6.359
  235.601    0.250    0.519   84.847    5.780
  235.901    0.252    0.492   86.721    5.564
  236.201    0.257    0.477   92.312    5.458
  236.501    0.261    0.504   92.323    5.562
  236.801    0.264    0.492   86.758    6.002
  237.101    0.268    0.457   84.291    6.234
  237.401    0.280    0.483   83.680    6.475
  237.701    0.281    0.500   84.934    6.725
  238.001    0.281    0.461   86.807    7.396
  238.301    0.280    0.467   87.438    7.980
  238.601    0.272    0.502   86.827    8.610
  238.901    0.279    0.479   79.400    8.943
  239.201    0.292    0.440   70.732    8.130
  239.501    0.299    0.433   70.125    7.251
  239.801    0.290    0.462   80.675    6.226
  240.101    0.259    0.521   87.506    5.769
  240.401    0.253    0.506   88.140    5.768
  240.701    0.248    0.477   86.910    6.106
  241.001    0.233    0.468   87.545    6.588
  241.301    0.233    0.477   90.034    7.245
  241.601    0.244    0.477   90.667    7.817
  241.901    0.255    0.467   88.819    8.276
  242.201    0.274    0.446   90.690    9.275
  242.501    0.271    0.454   91.941   10.200
  242.801    0.260    0.458   84.514   11.653
  243.101    0.250    0.467   77.708   14.923
  243.401    0.223    0.474   72.759   15.500
  243.701    0.104    0.365   69.052   14.919
  244.001    0.092    0.281   67.827   12.809
  244.301    0.193    0.381   73.415   10.587
  244.601    0.260    0.455   83.966    9.625
  244.901    0.249    0.449   91.418    8.423
  245.201    0.235    0.447   90.811    8.263
  245.501    0.223    0.448   90.205    8.421
  245.801    0.226    0.440   92.073    8.419
  246.101    0.244    0.432   86.506    8.260
  246.401    0.257    0.444   86.521    8.102
  246.701    0.299    0.490   89.013    8.102
  247.001    0.314    0.477   92.126    7.651
  247.301    0.273    0.470   95.858    6.824
  247.601    0.222    0.491   97.107    6.444
  247.901    0.234    0.488   95.257    6.567
  248.201    0.266    0.475   94.650    6.821
  248.501    0.261    0.475   98.379    6.820
  248.801    0.238    0.513  101.491    6.691
  249.101    0.238    0.522  100.265    6.440
  249.401    0.229    0.477   92.838    5.967
  249.701    0.215    0.455   91.609    5.027
  250.001    0.207    0.470   94.720    4.931
  250.301    0.228    0.479   94.112    5.122
  250.601    0.244    0.467   87.925    5.320
  250.901    0.244    0.466   83.598    6.313
  251.201    0.238    0.476   89.189    6.943
  251.501    0.217    0.477  100.360    7.211
  251.801    0.212    0.487  105.331    6.556
  252.101    0.234    0.511   96.666    5.419
  252.401    0.284    0.530   94.816    5.316
  252.701    0.269    0.532   97.311    5.958
  253.001    0.270    0.532   98.560    7.486
  253.301    0.269    0.535   96.092    8.884
  253.601    0.242    0.521   85.565   10.344
  253.901    0.184    0.496   79.996   10.147
  254.201    0.217    0.390   80.634    9.401
  254.501    0.282    0.427   83.742    9.223
  254.801    0.271    0.474   84.375    8.877
  255.101    0.229    0.459   85.006    8.709
  255.401    0.235    0.442   88.737    9.045
  255.701    0.224    0.436   94.330    9.044
  256.001    0.285    0.469   96.819    9.043
  256.301    0.276    0.479   95.593    8.704
  256.601    0.271    0.455   89.407    9.214
  256.901    0.272    0.423   86.317    9.390
  257.201    0.270    0.429   83.229    8.868
  257.501    0.265    0.449   83.864    8.062
  257.801    0.266    0.426   86.973    7.469
  258.101    0.267    0.438   90.705    6.790
  258.401    0.259    0.463   86.999    6.536
  258.701    0.238    0.469   83.292    6.172
  259.001    0.220    0.458   83.921    6.171
  259.301    0.221    0.474   92.612    6.289
  259.601    0.230    0.500  100.064    6.169
  259.901    0.242    0.496  100.077    6.287
  260.201    0.247    0.497   94.508    6.914
  260.501    0.251    0.497   90.799    7.182
  260.801    0.241    0.475   88.333    8.204
  261.101    0.242    0.458   85.865    9.372
  261.401    0.278    0.459   81.536   12.002
  261.701    0.272    0.419   75.970   14.796
  262.001    0.126    0.287   72.261   15.663
  262.301    0.172    0.302   71.653   14.791
  262.601    0.229    0.444   79.104   13.705
  262.901    0.251    0.461   84.697   10.497
  263.201    0.252    0.461   84.709    8.195
  263.501    0.235    0.462   87.825    6.646
  263.801    0.243    0.483   92.171    5.816
  264.101    0.275    0.455   97.143    5.389
