~VERSION INFORMATION
 VERS.                 2.0:   CWLS LOG ASCII STANDARD -VERSION 2.0
 WRAP.                  NO:   ONE LINE PER DEPTH STEP
~WELL INFORMATION BLOCK
#MNEM.UNIT           DATA                    DESCRIPTION OF MNEMONIC
#---------    -------------------            -------------------------------
# Generated from Intellog Unique Number	CS_77_79/WELL/1989
WELL.         CAN WORLDWIDE ENR              : Well_name    - WELL
LOC .         00/10-05-079-03W4/0            : Location     - LOCATION
UWI .         00/10-05-079-03W4/0            : Uwi          - UNIQUE WELL ID
ENTR.         TIM                            : Entered      - ENTERED BY
SRVC.         SCHLUMBERGER                   : Scn          - SERVICE COMPANY
STRT.M        150                            : top_depth    - START DEPTH
STOP.M        385                            : bot_depth    - STOP DEPTH
STEP.M        0.25                           : increment    - STEP LENGTH
 NULL. -999.2500:NULL Value
~CURVE INFORMATION BLOCK
#MNEM UNIT       ERCB CURVE CODE    CURVE DESCRIPTION
#-----------   ------------------   ----------------------------------
DEPT.M        00 001 00 00         : DEPTH        - DEPTH
GR  .API      00 310 00 00         : GR           - GAMMA RAY
NPHI.V/V      00 330 00 00         : PHIN         - NEUTRON POROSITY (SANDSTONE)
DPHI.V/V      00 890 00 00         : PHID         - DENSITY POROSITY (SANDSTONE)
ILD .OHMM     00 120 00 00         : RESD         - DEEP RESISTIVITY (DIL)
~PARAMETER INFORMATION
#MNEM.UNIT           DATA             DESCRIPTION OF MNEMONIC
#---------         -----------     ------------------------------
GL  .M        548.88               : gl           - GROUND LEVEL ELEVATION
EREF.M        552.73               : kb           - ELEVATION OF DEPTH REFERENCE
DATM.M        552.73               : datum        - DATUM ELEVATION
TDD .M        396.4                : tdd          - TOTAL DEPTH DRILLER
RUN .         ONE                  : Run          - RUN NUMBER
ENG .         BILL                 : Engineer     - RECORDING ENGINEER
WIT .         JIM                  : Witness      - WITNESSED BY
MUD .         GEL                  : Mud_type     - MUD TYPE
MATR.         SANDSTONE            : Logunit      - NEUTRON MATRIX
TMAX.C        19                   : BHT          - MAXIMUM RECORDED TEMPERATURE
BHTD.M        396.4                : BHTDEP       - MAXIMUM RECORDED TEMPERATURE
MATR.         1                    : LOGUNIT      - NEUTRON MATRIX
RMT .C        16                   : MDTP         - TEMPERATURE OF MUD
NEUT.         1                    : NEUTRON      - NEUTRON TYPE
RESI.         5.3                  : RESIST       - RESISTIVITY TYPE
RMC .OHMM     3                    : RMC          - RESISTIVITY OF MUD CAKE
RMF .OHMM     4.6                  : RMF          - RESISTIVITY OF MUD FILTRATE
SUFT.C        15                   : SUFT         - SURFACE TEMPERATURE
~A  DEPTH       GR     PHIN     PHID     RESD
# ...
  280.500   92.470    0.472    0.241    3.236
  280.750   92.412    0.483    0.263    2.889
  281.000   92.977    0.490    0.271    2.676
  281.250   91.672    0.503    0.273    2.623
  281.500   89.135    0.539    0.276    2.475
  281.750   85.946    0.548    0.277    2.427
  282.000   85.265    0.548    0.283    2.378
  282.250   87.077    0.547    0.285    2.373
  282.500   92.006    0.542    0.273    2.415
  282.750   96.297    0.538    0.264    2.456
  283.000   93.746    0.511    0.261    2.593
  283.250   91.832    0.501    0.257    2.790
  283.500   89.281    0.490    0.254    2.947
  283.750   87.976    0.434    0.246    3.231
  284.000   92.281    0.434    0.237    3.476
  284.250   94.094    0.426    0.221    3.955
  284.500   92.165    0.409    0.214    4.500
  284.750   89.585    0.387    0.204    4.930
  285.000   87.657    0.373    0.171    5.110
  285.250   87.599    0.367    0.186    5.396
  285.500   91.919    0.368    0.214    5.288
  285.750   99.965    0.368    0.227    4.899
  286.000  103.662    0.369    0.237    4.624
  286.250  108.591    0.377    0.233    4.447
  286.500  109.141    0.407    0.212    4.277
  286.750  109.707    0.429    0.206    4.114
  287.000  104.662    0.449    0.200    3.955
  287.250  100.864    0.455    0.196    3.952
  287.500   99.559    0.451    0.203    3.800
  287.750  102.618    0.441    0.207    3.722
  288.000  102.545    0.435    0.213    3.648
  288.250  101.241    0.445    0.219    3.642
  288.500  101.183    0.475    0.229    3.569
  288.750   99.255    0.489    0.238    3.563
  289.000   95.457    0.476    0.245    3.559
  289.250   91.020    0.449    0.250    3.551
  289.500   90.339    0.399    0.249    3.614
  289.750   93.398    0.397    0.247    3.817
  290.000   97.718    0.397    0.243    4.184
  290.250  103.256    0.398    0.231    4.673
  290.500  103.212    0.401    0.225    4.752
  290.750  100.647    0.381    0.223    4.834
  291.000   97.472    0.364    0.217    5.008
  291.250   94.297    0.351    0.204    5.288
  291.500   89.861    0.339    0.125    5.691
  291.750   86.701    0.326    0.114    8.572
  292.000   79.148    0.317    0.144    9.933
  292.250   74.103    0.309    0.182   11.307
  292.500   73.407    0.298    0.239   12.160
  292.750   75.857    0.283    0.274   10.850
  293.000   78.292    0.272    0.292   10.246
  293.250   81.975    0.263    0.300    9.146
  293.500   84.410    0.231    0.301    8.318
  293.750   83.729    0.242    0.308    7.422
  294.000   81.177    0.261    0.301    6.752
  294.250   77.988    0.285    0.294    6.025
  294.500   82.917    0.333    0.303    5.278
  294.750   87.237    0.372    0.293    4.712
  295.000   94.036    0.419    0.267    4.204
  295.250  102.068    0.444    0.244    4.199
  295.500   99.531    0.435    0.226    4.352
  295.750   92.601    0.394    0.248    4.680
  296.000   86.933    0.365    0.295    5.327
  296.250   81.873    0.326    0.341    6.780
  296.500   78.713    0.267    0.357   10.208
  296.750   69.913    0.229    0.357   12.997
  297.000   62.998    0.163    0.354   17.495
  297.250   54.822    0.135    0.355   21.854
  297.500   52.271    0.121    0.359   25.325
  297.750   55.953    0.112    0.363   27.257
  298.000   54.648    0.104    0.365   28.782
  298.250   53.344    0.097    0.363   30.953
  298.500   49.531    0.089    0.358   33.928
  298.750   48.226    0.082    0.356   37.190
  299.000   46.922    0.080    0.392   41.549
  299.250   39.383    0.082    0.396   44.701
  299.500   41.819    0.082    0.389   46.329
  299.750   47.980    0.079    0.376   46.256
  300.000   43.573    0.074    0.373   45.311
  300.250   39.760    0.062    0.364   44.386
  300.500   42.833    0.063    0.364   44.333
  300.750   45.269    0.070    0.361   45.062
  301.000   46.443    0.081    0.355   45.027
  301.250   46.385    0.091    0.348   44.956
  301.500   48.835    0.099    0.336   42.441
  301.750   56.258    0.108    0.339   38.597
  302.000   63.042    0.103    0.349   34.453
  302.250   60.491    0.093    0.372   29.614
  302.500   57.316    0.074    0.393   29.021
  302.750   54.141    0.083    0.394   30.644
  303.000   54.069    0.158    0.383   31.173
  303.250   57.751    0.176    0.356   28.884
  303.500   62.056    0.187    0.326   25.782
  303.750   64.507    0.155    0.358   22.579
  304.000   65.072    0.144    0.359   21.700
  304.250   62.492    0.122    0.381   22.092
  304.500   59.969    0.112    0.386   24.216
  304.750   56.794    0.092    0.394   26.543
  305.000   49.865    0.079    0.397   30.214
  305.250   44.805    0.078    0.398   37.029
  305.500   42.254    0.084    0.398   37.668
  305.750   39.094    0.096    0.395   36.230
  306.000   39.645    0.112    0.392   33.570
  306.250   42.718    0.128    0.386   29.411
  306.500   47.647    0.150    0.380   24.364
  306.750   53.199    0.174    0.374   19.068
  307.000   60.622    0.246    0.340   12.863
  307.250   64.913    0.267    0.285   12.148
  307.500   63.608    0.274    0.290    8.037
  307.750   61.680    0.288    0.292    6.914
  308.000   58.491    0.296    0.294    5.621
  308.250   55.925    0.327    0.299    4.240
  308.500   54.026    0.340    0.303    3.646
  308.750   49.604    0.343    0.310    3.020
  309.000   45.168    0.342    0.314    2.455
  309.250   41.355    0.341    0.314    2.071
  309.500   36.919    0.340    0.311    1.884
  309.750   35.644    0.342    0.309    1.812
  310.000   35.586    0.347    0.313    1.776
  310.250   41.747    0.355    0.317    1.740
  310.500   39.819    0.361    0.320    1.705
  310.750   39.137    0.363    0.322    1.733
  311.000   37.209    0.365    0.326    1.731
  311.250   35.905    0.362    0.326    1.761
  311.500   35.223    0.358    0.322    1.825
  311.750   34.527    0.341    0.319    1.855
  312.000   33.832    0.337    0.320    1.887
  312.250   33.803    0.337    0.320    1.921
  312.500   33.745    0.337    0.316    1.918
  312.750   31.817    0.339    0.310    1.915
  313.000   31.092    0.340    0.306    1.912
  313.250   31.686    0.340    0.306    1.908
  313.500   33.498    0.340    0.309    1.906
  313.750   35.310    0.340    0.312    1.903
  314.000   37.746    0.339    0.314    1.935
  314.250   39.558    0.337    0.316    1.967
  314.500   38.877    0.337    0.319    2.002
  314.750   36.934    0.336    0.320    2.000
  315.000   36.253    0.335    0.323    1.996
  315.250   36.833    0.336    0.325    1.993
  315.500   38.645    0.339    0.328    1.988
  315.750   39.196    0.345    0.328    1.986
  316.000   38.514    0.351    0.328    1.982
  316.250   37.847    0.360    0.328    1.980
  316.500   35.905    0.361    0.326    1.976
  316.750   35.224    0.361    0.324    1.973
  317.000   35.137    0.359    0.320    1.971
  317.250   35.093    0.358    0.314    1.966
  317.500   35.658    0.354    0.309    1.965
  317.750   38.108    0.349    0.302    1.925
  318.000   43.038    0.347    0.301    1.921
  318.250   41.733    0.346    0.306    1.884
  318.500   37.935    0.341    0.312    1.880
  318.750   32.223    0.336    0.318    1.876
  319.000   30.947    0.338    0.322    1.874
  319.250   29.019    0.339    0.321    1.870
  319.500   30.208    0.339    0.321    1.868
  319.750   32.629    0.339    0.320    1.864
  320.000   34.426    0.339    0.319    1.896
  320.250   35.615    0.340    0.314    1.894
  320.500   36.210    0.340    0.309    1.891
  320.750   38.022    0.334    0.307    1.888
  321.000   37.340    0.331    0.307    1.885
  321.250   32.281    0.334    0.309    1.883
  321.500   30.338    0.335    0.312    1.844
  321.750   32.774    0.338    0.317    1.774
  322.000   35.224    0.342    0.322    1.771
  322.250   38.268    0.344    0.325    1.733
  322.500   36.340    0.348    0.323    1.732
  322.750   34.427    0.352    0.319    1.729
  323.000   31.875    0.353    0.318    1.760
  323.250   29.309    0.356    0.318    1.757
  323.500   28.628    0.353    0.319    1.754
  323.750   27.323    0.346    0.319    1.785
