~VERSION INFORMATION
 VERS.                 2.0:   CWLS LOG ASCII STANDARD -VERSION 2.0
 WRAP.                  NO:   ONE LINE PER DEPTH STEP
~WELL INFORMATION BLOCK
#MNEM.UNIT           DATA                    DESCRIPTION OF MNEMONIC
#---------    -------------------            -------------------------------
# Generated from Intellog Unique Number	CC_80_83/WELL/2397
NULL.         -999.25                        : NULL_VALUE
WELL.         PCI PCEJ HANGINGSTONE          : Well_name    - WELL
LOC .         11-11-083-08W4                 : Location     - LOCATION          
UWI .         00/11-11-083-08W4/0            : Uwi          - UNIQUE WELL ID    
ENTR.         DW                             : Entered      - ENTERED BY        
SRVC.         SCHLUMBERGER                   : Scn          - SERVICE COMPANY   
DATE.         17 FEB 86                      : Date         - LOG DATE
STRT.M        260                            : top_depth    - START DEPTH       
STOP.M        514.99                         : bot_depth    - STOP DEPTH        
STEP.M        0.3                            : increment    - STEP LENGTH       
~CURVE INFORMATION BLOCK
#MNEM UNIT       ERCB CURVE CODE    CURVE DESCRIPTION
#-----------   ------------------   ----------------------------------
DEPT.M        00 001 00 00         : DEPTH        - DEPTH                       
ILD .OHMM     00 120 00 00         : RESD         - DEEP RESISTIVITY (DIL)      
GR  .API      00 310 00 00         : GR           - GAMMA RAY                   
NPHI.V/V      00 330 00 00         : PHIN         - NEUTRON POROSITY (LIMESTONE)
DPHI.V/V      00 890 00 00         : PHID         - DENSITY POROSITY (LIMESTONE)
~PARAMETER INFORMATION       
#MNEM.UNIT           DATA             DESCRIPTION OF MNEMONIC
#---------         -----------     ------------------------------
GL  .M        731.6                : gl           - GROUND LEVEL ELEVATION      
EREF.M        734.7                : kb           - ELEVATION OF DEPTH REFERENCE
DATM.M        734.7                : datum        - DATUM ELEVATION             
TDD .M        516                  : tdd          - TOTAL DEPTH DRILLER         
RUN .         ONE                  : Run          - RUN NUMBER                  
ENG .         BILL                 : Engineer     - RECORDING ENGINEER          
WIT .         JIM                  : Witness      - WITNESSED BY                
MUD .         GEL                  : Mud_type     - MUD TYPE                    
MATR.         LIMESTONE            : Logunit      - NEUTRON MATRIX              
TMAX.C        18                   : BHT          - MAXIMUM RECORDED TEMPERATURE
BHTD.M        516                  : BHTDEP       - MAXIMUM RECORDED TEMPERATURE
MATR.         1                    : LOGUNIT      - NEUTRON MATRIX              
RMT .C        25                   : MDTP         - TEMPERATURE OF MUD          
NEUT.         1                    : NEUTRON      - NEUTRON TYPE                
RESI.         0                    : RESIST       - RESISTIVITY TYPE            
RMC .OHMM     0.25                 : RMC          - RESISTIVITY OF MUD CAKE     
RMF .OHMM     0.25                 : RMF          - RESISTIVITY OF MUD FILTRATE 
SUFT.C        15                   : SUFT         - SURFACE TEMPERATURE         
~A  DEPTH     RESD       GR     PHIN     PHID
# ...
  364.396    3.256  125.640    0.510    0.241
  364.696    3.135  127.480    0.511    0.252
  364.996    3.135  129.934    0.510    0.249
  365.296    3.195  129.325    0.509    0.249
  365.596    3.318  125.043    0.512    0.261
  365.896    3.318  121.985    0.546    0.278
  366.196    3.382  120.151    0.585    0.280
  366.496    3.446  118.931    0.545    0.272
  366.796    3.382  118.935    0.542    0.263
  367.096    3.136  118.938    0.544    0.258
  367.396    2.854  112.818    0.553    0.254
  367.696    2.697  113.435    0.569    0.251
  367.996    2.697  116.501    0.556    0.252
  368.296    2.748  116.503    0.556    0.259
  368.596    2.597  115.895    0.570    0.285
  368.896    2.597  108.551    0.554    0.313
  369.196    2.697   99.368    0.507    0.315
  369.496    3.021   99.372    0.501    0.304
  369.796    3.788  103.051    0.501    0.290
  370.096    4.663  105.504    0.491    0.285
  370.396    5.526  106.732    0.484    0.285
  370.695    7.762   83.466    0.475    0.296
  370.995   11.758   74.284    0.458    0.327
  371.295   14.747   69.389    0.459    0.342
  371.595   17.478   74.904    0.463    0.360
  371.895   18.151   78.582    0.449    0.367
  372.195   17.479   77.974    0.438    0.361
  372.495   17.480   72.466    0.438    0.346
  372.795   17.153   68.796    0.441    0.338
  373.095   17.154   68.187    0.441    0.360
  373.395   18.500   68.803    0.448    0.310
  373.695   21.113   68.808    0.444    0.273
  373.995   21.516   67.586    0.426    0.269
  374.295   20.720   68.814    0.433    0.320
  374.595   18.855   73.105    0.441    0.374
  374.895   17.817   77.396    0.449    0.376
  375.195   15.910   75.562    0.429    0.368
  375.495   14.754   73.117    0.418    0.359
  375.795   14.478   71.284    0.420    0.356
  376.095   14.208   73.125    0.421    0.359
  376.395   13.942   74.965    0.421    0.364
  376.695   13.426   76.194    0.429    0.371
  376.995   13.427   72.524    0.434    0.369
  377.295   14.480   68.853    0.442    0.358
  377.595   20.339   63.957    0.450    0.312
  377.895   28.034   60.289    0.181    0.000
  378.195   46.668   59.679    0.145    0.000
  378.495   95.614   59.684    0.119    0.020
  378.795  111.202   60.299    0.129    0.020
  379.095  109.126   62.139    0.142    0.017
  379.395   85.385   67.655    0.142    0.031
  379.695   40.898   72.558    0.151    0.182
  379.995   21.939   75.011    0.347    0.304
  380.295   16.845   70.116    0.445    0.346
  380.595   15.621   63.996    0.463    0.359
  380.895   15.621   70.736    0.482    0.357
  381.195   15.919   76.863    0.486    0.359
  381.495   15.920   70.743    0.460    0.373
  381.795   16.223   71.972    0.440    0.372
  382.095   16.224   77.487    0.432    0.362
  382.395   16.534   73.204    0.418    0.358
  382.695   17.170   68.922    0.408    0.352
  382.995   17.831   69.538    0.414    0.352
  383.295   17.832   73.216    0.421    0.362
  383.595   17.172   74.444    0.422    0.379
  383.895   16.536   72.611    0.439    0.388
  384.195   15.626   69.552    0.455    0.358
  384.495   15.048   70.169    0.430    0.359
  384.795   14.767   76.909    0.437    0.364
  385.095   14.491   79.362    0.448    0.363
  385.395   14.768   76.305    0.440    0.372
  385.695   15.926   70.185    0.451    0.372
  385.995   18.875   72.025    0.474    0.353
  386.295   22.371   74.478    0.462    0.310
  386.595   27.534   69.584    0.415    0.236
  386.895   61.994   64.689    0.331    0.008
  387.195   66.857   61.018    0.135    0.024
  387.495   63.178   58.573    0.130    0.033
  387.795   49.433   64.700    0.152    0.047
  388.095   25.535   75.726    0.302    0.213
  388.395   15.053   79.405    0.378    0.352
  388.695   14.496   78.183    0.395    0.363
  388.995   14.773   76.350    0.409    0.370
  389.295   15.342   73.906    0.438    0.373
  389.595   15.342   73.296    0.466    0.369
  389.895   15.635   72.688    0.438    0.373
  390.195   15.635   73.916    0.436    0.380
  390.495   15.057   75.145    0.430    0.376
  390.795   14.775   75.760    0.422    0.373
  391.095   14.776   76.377    0.423    0.375
  391.395   15.058   78.218    0.438    0.380
  391.695   15.058   79.446    0.449    0.379
  391.995   15.345   78.837    0.467    0.368
  392.295   15.346   72.106    0.441    0.359
  392.595   15.347   70.885    0.444    0.354
  392.895   15.347   72.113    0.451    0.351
  393.195   14.502   78.853    0.453    0.347
  393.495   13.197   88.655    0.444    0.323
  393.795   11.784   90.495    0.438    0.311
  394.095   10.928   80.089    0.478    0.348
  394.395   10.928   73.357    0.452    0.361
  394.695   11.565   78.873    0.451    0.358
  394.995   12.952   83.775    0.456    0.349
  395.294   13.707   85.616    0.448    0.356
  395.594   14.506   83.170    0.430    0.365
  395.894   14.783   79.499    0.444    0.375
  396.194   14.507   75.829    0.465    0.379
  396.494   14.236   81.957    0.475    0.376
  396.794   14.236   84.410    0.454    0.349
  397.094   14.237   80.127    0.477    0.323
  397.394   14.508   80.131    0.469    0.328
  397.694   15.354   77.685    0.447    0.362
  397.994   15.647   70.340    0.436    0.361
  398.294   15.068   74.019    0.432    0.360
  398.594   14.239   80.759    0.432    0.360
  398.894   13.204   84.436    0.453    0.355
  399.194   12.477   83.216    0.460    0.357
  399.494   13.713   80.771    0.441    0.361
  399.794   15.357   79.549    0.455    0.338
  400.094   17.199   69.143    0.393    0.220
  400.394   19.629   67.922    0.308    0.247
  400.694   18.903   73.437    0.419    0.335
  400.994   17.201   82.014    0.460    0.357
  401.294   14.791   84.467    0.439    0.354
  401.594   13.715   84.471    0.419    0.338
  401.894   11.573   83.862    0.452    0.336
  402.194   10.732   85.091    0.469    0.340
  402.494   10.531   89.993    0.455    0.335
  402.794    9.583   99.183    0.447    0.307
  403.094    7.086  107.760    0.466    0.277
  403.394    5.339  106.539    0.471    0.272
  403.694    4.177  107.768    0.458    0.274
  403.994    3.660  114.508    0.452    0.272
  404.294    3.147  118.186    0.505    0.264
  404.594    2.974  115.741    0.546    0.268
  404.894    2.974  112.070    0.551    0.275
  405.194    3.208  108.399    0.568    0.292
  405.494    3.874  108.403    0.527    0.308
  405.794    5.046  107.182    0.490    0.254
  406.094    5.869  102.900    0.481    0.191
  406.394    6.698  102.291    0.448    0.207
  406.694    7.088  105.357    0.438    0.252
  406.994    6.826  108.422    0.461    0.269
  407.294    6.330  110.875    0.487    0.264
  407.594    5.869  112.104    0.506    0.262
  407.894    5.241  113.946    0.504    0.260
  408.194    4.259  115.174    0.522    0.265
  408.494    3.803  115.790    0.546    0.265
  408.794    3.332  118.244    0.564    0.283
  409.094    3.032  122.534    0.544    0.299
  409.394    2.759  125.600    0.552    0.285
  409.694    2.559  124.991    0.598    0.296
  409.994    2.511  122.545    0.590    0.283
  410.294    2.559  104.790    0.537    0.268
  410.594    2.866  102.344    0.502    0.264
  410.894    3.271  110.309    0.471    0.258
  411.194    4.260  115.211    0.456    0.267
  411.494    5.445  102.357    0.464    0.265
  411.794    6.098   99.910    0.486    0.231
  412.094    6.453  102.364    0.457    0.201
  412.394    6.453  108.491    0.472    0.237
  412.694    6.702  108.494    0.480    0.237
  412.994    7.228  115.847    0.446    0.238
  413.294    7.795  117.077    0.436    0.290
  413.594    7.943  118.917    0.454    0.260
  413.894    8.249  120.145    0.439    0.237
  414.194    8.896  118.924    0.430    0.263
  414.494    9.963  115.253    0.430    0.248
  414.794   10.347  109.746    0.428    0.216
  415.094   10.950  107.913    0.424    0.212
  415.394   11.372  109.141    0.424    0.245
  415.694   11.372  106.696    0.439    0.249
  415.994   11.372  106.087    0.435    0.263
  416.294   10.546  111.602    0.425    0.254
