~VERSION INFORMATION
 VERS.                 2.0:   CWLS LOG ASCII STANDARD -VERSION 2.0
 WRAP.                  NO:   ONE LINE PER DEPTH STEP
~WELL INFORMATION BLOCK
#MNEM.UNIT           DATA                    DESCRIPTION OF MNEMONIC
#---------    -------------------            -------------------------------
# Generated from Intellog Unique Number	CW_76_78/WELL/2581
WELL.         10-34-078-23W4                 : Well_name    - WELL
LOC .         00/10-34-078-23W4/0            : Location     - LOCATION
UWI .         00/10-34-078-23W4/0            : Uwi          - UNIQUE WELL ID
ENTR.         MAX                            : Entered      - ENTERED BY
SRVC.         SCHLUMBERGER                   : Scn          - SERVICE COMPANY
STRT.M        240.792                        : top_depth    - START DEPTH
STOP.M        488.792                        : bot_depth    - STOP DEPTH
STEP.M        0.25                           : increment    - STEP LENGTH
 NULL. -999.2500:NULL Value
~CURVE INFORMATION BLOCK
#MNEM UNIT       ERCB CURVE CODE    CURVE DESCRIPTION
#-----------   ------------------   ----------------------------------
DEPT.M        00 001 00 00         : DEPTH        - DEPTH
ILD .OHMM     00 120 00 00         : RESD         - DEEP RESISTIVITY (DIL)
NPHI.V/V      00 330 00 00         : PHIN         - NEUTRON POROSITY (SANDSTONE)
DPHI.V/V      00 890 00 00         : PHID         - DENSITY POROSITY (SANDSTONE)
CALI.MM       00 280 01 00         : CAL          - CALIPER
GR  .API      00 310 00 00         : GR           - GAMMA RAY
~PARAMETER INFORMATION
#MNEM.UNIT           DATA             DESCRIPTION OF MNEMONIC
#---------         -----------     ------------------------------
GL  .M        571.683              : gl           - GROUND LEVEL ELEVATION
EREF.M        574.731              : kb           - ELEVATION OF DEPTH REFERENCE
DATM.M        574.731              : datum        - DATUM ELEVATION
TDD .M        494.995              : tdd          - TOTAL DEPTH DRILLER
RUN .         ONE                  : Run          - RUN NUMBER
ENG .         BILL                 : Engineer     - RECORDING ENGINEER
WIT .         JIM                  : Witness      - WITNESSED BY
MUD .         GEL                  : Mud_type     - MUD TYPE
MATR.         SANDSTONE            : Logunit      - NEUTRON MATRIX
TMAX.F        79                   : BHT          - MAXIMUM RECORDED TEMPERATURE
BHTD.F        1624                 : BHTDEP       - MAXIMUM RECORDED TEMPERATURE
RMT .F        69                   : MDTP         - TEMPERATURE OF MUD
MUDD.LB/G     9.9                  : MWT          - MUD DENSITY
NEUT.         1                    : NEUTRON      - NEUTRON TYPE
RESI.         0                    : RESIST       - RESISTIVITY TYPE
RM  .OHMM     3.5                  : RM           - RESISTIVITY OF MUD
RMC .OHMM     4.1                  : RMC          - RESISTIVITY OF MUD CAKE
RMF .OHMM     2.85                 : RMF          - RESISTIVITY OF MUD FILTRATE
SUFT.F        25                   : SUFT         - SURFACE TEMPERATURE
~A  DEPTH     RESD     PHIN     PHID      CAL       GR
# ...
  459.792   32.311    0.405    0.295  195.374   87.235
  460.042   26.421    0.425    0.279  196.367   94.639
  460.292   23.225    0.425    0.274  197.851   99.373
  460.542   20.972    0.427    0.257  199.341  103.808
  460.792   19.819    0.453    0.231  199.321  103.204
  461.042   19.244    0.475    0.232  196.792   96.077
  461.292   19.384    0.476    0.249  194.766   88.650
  461.542   20.052    0.456    0.273  193.741   82.415
  461.792   21.512    0.429    0.286  192.721   72.022
  462.042   23.294    0.368    0.251  191.696   66.082
  462.292   26.377    0.313    0.215  192.678   61.326
  462.542   29.347    0.269    0.162  193.664   57.757
  462.792   31.770    0.201    0.050  194.650   59.822
  463.042   31.113    0.249    0.082  195.134   79.679
  463.292   29.425    0.292    0.178  194.612   96.274
  463.542   25.174    0.400    0.227  194.612  100.117
  463.792   20.584    0.407    0.220  194.566  103.072
  464.042   16.230    0.424    0.218  195.564  107.805
  464.292   14.271    0.440    0.228  196.046  111.352
  464.542   12.206    0.456    0.224  196.028  116.381
  464.792   11.331    0.482    0.225  196.512  118.446
  465.042   10.608    0.464    0.232  197.493  118.139
  465.292   10.399    0.427    0.225  198.982  108.342
  465.542   10.098    0.394    0.228  200.468  108.925
  465.792    9.894    0.405    0.240  199.448  113.361
  466.042    9.697    0.441    0.225  197.421  118.095
  466.292    9.677    0.488    0.211  196.399  122.236
  466.542    9.740    0.553    0.237  196.880  123.708
  466.792    9.720    0.600    0.270  197.362  108.275
  467.042    9.700    0.603    0.294  196.842  100.259
  467.292    9.768    0.567    0.316  195.817   88.089
  467.542    9.743    0.458    0.354  195.297   83.630
  467.792    9.814    0.432    0.328  193.773   97.259
  468.042    9.877    0.423    0.263  192.750  101.102
  468.292    9.944    0.407    0.263  192.230   99.017
  468.542    9.929    0.389    0.256  192.712   97.819
  468.792    9.998    0.421    0.239  192.689  109.669
  469.042   10.063    0.447    0.242  193.680  112.327
  469.292   10.045    0.481    0.253  194.164  111.724
  469.542   10.111    0.497    0.278  192.635  106.076
  469.792   10.184    0.408    0.266  192.617   99.543
  470.042   10.255    0.400    0.246  194.107   90.931
  470.292   10.232    0.413    0.234  195.091   91.810
  470.542   10.304    0.404    0.217  193.063   93.281
  470.792   10.275    0.401    0.198  190.534   92.975
  471.042   10.254    0.401    0.202  189.509   87.032
  471.292   10.235    0.389    0.213  189.489   84.352
  471.542   10.211    0.397    0.227  189.473   86.713
  471.792   10.191    0.375    0.239  189.957   97.081
  472.042   10.167    0.369    0.199  192.447  103.298
  472.292   10.146    0.371    0.184  194.938  109.514
  472.542   10.123    0.394    0.167  195.924  111.579
  472.792   10.011    0.408    0.176  196.408  116.311
  473.042    9.898    0.412    0.174  197.898  119.265
  473.292    9.616    0.426    0.177  199.882  119.256
  473.542    9.253    0.439    0.175  200.371  118.352
  473.792    8.987    0.472    0.175  200.350  117.451
  474.042    8.490    0.484    0.181  200.319  116.255
  474.292    7.951    0.474    0.171  200.314  115.356
  474.542    7.514    0.461    0.168  200.794  114.158
  474.792    7.169    0.440    0.171  200.271  112.664
  475.042    6.838    0.405    0.166  197.745  109.095
  475.292    6.580    0.377    0.181  191.701  101.374
  475.542    6.330    0.360    0.203  181.638   85.349
  475.792    6.094    0.376    0.223  181.120   84.744
  476.042    5.917    0.380    0.222  182.106   85.918
  476.292    5.798    0.370    0.229  188.611   86.799
  476.542    5.838    0.370    0.234  191.106   89.159
  476.792    6.039    0.385    0.219  191.588   92.708
  477.042    6.419    0.375    0.194  190.061   72.235
  477.292    6.767    0.340    0.166  185.522   60.658
  477.542    7.734    0.307    0.094  182.493   47.600
  477.792    9.417    0.289    0.069  182.493   38.988
  478.042   12.896    0.222    0.038  181.446   36.902
  478.292   16.733    0.183    0.002  182.439   36.891
  478.542   20.191    0.152   -0.009  183.925   39.251
  478.792   23.927    0.186   -0.015  181.896   40.130
  479.042   25.896    0.248   -0.017  181.373   39.819
  479.292   26.071    0.270   -0.016  180.840   40.107
  479.542   25.315    0.281   -0.012  181.335   41.875
  479.792   23.494    0.289    0.016  182.326   48.389
  480.042   19.566    0.283    0.068  184.811   56.088
  480.292   18.333    0.291    0.062  187.304   75.649
  480.542   14.723    0.318    0.070  190.803   97.879
  480.792   12.595    0.370    0.167  193.796  118.033
  481.042   11.072    0.370    0.146  195.284  122.171
  481.292   10.180    0.347    0.140  195.768  116.824
  481.542    9.888    0.360    0.138  196.752  112.067
  481.792   10.136    0.358    0.120  196.752  109.981
  482.042   10.774    0.293    0.113  197.711  108.191
  482.292   11.348    0.288    0.092  198.204  102.841
  482.542   11.852    0.318    0.074  198.204   88.300
  482.792   12.374    0.353    0.052  198.661   88.881
  483.042   12.804    0.356    0.064  199.154   98.358
  483.292   12.659    0.342    0.072  199.634  104.575
  483.542   11.544    0.352    0.094  199.613  108.421
  483.792   10.617    0.354    0.133  198.593  110.484
  484.042   10.400    0.335    0.128  196.566  103.653
  484.292   10.662    0.291    0.126  195.042   92.373
  484.542   11.338    0.255    0.101  193.009   85.245
  484.792   12.385    0.236    0.022  192.491   76.337
  485.042   13.780    0.228    0.016  191.970   66.837
  485.292   16.628    0.227    0.033  191.970   65.937
  485.542   16.888    0.249    0.059  191.428   67.706
  485.792   16.853    0.283    0.078  189.903   70.362
  486.042   15.783    0.308    0.093  189.385   72.129
  486.292   13.261    0.407    0.122  188.360   70.933
  486.542   12.092    0.418    0.172  187.340   68.550
  486.792    8.401    0.407    0.214  187.320   66.462
  487.042    6.505    0.379    0.246  187.802   48.659
  487.292    6.491    0.334    0.129  187.284   21.366
  487.542    6.900    0.291    0.072  185.755   20.465
  487.792    7.888    0.262    0.042  184.230   20.447
  488.042    9.780    0.247    0.030  184.710   21.037
  488.292   14.402    0.236    0.034  184.680   23.694
  488.542   18.682    0.232    0.031  185.178   26.055
  488.792   21.747    0.230    0.035  186.167   27.821
