~VERSION INFORMATION
 VERS.                 2.0:   CWLS LOG ASCII STANDARD -VERSION 2.0
 WRAP.                  NO:   ONE LINE PER DEPTH STEP
~WELL INFORMATION BLOCK
#MNEM.UNIT           DATA                    DESCRIPTION OF MNEMONIC
#---------    -------------------            -------------------------------
# Generated from Intellog Unique Number	CS_69_70/WELL/875
WELL.         ALOA MINERAL ENTERPRISE        : Well_name    - WELL
LOC .         00/10-32-069-17W4/0            : Location     - LOCATION
UWI .         00/10-32-069-17W4/0            : Uwi          - UNIQUE WELL ID
ENTR.         SP                             : Entered      - ENTERED BY
SRVC.         SCHLUMBERGER                   : Scn          - SERVICE COMPANY
STRT.M        304.8                          : top_depth    - START DEPTH
STOP.M        472.3                          : bot_depth    - STOP DEPTH
STEP.M        0.25                           : increment    - STEP LENGTH
 NULL. -999.2500:NULL Value
~CURVE INFORMATION BLOCK
#MNEM UNIT       ERCB CURVE CODE    CURVE DESCRIPTION
#-----------   ------------------   ----------------------------------
DEPT.M        00 001 00 00         : DEPTH        - DEPTH
GR  .API      00 310 00 00         : GR           - GAMMA RAY
DPHI.V/V      00 890 00 00         : PHID         - DENSITY POROSITY (SANDSTONE)
NPHI.V/V      00 330 00 00         : PHIN         - NEUTRON POROSITY (SANDSTONE)
ILD .OHMM     00 120 00 00         : RESD         - DEEP RESISTIVITY (DIL)
~PARAMETER INFORMATION
#MNEM.UNIT           DATA             DESCRIPTION OF MNEMONIC
#---------         -----------     ------------------------------
GL  .M        562.051              : gl           - GROUND LEVEL ELEVATION
EREF.M        565.099              : kb           - ELEVATION OF DEPTH REFERENCE
DATM.M        562.051              : datum        - DATUM ELEVATION
TDD .M        512.064              : tdd          - TOTAL DEPTH DRILLER
RUN .         ONE                  : Run          - RUN NUMBER
ENG .         BILL                 : Engineer     - RECORDING ENGINEER
WIT .         JIM                  : Witness      - WITNESSED BY
MUD .         GEL                  : Mud_type     - MUD TYPE
MATR.         SANDSTONE            : Logunit      - NEUTRON MATRIX
TMAX.C        26.6667              : BHT          - MAXIMUM RECORDED TEMPERATURE
BHTD.M        512.064              : BHTDEP       - MAXIMUM RECORDED TEMPERATURE
MATR.         1                    : LOGUNIT      - NEUTRON MATRIX
RMT .C        25                   : MDTP         - TEMPERATURE OF MUD
NEUT.         1                    : NEUTRON      - NEUTRON TYPE
RESI.         0                    : RESIST       - RESISTIVITY TYPE
RMC .OHMM     0.25                 : RMC          - RESISTIVITY OF MUD CAKE
RMF .OHMM     0.25                 : RMF          - RESISTIVITY OF MUD FILTRATE
SUFT.C        15                   : SUFT         - SURFACE TEMPERATURE
~A  DEPTH       GR     PHID     PHIN     RESD
# ...
  348.300   90.042    0.208    0.425    5.409
  348.550   80.733    0.227    0.458    5.435
  348.800   69.452    0.224    0.438    5.069
  349.050   64.632    0.243    0.440    4.782
  349.300   69.804    0.226    0.376    4.404
  349.550   73.036    0.199    0.355    4.002
  349.800   75.287    0.225    0.366    3.486
  350.050   76.659    0.240    0.376    3.064
  350.300   76.939    0.249    0.378    2.801
  350.550   78.331    0.257    0.367    2.587
  350.800   80.111    0.262    0.359    2.418
  351.050   81.848    0.268    0.353    2.314
  351.300   82.248    0.272    0.353    2.216
  351.550   84.409    0.277    0.359    2.171
  351.800   86.643    0.282    0.370    2.161
  352.050   87.392    0.285    0.374    2.155
  352.300   86.120    0.288    0.381    2.155
  352.550   84.500    0.290    0.388    2.149
  352.800   82.844    0.291    0.393    2.147
  353.050   82.378    0.291    0.399    2.128
  353.300   83.750    0.290    0.397    2.109
  353.550   84.460    0.287    0.412    2.087
  353.800   85.031    0.285    0.419    2.063
  354.050   87.292    0.282    0.397    2.055
  354.300   88.410    0.280    0.389    2.047
  354.550   87.988    0.279    0.384    2.054
  354.800   87.233    0.280    0.398    2.080
  355.050   88.508    0.284    0.381    2.137
  355.300   89.997    0.283    0.395    2.200
  355.550   90.786    0.275    0.412    2.288
  355.800   88.745    0.266    0.409    2.403
  356.050   85.744    0.257    0.377    2.666
  356.300   90.292    0.244    0.380    2.952
  356.550   95.243    0.227    0.382    3.169
  356.800  101.686    0.210    0.352    3.452
  357.050  106.753    0.213    0.363    3.716
  357.300  109.318    0.230    0.386    3.909
  357.550  108.341    0.221    0.360    3.878
  357.800  101.064    0.216    0.348    3.782
  358.050   97.382    0.213    0.357    3.676
  358.300   96.726    0.209    0.385    3.555
  358.550  101.010    0.203    0.388    3.494
  358.800  106.072    0.198    0.387    3.458
  359.050  108.317    0.191    0.365    3.442
  359.300  110.513    0.188    0.389    3.471
  359.550  112.045    0.186    0.385    3.526
  359.800  114.815    0.186    0.393    3.549
  360.050  117.237    0.191    0.401    3.583
  360.300  118.492    0.206    0.379    3.573
  360.550  117.891    0.219    0.382    3.494
  360.800  119.424    0.240    0.405    3.365
  361.050  116.404    0.240    0.378    3.208
  361.300   99.795    0.236    0.385    3.032
  361.550   89.071    0.260    0.394    2.899
  361.800   88.645    0.274    0.383    2.812
  362.050   90.391    0.269    0.375    2.742
  362.300   92.111    0.261    0.366    2.682
  362.550   91.934    0.256    0.375    2.626
  362.800   89.340    0.255    0.385    2.575
  363.050   87.990    0.258    0.387    2.510
  363.300   86.725    0.262    0.383    2.426
  363.550   85.652    0.268    0.374    2.338
  363.800   83.449    0.273    0.365    2.259
  364.050   85.234    0.278    0.370    2.189
  364.300   88.900    0.281    0.382    2.138
  364.550   90.310    0.281    0.371    2.097
  364.800   88.600    0.279    0.380    2.092
  365.050   87.669    0.277    0.408    2.108
  365.300   88.724    0.274    0.404    2.144
  365.550   90.223    0.273    0.400    2.220
  365.800   92.452    0.275    0.385    2.321
  366.050   95.210    0.263    0.383    2.443
  366.300   96.923    0.253    0.398    2.590
  366.550   98.161    0.247    0.407    2.711
  366.800   98.221    0.243    0.396    2.852
  367.050   97.697    0.245    0.370    2.937
  367.300   96.981    0.244    0.370    2.942
  367.550   95.825    0.238    0.385    2.881
  367.800   92.574    0.232    0.386    2.799
  368.050   90.288    0.230    0.395    2.717
  368.300   90.293    0.228    0.394    2.686
  368.550   90.202    0.227    0.373    2.654
  368.800   89.881    0.227    0.355    2.628
  369.050   92.364    0.234    0.346    2.580
  369.300   96.197    0.239    0.364    2.530
  369.550   96.857    0.242    0.369    2.506
  369.800   95.765    0.242    0.366    2.471
  370.050   95.180    0.241    0.390    2.431
  370.300   97.886    0.246    0.411    2.420
  370.550  104.425    0.250    0.394    2.419
  370.800  107.846    0.247    0.379    2.419
  371.050  108.843    0.346    0.422    2.436
  371.300  105.198    0.400    0.450    2.477
  371.550  101.463    0.420    0.487    2.545
  371.800  100.118    0.361    0.482    2.638
  372.050  101.032    0.328    0.450    2.755
  372.300  107.686    0.295    0.415    2.836
  372.550  106.326    0.254    0.393    2.842
  372.800  100.895    0.230    0.400    2.782
  373.050   99.341    0.248    0.412    2.766
  373.300   96.465    0.254    0.401    2.861
  373.550   90.567    0.252    0.392    3.220
  373.800   83.715    0.254    0.415    3.784
  374.050   75.320    0.220    0.341    4.534
  374.300   68.841    0.129    0.266    5.219
  374.550   65.969   -0.011    0.189    6.027
  374.800   65.906   -0.013    0.160    6.784
  375.050   64.886   -0.013    0.273    7.312
  375.300   68.667   -0.024    0.327    7.123
  375.550   88.837    0.182    0.347    5.936
  375.800   99.659    0.186    0.367    4.702
  376.050  105.189    0.177    0.380    4.008
  376.300  107.760    0.173    0.384    3.463
  376.550  107.502    0.176    0.388    3.209
  376.800  107.905    0.175    0.399    3.199
  377.050  106.453    0.173    0.413    3.229
  377.300  104.829    0.167    0.421    3.323
  377.550  103.916    0.164    0.407    3.482
  377.800  104.404    0.160    0.421    3.638
  378.050  104.515    0.159    0.420    3.746
  378.300  104.572    0.161    0.411    3.726
  378.550  103.390    0.162    0.415    3.761
  378.800  103.480    0.163    0.410    3.744
  379.050  106.482    0.167    0.417    3.643
  379.300  103.924    0.179    0.408    3.542
  379.550   99.823    0.179    0.405    3.440
  379.800   94.309    0.174    0.424    3.368
  380.050   89.877    0.185    0.400    3.366
  380.300   86.215    0.220    0.421    3.614
  380.550   83.917    0.243    0.414    3.970
  380.800   81.113    0.196    0.405    4.392
  381.050   78.677    0.142    0.392    4.811
  381.300   78.034    0.092    0.407    5.119
  381.550   85.772    0.039    0.399    5.264
  381.800   89.399    0.038    0.389    5.125
  382.050   93.166    0.169    0.393    4.493
  382.300   95.337    0.203    0.396    4.027
  382.550   94.513    0.238    0.388    3.566
  382.800   93.615    0.237    0.381    3.278
  383.050   94.584    0.232    0.386    2.991
  383.300   96.727    0.228    0.400    2.872
  383.550   97.994    0.224    0.406    2.793
  383.800   99.821    0.217    0.393    2.780
  384.050  100.939    0.213    0.386    2.836
  384.300  101.324    0.209    0.380    2.883
  384.550  100.735    0.206    0.387    2.974
  384.800   99.722    0.206    0.388    3.032
  385.050  101.533    0.204    0.407    3.103
  385.300  103.222    0.199    0.425    3.192
  385.550  104.393    0.194    0.414    3.322
  385.800  106.652    0.191    0.407    3.429
  386.050  108.171    0.190    0.403    3.546
  386.300  109.318    0.189    0.395    3.677
  386.550  110.388    0.190    0.388    3.802
  386.800  112.695    0.187    0.384    3.919
  387.050  114.174    0.179    0.400    4.044
  387.300  113.983    0.172    0.419    4.145
  387.550  116.349    0.168    0.400    4.241
  387.800  116.357    0.168    0.393    4.288
  388.050  115.934    0.172    0.400    4.315
  388.300  115.072    0.177    0.387    4.327
  388.550  106.920    0.181    0.393    4.349
  388.800  103.704    0.183    0.390    4.371
  389.050  108.160    0.186    0.402    4.363
  389.300  105.324    0.189    0.388    4.360
  389.550  100.629    0.195    0.377    4.327
  389.800  101.576    0.201    0.383    4.304
  390.050  100.205    0.206    0.382    4.250
  390.300   98.065    0.211    0.372    4.181
  390.550   96.416    0.213    0.372    4.072
  390.800   96.204    0.209    0.393    3.911
  391.050   96.735    0.209    0.381    3.794
  391.300   97.413    0.212    0.377    3.684
  391.550   96.191    0.220    0.386    3.552
