~VERSION INFORMATION
 VERS.                 2.0:   CWLS LOG ASCII STANDARD -VERSION 2.0
 WRAP.                  NO:   ONE LINE PER DEPTH STEP
~WELL INFORMATION BLOCK
#MNEM.UNIT           DATA                    DESCRIPTION OF MNEMONIC
#---------    -------------------            -------------------------------
# Generated from Intellog Unique Number	CW_70_72/WELL/1046
NULL.         -999.25                        : NULL_VALUE
WELL.         SUNDANCE ET AL SMITH 10-33-071 : Well_name    - WELL              
LOC .         10-33-071-23W4                 : Location     - LOCATION          
UWI .         00/10-33-071-23W4/0            : Uwi          - UNIQUE WELL ID    
ENTR.         JAYE                           : Entered      - ENTERED BY        
SRVC.         SCHLUMBERGER                   : Scn          - SERVICE COMPANY   
DATE.         3 MAR 76                       : Date         - LOG DATE          
STRT.M        432.816                        : top_depth    - START DEPTH       
STOP.M        646.066                        : bot_depth    - STOP DEPTH        
STEP.M        0.25                           : increment    - STEP LENGTH       
~CURVE INFORMATION BLOCK
#MNEM UNIT       ERCB CURVE CODE    CURVE DESCRIPTION
#-----------   ------------------   ----------------------------------
DEPT.M        00 001 00 00         : DEPTH        - DEPTH                       
DPHI.V/V      00 890 00 00         : PHID         - DENSITY POROSITY (SANDSTONE)
NPHI.V/V      00 330 00 00         : PHIN         - NEUTRON POROSITY (SANDSTONE)
GR  .API      00 310 00 00         : GR           - GAMMA RAY                   
CALI.MM       00 280 01 00         : CAL          - CALIPER                     
ILD .OHMM     00 120 00 00         : RESD         - DEEP RESISTIVITY (DIL)      
~PARAMETER INFORMATION       
#MNEM.UNIT           DATA             DESCRIPTION OF MNEMONIC
#---------         -----------     ------------------------------
GL  .M        679.399              : gl           - GROUND LEVEL ELEVATION      
EREF.M        683.057              : kb           - ELEVATION OF DEPTH REFERENCE
DATM.M        679.399              : datum        - DATUM ELEVATION             
TDD .M        662.94               : tdd          - TOTAL DEPTH DRILLER         
RUN .         ONE                  : Run          - RUN NUMBER                  
ENG .         WILSHIRE             : Engineer     - RECORDING ENGINEER          
WIT .         ROBINSON             : Witness      - WITNESSED BY                
BASE.         EDM                  : Branch       - HOME BASE OF LOGGING UNIT   
MATR.         SANDSTONE            : Logunit      - NEUTRON MATRIX              
TMAX.C        -17.7778             : BHT          - MAXIMUM RECORDED TEMPERATURE
BHTD.M        662.635              : BHTDEP       - MAXIMUM RECORDED TEMPERATURE
RMT .C        4.44444              : MDTP         - TEMPERATURE OF MUD          
MUDD.KG/M     0                    : MWT          - MUD DENSITY                 
NEUT.         1                    : NEUTRON      - NEUTRON TYPE                
RESI.         0                    : RESIST       - RESISTIVITY TYPE            
RM  .OHMM     1.93                 : RM           - RESISTIVITY OF MUD          
RMC .OHMM     0                    : RMC          - RESISTIVITY OF MUD CAKE     
RMF .OHMM     0                    : RMF          - RESISTIVITY OF MUD FILTRATE 
SUFT.C        -17.7778             : SUFT         - SURFACE TEMPERATURE         
~A  DEPTH     PHID     PHIN       GR      CAL     RESD
# ...
  505.816    0.306    0.418   42.035  171.178    2.742
  506.066    0.311    0.432   42.276  172.633    2.701
  506.316    0.307    0.437   42.764  175.028    2.692
  506.566    0.310    0.417   43.064  174.910    2.698
  506.816    0.304    0.417   43.429  172.912    2.643
  507.066    0.310    0.425   43.854  170.597    2.669
  507.316    0.300    0.432   44.156  167.342    2.705
  507.566    0.305    0.421   44.582  163.771    2.777
  507.816    0.290    0.411   45.626  163.026    2.820
  508.066    0.265    0.413   49.575  163.434    2.863
  508.316    0.264    0.421   50.371  164.676    2.902
  508.566    0.275    0.413   50.055  166.967    2.935
  508.816    0.279    0.396   49.863  168.632    2.952
  509.066    0.286    0.407   50.227  168.828    2.981
  509.316    0.304    0.415   51.208  168.713    3.038
  509.566    0.327    0.414   52.994  170.270    3.096
  509.816    0.306    0.401   55.583  171.619    3.155
  510.066    0.285    0.397   59.408  170.979    3.228
  510.316    0.283    0.391   61.687  170.966    3.277
  510.566    0.279    0.393   61.495  171.269    3.328
  510.816    0.287    0.389   61.241  171.361    3.354
  511.066    0.287    0.387   60.431  171.558    3.399
  511.316    0.287    0.384   60.176  171.338    3.497
  511.566    0.277    0.384   60.664  170.907    3.557
  511.816    0.292    0.374   64.488  170.790    3.625
  512.066    0.276    0.381   65.656  170.886    3.722
  512.316    0.258    0.395   66.576  171.816    3.843
  512.566    0.242    0.396   69.288  172.327    3.984
  512.816    0.237    0.388   74.226  172.312    4.137
  513.066    0.259    0.382   77.433  172.196    4.272
  513.316    0.268    0.381   78.167  172.395    4.428
  513.566    0.270    0.398   78.531  172.172    4.529
  513.816    0.251    0.419   78.834  172.581    4.642
  514.066    0.255    0.429   79.505  172.779    4.749
  514.316    0.265    0.416   79.870  172.558    4.786
  514.566    0.259    0.407   82.025  172.128    4.814
  514.816    0.246    0.407   82.760  170.024    4.815
  515.066    0.233    0.403   82.568  168.650    4.816
  515.316    0.248    0.397   81.882  168.116    4.799
  515.566    0.270    0.400   78.723  168.836    4.800
  515.816    0.273    0.400   80.447  170.289    4.892
  516.066    0.284    0.403   81.243  170.697    5.042
  516.316    0.276    0.412   80.000  171.626    5.477
  516.566    0.244    0.407   75.110  172.869    5.971
  516.816    0.174    0.352   71.148  174.429    6.633
  517.066    0.144    0.324   71.635  176.510    7.232
  517.316    0.161    0.341   75.831  173.254    7.724
  517.566    0.189    0.395   81.201  171.150    7.946
  517.816    0.207    0.392   81.627  173.859    7.613
  518.066    0.207    0.370   80.508  176.254    6.882
  518.316    0.217    0.367   83.837  177.917    6.187
  518.566    0.229    0.384   84.449  178.010    5.677
  518.816    0.265    0.398   83.329  172.765    5.348
  519.066    0.259    0.402   81.283  171.289    5.038
  519.316    0.249    0.409   86.220  173.684    4.800
  519.566    0.258    0.431   91.466  174.090    4.556
  519.816    0.275    0.424   91.274  173.135    4.397
  520.066    0.276    0.413   87.992  170.509    4.244
  520.316    0.271    0.403   83.350  166.310    4.074
  520.566    0.291    0.397   79.076  165.774    3.962
  520.816    0.281    0.392   77.649  165.868    3.911
  521.066    0.274    0.394   78.446  166.065    3.898
  521.316    0.269    0.400   80.540  166.263    3.913
  521.566    0.282    0.413   82.140  166.667    3.900
  521.816    0.297    0.417   86.768  166.658    3.915
  522.066    0.287    0.415   85.712  167.275    3.901
  522.316    0.274    0.421   87.806  168.517    3.844
  522.566    0.275    0.416   91.631  170.076    3.795
  522.816    0.299    0.398   88.719  171.321    3.712
  523.066    0.291    0.390   81.790  172.461    3.685
  523.316    0.281    0.403   74.923  173.285    3.755
  523.566    0.307    0.412   73.062  173.378    3.870
  523.816    0.297    0.414   71.695  173.784    4.057
  524.066    0.288    0.423   73.728  174.087    4.285
  524.316    0.281    0.418   75.389  174.180    4.559
  524.566    0.275    0.413   76.556  174.692    4.924
  524.816    0.280    0.406   75.870  175.201    5.249
  525.066    0.271    0.402   76.234  175.609    5.461
  525.316    0.261    0.397   78.637  175.494    5.232
  525.566    0.250    0.416   81.473  175.272    4.966
  525.816    0.258    0.422   85.360  173.377    4.767
  526.066    0.276    0.421   85.847  168.238    4.592
  526.316    0.272    0.422   85.778  165.609    4.416
  526.566    0.264    0.431   88.305  165.703    4.319
  526.816    0.246    0.434   90.523  167.574    4.264
  527.066    0.245    0.437   93.544  170.179    4.233
  527.316    0.240    0.441   95.825  174.039    4.226
  527.566    0.220    0.447   97.919  176.435    4.243
  527.816    0.208    0.437   99.519  175.376    4.284
  528.066    0.216    0.420  100.315  174.736    4.399
  528.316    0.206    0.417  100.308  173.469    4.491
  528.566    0.212    0.426  100.363  173.039    4.595
  528.816    0.204    0.423  102.272  176.062    4.630
  529.066    0.209    0.418   98.247  176.991    4.666
  529.316    0.211    0.417   98.798  176.666    4.703
  529.566    0.202    0.427  100.459  175.711    4.721
  529.816    0.200    0.419  102.430  175.699    4.722
  530.066    0.198    0.430  104.215  176.527    4.724
  530.316    0.207    0.438  105.815  180.909    4.787
  530.566    0.202    0.427  107.786  181.317    4.897
  530.816    0.195    0.417  109.633  178.060    4.991
  531.066    0.193    0.408  111.171  177.002    5.020
  531.316    0.186    0.417  112.524  181.489    5.012
  531.566    0.171    0.434  111.837  184.096    4.985
  531.816    0.156    0.434  109.296  184.188    4.921
  532.066    0.160    0.429  111.823  183.967    4.895
  532.316    0.168    0.446  112.928  184.165    4.869
  532.566    0.161    0.437  112.983  184.256    4.870
  532.816    0.174    0.432  112.235  184.245    4.889
  533.066    0.183    0.442  113.155  185.070    4.900
  533.316    0.179    0.441  113.581  185.372    4.929
  533.566    0.153    0.434  113.388  185.254    4.957
  533.816    0.153    0.432  109.426  184.721    4.949
  534.066    0.166    0.446  105.402  184.082    4.904
  534.316    0.180    0.435   99.338  182.081    4.779
  534.566    0.197    0.433   94.881  181.023    4.552
  534.816    0.215    0.425   89.498  179.335    4.281
  535.066    0.258    0.411   83.125  178.173    4.093
  535.316    0.270    0.405   82.129  176.801    3.951
  535.566    0.278    0.399   83.605  175.848    3.821
  535.816    0.296    0.396   85.761  174.474    3.695
  536.066    0.290    0.391   89.463  173.522    3.614
  536.316    0.293    0.396   89.456  173.300    3.548
  536.566    0.273    0.407   92.354  173.709    3.636
  536.816    0.218    0.427   95.931  173.801    3.912
  537.066    0.191    0.440   97.840  174.732    4.101
  537.316    0.199    0.444   98.760  176.394    4.315
  537.566    0.207    0.437  100.298  176.591    4.626
  537.816    0.197    0.423  100.847  176.580    4.950
  538.066    0.178    0.411  101.273  178.556    5.054
  538.316    0.160    0.415   99.906  182.207    4.887
  538.566    0.173    0.447   97.428  181.778    4.639
  538.816    0.195    0.439   95.011  177.892    4.478
  539.066    0.230    0.430   92.716  175.578    4.274
  539.316    0.264    0.417   90.608  174.311    4.072
  539.566    0.285    0.406   88.933  173.777    3.923
  539.816    0.284    0.420   88.060  173.347    3.873
  540.066    0.252    0.407   89.969  172.915    4.044
  540.316    0.238    0.404   92.558  172.170    4.239
  540.566    0.249    0.397   94.096  172.160    4.605
  540.816    0.242    0.382   94.831  172.985    4.835
  541.066    0.192    0.349   88.026  173.706    5.097
  541.316    0.158    0.302   83.198  174.530    5.079
  541.566    0.177    0.297   83.068  178.601    5.042
  541.816    0.205    0.332   83.494  178.694    4.959
  542.066    0.240    0.358   84.290  176.694    4.814
