~VERSION INFORMATION
 VERS.                 2.0:   CWLS LOG ASCII STANDARD -VERSION 2.0
 WRAP.                  NO:   ONE LINE PER DEPTH STEP
~WELL INFORMATION BLOCK
#MNEM.UNIT           DATA                    DESCRIPTION OF MNEMONIC
#---------    -------------------            -------------------------------
# Generated from Intellog Unique Number	CX_WELLS/WELL/2793
WELL.         TRITON ATCOR HANGST            : Well_name    - WELL
LOC .         00/11-13-081-11W4/0            : Location     - LOCATION
UWI .         00/11-13-081-11W400            : Uwi          - UNIQUE WELL ID
ENTR.         T                              : Entered      - ENTERED BY
SRVC.         SCHLUMBERGER                   : Scn          - SERVICE COMPANY
STRT.M        260                            : top_depth    - START DEPTH
STOP.M        480                            : bot_depth    - STOP DEPTH
STEP.M        0.25                           : increment    - STEP LENGTH
 NULL. -999.2500:NULL Value
~CURVE INFORMATION BLOCK
#MNEM UNIT       ERCB CURVE CODE    CURVE DESCRIPTION
#-----------   ------------------   ----------------------------------
DEPT.M        00 001 00 00         : DEPTH        - DEPTH
GR  .API      00 310 00 00         : GR           - GAMMA RAY
NPHI.V/V      00 330 00 00         : PHIN         - NEUTRON POROSITY (SANDSTONE)
DPHI.V/V      00 890 00 00         : PHID         - DENSITY POROSITY (SANDSTONE)
ILD .OHMM     00 120 00 00         : RESD         - DEEP RESISTIVITY (OTHER)
~PARAMETER INFORMATION
#MNEM.UNIT           DATA             DESCRIPTION OF MNEMONIC
#---------         -----------     ------------------------------
GL  .M        696                  : gl           - GROUND LEVEL ELEVATION
EREF.M        698                  : kb           - ELEVATION OF DEPTH REFERENCE
DATM.M        698                  : datum        - DATUM ELEVATION
TDD .M        488                  : tdd          - TOTAL DEPTH DRILLER
RUN .         ONE                  : Run          - RUN NUMBER
ENG .         BILL                 : Engineer     - RECORDING ENGINEER
WIT .         JIM                  : Witness      - WITNESSED BY
MUD .         GEL                  : Mud_type     - MUD TYPE
MATR.         SANDSTONE            : Logunit      - NEUTRON MATRIX
TMAX.C        22                   : BHT          - MAXIMUM RECORDED TEMPERATURE
BHTD.M        488                  : BHTDEP       - MAXIMUM RECORDED TEMPERATURE
MATR.         1                    : LOGUNIT      - NEUTRON MATRIX
RMT .C        18                   : MDTP         - TEMPERATURE OF MUD
NEUT.         1                    : NEUTRON      - NEUTRON TYPE
RESI.         9.7                  : RESIST       - RESISTIVITY TYPE
RMC .OHMM     0.25                 : RMC          - RESISTIVITY OF MUD CAKE
RMF .OHMM     7                    : RMF          - RESISTIVITY OF MUD FILTRATE
SUFT.C        4                    : SUFT         - SURFACE TEMPERATURE
~A  DEPTH       GR     PHIN     PHID     RESD
# ...
  390.500   99.108    0.466    0.237   10.093
  390.750   99.176    0.476    0.231    9.231
  391.000   99.217    0.483    0.226    7.999
  391.250  100.449    0.485    0.226    7.453
  391.500  101.653    0.485    0.233    7.077
  391.750  104.048    0.485    0.239    7.084
  392.000  103.508    0.475    0.248    7.227
  392.250   97.745    0.451    0.233    7.508
  392.500   89.654    0.425    0.200    7.799
  392.750   85.637    0.415    0.189    8.880
  393.000   83.946    0.393    0.217    9.736
  393.250   88.073    0.408    0.247   10.493
  393.500   91.618    0.423    0.276   10.517
  393.750   92.295    0.429    0.285   10.531
  394.000   91.754    0.434    0.283   10.546
  394.250   90.063    0.438    0.281   10.193
  394.500   90.118    0.444    0.275   10.024
  394.750   91.363    0.441    0.266    9.698
  395.000   93.149    0.430    0.265    9.537
  395.250   94.935    0.429    0.269    9.387
  395.500   97.912    0.435    0.275    9.395
  395.750  100.280    0.438    0.281    9.248
  396.000  100.916    0.454    0.285    9.261
  396.250   99.835    0.468    0.251    9.456
  396.500   99.280    0.462    0.242    9.469
  396.750   95.844    0.456    0.244    9.665
  397.000   95.317    0.450    0.255    9.682
  397.250   94.803    0.453    0.267    9.882
  397.500   94.262    0.448    0.272    9.891
  397.750   93.167    0.447    0.274    9.561
  398.000   92.653    0.446    0.274    9.415
  398.250   93.290    0.445    0.272    9.258
  398.500   93.926    0.443    0.269    9.271
  398.750   93.967    0.442    0.274    9.292
  399.000   94.035    0.442    0.279    9.305
  399.250   93.508    0.442    0.281    9.502
  399.500   92.967    0.440    0.282    9.515
  399.750   91.858    0.440    0.282    9.528
  400.000   90.181    0.440    0.283    9.545
  400.250   89.653    0.440    0.284    9.567
  400.500   89.126    0.442    0.285    9.580
  400.750   87.436    0.446    0.288    9.434
  401.000   85.149    0.448    0.290    9.447
  401.250   83.459    0.450    0.291    9.290
  401.500   86.449    0.452    0.292    9.144
  401.750   88.831    0.453    0.293    9.169
  402.000   90.630    0.453    0.293    9.017
  402.250   90.103    0.455    0.296    9.029
  402.500   89.576    0.458    0.295    8.891
  402.750   89.062    0.462    0.292    8.740
  403.000   89.671    0.461    0.289    8.296
  403.250   89.753    0.454    0.285    7.729
  403.500   89.808    0.453    0.284    7.464
  403.750   89.849    0.459    0.283    6.830
  404.000   89.917    0.465    0.283    6.363
  404.250   90.553    0.476    0.284    5.723
  404.500   92.934    0.489    0.286    5.625
  404.750   95.898    0.464    0.288    5.638
  405.000   94.221    0.448    0.293    5.964
  405.250   90.771    0.440    0.302    6.668
  405.500   86.199    0.439    0.303    7.051
  405.750   84.494    0.438    0.303    7.456
  406.000   82.817    0.437    0.285    7.606
  406.250   82.844    0.439    0.251    7.624
  406.500   85.835    0.443    0.228    7.638
  406.750   87.621    0.448    0.201    7.518
  407.000   88.826    0.463    0.212    7.528
  407.250   90.625    0.459    0.219    7.542
  407.500   90.707    0.428    0.213    7.420
  407.750   89.584    0.415    0.187    7.433
  408.000   86.730    0.422    0.173    7.451
  408.250   86.798    0.427    0.183    7.461
  408.500   89.166    0.434    0.208    7.478
  408.750   92.711    0.444    0.222    7.492
  409.000   95.674    0.464    0.234    7.509
  409.250   97.501    0.470    0.234    7.664
  409.500   97.542    0.466    0.232    7.674
  409.750   97.597    0.464    0.229    7.689
  410.000   97.651    0.465    0.225    7.703
  410.250   97.706    0.461    0.221    7.720
  410.500   98.369    0.459    0.219    7.589
  410.750   98.978    0.465    0.218    7.606
  411.000  100.792    0.463    0.218    7.352
  411.250  103.187    0.453    0.217    7.233
  411.500  104.987    0.435    0.221    6.985
  411.750  105.041    0.430    0.226    6.752
  412.000  103.946    0.432    0.229    6.523
  412.250  103.391    0.438    0.230    6.080
  412.500  102.864    0.444    0.233    5.869
  412.750  101.769    0.447    0.234    5.278
  413.000  100.092    0.449    0.237    5.003
  413.250   99.537    0.451    0.248    4.496
  413.500   98.428    0.456    0.268    3.967
  413.750   97.333    0.466    0.277    3.630
  414.000   95.669    0.509    0.288    3.261
  414.250   94.533    0.566    0.301    2.826
  414.500   92.260    0.587    0.311    2.633
  414.750   91.733    0.558    0.301    2.638
  415.000   93.533    0.504    0.283    2.894
  415.250   94.197    0.480    0.269    3.174
  415.500   93.074    0.461    0.251    3.482
  415.750   91.965    0.451    0.242    4.035
  416.000   91.438    0.438    0.237    4.590
  416.250   90.329    0.434    0.229    5.221
  416.500   90.370    0.423    0.204    5.944
  416.750   89.260    0.408    0.200    6.290
  417.000   87.583    0.394    0.215    6.411
  417.250   87.665    0.397    0.238    6.314
  417.500   88.870    0.424    0.261    6.206
  417.750   91.251    0.460    0.269    5.996
  418.000   93.619    0.484    0.268    5.689
  418.250   97.191    0.461    0.261    5.207
  418.500   97.246    0.460    0.247    4.765
  418.750   97.287    0.462    0.246    4.437
  419.000   97.936    0.467    0.252    4.210
  419.250   99.154    0.491    0.255    4.142
  419.500  100.386    0.497    0.271    4.079
  419.750  100.995    0.493    0.277    4.084
  420.000  102.227    0.476    0.278    4.096
  420.250  104.608    0.474    0.278    4.099
  420.500  107.003    0.488    0.271    4.111
  420.750  107.640    0.499    0.267    4.114
  421.000  105.949    0.495    0.263    4.122
  421.250  105.408    0.482    0.258    4.057
  421.500  105.476    0.466    0.237    3.990
  421.750  104.949    0.465    0.237    3.927
  422.000  105.017    0.463    0.237    3.865
  422.250  105.058    0.461    0.237    3.941
  422.500  105.708    0.459    0.233    4.095
  422.750  106.344    0.457    0.227    4.254
  423.000  106.385    0.494    0.221    4.341
  423.250  107.035    0.491    0.211    4.427
  423.500  107.658    0.474    0.201    4.439
  423.750  109.485    0.478    0.216    4.447
  424.000  109.512    0.481    0.230    4.458
  424.250  109.607    0.478    0.236    4.543
  424.500  109.648    0.477    0.235    4.724
  424.750  109.689    0.474    0.232    4.817
  425.000  111.489    0.469    0.233    4.826
  425.250  108.053    0.458    0.240    5.199
  425.500  102.871    0.448    0.254    5.703
  425.750   98.272    0.440    0.269    6.373
  426.000   92.509    0.438    0.284    7.119
  426.250   87.328    0.442    0.292    7.952
  426.500   82.742    0.442    0.296    9.049
  426.750   83.960    0.437    0.298    9.569
  427.000   85.178    0.428    0.297   10.506
  427.250   86.396    0.416    0.286   10.713
  427.500   87.614    0.405    0.278   10.728
  427.750   89.995    0.391    0.259   10.954
  428.000   92.959    0.396    0.251   10.772
  428.250   94.772    0.395    0.249   10.598
  428.500   95.976    0.389    0.241   10.427
  428.750   98.358    0.393    0.229   10.263
  429.000  101.903    0.414    0.215   10.281
  429.250  111.293    0.427    0.212   10.300
  429.500  113.674    0.426    0.216   10.134
  429.750  114.879    0.425    0.218   10.148
  430.000  115.529    0.423    0.221   10.362
  430.250  115.029    0.424    0.222   10.376
  430.500  114.474    0.432    0.231   10.586
  430.750  113.947    0.434    0.237   10.997
  431.000  112.838    0.433    0.239   11.852
  431.250  109.997    0.420    0.248   12.306
  431.500  106.561    0.395    0.261   14.011
  431.750  103.112    0.381    0.272   15.650
  432.000   98.498    0.380    0.285   16.852
  432.250   91.572    0.375    0.285   18.823
  432.500   87.568    0.365    0.275   21.823
  432.750   87.027    0.353    0.272   23.498
  433.000   86.500    0.337    0.281   24.857
  433.250   83.645    0.305    0.294   28.274
  433.500   73.228    0.233    0.324   33.380
  433.750   62.230    0.186    0.338   35.958
