~VERSION INFORMATION
 VERS.                 2.0:   CWLS LOG ASCII STANDARD -VERSION 2.0
 WRAP.                  NO:   ONE LINE PER DEPTH STEP
~WELL INFORMATION BLOCK
#MNEM.UNIT           DATA                    DESCRIPTION OF MNEMONIC
#---------    -------------------            -------------------------------
# Generated from Intellog Unique Number	CS_77_79/WELL/1022
WELL.         C.W.W.E. HARDY                 : Well_name    - WELL
LOC .         00/15-07-078-04W4/0            : Location     - LOCATION
UWI .         00/15-07-078-04W4/0            : Uwi          - UNIQUE WELL ID
ENTR.         JHS                            : Entered      - ENTERED BY
SRVC.         SCHLUMBERGER                   : Scn          - SERVICE COMPANY
STRT.M        165                            : top_depth    - START DEPTH
STOP.M        420                            : bot_depth    - STOP DEPTH
STEP.M        0.25                           : increment    - STEP LENGTH
 NULL. -999.2500:NULL Value
~CURVE INFORMATION BLOCK
#MNEM UNIT       ERCB CURVE CODE    CURVE DESCRIPTION
#-----------   ------------------   ----------------------------------
DEPT.M        00 001 00 00         : DEPTH        - DEPTH
DPHI.V/V      00 890 00 00         : PHID         - DENSITY POROSITY (LIMESTONE)
NPHI.V/V      00 330 00 00         : PHIN         - NEUTRON POROSITY (LIMESTONE)
GR  .API      00 310 00 00         : GR           - GAMMA RAY
ILD .OHMM     00 120 00 00         : RESD         - DEEP RESISTIVITY (DIL)
RHOB.KG/M3    00 350 00 00         : DENS         - BULK DENSITY
~PARAMETER INFORMATION
#MNEM.UNIT           DATA             DESCRIPTION OF MNEMONIC
#---------         -----------     ------------------------------
GL  .M        579.2                : gl           - GROUND LEVEL ELEVATION
EREF.M        583.1                : kb           - ELEVATION OF DEPTH REFERENCE
DATM.M        583.1                : datum        - DATUM ELEVATION
TDD .M        425.3                : tdd          - TOTAL DEPTH DRILLER
RUN .         ONE                  : Run          - RUN NUMBER
ENG .         BILL                 : Engineer     - RECORDING ENGINEER
WIT .         JIM                  : Witness      - WITNESSED BY
MUD .         GEL                  : Mud_type     - MUD TYPE
MATR.         LIMESTONE            : Logunit      - NEUTRON MATRIX
TMAX.C        20                   : BHT          - MAXIMUM RECORDED TEMPERATURE
BHTD.M        425.3                : BHTDEP       - MAXIMUM RECORDED TEMPERATURE
MATR.         1                    : LOGUNIT      - NEUTRON MATRIX
RMT .C        25                   : MDTP         - TEMPERATURE OF MUD
NEUT.         1                    : NEUTRON      - NEUTRON TYPE
RESI.         0                    : RESIST       - RESISTIVITY TYPE
RMC .OHMM     0.25                 : RMC          - RESISTIVITY OF MUD CAKE
RMF .OHMM     0.25                 : RMF          - RESISTIVITY OF MUD FILTRATE
SUFT.C        15                   : SUFT         - SURFACE TEMPERATURE
~A  DEPTH     PHID     PHIN       GR     RESD     DENS
  165.000    0.254    0.506  119.264    3.820    0.000
  165.250    0.255    0.515  115.600    3.824    0.000
  165.500    0.250    0.538  113.159    3.901    0.000
  165.750    0.253    0.533  110.111    3.905    0.000
  166.000    0.256    0.533  108.900    3.908    0.000
  166.250    0.253    0.543  111.383    3.839    0.000
  166.500    0.248    0.551  108.946    3.771    0.000
  166.750    0.246    0.543  105.284    3.636    0.000
  167.000    0.250    0.514  104.693    3.639    0.000
  167.250    0.252    0.504  104.710    3.643    0.000
  167.500    0.257    0.539  104.738    3.647    0.000
  167.750    0.267    0.561  105.983    3.650    0.000
  168.000    0.258    0.555  107.238    3.585    0.000
  168.250    0.262    0.539  103.571    3.392    0.000
  168.500    0.272    0.580  101.133    3.269    0.000
  168.750    0.271    0.598  102.393    3.151    0.000
  169.000    0.268    0.587  105.485    3.095    0.000
  169.250    0.268    0.586  106.734    3.040    0.000
  169.500    0.269    0.576  104.299    3.043    0.000
  169.750    0.266    0.558  106.777    3.046    0.000
  170.000    0.268    0.540  107.416    3.107    0.000
  170.250    0.270    0.558  104.371    3.171    0.000
  170.500    0.271    0.574  103.156    3.234    0.000
  170.750    0.274    0.561  105.028    3.237    0.000
  171.000    0.275    0.553  107.503    3.180    0.000
  171.250    0.282    0.547  109.990    3.123    0.000
  171.500    0.286    0.541  110.629    3.126    0.000
  171.750    0.281    0.530  110.031    3.072    0.000
  172.000    0.272    0.527  108.824    3.134    0.000
  172.250    0.288    0.526  105.160    3.137    0.000
  172.500    0.298    0.522  103.954    3.139    0.000
  172.750    0.293    0.529  106.435    3.085    0.000
  173.000    0.273    0.534  108.298    3.087    0.000
  173.250    0.271    0.529  105.250    3.090    0.000
  173.500    0.271    0.535  101.580    3.093    0.000
  173.750    0.269    0.534   99.151    3.097    0.000
  174.000    0.268    0.546  102.860    3.100    0.000
  174.250    0.268    0.570  103.495    3.103    0.000
  174.500    0.265    0.569  102.899    3.165    0.000
  174.750    0.263    0.548  100.466    3.228    0.000
  175.000    0.257    0.534   97.412    3.293    0.000
  175.250    0.254    0.520   96.207    3.359    0.000
  175.500    0.254    0.515   98.692    3.427    0.000
  175.750    0.253    0.542  101.172    3.496    0.000
  176.000    0.249    0.568  104.269    3.499    0.000
  176.250    0.248    0.555  106.137    3.569    0.000
  176.500    0.247    0.550  106.769    3.711    0.000
  176.750    0.244    0.546  106.176    3.858    0.000
  177.000    0.239    0.529  103.739    3.862    0.000
  177.250    0.237    0.509  100.074    3.865    0.000
  177.500    0.237    0.502  101.326    3.726    0.000
  177.750    0.240    0.506  108.110    3.591    0.000
  178.000    0.246    0.528  109.978    3.462    0.000
  178.250    0.248    0.546  106.314    3.465    0.000
  178.500    0.240    0.536  105.106    3.468    0.000
  178.750    0.233    0.510  106.971    3.675    0.000
  179.000    0.229    0.502  101.464    4.198    0.000
  179.250    0.213    0.470   93.493    5.269    0.000
  179.500    0.190    0.427   52.940    7.270    0.000
  179.750    0.169    0.349   32.061   10.818    0.000
  180.000    0.182    0.329   28.396   14.645    0.000
  180.250    0.241    0.337   30.261   17.705    0.000
  180.500    0.324    0.357   35.819   17.722    0.000
  180.750    0.370    0.379   44.445   15.544    0.000
  181.000    0.386    0.409   64.140    9.708    0.000
  181.250    0.317    0.496   93.671    6.538    0.000
  181.500    0.254    0.483  100.455    5.218    0.000
  181.750    0.232    0.482  104.174    4.753    0.000
  182.000    0.232    0.478  100.505    4.941    0.000
  182.250    0.232    0.450   94.989    5.752    0.000
  182.500    0.239    0.420   83.947    7.222    0.000
  182.750    0.255    0.389   79.049    9.778    0.000
  183.000    0.222    0.369   76.612   11.819    0.000
  183.250    0.213    0.362   77.865   14.022    0.000
  183.500    0.256    0.369   76.045   15.137    0.000
  183.750    0.259    0.390   79.757   14.870    0.000
  184.000    0.245    0.413   84.698   13.543    0.000
  184.250    0.230    0.407   91.479   11.879    0.000
  184.500    0.217    0.397   98.268   10.821    0.000
  184.750    0.215    0.410   97.675   10.431    0.000
  185.000    0.219    0.417   90.933   10.055    0.000
  185.250    0.213    0.406   84.806   10.257    0.000
  185.500    0.214    0.400   89.133   10.664    0.000
  185.750    0.254    0.412   86.084   11.730    0.000
  186.000    0.327    0.422   77.496   13.147    0.000
  186.250    0.339    0.418   65.840   15.597    0.000
  186.500    0.340    0.420   64.636   17.817    0.000
  186.750    0.339    0.427   65.887   20.358    0.000
  187.000    0.331    0.422   65.292   19.995    0.000
  187.250    0.314    0.418   72.692   14.798    0.000
  187.500    0.284    0.419   83.779   11.162    0.000
  187.750    0.252    0.425   99.170   10.166    0.000
  188.000    0.236    0.436  104.726    9.800    0.000
  188.250    0.279    0.439   99.833    9.997    0.000
  188.500    0.293    0.434   89.401   10.792    0.000
  188.750    0.303    0.419   72.826   12.329    0.000
  189.000    0.305    0.411   67.314   14.083    0.000
  189.250    0.296    0.403   69.188   16.709    0.000
  189.500    0.283    0.396   74.123   17.047    0.000
  189.750    0.248    0.391   80.291   16.740    0.000
  190.000    0.211    0.386   84.006   16.761    0.000
  190.250    0.192    0.383   83.414   17.098    0.000
  190.500    0.238    0.385   85.284   17.775    0.000
  190.750    0.266    0.401   87.144   18.127    0.000
  191.000    0.280    0.407   92.704   18.844    0.000
  191.250    0.277    0.410   96.409   18.513    0.000
  191.500    0.277    0.399   99.508   18.530    0.000
  191.750    0.278    0.391   98.919   18.551    0.000
  192.000    0.277    0.401   97.710   18.572    0.000
  192.250    0.275    0.402   98.349   18.939    0.000
  192.500    0.265    0.398   96.523   19.694    0.000
  192.750    0.245    0.392   95.929   20.087    0.000
  193.000    0.221    0.388   93.495   20.112    0.000
  193.250    0.219    0.383   79.990   20.514    0.000
  193.500    0.244    0.383   68.333   20.532    0.000
  193.750    0.267    0.387   67.125   20.551    0.000
  194.000    0.283    0.382   76.983   19.816    0.000
  194.250    0.288    0.377   91.149   19.096    0.000
  194.500    0.259    0.372  101.620   18.061    0.000
  194.750    0.230    0.369  111.479   17.089    0.000
  195.000    0.214    0.373  113.343   16.781    0.000
  195.250    0.222    0.384  105.377   17.121    0.000
  195.500    0.243    0.393   80.807   17.462    0.000
  195.750    0.279    0.398   63.002   18.500    0.000
  196.000    0.288    0.409   59.950   19.230    0.000
  196.250    0.291    0.422   63.046   19.619    0.000
  196.500    0.297    0.417   78.444   18.912    0.000
  196.750    0.292    0.404   87.069   16.587    0.000
  197.000    0.265    0.407  101.843   14.548    0.000
  197.250    0.228    0.423  109.858   11.835    0.000
  197.500    0.213    0.432  112.341   10.379    0.000
  197.750    0.214    0.444  112.362    9.634    0.000
  198.000    0.223    0.462  108.079    9.113    0.000
  198.250    0.219    0.469  103.798    8.303    0.000
  198.500    0.217    0.469  109.353    8.156    0.000
  198.750    0.225    0.460  113.066    8.319    0.000
  199.000    0.233    0.454  110.633    8.646    0.000
  199.250    0.238    0.444  104.508    9.693    0.000
  199.500    0.262    0.432   94.075   11.072    0.000
  199.750    0.293    0.412   64.589   14.437    0.000
  200.000    0.330    0.393   46.784   18.122    0.000
  200.250    0.331    0.378   43.732   23.629    0.000
  200.500    0.324    0.366   49.288   27.505    0.000
  200.750    0.325    0.377   54.228   30.843    0.000
  201.000    0.328    0.387   58.554   32.054    0.000
  201.250    0.321    0.382   54.887   32.704    0.000
