~VERSION INFORMATION
 VERS.                 2.0:   CWLS LOG ASCII STANDARD -VERSION 2.0
 WRAP.                  NO:   ONE LINE PER DEPTH STEP
~WELL INFORMATION BLOCK
#MNEM.UNIT           DATA                    DESCRIPTION OF MNEMONIC
#---------    -------------------            -------------------------------
# Generated from Intellog Unique Number	CW_70_72/WELL/1054
NULL.         -999.25                        : NULL_VALUE
WELL.         AMOCO WINTERSHALL CALL 11-06   : Well_name    - WELL              
LOC .         11-06-072-19W4                 : Location     - LOCATION          
UWI .         00/11-06-072-19W4/0            : Uwi          - UNIQUE WELL ID    
ENTR.         JAYE                           : Entered      - ENTERED BY        
SRVC.         SCHLUMBERGER                   : Scn          - SERVICE COMPANY   
DATE.         11 MAR 78                      : Date         - LOG DATE          
STRT.M        310.896                        : top_depth    - START DEPTH       
STOP.M        487.646                        : bot_depth    - STOP DEPTH        
STEP.M        0.25                           : increment    - STEP LENGTH       
~CURVE INFORMATION BLOCK
#MNEM UNIT       ERCB CURVE CODE    CURVE DESCRIPTION
#-----------   ------------------   ----------------------------------
DEPT.M        00 001 00 00         : DEPTH        - DEPTH                       
DPHI.V/V      00 890 00 00         : PHID         - DENSITY POROSITY (SANDSTONE)
NPHI.V/V      00 330 00 00         : PHIN         - NEUTRON POROSITY (SANDSTONE)
GR  .API      00 310 00 00         : GR           - GAMMA RAY                   
CALI.MM       00 280 01 00         : CAL          - CALIPER                     
ILD .OHMM     00 120 00 00         : RESD         - DEEP RESISTIVITY (DIL)      
~PARAMETER INFORMATION       
#MNEM.UNIT           DATA             DESCRIPTION OF MNEMONIC
#---------         -----------     ------------------------------
GL  .M        592.684              : gl           - GROUND LEVEL ELEVATION      
EREF.M        595.884              : kb           - ELEVATION OF DEPTH REFERENCE
DATM.M        592.684              : datum        - DATUM ELEVATION             
TDD .M        502.92               : tdd          - TOTAL DEPTH DRILLER         
RUN .         ONE                  : Run          - RUN NUMBER                  
MATR.         SANDSTONE            : Logunit      - NEUTRON MATRIX              
TMAX.C        23.3333              : BHT          - MAXIMUM RECORDED TEMPERATURE
BHTD.M        503.834              : BHTDEP       - MAXIMUM RECORDED TEMPERATURE
RMT .C        23.3333              : MDTP         - TEMPERATURE OF MUD          
MUDD.KG/M     0                    : MWT          - MUD DENSITY                 
NEUT.         1                    : NEUTRON      - NEUTRON TYPE                
RESI.         0                    : RESIST       - RESISTIVITY TYPE            
RM  .OHMM     2.4                  : RM           - RESISTIVITY OF MUD          
RMC .OHMM     0                    : RMC          - RESISTIVITY OF MUD CAKE     
RMF .OHMM     2.45                 : RMF          - RESISTIVITY OF MUD FILTRATE 
SUFT.C        -17.7778             : SUFT         - SURFACE TEMPERATURE         
~A  DEPTH     PHID     PHIN       GR      CAL     RESD
  310.896    0.208    0.516  105.283  206.832    2.487
  311.146    0.235    0.530  106.291  208.011    2.519
  311.396    0.272    0.544  101.583  207.934    2.731
  311.646    0.342    0.562   94.704  205.116    3.010
  311.896    0.391    0.580   87.078  201.666    3.558
  312.146    0.480    0.600   81.874  199.061    4.072
  312.396    0.280    0.621   73.626  197.611    4.679
  312.646    0.234    0.634   74.883  196.903    4.977
  312.896    0.201    0.442   75.456  196.503    5.158
  313.146    0.200    0.454   75.220  196.109    5.206
  313.396    0.214    0.459   79.521  195.602    5.177
  313.646    0.180    0.454   77.671  195.735    5.100
  313.896    0.164    0.447   71.474  196.074    5.031
  314.146    0.151    0.448   72.171  196.627    5.013
  314.396    0.138    0.454   76.411  197.068    4.986
  314.646    0.151    0.458   78.910  197.406    4.974
  314.896    0.181    0.463   80.225  197.744    4.973
  315.146    0.176    0.470   81.110  197.769    4.927
  315.396    0.166    0.476   82.241  197.685    4.871
  315.646    0.225    0.482   82.753  197.185    4.771
  315.896    0.254    0.476   82.456  196.155    4.620
  316.146    0.274    0.464   79.117  193.128    4.458
  316.396    0.280    0.444   78.259  192.314    4.317
  316.646    0.269    0.434   81.503  192.021    4.205
  316.896    0.243    0.449   86.549  191.097    4.051
  317.146    0.226    0.466   91.470  189.857    3.967
  317.396    0.207    0.474   95.272  189.567    3.906
  317.646    0.204    0.468   98.827  190.853    3.820
  317.896    0.190    0.466  100.580  192.242    3.812
  318.146    0.201    0.474  102.891  193.214    3.905
  318.396    0.221    0.473  105.577  193.238    4.116
  318.646    0.207    0.461  105.280  191.998    4.387
  318.896    0.184    0.421  101.506  190.234    4.801
  319.146    0.189    0.409  100.836  189.206    5.243
  319.396    0.181    0.407  102.031  190.387    5.534
  319.646    0.187    0.419  102.666  194.511    5.673
  319.896    0.194    0.429  100.567  202.424    5.702
  320.146    0.197    0.436   99.214  202.027    5.725
  320.396    0.196    0.428   99.726  197.740    5.744
  320.646    0.196    0.409   97.007  195.870    5.787
  320.896    0.186    0.391   98.883  195.052    5.843
  321.146    0.178    0.418  103.183  193.497    5.841
  321.396    0.164    0.425   98.788  191.310    5.840
  321.646    0.164    0.395   94.081  193.964    5.882
  321.896    0.178    0.411   95.027  201.351    5.795
  322.146    0.189    0.408   98.270  202.741    5.560
  322.396    0.220    0.393   98.160  196.244    5.276
  322.646    0.231    0.392   93.081  193.640    5.117
  322.896    0.234    0.408   92.847  193.033    4.891
  323.146    0.237    0.424   93.978  193.266    4.624
  323.396    0.240    0.432   96.603  193.713    4.345
  323.646    0.240    0.438   98.852  194.153    4.099
  323.896    0.232    0.448  102.468  195.228    3.839
  324.146    0.204    0.463  107.575  195.045    3.621
  324.396    0.153    0.489  112.744  193.383    3.364
  324.646    0.102    0.507  116.485  196.141    3.068
  324.896    0.090    0.499  114.078  203.107    2.783
  325.146    0.129    0.490  113.967  197.452    2.611
  325.396    0.158    0.502  116.340  192.846    2.499
  325.646    0.182    0.517  120.454  192.031    2.407
  325.896    0.149    0.525  121.586  193.632    2.362
  326.146    0.123    0.536  124.582  198.281    2.371
  326.396    0.146    0.527  127.640  205.670    2.420
  326.646    0.164    0.535  132.250  212.950    2.584
  326.896    0.180    0.537  131.083  216.759    2.908
  327.146    0.196    0.512  126.750  212.891    3.380
  327.396    0.169    0.475  123.037  207.445    3.832
  327.646    0.161    0.438  119.510  202.317    4.504
  327.896    0.124    0.427  116.359  197.926    4.918
  328.146    0.144    0.440  113.330  194.896    5.463
  328.396    0.141    0.448  110.917  192.709    6.057
  328.646    0.086    0.451  105.592  192.104    6.741
  328.896    0.020    0.442  101.567  192.336    7.306
  329.146    0.126    0.440   95.619  192.886    8.224
  329.396    0.219    0.441   91.223  193.545    9.289
  329.646    0.254    0.431   88.441  192.829    9.755
  329.896    0.240    0.434   89.264  192.852    9.326
  330.146    0.227    0.430   92.630  193.298    8.681
  330.396    0.208    0.424   95.813  193.425    7.871
  330.646    0.203    0.418  100.174  193.343    7.152
  330.896    0.198    0.416  104.784  193.683    6.522
  331.146    0.188    0.410   99.954  194.653    6.130
  331.396    0.186    0.404   99.099  196.045    5.970
  331.646    0.187    0.412   99.111  197.119    5.926
  331.896    0.194    0.432   97.263  198.931    5.969
  332.146    0.199    0.459   94.978  196.219    6.278
  332.396    0.192    0.471   90.272  183.728    6.807
  332.646    0.177    0.459   83.019  173.865    7.645
  332.896    0.144    0.423   78.312  172.099    8.950
  333.146    0.085    0.380   74.164  175.173   10.342
  333.396    0.110    0.373   72.749  181.823   11.337
  333.646    0.172    0.410   74.316  194.994   10.677
  333.896    0.190    0.474   79.796  197.017   10.224
  334.146    0.224    0.505   83.477  191.360   10.939
  334.396    0.248    0.475   84.047  189.491   11.790
  334.646    0.272    0.452   82.074  192.040   12.874
  334.896    0.285    0.436   80.038  195.955   13.985
  335.146    0.286    0.453   78.934  199.660   14.572
  335.396    0.273    0.468   78.453  200.629   13.750
  335.646    0.272    0.464   76.913  200.865   12.375
  335.896    0.277    0.458   75.623  199.204   10.911
  336.146    0.263    0.465   76.134  195.126    9.930
  336.396    0.233    0.475   78.570  188.629    8.656
  336.646    0.198    0.478   83.118  184.659    7.462
  336.896    0.221    0.466   89.280  184.152    6.531
  337.146    0.215    0.446   93.893  184.494    5.834
  337.396    0.227    0.462   95.830  188.514    5.105
  337.646    0.211    0.466   99.634  193.268    4.560
  337.896    0.183    0.463  105.424  198.130    4.526
  338.146    0.181    0.472  113.885  200.783    4.743
  338.396    0.171    0.493  120.670  201.439    4.952
  338.646    0.186    0.496  116.584  201.673    5.074
  338.896    0.196    0.485  116.101  201.700    5.141
  339.146    0.195    0.477  117.295  201.616    5.180
  339.396    0.179    0.499  119.608  201.429    5.198
  339.646    0.178    0.466  122.851  201.875    5.247
  339.896    0.162    0.445  126.716  202.109    5.257
  340.146    0.153    0.445  122.817  201.394    5.177
  340.396    0.183    0.457  113.887  200.471    4.849
  340.646    0.216    0.473  106.261  197.655    4.470
  340.896    0.240    0.485   99.193  193.157    3.469
  341.146    0.213    0.500  103.990  191.707    2.864
  341.396    0.167    0.524  117.234  190.889    2.544
  341.646    0.155    0.542  125.447  187.757    2.432
  341.896    0.170    0.552  131.175  191.568    2.511
  342.146    0.168    0.516  131.873  198.430    2.621
  342.396    0.163    0.501  131.203  203.394    2.847
  342.646    0.155    0.491  128.981  209.099    2.927
  342.896    0.182    0.509  124.214  210.278    3.028
  343.146    0.201    0.530  117.146  210.932    3.388
  343.396    0.224    0.530  110.637  209.486    4.012
  343.646    0.217    0.475   98.914  205.723    4.941
  343.896    0.210    0.374   89.486  200.907    6.389
  344.146    0.083    0.308   81.611  197.565    9.840
  344.396    0.033    0.245   75.290  196.644   20.582
  344.646   -0.008    0.189   72.197  197.928   26.419
  344.896   -0.021    0.168   69.230  202.896   28.210
  345.146   -0.021    0.169   65.703  204.811   27.790
  345.396   -0.008    0.170   61.930  205.154   24.916
  345.646    0.016    0.183   60.390  204.124   19.854
  345.896    0.093    0.206   65.931  200.677   15.637
  346.146    0.188    0.276   73.587  194.704   10.943
  346.396    0.235    0.379   79.936  187.261    8.303
  346.646    0.240    0.417   86.223  183.497    6.946
  346.896    0.211    0.441   92.512  182.785    5.953
  347.146    0.204    0.433   94.823  184.176    5.132
