~VERSION INFORMATION
 VERS.                 2.0:   CWLS LOG ASCII STANDARD -VERSION 2.0
 WRAP.                  NO:   ONE LINE PER DEPTH STEP
~WELL INFORMATION BLOCK
#MNEM.UNIT           DATA                    DESCRIPTION OF MNEMONIC
#---------    -------------------            -------------------------------
# Generated from Intellog Unique Number	CW_70_72/WELL/1056
NULL.         -999.25                        : NULL_VALUE
WELL.         SACKVILLE ET AL MITSUE 11-12   : Well_name    - WELL              
LOC .         11-12-071-03W5                 : Location     - LOCATION          
UWI .         00/11-12-071-03W5/2            : Uwi          - UNIQUE WELL ID    
ENTR.         JAYE                           : Entered      - ENTERED BY        
SRVC.         SCHLUMBERGER                   : Scn          - SERVICE COMPANY   
DATE.         9 DEC 77                       : Date         - LOG DATE          
STRT.M        417.576                        : top_depth    - START DEPTH       
STOP.M        652.326                        : bot_depth    - STOP DEPTH        
STEP.M        0.25                           : increment    - STEP LENGTH       
~CURVE INFORMATION BLOCK
#MNEM UNIT       ERCB CURVE CODE    CURVE DESCRIPTION
#-----------   ------------------   ----------------------------------
DEPT.M        00 001 00 00         : DEPTH        - DEPTH                       
DPHI.V/V      00 890 00 00         : PHID         - DENSITY POROSITY (SANDSTONE)
NPHI.V/V      00 330 00 00         : PHIN         - NEUTRON POROSITY (SANDSTONE)
GR  .API      00 310 00 00         : GR           - GAMMA RAY                   
CALI.MM       00 280 01 00         : CAL          - CALIPER                     
ILD .OHMM     00 120 00 00         : RESD         - DEEP RESISTIVITY (DIL)      
~PARAMETER INFORMATION       
#MNEM.UNIT           DATA             DESCRIPTION OF MNEMONIC
#---------         -----------     ------------------------------
GL  .M        610.514              : gl           - GROUND LEVEL ELEVATION      
EREF.M        613.562              : kb           - ELEVATION OF DEPTH REFERENCE
DATM.M        610.514              : datum        - DATUM ELEVATION             
TDD .M        659.892              : tdd          - TOTAL DEPTH DRILLER         
RUN .         ONE                  : Run          - RUN NUMBER                  
ENG .         KOOYMAN              : Engineer     - RECORDING ENGINEER          
WIT .         MINKEN/PODULSKY      : Witness      - WITNESSED BY                
BASE.         EDM                  : Branch       - HOME BASE OF LOGGING UNIT   
MUD .         GEL                  : Mud_type     - MUD TYPE                    
MATR.         SANDSTONE            : Logunit      - NEUTRON MATRIX              
TMAX.C        23.8889              : BHT          - MAXIMUM RECORDED TEMPERATURE
BHTD.M        658.063              : BHTDEP       - MAXIMUM RECORDED TEMPERATURE
RMT .C        10                   : MDTP         - TEMPERATURE OF MUD          
MUDD.KG/M     1140                 : MWT          - MUD DENSITY                 
NEUT.         1                    : NEUTRON      - NEUTRON TYPE                
RESI.         0                    : RESIST       - RESISTIVITY TYPE            
RM  .OHMM     4.33                 : RM           - RESISTIVITY OF MUD          
RMC .OHMM     0                    : RMC          - RESISTIVITY OF MUD CAKE     
RMF .OHMM     4.09                 : RMF          - RESISTIVITY OF MUD FILTRATE 
SUFT.C        -17.7778             : SUFT         - SURFACE TEMPERATURE         
~A  DEPTH     PHID     PHIN       GR      CAL     RESD
# ...
  490.576    0.297    0.442   75.156  158.219    2.329
  490.826    0.279    0.435   80.244  158.295    2.376
  491.076    0.285    0.445   84.956  159.321    2.420
  491.326    0.290    0.458   87.744  159.917    2.515
  491.576    0.261    0.466   91.898  160.424    2.595
  491.826    0.272    0.462   93.000  159.866    2.708
  492.076    0.275    0.448   87.756  159.521    2.773
  492.326    0.258    0.444   81.014  159.915    2.756
  492.576    0.264    0.442   75.269  160.417    2.570
  492.826    0.276    0.440   68.156  160.598    2.371
  493.076    0.296    0.437   70.068  159.935    2.211
  493.326    0.313    0.431   73.226  157.589    2.117
  493.576    0.296    0.428   76.511  154.188    2.076
  493.826    0.302    0.438   75.931  151.735    2.111
  494.076    0.329    0.441   76.787  151.069    2.215
  494.326    0.308    0.439   82.126  151.573    2.403
  494.576    0.288    0.432   91.573  155.441    2.717
  494.826    0.265    0.418  103.820  159.737    3.067
  495.076    0.234    0.434  108.225  164.139    3.455
  495.326    0.215    0.451  103.413  167.586    3.988
  495.576    0.195    0.447   96.797  167.877    4.193
  495.826    0.199    0.414   94.289  167.321    3.895
  496.076    0.238    0.416   96.014  167.815    3.744
  496.326    0.229    0.429   98.988  167.685    3.666
  496.576    0.216    0.444  102.768  167.025    3.636
  496.826    0.225    0.445  102.815  165.204    3.682
  497.076    0.227    0.420   99.996  160.745    3.701
  497.326    0.220    0.406  102.281  157.872    3.755
  497.576    0.211    0.421  106.936  156.465    3.795
  497.826    0.187    0.436  113.954  156.335    3.879
  498.076    0.220    0.447  118.419  156.308    3.980
  498.326    0.232    0.450  116.347  156.276    4.122
  498.576    0.264    0.456  111.040  156.253    4.374
  498.826    0.297    0.476  107.225  156.961    4.711
  499.076    0.340    0.495  104.219  160.625    5.103
  499.326    0.356    0.514   99.782  165.234    5.445
  499.576    0.363    0.539   93.413  166.789    5.954
  499.826    0.416    0.577   83.872  167.601    6.200
  500.076    0.470    0.607   80.182  168.205    6.003
  500.326    0.508    0.641   89.006  169.232    5.403
  500.576    0.341    0.661   98.080  170.048    4.676
  500.826    0.275    0.701   96.132  166.856    4.085
  501.076    0.250    0.721   89.081  161.663    3.683
  501.326    0.263    0.374   84.331  158.786    3.461
  501.576    0.267    0.368   87.802  158.122    3.345
  501.826    0.272    0.367   93.636  159.043    3.220
  502.076    0.279    0.374   95.549  160.388    3.129
  502.326    0.285    0.375   97.028  161.726    3.081
  502.576    0.284    0.364   99.377  160.646    3.045
  502.826    0.271    0.365  103.283  159.559    3.015
  503.076    0.258    0.370  104.387  159.219    3.019
  503.326    0.262    0.380  100.634  159.192    3.029
  503.576    0.275    0.388  102.546  159.162    3.068
  503.826    0.272    0.384  100.973  159.346    3.136
  504.076    0.266    0.381   97.719  155.938    3.217
  504.326    0.263    0.383   97.391  154.857    3.270
  504.576    0.257    0.387   96.065  154.621    3.361
  504.826    0.253    0.392   92.751  155.224    3.442
  505.076    0.255    0.397   93.605  156.355    3.558
  505.326    0.262    0.412   98.133  158.121    3.691
  505.576    0.261    0.416  100.045  160.510    3.802
  505.826    0.248    0.411  102.146  162.597    3.864
  506.076    0.226    0.428  106.613  165.308    3.906
  506.326    0.215    0.450  113.320  166.647    3.867
  506.576    0.211    0.472  105.022  168.942    3.614
  506.826    0.223    0.478  107.058  169.125    3.351
  507.076    0.208    0.458  110.593  168.778    3.096
  507.326    0.227    0.469  106.093  168.858    2.888
  507.576    0.243    0.490   92.939  169.250    2.663
  507.826    0.264    0.495   78.790  166.796    2.429
  508.076    0.288    0.431   69.869  163.179    2.295
  508.326    0.313    0.410   65.680  162.207    2.209
  508.576    0.295    0.399   62.116  160.913    2.188
  508.826    0.316    0.389   59.733  159.726    2.216
  509.076    0.343    0.399   62.516  158.219    2.256
  509.326    0.366    0.431   64.367  156.819    2.293
  509.576    0.380    0.450   64.601  155.735    2.271
  509.826    0.371    0.448   64.209  155.392    2.227
  510.076    0.333    0.411   64.752  155.678    2.193
  510.326    0.318    0.399   65.668  158.389    2.200
  510.576    0.341    0.400   65.466  160.579    2.253
  510.826    0.343    0.402   62.960  161.604    2.290
  511.076    0.323    0.403   59.270  161.362    2.430
  511.326    0.303    0.399   58.568  161.127    2.627
  511.576    0.270    0.403   59.049  160.673    2.862
  511.826    0.253    0.385   60.588  160.113    2.887
  512.076    0.295    0.373   62.876  159.672    2.780
  512.326    0.335    0.412   66.159  157.954    2.607
  512.576    0.337    0.428   69.752  155.076    2.427
  512.826    0.327    0.421   69.986  152.305    2.293
  513.076    0.324    0.412   68.722  150.805    2.237
  513.326    0.315    0.410   68.019  149.929    2.232
  513.576    0.305    0.407   67.256  149.695    2.226
  513.826    0.314    0.407   64.876  149.663    2.221
  514.076    0.324    0.412   61.247  149.740    2.216
  514.326    0.323    0.418   62.972  149.925    2.210
  514.576    0.319    0.431   64.014  150.846    2.209
  514.826    0.331    0.434   63.437  153.033    2.212
  515.076    0.343    0.443   63.669  156.374    2.227
  515.326    0.338    0.451   64.214  156.768    2.247
  515.576    0.321    0.414   65.381  154.632    2.280
  515.826    0.329    0.409   69.035  152.813    2.335
  516.076    0.328    0.418   71.261  149.621    2.378
  516.326    0.320    0.419   72.551  147.056    2.403
  516.576    0.315    0.415   68.797  146.082    2.397
  516.826    0.302    0.410   65.981  145.951    2.365
  517.076    0.319    0.408   66.275  146.659    2.329
  517.326    0.329    0.405   68.935  147.581    2.314
  517.576    0.325    0.398   74.210  148.815    2.348
  517.826    0.305    0.389   81.479  149.949    2.423
  518.076    0.293    0.387   97.152  151.078    2.585
  518.326    0.277    0.396  106.909  152.529    2.784
  518.576    0.259    0.430  108.759  154.398    2.905
  518.826    0.236    0.467  108.618  156.895    2.937
  519.076    0.222    0.458  110.344  159.188    2.908
  519.326    0.209    0.457  115.309  163.484    2.874
  519.576    0.185    0.477  116.600  169.359    2.840
  519.826    0.185    0.477  116.833  171.123    2.818
  520.076    0.201    0.490  113.888  170.566    2.821
  520.326    0.185    0.503  112.378  170.853    2.889
  520.576    0.205    0.504  110.804  170.195    2.975
  520.826    0.217    0.485  106.866  167.637    3.151
  521.076    0.231    0.462   97.945  157.697    3.331
  521.326    0.246    0.435   96.248  150.708    3.405
  521.576    0.248    0.434   95.731  150.998    3.461
  521.826    0.267    0.442   91.794  153.922    3.492
  522.076    0.266    0.432   89.660  156.635    3.490
  522.326    0.248    0.424   88.584  148.274    3.462
  522.576    0.239    0.417   87.821  146.983    3.390
  522.826    0.239    0.409   86.557  147.793    3.350
  523.076    0.235    0.420   84.113  149.665    3.342
  523.326    0.228    0.438   82.477  151.746    3.347
  523.576    0.257    0.432   83.394  154.037    3.364
  523.826    0.230    0.423   87.986  156.644    3.368
  524.076    0.247    0.409   92.576  159.146    3.366
  524.326    0.265    0.403   98.412  162.071    3.358
  524.576    0.265    0.430  100.448  162.991    3.344
  524.826    0.243    0.467   99.747  159.906    3.330
  525.076    0.240    0.461  101.286  155.449    3.322
  525.326    0.255    0.444  103.388  150.886    3.333
  525.576    0.228    0.427  102.125  149.063    3.394
  525.826    0.210    0.427  102.421  149.349    3.514
  526.076    0.200    0.424  109.314  150.485    3.653
  526.326    0.187    0.419  113.718  153.087    3.848
  526.576    0.173    0.416  110.150  154.962    3.933
  526.826    0.182    0.408  110.134  157.569    3.916
