~VERSION INFORMATION
 VERS.                 2.0:   CWLS LOG ASCII STANDARD -VERSION 2.0
 WRAP.                  NO:   ONE LINE PER DEPTH STEP
~WELL INFORMATION BLOCK
#MNEM.UNIT           DATA                    DESCRIPTION OF MNEMONIC
#---------    -------------------            -------------------------------
# Generated from Intellog Unique Number	CS_77_79/WELL/954
WELL.         MESA PORTAGE                   : Well_name    - WELL
LOC .         00/10-14-078-18W4/0            : Location     - LOCATION
UWI .         00/10-14-078-18W4/0            : Uwi          - UNIQUE WELL ID
ENTR.         JHS                            : Entered      - ENTERED BY
SRVC.         SCHLUMBERGER                   : Scn          - SERVICE COMPANY
STRT.M        179.832                        : top_depth    - START DEPTH
STOP.M        380.832                        : bot_depth    - STOP DEPTH
STEP.M        0.25                           : increment    - STEP LENGTH
 NULL. -999.2500:NULL Value
~CURVE INFORMATION BLOCK
#MNEM UNIT       ERCB CURVE CODE    CURVE DESCRIPTION
#-----------   ------------------   ----------------------------------
DEPT.M        00 001 00 00         : DEPTH        - DEPTH
GR  .API      00 310 00 00         : GR           - GAMMA RAY
DPHI.V/V      00 890 00 00         : PHID         - DENSITY POROSITY (SANDSTONE)
NPHI.V/V      00 330 00 00         : PHIN         - NEUTRON POROSITY (SANDSTONE)
ILD .OHMM     00 120 00 00         : RESD         - DEEP RESISTIVITY (DIL)
~PARAMETER INFORMATION
#MNEM.UNIT           DATA             DESCRIPTION OF MNEMONIC
#---------         -----------     ------------------------------
GL  .M        551.139              : gl           - GROUND LEVEL ELEVATION
EREF.M        554.553              : kb           - ELEVATION OF DEPTH REFERENCE
DATM.M        554.553              : datum        - DATUM ELEVATION
TDD .M        390.144              : tdd          - TOTAL DEPTH DRILLER
RUN .         ONE                  : Run          - RUN NUMBER
ENG .         BILL                 : Engineer     - RECORDING ENGINEER
WIT .         JIM                  : Witness      - WITNESSED BY
MUD .         GEL                  : Mud_type     - MUD TYPE
MATR.         SANDSTONE            : Logunit      - NEUTRON MATRIX
TMAX.C        60                   : BHT          - MAXIMUM RECORDED TEMPERATURE
BHTD.M        390.144              : BHTDEP       - MAXIMUM RECORDED TEMPERATURE
MATR.         1                    : LOGUNIT      - NEUTRON MATRIX
RMT .C        25                   : MDTP         - TEMPERATURE OF MUD
NEUT.         1                    : NEUTRON      - NEUTRON TYPE
RESI.         0                    : RESIST       - RESISTIVITY TYPE
RMC .OHMM     0.25                 : RMC          - RESISTIVITY OF MUD CAKE
RMF .OHMM     0.25                 : RMF          - RESISTIVITY OF MUD FILTRATE
SUFT.C        15                   : SUFT         - SURFACE TEMPERATURE
~A  DEPTH       GR     PHID     PHIN     RESD
# ...
  310.332   59.517    0.086    0.627   15.786
  310.582   57.669    0.066    0.611   17.098
  310.832   56.261    0.034    0.408   18.035
  311.082   52.531    0.015    0.250   18.517
  311.332   53.894    0.001    0.231   18.334
  311.582   56.867    0.019    0.219   16.162
  311.832   56.928    0.036    0.216   13.879
  312.082   57.525    0.043    0.227   11.006
  312.332   60.018    0.076    0.266    9.709
  312.582   65.205    0.139    0.356    7.854
  312.832   69.851    0.190    0.447    7.223
  313.082   69.833    0.256    0.500    6.865
  313.332   69.442    0.260    0.539    6.803
  313.582   68.710    0.278    0.574    7.046
  313.832   69.543    0.279    0.571    6.918
  314.082   68.484    0.288    0.527    6.715
  314.332   66.817    0.303    0.497    6.752
  314.582   68.165    0.283    0.485    7.121
  314.832   65.678    0.272    0.484    7.919
  315.082   60.811    0.197    0.451    9.280
  315.332   55.876    0.160    0.391   11.344
  315.582   52.663    0.027    0.297   14.254
  315.832   48.600    0.009    0.192   16.021
  316.082   49.906    0.012    0.190   16.348
  316.332   55.831    0.020    0.189   15.162
  316.582   57.272    0.027    0.196   14.489
  316.832   50.554    0.031    0.234   12.911
  317.082   50.265    0.049    0.268   11.735
  317.332   60.608    0.071    0.291   10.954
  317.582   64.108    0.107    0.314    9.455
  317.832   64.974    0.126    0.357    8.878
  318.082   67.468    0.154    0.388    8.340
  318.332   70.627    0.165    0.422    7.815
  318.582   72.424    0.216    0.464    7.538
  318.832   75.271    0.266    0.488    7.392
  319.082   73.852    0.283    0.499    7.282
  319.332   72.019    0.272    0.504    7.428
  319.582   73.440    0.287    0.512    7.412
  319.832   71.954    0.272    0.530    7.639
  320.082   67.624    0.266    0.571    8.096
  320.332   62.952    0.255    0.598    8.462
  320.582   58.777    0.242    0.613    9.042
  320.832   55.470    0.195    0.616    8.960
  321.082   57.519    0.128    0.615    8.714
  321.332   64.189    0.098    0.329    8.157
  321.582   70.139    0.120    0.480    7.598
  321.832   72.321    0.248    0.607    7.316
  322.082   71.502    0.277    0.618    7.741
  322.332   70.529    0.276    0.622    8.409
  322.582   68.138    0.235    0.621    8.940
  322.832   65.005    0.198    0.614    9.453
  323.082   60.866    0.193    0.608    9.450
  323.332   60.804    0.226    0.493    8.914
  323.582   61.074    0.239    0.515    8.190
  323.832   58.483    0.268    0.540    7.603
  324.082   51.350    0.285    0.552    7.217
  324.332   60.573    0.298    0.558    7.028
  324.582   64.041    0.286    0.575    6.934
  324.832   67.368    0.299    0.606    6.870
  325.082   70.053    0.300    0.617    6.797
  325.332   68.358    0.284    0.606    6.806
  325.582   67.268    0.298    0.583    6.820
  325.832   65.234    0.285    0.567    6.697
  326.082   64.138    0.281    0.565    6.777
  326.332   66.973    0.266    0.537    7.013
  326.582   68.964    0.273    0.512    7.632
  326.832   67.101    0.271    0.520    8.101
  327.082   64.459    0.261    0.520    9.243
  327.332   63.514    0.216    0.471   10.585
  327.582   63.336    0.175    0.414   12.900
  327.832   60.835    0.137    0.326   14.654
  328.082   59.391    0.108    0.269   15.857
  328.332   57.855    0.071    0.227   16.020
  328.582   57.977    0.041    0.219   16.066
  328.832   63.164    0.043    0.229   14.604
  329.082   68.181    0.049    0.273   13.506
  329.332   73.845    0.048    0.307   12.024
  329.582   76.024    0.058    0.335    9.246
  329.832   75.129    0.131    0.362    8.386
  330.082   73.644    0.154    0.394    7.278
  330.332   72.719    0.176    0.457    6.817
  330.582   73.387    0.194    0.507    6.705
  330.832   71.904    0.217    0.574    6.594
  331.082   71.448    0.232    0.596    6.610
  331.332   72.918    0.234    0.612    6.624
  331.582   75.836    0.228    0.621    6.964
  331.832   78.869    0.235    0.626    7.356
  332.082   80.903    0.220    0.626    7.427
  332.332   80.903    0.233    0.624    7.574
  332.582   80.952    0.226    0.622    7.738
  332.832   80.909    0.215    0.612    7.877
  333.082   83.001    0.212    0.523    7.897
  333.332   83.464    0.206    0.461    7.927
  333.582   82.393    0.197    0.465    8.069
  333.832   82.192    0.200    0.486    8.084
  334.082   83.663    0.197    0.489    7.904
  334.332   86.709    0.190    0.497    7.458
  334.582   89.536    0.178    0.521    6.681
  334.832   91.522    0.192    0.568    6.115
  335.082   92.653    0.223    0.584    5.935
  335.332   95.911    0.201    0.493    5.939
  335.582  100.580    0.213    0.477    6.138
  335.832  105.452    0.194    0.482    6.401
  336.082  105.478    0.180    0.486    6.846
  336.332  104.435    0.184    0.475    7.402
  336.582  105.200    0.183    0.480    7.834
  336.832  104.278    0.165    0.502    8.923
  337.082  102.250    0.176    0.557    9.796
  337.332   99.433    0.167    0.577   10.158
  337.582   96.467    0.147    0.613   10.493
  337.832   94.872    0.138    0.623   10.496
  338.082   93.501    0.123    0.590   10.508
  338.332   89.246    0.097    0.457   10.523
  338.582   92.920    0.070    0.411   10.189
  338.832   93.650    0.149    0.455   10.074
  339.082   94.755    0.159    0.487    9.788
  339.332   97.094    0.178    0.470   10.231
  339.582   99.301    0.152    0.464   10.407
  339.832  100.287    0.166    0.465   10.778
  340.082   99.426    0.177    0.450   10.808
  340.332   95.232    0.155    0.427   10.822
  340.582   93.559    0.157    0.422   10.842
  340.832   94.543    0.154    0.439   10.930
  341.082   95.565    0.188    0.453   11.070
  341.332   97.157    0.167    0.462   11.463
  341.582   95.528    0.168    0.464   11.559
  341.832   93.200    0.155    0.441   11.970
  342.082   90.111    0.154    0.421   12.010
  342.332   90.064    0.149    0.410   11.780
  342.582   90.601    0.141    0.405   11.389
  342.832   92.782    0.140    0.400   11.062
  343.082   97.414    0.133    0.409   10.491
  343.332  101.520    0.138    0.434    9.816
  343.582  103.280    0.143    0.438    9.359
  343.832  101.054    0.143    0.433    8.443
  344.082  101.620    0.141    0.430    8.082
  344.332  104.206    0.123    0.444    7.758
  344.582  104.344    0.120    0.462    7.584
  344.832  105.165    0.150    0.474    7.363
  345.082  102.668    0.165    0.478    7.193
  345.332  101.381    0.189    0.479    6.945
  345.582  101.770    0.193    0.455    6.516
  345.832  103.815    0.162    0.441    6.112
  346.082  106.986    0.162    0.446    5.055
  346.332  106.417    0.188    0.461    4.002
  346.582  104.273    0.171    0.481    3.171
  346.832  100.708    0.191    0.498    2.585
  347.082   97.460    0.232    0.566    2.395
  347.332   92.699    0.255    0.616    2.179
  347.582   92.404    0.294    0.620    2.226
  347.832   92.394    0.279    0.615    2.582
  348.082   88.624    0.278    0.583    3.493
  348.332   85.291    0.252    0.551    4.415
  348.582   81.311    0.224    0.503    5.999
  348.832   78.792    0.192    0.443    7.876
  349.082   81.212    0.164    0.429   10.276
  349.332   80.281    0.138    0.419   11.609
  349.582   77.835    0.128    0.397   13.152
  349.832   75.163    0.098    0.387   14.295
  350.082   77.192    0.092    0.405   13.045
  350.332   81.775    0.154    0.403   10.524
  350.582   86.662    0.118    0.384    8.484
  350.832   93.659    0.077    0.379    6.840
  351.082   97.391    0.053    0.416    5.923
  351.332   98.438    0.119    0.468    5.381
  351.582   97.947    0.169    0.487    5.093
  351.832   99.222    0.157    0.509    4.999
  352.082  101.088    0.159    0.541    5.042
  352.332   99.420    0.144    0.481    5.192
  352.582   97.564    0.140    0.453    5.670
  352.832   98.091    0.128    0.461    6.376
  353.082   97.641    0.137    0.461    7.310
  353.332   95.896    0.128    0.475    8.617
  353.582   94.953    0.113    0.496    9.018
