~VERSION INFORMATION
 VERS.                 2.0:   CWLS LOG ASCII STANDARD -VERSION 2.0
 WRAP.                  NO:   ONE LINE PER DEPTH STEP
~WELL INFORMATION BLOCK
#MNEM.UNIT           DATA                    DESCRIPTION OF MNEMONIC
#---------    -------------------            -------------------------------
# Generated from Intellog Unique Number	CS_77_79/WELL/3301
WELL.         TRITON CANADA RESOURCES LTD.   : Well_name    - WELL
LOC .         00/10-29-079-10W4/0            : Location     - LOCATION
UWI .         00/10-29-079-10W4/0            : Uwi          - UNIQUE WELL ID
ENTR.         JOETTE                         : Entered      - ENTERED BY
SRVC.         SCHLUMBERGER                   : Scn          - SERVICE COMPANY
DATE.         08/24/92                       : Date         - LOG DATE
STRT.M        250                            : top_depth    - START DEPTH
STOP.M        465                            : bot_depth    - STOP DEPTH
STEP.M        0.25                           : increment    - STEP LENGTH
 NULL. -999.2500:NULL Value
~CURVE INFORMATION BLOCK
#MNEM UNIT       ERCB CURVE CODE    CURVE DESCRIPTION
#-----------   ------------------   ----------------------------------
DEPT.M        00 001 00 00         : DEPTH        - DEPTH
GR  .API      00 310 00 00         : GR           - GAMMA RAY
NPHI.V/V      00 330 00 00         : PHIN         - NEUTRON POROSITY (SANDSTONE)
DPHI.V/V      00 890 00 00         : PHID         - DENSITY POROSITY (SANDSTONE)
ILD .OHMM     00 120 00 00         : RESD         - DEEP RESISTIVITY (DIL)
~PARAMETER INFORMATION
#MNEM.UNIT           DATA             DESCRIPTION OF MNEMONIC
#---------         -----------     ------------------------------
GL  .M        664.8                : gl           - GROUND LEVEL ELEVATION
EREF.M        666.5                : kb           - ELEVATION OF DEPTH REFERENCE
DATM.M        666.5                : datum        - DATUM ELEVATION
TDD .M        473                  : tdd          - TOTAL DEPTH DRILLER
RUN .         ONE                  : Run          - RUN NUMBER
ENG .         BILL                 : Engineer     - RECORDING ENGINEER
WIT .         JIM                  : Witness      - WITNESSED BY
MUD .         GEL                  : Mud_type     - MUD TYPE
MATR.         SANDSTONE            : Logunit      - NEUTRON MATRIX
TMAX.C        25                   : BHT          - MAXIMUM RECORDED TEMPERATURE
BHTD.M        473                  : BHTDEP       - MAXIMUM RECORDED TEMPERATURE
MATR.         1                    : LOGUNIT      - NEUTRON MATRIX
RMT .C        4.44                 : MDTP         - TEMPERATURE OF MUD
NEUT.         1                    : NEUTRON      - NEUTRON TYPE
RESI.         0                    : RESIST       - RESISTIVITY TYPE
RMC .OHMM     5.98                 : RMC          - RESISTIVITY OF MUD CAKE
RMF .OHMM     6.46                 : RMF          - RESISTIVITY OF MUD FILTRATE
SUFT.C        15                   : SUFT         - SURFACE TEMPERATURE
~A  DEPTH       GR     PHIN     PHID     RESD
# ...
  380.500   70.569    0.479    0.284   10.694
  380.750   71.256    0.474    0.302    9.413
  381.000   72.474    0.454    0.316    8.284
  381.250   78.413    0.451    0.327    7.563
  381.500   78.455    0.464    0.322    7.166
  381.750   78.511    0.480    0.321    7.169
  382.000   79.743    0.480    0.327    7.047
  382.250   80.402    0.474    0.330    7.054
  382.500   78.119    0.469    0.335    7.061
  382.750   78.763    0.465    0.327    6.937
  383.000   80.570    0.460    0.320    6.947
  383.250   80.626    0.454    0.313    6.826
  383.500   81.271    0.448    0.310    6.586
  383.750   82.503    0.448    0.308    6.355
  384.000   86.089    0.450    0.304    6.132
  384.250   84.380    0.462    0.298    5.916
  384.500   83.274    0.470    0.292    6.145
  384.750   88.036    0.478    0.282    6.264
  385.000   92.798    0.471    0.270    6.505
  385.250   96.383    0.462    0.279    6.756
  385.500   94.101    0.449    0.294    6.888
  385.750   90.053    0.452    0.305    7.024
  386.000   86.552    0.458    0.314    7.029
  386.250   80.726    0.453    0.320    7.038
  386.500   76.076    0.445    0.319    7.045
  386.750   72.631    0.444    0.316    7.053
  387.000   71.482    0.501    0.311    6.930
  387.250   71.538    0.500    0.300    6.937
  387.500   74.536    0.481    0.290    7.072
  387.750   76.945    0.431    0.279    7.479
  388.000   75.236    0.353    0.263    7.911
  388.250   64.116    0.254    0.116    9.010
  388.500   58.290    0.283    0.080   10.448
  388.750   67.169    0.366    0.164   11.466
  389.000   81.945    0.398    0.189   10.091
  389.250   82.001    0.426    0.225    8.101
  389.500   79.704    0.452    0.242    7.397
  389.750   82.128    0.455    0.246    6.630
  390.000   84.537    0.456    0.242    6.397
  390.250   86.960    0.458    0.236    6.401
  390.500   88.192    0.457    0.236    6.408
  390.750   91.175    0.475    0.233    6.417
  391.000   93.599    0.465    0.229    6.422
  391.250   93.669    0.458    0.238    6.426
  391.500   93.123    0.466    0.241    6.433
  391.750   92.576    0.461    0.239    6.440
  392.000   90.868    0.439    0.235    6.447
  392.250   94.467    0.423    0.237    6.695
  392.500   99.832    0.406    0.245    7.083
  392.750  102.815    0.405    0.246    7.356
  393.000  103.459    0.417    0.244    7.363
  393.250  102.927    0.430    0.243    7.104
  393.500  102.983    0.441    0.242    6.731
  393.750  103.628    0.437    0.244    6.491
  394.000  108.404    0.432    0.244    5.926
  394.250  100.224    0.453    0.240    5.511
  394.500   93.796    0.483    0.238    5.033
  394.750   93.866    0.551    0.241    4.594
  395.000   95.099    0.574    0.274    3.969
  395.250   93.978    0.577    0.297    2.801
  395.500   91.093    0.572    0.310    2.557
  395.750   87.634    0.559    0.305    2.514
  396.000   85.337    0.543    0.310    2.470
  396.250   82.438    0.545    0.321    2.470
  396.500   84.847    0.561    0.317    3.922
  396.750   89.035    0.559    0.301    2.870
  397.000   89.679    0.541    0.274    3.269
  397.250   89.750    0.496    0.252    3.586
  397.500   89.778    0.477    0.242    4.010
  397.750   88.097    0.468    0.236    4.402
  398.000   87.537    0.456    0.229    4.655
  398.250   83.490    0.430    0.221    5.204
  398.500   81.179    0.436    0.218    5.606
  398.750   78.294    0.380    0.209    6.268
  399.000   75.423    0.366    0.198    6.160
  399.250   78.406    0.341    0.138    5.624
  399.500   84.947    0.331    0.175    5.134
  399.750   90.899    0.368    0.211    4.603
  400.000   90.353    0.428    0.228    4.439
  400.250   92.776    0.437    0.224    4.205
  400.500   95.185    0.449    0.222    4.059
  400.750   94.065    0.457    0.229    4.061
  401.000   95.297    0.463    0.236    3.992
  401.250   97.720    0.457    0.239    3.922
  401.500   95.409    0.452    0.247    3.785
  401.750   89.583    0.462    0.250    3.520
  402.000   92.581    0.485    0.255    3.334
  402.250   99.709    0.487    0.256    3.276
  402.500   99.177    0.470    0.252    3.340
  402.750   98.631    0.456    0.248    3.599
  403.000   97.511    0.450    0.242    4.025
  403.250   96.993    0.462    0.239    4.178
  403.500   98.814    0.483    0.235    4.108
  403.750   97.693    0.480    0.233    4.036
  404.000   93.646    0.468    0.228    4.040
  404.250   93.688    0.454    0.222    4.274
  404.500   95.509    0.441    0.219    4.520
  404.750   95.565    0.434    0.215    4.960
  405.000   93.282    0.431    0.205    5.444
  405.250   90.985    0.432    0.189    5.552
  405.500   92.806    0.436    0.193    5.557
  405.750   94.627    0.449    0.183    5.461
  406.000   93.492    0.420    0.172    5.468
  406.250   88.857    0.399    0.134    5.470
  406.500   87.722    0.404    0.113    5.685
  406.750  101.910    0.412    0.180    5.792
  407.000   98.437    0.414    0.222    6.242
  407.250   92.022    0.372    0.232    7.936
  407.500   85.608    0.311    0.293   13.796
  407.750   80.356    0.248    0.337   17.867
  408.000   72.205    0.227    0.364   23.580
  408.250   74.012    0.245    0.385   25.890
  408.500   76.435    0.267    0.377   26.874
  408.750   76.491    0.290    0.356   27.406
  409.000   75.945    0.283    0.339   25.953
  409.250   78.942    0.282    0.325   24.578
  409.500   81.939    0.292    0.314   22.030
  409.750   81.421    0.287    0.305   20.497
  410.000   79.124    0.285    0.294   20.138
  410.250   76.842    0.283    0.279   20.153
  410.500   75.693    0.278    0.249   20.557
  410.750   76.338    0.274    0.277   20.949
  411.000   79.951    0.276    0.298   22.165
  411.250   80.596    0.281    0.301   23.018
  411.500   78.887    0.280    0.301   24.800
  411.750   77.178    0.264    0.299   27.223
  412.000   73.719    0.218    0.350   30.423
  412.250   72.571    0.159    0.367   35.281
  412.500   71.450    0.136    0.364   44.062
  412.750   74.448    0.166    0.352   46.597
  413.000   80.974    0.194    0.339   48.414
  413.250   79.266    0.213    0.333   49.349
  413.500   69.910    0.192    0.343   49.385
  413.750   59.966    0.196    0.351   49.433
  414.000   75.905    0.220    0.346   48.591
  414.250   76.563    0.248    0.331   44.364
  414.500   71.311    0.272    0.319   39.756
  414.750   63.132    0.293    0.319   33.722
  415.000   57.306    0.306    0.321   27.570
  415.250   53.258    0.321    0.315   22.965
  415.500   60.359    0.332    0.305   21.753
  415.750   76.311    0.342    0.294   21.372
  416.000   76.956    0.353    0.286   21.403
  416.250   74.659    0.343    0.287   21.414
  416.500   72.951    0.327    0.278   21.833
  416.750   71.242    0.327    0.280   21.854
  417.000   74.841    0.328    0.279   22.287
  417.250   78.427    0.330    0.274   22.734
  417.500   82.026    0.332    0.270   22.751
  417.750   79.127    0.337    0.271   22.778
  418.000   75.668    0.344    0.270   22.795
  418.250   73.946    0.352    0.268   22.812
  418.500   74.016    0.359    0.268   22.834
  418.750   77.027    0.346    0.273   22.445
  419.000   78.820    0.334    0.281   21.660
  419.250   84.772    0.346    0.287   21.281
  419.500   88.960    0.340    0.285   21.302
  419.750   86.663    0.336    0.290   20.929
  420.000   87.293    0.337    0.305   20.954
  420.250   93.820    0.337    0.298   22.176
  420.500  100.361    0.331    0.290   23.024
  420.750   96.299    0.328    0.283   23.910
  421.000   91.061    0.340    0.276   24.378
  421.250   86.986    0.338    0.283   24.396
  421.500   81.748    0.329    0.295   24.426
  421.750   77.686    0.324    0.302   24.444
  422.000   71.860    0.326    0.295   25.391
  422.250   71.328    0.326    0.284   25.900
  422.500   69.031    0.339    0.273   25.913
  422.750   72.631    0.339    0.277   26.910
  423.000   75.040    0.333    0.283   27.946
  423.250   73.331    0.340    0.289   29.561
  423.500   69.858    0.345    0.298   32.449
  423.750   64.620    0.347    0.306   36.936
