~VERSION INFORMATION
 VERS.                 2.0:   CWLS LOG ASCII STANDARD -VERSION 2.0
 WRAP.                  NO:   ONE LINE PER DEPTH STEP
~WELL INFORMATION BLOCK
#MNEM.UNIT           DATA                    DESCRIPTION OF MNEMONIC
#---------    -------------------            -------------------------------
# Generated from Intellog Unique Number	CS_67_68/WELL/2216
WELL.         CAVALIER FLAT LAKE             : Well_name    - WELL
LOC .         00/14-03-067-18W4/0            : Location     - LOCATION
UWI .         00/14-03-067-18W4/0            : Uwi          - UNIQUE WELL ID
ENTR.         SP                             : Entered      - ENTERED BY
SRVC.         SCHLUMBERGER                   : Scn          - SERVICE COMPANY
STRT.M        395                            : top_depth    - START DEPTH
STOP.M        551                            : bot_depth    - STOP DEPTH
STEP.M        0.25                           : increment    - STEP LENGTH
 NULL. -999.2500:NULL Value
~CURVE INFORMATION BLOCK
#MNEM UNIT       ERCB CURVE CODE    CURVE DESCRIPTION
#-----------   ------------------   ----------------------------------
DEPT.M        00 001 00 00         : DEPTH        - DEPTH
ILD .OHMM     00 120 00 00         : RESD         - DEEP RESISTIVITY (DIL)
DPHI.V/V      00 890 00 00         : PHID         - DENSITY POROSITY (LIMESTONE)
NPHI.V/V      00 330 00 00         : PHIN         - NEUTRON POROSITY (LIMESTONE)
GR  .API      00 310 00 00         : GR           - GAMMA RAY
CALI.MM       00 280 01 00         : CAL          - CALIPER
~PARAMETER INFORMATION
#MNEM.UNIT           DATA             DESCRIPTION OF MNEMONIC
#---------         -----------     ------------------------------
GL  .M        616.5                : gl           - GROUND LEVEL ELEVATION
EREF.M        620.5                : kb           - ELEVATION OF DEPTH REFERENCE
DATM.M        620.5                : datum        - DATUM ELEVATION
TDD .M        570                  : tdd          - TOTAL DEPTH DRILLER
RUN .         ONE                  : Run          - RUN NUMBER
ENG .         BILL                 : Engineer     - RECORDING ENGINEER
WIT .         JIM                  : Witness      - WITNESSED BY
MUD .         GEL                  : Mud_type     - MUD TYPE
MATR.         LIMESTONE            : Logunit      - NEUTRON MATRIX
TMAX.C        23                   : BHT          - MAXIMUM RECORDED TEMPERATURE
BHTD.M        570                  : BHTDEP       - MAXIMUM RECORDED TEMPERATURE
MATR.         1                    : LOGUNIT      - NEUTRON MATRIX
RMT .C        25                   : MDTP         - TEMPERATURE OF MUD
NEUT.         1                    : NEUTRON      - NEUTRON TYPE
RESI.         0                    : RESIST       - RESISTIVITY TYPE
RMC .OHMM     0.25                 : RMC          - RESISTIVITY OF MUD CAKE
RMF .OHMM     0.25                 : RMF          - RESISTIVITY OF MUD FILTRATE
SUFT.C        15                   : SUFT         - SURFACE TEMPERATURE
~A  DEPTH     RESD     PHID     PHIN       GR      CAL
# ...
  468.000    1.682    0.302    0.403   72.183  163.332
  468.250    1.755    0.296    0.394   73.397  163.010
  468.500    1.920    0.288    0.393   75.161  162.690
  468.750    2.057    0.275    0.412   76.316  162.269
  469.000    2.117    0.266    0.390   78.081  161.948
  469.250    2.119    0.262    0.387   78.684  162.237
  469.500    2.082    0.267    0.409   77.512  162.633
  469.750    2.052    0.277    0.419   75.975  163.636
  470.000    2.058    0.284    0.403   79.637  164.337
  470.250    2.119    0.249    0.399   85.194  165.953
  470.500    2.129    0.227    0.416   89.774  167.569
  470.750    2.063    0.212    0.431   94.414  167.860
  471.000    1.970    0.230    0.440   82.109  167.540
  471.250    1.909    0.251    0.422   75.372  166.099
  471.500    1.851    0.266    0.406   74.078  163.737
  471.750    1.808    0.278    0.406   76.945  162.500
  472.000    1.796    0.287    0.424   72.164  162.486
  472.250    1.835    0.298    0.431   67.751  162.164
  472.500    1.944    0.302    0.411   64.745  162.149
  472.750    2.078    0.294    0.400   63.696  162.136
  473.000    2.197    0.298    0.388   63.014  162.222
  473.250    2.376    0.303    0.402   63.312  162.310
  473.500    2.565    0.296    0.407   64.464  162.294
  473.750    2.875    0.296    0.410   65.251  162.384
  474.000    3.569    0.287    0.414   64.997  162.981
  474.250    4.813    0.182    0.430   60.034  163.168
  474.500    8.237    0.133    0.452   56.966  163.155
  474.750   12.257    0.065    0.227   53.899  163.342
  475.000   15.475    0.036    0.181   56.031  163.429
  475.250   14.173    0.027    0.169   58.164  163.620
  475.500   11.879    0.018    0.168   56.135  163.910
  475.750    9.787    0.007    0.160   51.783  164.303
  476.000    7.914    0.017    0.150   50.307  164.595
  476.250    7.457    0.086    0.248   54.396  164.478
  476.500    8.033    0.144    0.302   49.677  164.360
  476.750    8.688    0.201    0.238   45.631  164.451
  477.000    9.151    0.058    0.156   42.319  164.741
  477.250    7.413    0.022    0.132   39.496  165.132
  477.500    5.311    0.004    0.121   43.648  165.119
  477.750    4.287    0.000    0.118   51.958  165.716
  478.000    3.668    0.014    0.386   59.351  165.904
  478.250    3.211    0.272    0.471   65.032  165.993
  478.500    2.826    0.302    0.479   63.185  165.979
  478.750    2.437    0.295    0.452   62.078  165.859
  479.000    2.257    0.285    0.436   62.434  165.949
  479.250    2.200    0.281    0.423   63.711  165.934
  479.500    2.186    0.279    0.410   65.661  165.817
  479.750    2.306    0.277    0.401   68.894  165.802
  480.000    2.402    0.271    0.413   70.414  165.891
  480.250    2.502    0.260    0.417   71.078  165.876
  480.500    2.542    0.251    0.404   71.681  166.371
  480.750    2.558    0.246    0.397   73.997  166.969
  481.000    2.575    0.259    0.393   76.374  167.256
  481.250    2.646    0.256    0.402   78.506  167.243
  481.500    2.730    0.238    0.398   76.357  167.739
  481.750    2.881    0.226    0.392   75.429  168.337
  482.000    3.000    0.228    0.409   77.562  169.543
  482.250    3.136    0.232    0.404   81.407  170.143
  482.500    3.278    0.220    0.399   83.724  170.841
  482.750    3.381    0.209    0.410   85.427  171.031
  483.000    3.449    0.204    0.419   88.355  170.812
  483.250    3.518    0.209    0.414   90.854  170.594
  483.500    3.541    0.203    0.416   89.805  170.170
  483.750    3.598    0.199    0.428   85.453  169.748
  484.000    3.712    0.208    0.428   85.321  169.734
  484.250    3.829    0.197    0.421   86.720  169.924
  484.500    3.854    0.182    0.411   86.222  170.009
  484.750    3.836    0.179    0.404   87.987  169.994
  485.000    3.753    0.191    0.403   90.303  170.287
  485.250    3.652    0.196    0.410   90.294  170.272
  485.500    3.620    0.188    0.401   86.982  170.054
  485.750    3.576    0.180    0.389   83.670  170.140
  486.000    3.648    0.174    0.378   87.085  170.228
  486.250    3.714    0.182    0.374   89.524  170.214
  486.500    3.731    0.189    0.397   91.351  170.299
  486.750    3.657    0.187    0.409   89.691  170.286
  487.000    3.479    0.179    0.418   89.437  170.170
  487.250    3.290    0.175    0.419   91.203  169.849
  487.500    3.171    0.182    0.409   94.191  169.832
  487.750    3.056    0.194    0.417   97.425  169.717
  488.000    2.934    0.204    0.438   99.006  169.804
  488.250    2.993    0.210    0.455   97.897  169.789
  488.500    3.036    0.202    0.460   97.520  169.776
  488.750    3.096    0.194    0.438   98.857  169.863
  489.000    3.182    0.189    0.423   96.646  170.052
  489.250    3.282    0.190    0.425   92.661  170.343
  489.500    3.405    0.198    0.417   96.201  170.531
  489.750    3.513    0.209    0.408  101.453  170.620
  490.000    3.610    0.207    0.402  105.053  170.606
  490.250    3.682    0.200    0.411   95.134  170.489
  490.500    3.756    0.193    0.420   85.398  170.475
  490.750    3.759    0.180    0.418   80.436  170.153
  491.000    3.699    0.171    0.407   81.344  170.035
  491.250    3.552    0.166    0.392   82.070  169.920
  491.500    3.411    0.182    0.380   82.426  169.702
  491.750    3.299    0.198    0.381   82.541  169.993
  492.000    3.180    0.188    0.381   82.655  170.485
  492.250    3.111    0.185    0.380   81.239  170.779
  492.500    3.073    0.190    0.381   85.144  171.377
  492.750    3.123    0.202    0.400   87.706  171.565
  493.000    3.137    0.211    0.411   86.229  172.061
  493.250    3.146    0.209    0.402   84.691  172.758
  493.500    3.143    0.202    0.395   88.779  172.948
  493.750    3.140    0.197    0.400   92.075  173.036
  494.000    3.090    0.195    0.408   88.028  173.123
  494.250    3.034    0.194    0.400   84.288  172.901
  494.500    2.941    0.193    0.396   82.933  172.891
  494.750    2.894    0.194    0.392   87.511  172.672
  495.000    2.913    0.200    0.391   90.134  172.349
  495.250    2.967    0.202    0.400   87.983  172.235
  495.500    3.014    0.201    0.407   85.650  172.217
  495.750    3.074    0.196    0.412   84.724  171.694
  496.000    3.124    0.206    0.407   85.144  171.168
  496.250    3.156    0.209    0.407   88.805  171.153
  496.500    3.200    0.197    0.408   91.428  170.937
  496.750    3.346    0.202    0.402   86.034  170.923
  497.000    3.570    0.206    0.399   88.168  170.806
  497.250    3.796    0.209    0.402   88.526  170.790
  497.500    4.153    0.192    0.409   85.335  170.775
  497.750    4.357    0.177    0.419   80.678  170.556
  498.000    4.748    0.157    0.434   75.409  170.646
  498.250    5.282    0.130    0.320   71.117  170.733
  498.500    5.921    0.095    0.300   71.598  170.818
  498.750    6.427    0.101    0.307   69.325  170.703
  499.000    4.460    0.120    0.310   63.994  170.379
  499.250    3.773    0.138    0.327   60.132  170.675
  499.500    2.803    0.208    0.360   61.652  170.554
  499.750    2.393    0.260    0.378   61.277  170.645
  500.000    2.432    0.295    0.384   61.023  170.733
  500.250    2.869    0.279    0.382   67.437  170.920
  500.500    3.283    0.238    0.389   72.078  170.907
  500.750    3.822    0.210    0.399   77.330  171.299
  501.000    4.277    0.192    0.406   81.910  171.591
  501.250    4.651    0.194    0.403   83.369  171.270
  501.500    5.353    0.203    0.393   75.469  171.153
  501.750    6.849    0.207    0.298   70.566  171.137
  502.000    8.064    0.178    0.258   64.133  170.816
  502.250    8.870    0.073    0.232   61.005  170.596
  502.500    6.713    0.042    0.213   70.723  170.279
  502.750    4.597    0.127    0.316   80.992  170.265
  503.000    3.696    0.196    0.356   84.041  168.517
  503.250    3.297    0.225    0.383   84.094  167.889
  503.500    3.060    0.234    0.401   82.494  167.468
  503.750    2.983    0.236    0.407   79.855  166.944
  504.000    3.025    0.232    0.400   74.646  166.419
  504.250    3.265    0.176    0.387   72.069  166.404
