~VERSION INFORMATION
 VERS.                 2.0:   CWLS LOG ASCII STANDARD -VERSION 2.0
 WRAP.                  NO:   ONE LINE PER DEPTH STEP
~WELL INFORMATION BLOCK
#MNEM.UNIT           DATA                    DESCRIPTION OF MNEMONIC
#---------    -------------------            -------------------------------
# Generated from Intellog Unique Number	CW_70_72/WELL/3036
NULL.         -999.25                        : NULL_VALUE
WELL.         MANNVILLE ET AL DECRENE 15-36  : Well_name    - WELL              
LOC .         15-36-070-02W5                 : Location     - LOCATION          
UWI .         00/15-36-070-02W5/0            : Uwi          - UNIQUE WELL ID    
ENTR.         JAYE                           : Entered      - ENTERED BY        
SRVC.         SCHLUMBERGER                   : Scn          - SERVICE COMPANY   
DATE.         2 MAR 84                       : Date         - LOG DATE          
STRT.M        400                            : top_depth    - START DEPTH       
STOP.M        630                            : bot_depth    - STOP DEPTH        
STEP.M        0.25                           : increment    - STEP LENGTH       
~CURVE INFORMATION BLOCK
#MNEM UNIT       ERCB CURVE CODE    CURVE DESCRIPTION
#-----------   ------------------   ----------------------------------
DEPT.M        00 001 00 00         : DEPTH        - DEPTH                       
ILD .OHMM     00 120 00 00         : RESD         - DEEP RESISTIVITY (DIL)      
CALI.MM       00 280 01 00         : CAL          - CALIPER                     
GR  .API      00 310 00 00         : GR           - GAMMA RAY                   
NPHI.V/V      00 330 00 00         : PHIN         - NEUTRON POROSITY (SANDSTONE)
DPHI.V/V      00 890 00 00         : PHID         - DENSITY POROSITY (SANDSTONE)
~PARAMETER INFORMATION       
#MNEM.UNIT           DATA             DESCRIPTION OF MNEMONIC
#---------         -----------     ------------------------------
GL  .M        591.5                : gl           - GROUND LEVEL ELEVATION      
EREF.M        595                  : kb           - ELEVATION OF DEPTH REFERENCE
DATM.M        591.5                : datum        - DATUM ELEVATION             
TDD .M        640                  : tdd          - TOTAL DEPTH DRILLER         
RUN .         ONE                  : Run          - RUN NUMBER                  
ENG .         PIERAOCL             : Engineer     - RECORDING ENGINEER          
WIT .         LYSZKIEWICZ          : Witness      - WITNESSED BY                
BASE.         EDM                  : Branch       - HOME BASE OF LOGGING UNIT   
MUD .         GEL CHEM             : Mud_type     - MUD TYPE                    
MATR.         SANDSTONE            : Logunit      - NEUTRON MATRIX              
TMAX.C        28                   : BHT          - MAXIMUM RECORDED TEMPERATURE
BHTD.M        641                  : BHTDEP       - MAXIMUM RECORDED TEMPERATURE
RMT .C        20                   : MDTP         - TEMPERATURE OF MUD          
MUDD.KG/M     1100                 : MWT          - MUD DENSITY                 
NEUT.         1                    : NEUTRON      - NEUTRON TYPE                
RESI.         0                    : RESIST       - RESISTIVITY TYPE            
RM  .OHMM     2.86                 : RM           - RESISTIVITY OF MUD          
RMC .OHMM     0.25                 : RMC          - RESISTIVITY OF MUD CAKE     
RMF .OHMM     4.03                 : RMF          - RESISTIVITY OF MUD FILTRATE 
SUFT.C        0                    : SUFT         - SURFACE TEMPERATURE         
~A  DEPTH     RESD      CAL       GR     PHIN     PHID
# ...
  582.500    4.782  171.023   95.325    0.325    0.079
  582.750    3.904  171.057   99.242    0.343    0.124
  583.000    3.254  172.844  103.839    0.437    0.175
  583.250    2.822  176.485  103.919    0.476    0.195
  583.500    2.439  178.790  103.197    0.508    0.186
  583.750    2.234  177.380  105.198    0.455    0.142
  584.000    2.170  173.187  107.876    0.438    0.103
  584.250    2.252  170.131  116.120    0.431    0.108
  584.500    2.511  170.067  112.617    0.419    0.120
  584.750    2.691  170.297  103.299    0.430    0.114
  585.000    2.867  170.539   92.683    0.463    0.061
  585.250    3.090  170.159   84.480    0.396   -0.003
  585.500    3.459  170.201   85.055    0.353    0.018
  585.750    3.893  170.433   94.475    0.327    0.087
  586.000    4.348  170.266   98.211    0.338    0.076
  586.250    5.409  170.293   98.971    0.347    0.079
  586.500    6.077  171.049   98.988    0.339    0.088
  586.750    6.416  171.804   99.195    0.322    0.057
  587.000    6.459  171.123  100.698    0.325    0.079
  587.250    6.393  170.738  101.275    0.327    0.094
  587.500    6.234  170.470   96.843    0.344    0.106
  587.750    6.101  170.814   98.163    0.365    0.111
  588.000    6.085  170.944  103.314    0.363    0.114
  588.250    6.197  170.992  106.863    0.323    0.105
  588.500    6.667  171.021  104.159    0.333    0.068
  588.750    7.363  171.149   96.143    0.334    0.044
  589.000    8.102  170.770   89.854    0.260    0.003
  589.250    8.551  171.113   82.887    0.235    0.026
  589.500    8.561  171.253   92.122    0.278    0.065
  589.750    8.347  171.601   97.583    0.330    0.100
  590.000    8.598  171.624   89.130    0.285   -0.006
  590.250    8.972  171.247   80.617    0.247   -0.001
  590.500    9.525  170.977   84.659    0.244    0.039
  590.750    8.498  173.171   96.116    0.280    0.074
  591.000    6.938  174.959  108.380    0.370    0.105
  591.250    6.017  174.060  107.534    0.413    0.119
  591.500    5.544  171.209   97.353    0.380    0.120
  591.750    5.376  169.593   98.361    0.337    0.111
  592.000    5.464  168.906  104.380    0.364    0.102
  592.250    5.746  168.732   97.413    0.376    0.053
  592.500    6.157  169.080   89.087    0.355    0.030
  592.750    6.622  168.700   86.508    0.289    0.036
  593.000    7.164  168.529   93.086    0.300    0.100
  593.250    7.562  168.561   99.349    0.312    0.117
  593.500    7.877  168.812  101.719    0.331    0.087
  593.750    8.221  168.835   89.806    0.315    0.052
  594.000    8.404  168.980   78.756    0.263    0.024
  594.250    8.445  169.220   85.209    0.265    0.068
  594.500    8.066  169.250  101.305    0.293    0.087
  594.750    7.688  169.279  108.377    0.324    0.090
  595.000    7.231  169.622  110.684    0.343    0.090
  595.250    6.637  169.345  108.539    0.330    0.097
  595.500    5.956  169.076  105.902    0.338    0.106
  595.750    5.456  168.595  110.063    0.361    0.112
  596.000    4.777  168.318  120.966    0.381    0.121
  596.250    4.088  167.939  118.637    0.397    0.127
  596.500    3.546  167.662   99.119    0.409    0.119
  596.750    3.157  167.178   85.904    0.360    0.152
  597.000    2.806  166.180   62.365    0.346    0.196
  597.250    2.443  165.499   38.705    0.343    0.246
  597.500    2.247  165.526   37.368    0.337    0.260
  597.750    2.158  165.253   35.407    0.327    0.260
  598.000    2.173  165.283   34.992    0.313    0.262
  598.250    2.221  165.214   36.310    0.311    0.269
  598.500    2.240  165.566   36.148    0.322    0.264
  598.750    2.256  166.011   34.372    0.330    0.260
  599.000    2.238  166.040   34.826    0.329    0.255
  599.250    2.236  166.184   36.703    0.320    0.253
  599.500    2.251  166.209   37.772    0.310    0.255
  599.750    2.220  166.143   37.299    0.310    0.259
  600.000    2.226  166.382   36.392    0.315    0.263
  600.250    2.259  166.518   35.547    0.315    0.274
  600.500    2.287  166.659   35.565    0.325    0.282
  600.750    2.308  166.690   35.649    0.337    0.273
  601.000    2.305  166.414   35.361    0.335    0.256
  601.250    2.326  166.239   35.010    0.327    0.261
  601.500    2.337  166.066   36.638    0.321    0.268
  601.750    2.349  165.793   39.626    0.317    0.257
  602.000    2.365  165.520   39.708    0.326    0.252
  602.250    2.386  165.555   37.686    0.336    0.263
  602.500    2.407  165.587   37.582    0.327    0.248
  602.750    2.414  165.514   38.655    0.321    0.245
  603.000    2.412  165.861   37.747    0.323    0.265
  603.250    2.384  165.997   37.334    0.330    0.269
  603.500    2.400  166.137   39.211    0.339    0.263
  603.750    2.463  166.372   42.444    0.342    0.254
  604.000    2.488  166.613   44.136    0.333    0.253
  604.250    2.468  166.644   41.869    0.327    0.250
  604.500    2.476  166.471   40.466    0.329    0.245
  604.750    2.521  166.505   39.681    0.338    0.241
  605.000    2.563  166.231   38.344    0.326    0.240
  605.250    2.595  166.474   38.732    0.322    0.241
  605.500    2.637  166.716   39.556    0.329    0.238
  605.750    2.686  166.644   38.588    0.335    0.242
  606.000    2.709  166.369   40.034    0.325    0.242
  606.250    2.748  165.892   41.165    0.331    0.235
  606.500    2.788  165.314   41.864    0.312    0.230
  606.750    2.850  165.022   45.846    0.297    0.226
  607.000    2.902  164.857   48.337    0.301    0.221
  607.250    2.961  165.097   49.964    0.309    0.216
  607.500    3.056  165.441   48.130    0.308    0.210
  607.750    3.112  165.475   48.770    0.310    0.205
  608.000    3.150  165.711   49.345    0.319    0.199
  608.250    3.178  165.638   50.355    0.335    0.185
  608.500    3.212  165.568   52.166    0.330    0.179
  608.750    3.271  165.604   54.414    0.332    0.193
  609.000    3.363  165.641   55.856    0.325    0.190
  609.250    3.570  165.878   58.042    0.311    0.195
  609.500    3.811  165.706   59.544    0.307    0.195
  609.750    4.099  165.740   60.804    0.305    0.170
  610.000    4.434  165.772   61.627    0.298    0.143
  610.250    4.770  166.224   62.575    0.305    0.144
  610.500    5.073  166.259   63.893    0.299    0.169
  610.750    5.304  166.595   66.079    0.293    0.170
  611.000    5.536  167.152   69.250    0.295    0.159
  611.250    5.670  167.079   64.759    0.296    0.151
  611.500    5.697  166.809   63.047    0.299    0.160
  611.750    5.683  166.627   69.131    0.303    0.163
  612.000    5.637  166.460   71.807    0.309    0.155
  612.250    5.643  166.486   74.607    0.303    0.153
  612.500    5.703  166.316   76.545    0.294    0.173
  612.750    5.753  166.147   74.834    0.295    0.168
  613.000    5.803  165.975   73.804    0.301    0.147
  613.250    5.910  165.697   75.061    0.309    0.123
  613.500    6.019  165.629   74.710    0.310    0.124
  613.750    6.222  165.555   71.144    0.301    0.140
  614.000    6.494  166.316   68.508    0.293    0.142
  614.250    6.867  167.788   65.123    0.289    0.131
  614.500    7.290  169.574   71.451    0.285    0.120
  614.750    7.856  170.019   72.400    0.283    0.095
  615.000    8.483  169.228   62.959    0.268    0.061
  615.250    9.386  168.953   54.074    0.235    0.034
  615.500   10.488  168.473   52.117    0.230    0.081
  615.750   11.026  167.886   56.094    0.262    0.100
  616.000   11.399  167.714   63.843    0.299    0.114
  616.250   11.326  167.543   71.345    0.313    0.126
  616.500   10.535  167.062   76.127    0.324    0.145
  616.750    9.596  165.964   73.365    0.314    0.162
  617.000    9.791  165.581   70.232    0.307    0.171
  617.250   10.393  165.725   71.305    0.309    0.162
  617.500   11.307  166.586   74.476    0.311    0.154
  617.750   11.691  167.128   73.198    0.312    0.165
  618.000   11.122  167.572   71.672    0.313    0.183
  618.250   10.018  167.816   78.804    0.319    0.180
  618.500    9.388  167.850   87.605    0.324    0.145
  618.750    9.240  167.878   83.854    0.318    0.126
