~VERSION INFORMATION
 VERS.                 2.0:   CWLS LOG ASCII STANDARD -VERSION 2.0
 WRAP.                  NO:   ONE LINE PER DEPTH STEP
~WELL INFORMATION BLOCK
#MNEM.UNIT           DATA                    DESCRIPTION OF MNEMONIC
#---------    -------------------            -------------------------------
# Generated from Intellog Unique Number	CW_73_75/WELL/2738
WELL.         MANNVILLE ET AL FAWCETT 10-05  : Well_name    - WELL
LOC .         00/10-05-073-01W5/0            : Location     - LOCATION
UWI .         00/10-05-073-01W5/0            : Uwi          - UNIQUE WELL ID
ENTR.         JAYE                           : Entered      - ENTERED BY
SRVC.         SCHLUMBERGER                   : Scn          - SERVICE COMPANY
DATE.         20 NOV 77                      : Date         - LOG DATE
STRT.M        426.72                         : top_depth    - START DEPTH
STOP.M        685.72                         : bot_depth    - STOP DEPTH
STEP.M        0.25                           : increment    - STEP LENGTH
 NULL. -999.2500:NULL Value
~CURVE INFORMATION BLOCK
#MNEM UNIT       ERCB CURVE CODE    CURVE DESCRIPTION
#-----------   ------------------   ----------------------------------
DEPT.M        00 001 00 00         : DEPTH        - DEPTH
DPHI.V/V      00 890 00 00         : PHID         - DENSITY POROSITY (SANDSTONE)
NPHI.V/V      00 330 00 00         : PHIN         - NEUTRON POROSITY (SANDSTONE)
GR  .API      00 310 00 00         : GR           - GAMMA RAY
CALI.MM       00 280 01 00         : CAL          - CALIPER
ILD .OHMM     00 120 00 00         : RESD         - DEEP RESISTIVITY (DIL)
~PARAMETER INFORMATION
#MNEM.UNIT           DATA             DESCRIPTION OF MNEMONIC
#---------         -----------     ------------------------------
GL  .M        635.203              : gl           - GROUND LEVEL ELEVATION
EREF.M        638.251              : kb           - ELEVATION OF DEPTH REFERENCE
DATM.M        635.203              : datum        - DATUM ELEVATION
TDD .M        694.944              : tdd          - TOTAL DEPTH DRILLER
RUN .         ONE                  : Run          - RUN NUMBER
ENG .         KUBICA/RIVOLLIER     : Engineer     - RECORDING ENGINEER
WIT .         WOOLLEY              : Witness      - WITNESSED BY
BASE.         EDM                  : Branch       - HOME BASE OF LOGGING UNIT
MUD .         GEL                  : Mud_type     - MUD TYPE
MATR.         SANDSTONE            : Logunit      - NEUTRON MATRIX
TMAX.C        21.1111              : BHT          - MAXIMUM RECORDED TEMPERATURE
BHTD.M        694.944              : BHTDEP       - MAXIMUM RECORDED TEMPERATURE
RMT .C        11.1111              : MDTP         - TEMPERATURE OF MUD
MUDD.KG/M     1116                 : MWT          - MUD DENSITY
NEUT.         1                    : NEUTRON      - NEUTRON TYPE
RESI.         0                    : RESIST       - RESISTIVITY TYPE
RM  .OHMM     3.89                 : RM           - RESISTIVITY OF MUD
RMC .OHMM     0                    : RMC          - RESISTIVITY OF MUD CAKE
RMF .OHMM     5.51                 : RMF          - RESISTIVITY OF MUD FILTRATE
SUFT.C        -17.7778             : SUFT         - SURFACE TEMPERATURE
~A  DEPTH     PHID     PHIN       GR      CAL     RESD
# ...
  536.220    0.267    0.432   88.678  162.435    3.238
  536.470    0.250    0.420   88.722  162.815    3.256
  536.720    0.233    0.404   90.261  163.314    3.331
  536.970    0.230    0.403   91.112  163.921    3.415
  537.220    0.244    0.411   89.596  163.885    3.480
  537.470    0.258    0.402   86.644  163.630    3.581
  537.720    0.253    0.391   78.520  163.274    3.771
  537.970    0.262    0.407   78.065  163.240    3.977
  538.220    0.250    0.410   77.670  162.359    4.195
  538.470    0.253    0.389   76.343  162.430    4.459
  538.720    0.236    0.374   74.698  162.505    4.813
  538.970    0.215    0.339   71.001  165.956    5.355
  539.220    0.196    0.301   64.685  169.086    5.747
  539.470    0.156    0.324   64.730  171.578    5.542
  539.720    0.201    0.375   65.831  165.432    4.933
  539.970    0.226    0.407   65.557  162.540    4.476
  540.220    0.253    0.422   66.224  161.242    4.218
  540.470    0.271    0.412   67.824  160.780    3.931
  540.720    0.278    0.397   68.802  160.113    3.719
  540.970    0.273    0.378   67.409  159.762    3.607
  541.220    0.266    0.381   67.269  159.727    3.559
  541.470    0.263    0.378   67.928  159.804    3.525
  541.720    0.260    0.382   68.285  159.987    3.519
  541.970    0.273    0.396   67.891  160.257    3.518
  542.220    0.280    0.417   67.432  160.659    3.498
  542.470    0.287    0.414   67.909  160.930    3.478
  542.720    0.291    0.405   67.767  161.219    3.458
  542.970    0.278    0.399   64.129  161.507    3.458
  543.220    0.276    0.394   64.733  161.560    3.478
  543.470    0.280    0.386   65.587  161.745    3.511
  543.720    0.261    0.377   65.192  161.507    3.538
  543.970    0.249    0.375   65.233  161.356    3.565
  544.220    0.270    0.388   66.024  161.223    3.606
  544.470    0.258    0.392   66.878  160.872    3.606
  544.720    0.253    0.404   67.476  160.838    3.599
  544.970    0.250    0.402   66.834  160.700    3.571
  545.220    0.237    0.384   63.321  160.651    3.490
  545.470    0.249    0.380   63.614  160.731    3.385
  545.720    0.266    0.384   64.341  160.695    3.228
  545.970    0.258    0.398   64.194  160.764    3.101
  546.220    0.256    0.405   64.552  160.833    3.025
  546.470    0.278    0.402   65.590  160.691    3.019
  546.720    0.267    0.395   67.189  160.549    3.233
  546.970    0.246    0.384   68.417  160.730    3.618
  547.220    0.264    0.373   69.581  160.903    4.288
  547.470    0.241    0.356   69.869  162.875    5.453
  547.720    0.174    0.240   68.103  166.639    7.176
  547.970    0.066    0.144   58.796  170.509    9.231
  548.220    0.030    0.131   56.472  175.858   11.694
  548.470    0.012    0.121   57.325  176.246   14.314
  548.720    0.005    0.118   58.484  167.980   16.111
  548.970   -0.001    0.118   58.527  165.733   17.388
  549.220   -0.004    0.118   56.762  168.019   18.307
  549.470   -0.006    0.118   55.431  170.628   19.384
  549.720   -0.007    0.123   55.725  172.062   20.331
  549.970   -0.007    0.144   57.576  172.666   17.857
  550.220   -0.006    0.174   59.799  172.626   14.531
  550.470   -0.002    0.210   62.331  173.334   10.915
  550.720    0.131    0.285   65.307  173.832    9.158
  550.970    0.175    0.347   68.654  169.147    8.731
  551.220    0.268    0.370   70.809  161.619    8.865
  551.470    0.228    0.284   68.108  160.524   10.248
  551.720    0.099    0.206   64.788  160.602   14.668
  551.970    0.032    0.119   61.710  162.461   20.247
  552.220    0.015    0.102   55.083  166.863   25.601
  552.470   -0.006    0.100   54.064  169.677   28.705
  552.720   -0.016    0.102   57.291  169.859   29.764
  552.970   -0.022    0.108   61.067  169.513   27.055
  553.220   -0.020    0.116   66.346  169.681   23.991
  553.470   -0.010    0.131   72.186  169.963   20.991
  553.720    0.001    0.149   72.042  170.560   17.780
  553.970    0.025    0.165   71.148  170.645   15.147
  554.220    0.080    0.184   74.742  171.029   12.879
  554.470    0.100    0.216   81.081  173.626   10.050
  554.720    0.141    0.305   82.682  172.742    8.148
  554.970    0.191    0.363   85.093  164.478    6.480
  555.220    0.254    0.391   88.935  163.816    5.214
  555.470    0.247    0.395   88.478  163.472    4.275
  555.720    0.235    0.386   86.401  163.530    3.976
  555.970    0.219    0.375   87.505  163.707    3.984
  556.220    0.202    0.375   92.094  163.880    4.014
  556.470    0.181    0.384   97.190  163.967    4.014
  556.720    0.205    0.387   94.114  164.240    3.998
  556.970    0.223    0.395   90.725  164.199    3.983
  557.220    0.211    0.415   90.396  163.760    3.998
  557.470    0.202    0.430   90.000  163.724    4.013
  557.720    0.227    0.405   88.299  163.576    4.013
  557.970    0.207    0.395   89.832  163.426    4.013
  558.220    0.226    0.414   87.817  163.516    4.044
  558.470    0.223    0.418   90.852  163.482    4.067
  558.720    0.206    0.416   94.761  163.335    4.113
  558.970    0.194    0.408   96.919  163.400    4.177
  559.220    0.186    0.395   98.458  163.473    4.241
  559.470    0.163    0.377  100.868  163.863    4.322
  559.720    0.188    0.371  103.531  164.034    4.372
  559.970    0.195    0.378  104.319  164.749    4.439
  560.220    0.184    0.387  102.303  165.342    4.456
  560.470    0.178    0.396  102.908  166.036    4.464
  560.720    0.190    0.409  104.137  166.851    4.464
  560.970    0.186    0.412  105.610  168.190    4.472
  561.220    0.200    0.410  105.962  169.316    4.498
  561.470    0.214    0.405  104.383  170.025    4.524
  561.720    0.176    0.399  104.362  170.934    4.584
  561.970    0.152    0.400  105.469  172.384    4.610
  562.220    0.162    0.408  107.378  173.716    4.663
  562.470    0.168    0.399  110.412  174.316    4.699
  562.720    0.160    0.405  108.772  174.171    4.744
  562.970    0.161    0.428  105.387  172.770    4.789
  563.220    0.178    0.415   96.824  169.357    4.853
  563.470    0.190    0.405   90.256  167.204    4.918
  563.720    0.200    0.395   91.114  166.220    4.937
  563.970    0.180    0.391   96.013  165.984    4.994
  564.220    0.184    0.385  101.106  166.051    5.013
  564.470    0.180    0.401  102.769  166.435    4.993
  564.720    0.200    0.393  104.245  167.665    4.984
  564.970    0.180    0.389  106.466  170.902    4.984
  565.220    0.174    0.417  109.565  175.309    4.984
  565.470    0.180    0.421  111.169  179.492    4.983
  565.720    0.172    0.412  112.087  182.306    4.936
  565.970    0.152    0.413  112.619  184.490    4.936
  566.220    0.159    0.415  110.229  187.315    4.936
  566.470    0.177    0.411  106.914  188.862    5.030
  566.720    0.175    0.406  106.394  189.872    5.127
  566.970    0.173    0.396  106.053  190.159    5.256
  567.220    0.180    0.390  104.848  189.493    5.377
  567.470    0.191    0.404  101.961  189.359    5.523
  567.720    0.207    0.402   98.512  189.222    5.826
  567.970    0.189    0.398  102.171  189.173    5.926
  568.220    0.174    0.394  108.445  188.930    5.366
  568.470    0.163    0.402  112.666  188.579    5.020
  568.720    0.154    0.415  115.074  187.600    4.850
  568.970    0.153    0.423  117.048  186.615    4.767
  569.220    0.168    0.423  114.471  185.526    4.758
  569.470    0.177    0.418  107.785  184.007    4.749
  569.720    0.185    0.424  103.521  179.960    4.758
  569.970    0.196    0.432   93.530  171.375    4.785
  570.220    0.209    0.423   90.454  163.953    4.840
  570.470    0.217    0.414   90.682  163.388    4.933
  570.720    0.208    0.415   94.839  163.246    5.018
  570.970    0.191    0.408  101.986  164.796    5.124
  571.220    0.168    0.396  112.315  166.978    5.405
  571.470    0.143    0.402  118.402  168.631    6.107
  571.720    0.130    0.375  107.348  171.553    7.114
  571.970    0.104    0.291   86.509  173.218    8.592
  572.220    0.048    0.261   75.454  173.604   10.398
  572.470    0.054    0.242   69.824  173.459   12.535
