~VERSION INFORMATION
 VERS.                 2.0:   CWLS LOG ASCII STANDARD -VERSION 2.0
 WRAP.                  NO:   ONE LINE PER DEPTH STEP
~WELL INFORMATION BLOCK
#MNEM.UNIT           DATA                    DESCRIPTION OF MNEMONIC
#---------    -------------------            -------------------------------
# Generated from Intellog Unique Number	CX_WELLS/WELL/3924
WELL.         14-05-097-21W4                 : Well_name    - WELL
LOC .         00/14-05-097-21W4/0            : Location     - LOCATION
UWI .         00/14-05-097-21W4/0            : Uwi          - UNIQUE WELL ID
ENTR.         TIM                            : Entered      - ENTERED BY
SRVC.         SCHLUMBERGER                   : Scn          - SERVICE COMPANY
DATE.         08/11/92                       : Date         - LOG DATE
STRT.M        320.04                         : top_depth    - START DEPTH
STOP.M        503.04                         : bot_depth    - STOP DEPTH
STEP.M        0.25                           : increment    - STEP LENGTH
 NULL. -999.2500:NULL Value
~CURVE INFORMATION BLOCK
#MNEM UNIT       ERCB CURVE CODE    CURVE DESCRIPTION
#-----------   ------------------   ----------------------------------
DEPT.M        00 001 00 00         : DEPTH        - DEPTH
DPHI.V/V      00 890 00 00         : PHID         - DENSITY POROSITY (SANDSTONE)
GR  .API      00 310 00 00         : GR           - GAMMA RAY
ILD .OHMM     00 120 00 00         : RESD         - DEEP RESISTIVITY (DIL)
RHOB.KG/M3    00 350 00 00         : DENS         - BULK DENSITY
NPHI.V/V      00 330 00 00         : PHIN         - NEUTRON POROSITY (SANDSTONE)
~PARAMETER INFORMATION
#MNEM.UNIT           DATA             DESCRIPTION OF MNEMONIC
#---------         -----------     ------------------------------
GL  .M        330.5                : gl           - GROUND LEVEL ELEVATION
EREF.M        330.5                : kb           - ELEVATION OF DEPTH REFERENCE
DATM.M        330.5                : datum        - DATUM ELEVATION
TDD .M        518.16               : tdd          - TOTAL DEPTH DRILLER
RUN .         ONE                  : Run          - RUN NUMBER
ENG .         BILL                 : Engineer     - RECORDING ENGINEER
WIT .         JIM                  : Witness      - WITNESSED BY
MUD .         GEL                  : Mud_type     - MUD TYPE
MATR.         SANDSTONE            : Logunit      - NEUTRON MATRIX
TMAX.C        0                    : BHT          - MAXIMUM RECORDED TEMPERATURE
BHTD.M        518.16               : BHTDEP       - MAXIMUM RECORDED TEMPERATURE
RMT .C        0                    : MDTP         - TEMPERATURE OF MUD
MUDD.KG/M     0                    : MWT          - MUD DENSITY
NEUT.         1                    : NEUTRON      - NEUTRON TYPE
RESI.         0                    : RESIST       - RESISTIVITY TYPE
RM  .OHMM     0                    : RM           - RESISTIVITY OF MUD
RMC .OHMM     0                    : RMC          - RESISTIVITY OF MUD CAKE
RMF .OHMM     0                    : RMF          - RESISTIVITY OF MUD FILTRATE
SUFT.C        4                    : SUFT         - SURFACE TEMPERATURE
~A  DEPTH     PHID       GR     RESD     DENS     PHIN
  320.040    0.296   79.622    4.846 2160.950    0.507
  320.290    0.302   80.422    4.846 2150.930    0.531
  320.540    0.307   80.416    4.845 2142.890    0.534
  320.790    0.305   77.576    4.924 2146.780    0.534
  321.040    0.299   75.138    4.924 2156.630    0.542
  321.290    0.287   73.515    5.083 2176.420    0.560
  321.540    0.276   71.081    5.083 2194.220    0.526
  321.790    0.267   69.052    5.082 2210.030    0.500
  322.040    0.252   67.022    5.400 2233.790    0.481
  322.290    0.231   66.206    5.717 2269.470    0.468
  322.540    0.287   74.282    5.797 2175.990    0.468
  322.790    0.293   77.101    5.399 2165.970    0.526
  323.040    0.283   77.497    4.763 2183.750    0.543
  323.290    0.281   77.488    4.048 2185.670    0.543
  323.540    0.284   77.075    4.524 2181.590    0.542
  323.790    0.286   76.663    4.683 2177.530    0.542
  324.040    0.289   77.058    4.762 2173.480    0.538
  324.290    0.294   77.050    4.762 2165.420    0.529
  324.540    0.293   76.233    4.841 2167.340    0.526
  324.790    0.283   74.610    5.000 2183.160    0.521
  325.040    0.278   74.195    5.079 2191.000    0.516
  325.290    0.277   74.591    5.000 2192.900    0.522
  325.540    0.272   72.967    4.920 2200.760    0.528
  325.790    0.276   71.744    4.919 2194.720    0.534
  326.040    0.281   75.375    4.919 2186.710    0.500
  326.290    0.323   76.577    5.157 2117.080    0.509
  326.540    0.351   72.125    5.713 2071.270    0.515
  326.790    0.356   67.670    6.349 2063.240    0.515
  327.040    0.323   66.045    6.984 2116.800    0.530
  327.290    0.318   70.078    6.586 2124.660    0.553
  327.540    0.320   71.282    5.792 2122.590    0.514
  327.790    0.328   71.678    4.838 2108.600    0.514
  328.040    0.335   72.071    4.044 2096.570    0.534
  328.290    0.331   73.273    3.249 2104.450    0.548
  328.540    0.323   73.673    3.090 2116.290    0.578
  328.790    0.319   74.069    3.328 2124.150    0.588
  329.040    0.318   74.060    3.725 2126.060    0.524
  329.290    0.319   74.052    4.440 2123.980    0.500
  329.540    0.325   74.043    5.154 2113.940    0.496
  329.790    0.335   72.816    5.154 2097.980    0.504
  330.040    0.339   72.407    4.677 2089.930    0.513
  330.290    0.318   71.590    4.121 2125.630    0.529
  330.540    0.318   71.177    3.406 2125.500    0.535
  330.790    0.325   72.379    3.088 2113.520    0.534
  331.040    0.334   73.583    2.929 2099.500    0.536
  331.290    0.329   74.787    2.849 2107.390    0.542
  331.540    0.296   76.797    2.769 2160.910    0.545
  331.790    0.276   77.602    2.610 2194.620    0.547
  332.040    0.270   77.593    2.451 2204.470    0.548
  332.290    0.259   75.561    2.689 2222.290    0.544
  332.540    0.241   74.340    3.086 2252.030    0.534
  332.790    0.212   74.738    3.642 2299.640    0.529
  333.040    0.174   76.748    4.356 2363.110    0.495
  333.290    0.152   73.508    4.753 2398.800    0.470
  333.540    0.140   67.033    5.230 2418.600    0.425
  333.790    0.123   69.450    6.103 2446.330    0.376
  334.040    0.139   74.289    6.977 2420.420    0.379
  334.290    0.174   75.091    7.692 2362.710    0.377
  334.540    0.209   75.487    7.850 2304.980    0.379
  334.790    0.216   73.861    7.771 2292.950    0.383
  335.040    0.227   72.236    7.532 2275.010    0.389
  335.290    0.235   72.227    7.452 2263.000    0.387
  335.540    0.232   73.431    7.373 2266.890    0.377
  335.790    0.221   73.421    7.372 2284.670    0.376
  336.040    0.223   72.202    7.293 2282.590    0.379
  336.290    0.226   70.172    7.293 2276.550    0.404
  336.540    0.232   68.545    7.372 2266.530    0.413
  336.790    0.238   68.134    7.451 2256.530    0.396
  337.040    0.241   66.105    7.451 2252.430    0.380
  337.290    0.236   64.071    7.450 2260.310    0.377
  337.540    0.234   63.257    7.530 2264.200    0.388
  337.790    0.229   62.438    7.609 2272.070    0.387
  338.040    0.222   62.837    7.847 2283.900    0.385
  338.290    0.221   64.847    7.847 2285.800    0.384
  338.540    0.226   66.052    7.767 2277.770    0.387
  338.790    0.233   65.639    7.608 2265.770    0.390
  339.040    0.240   61.993    7.290 2253.740    0.390
  339.290    0.246   68.855    6.972 2243.740    0.390
  339.540    0.255   71.272    6.972 2229.740    0.390
  339.790    0.262   71.665    6.892 2217.740    0.397
  340.040    0.278   70.040    6.494 2191.800    0.418
  340.290    0.292   68.819    6.177 2167.870    0.458
  340.540    0.308   68.002    5.779 2141.960    0.475
  340.790    0.319   67.993    5.461 2123.990    0.496
  341.040    0.326   69.197    5.223 2111.960    0.506
  341.290    0.326   69.999    4.905 2111.880    0.534
  341.540    0.326   71.605    4.428 2111.790    0.543
  341.790    0.327   73.213    3.951 2109.720    0.541
  342.040    0.325   72.396    3.633 2113.610    0.534
  342.290    0.320   71.582    3.474 2121.470    0.544
  342.540    0.310   69.550    3.315 2139.270    0.549
  342.790    0.296   67.927    3.155 2161.040    0.538
  343.040    0.278   65.087    2.996 2190.780    0.498
  343.290    0.268   62.249    2.917 2208.580    0.473
  343.540    0.263   60.626    3.155 2216.440    0.432
  343.790    0.252   58.193    3.313 2234.240    0.414
  344.040    0.239   54.951    3.551 2255.990    0.410
  344.290    0.230   54.538    6.173 2269.840    0.407
  344.540    0.222   57.358    6.252 2283.660    0.398
  344.790    0.246   59.369    6.331 2243.820    0.399
  345.040    0.253   58.148    6.331 2231.790    0.410
  345.290    0.250   56.525    6.251 2237.680    0.421
  345.540    0.245   55.708    6.012 2245.550    0.420
  345.790    0.243   56.103    5.933 2249.440    0.419
  346.040    0.254   55.691    5.774 2231.470    0.423
  346.290    0.266   54.874    5.535 2211.510    0.427
  346.540    0.280   54.461    5.217 2187.590    0.435
  346.790    0.307   55.261    4.899 2143.770    0.467
  347.040    0.318   56.869    4.343 2125.800    0.494
  347.290    0.330   60.902    4.025 2105.840    0.494
  347.540    0.342   63.319    3.866 2085.890    0.485
  347.790    0.300   62.906    3.945 2155.350    0.475
  348.040    0.284   60.470    4.024 2181.090    0.484
  348.290    0.281   59.249    4.183 2186.950    0.488
  348.540    0.272   58.026    4.262 2200.790    0.454
  348.790    0.264   57.613    4.103 2214.600    0.419
  349.040    0.264   57.607    3.864 2214.490    0.404
  349.290    0.266   57.598    3.705 2210.470    0.390
  349.540    0.272   57.587    3.705 2200.430    0.398
  349.790    0.279   58.387    4.102 2190.430    0.420
  350.040    0.285   59.995    4.578 2180.390    0.430
  350.290    0.285   61.603    4.737 2180.270    0.440
  350.540    0.285   63.209    4.657 2180.240    0.449
  350.790    0.284   62.395    4.975 2182.130    0.456
  351.040    0.276   60.769    5.213 2193.980    0.456
  351.290    0.261   59.955    4.895 2219.730    0.449
  351.540    0.248   59.946    4.497 2241.500    0.429
  351.790    0.236   59.129    4.259 2261.290    0.401
  352.040    0.222   58.312    4.418 2283.060    0.382
  352.290    0.210   58.708    4.576 2302.840    0.365
  352.540    0.179   61.122    4.655 2354.420    0.378
  352.790    0.145   63.539    5.052 2409.970    0.391
  353.040    0.135   65.957    6.403 2427.770    0.407
  353.290    0.150   67.161    7.276 2401.850    0.418
  353.540    0.179   67.153    5.687 2354.080    0.402
  353.790    0.196   66.736    4.813 2326.180    0.394
  354.040    0.217   66.727    4.574 2292.290    0.397
  354.290    0.230   66.319    4.495 2270.350    0.409
  354.540    0.241   65.502    5.051 2252.380    0.463
  354.790    0.247   63.470    5.050 2242.360    0.466
  355.040    0.254   61.441    4.573 2230.360    0.463
  355.290    0.262   59.816    4.176 2218.350    0.481
  355.540    0.273   59.001    3.540 2200.340    0.501
  355.790    0.281   57.778    3.858 2186.350    0.498
  356.040    0.288   56.963    3.301 2174.360    0.479
  356.290    0.304   55.742    2.586 2148.440    0.474
