~VERSION INFORMATION
 VERS.                 2.0:   CWLS LOG ASCII STANDARD -VERSION 2.0
 WRAP.                  NO:   ONE LINE PER DEPTH STEP
~WELL INFORMATION BLOCK
#MNEM.UNIT           DATA                    DESCRIPTION OF MNEMONIC
#---------    -------------------            -------------------------------
# Generated from Intellog Unique Number	CC_80_83/WELL/2400
NULL.         -999.25                        : NULL_VALUE
WELL.         AMOCO HANGINGSTONE             : Well_name    - WELL
LOC .         11-17-083-09W4                 : Location     - LOCATION          
UWI .         00/11-17-083-09W400            : Uwi          - UNIQUE WELL ID    
ENTR.         DW                             : Entered      - ENTERED BY        
SRVC.         WELEX                          : Scn          - SERVICE COMPANY   
DATE.         28 FEB 74                      : Date         - LOG DATE
STRT.M        259.08                         : top_depth    - START DEPTH       
STOP.M        493.783                        : bot_depth    - STOP DEPTH        
STEP.M        0.305                          : increment    - STEP LENGTH       
~CURVE INFORMATION BLOCK
#MNEM UNIT       ERCB CURVE CODE    CURVE DESCRIPTION
#-----------   ------------------   ----------------------------------
DEPT.M        00 001 00 00         : DEPTH        - DEPTH                       
ILD .OHMM     00 120 00 00         : RESD         - DEEP RESISTIVITY (DIL)      
GR  .API      00 310 00 00         : GR           - GAMMA RAY                   
NPHI.V/V      00 330 00 00         : PHIN         - NEUTRON POROSITY (LIMESTONE)
DPHI.V/V      00 890 00 00         : PHID         - DENSITY POROSITY (LIMESTONE)
~PARAMETER INFORMATION       
#MNEM.UNIT           DATA             DESCRIPTION OF MNEMONIC
#---------         -----------     ------------------------------
GL  .M        730.27               : gl           - GROUND LEVEL ELEVATION      
EREF.M        733.471              : kb           - ELEVATION OF DEPTH REFERENCE
DATM.M        733.471              : datum        - DATUM ELEVATION             
TDD .M        502.615              : tdd          - TOTAL DEPTH DRILLER         
RUN .         ONE                  : Run          - RUN NUMBER                  
ENG .         BILL                 : Engineer     - RECORDING ENGINEER          
WIT .         JIM                  : Witness      - WITNESSED BY                
MUD .         GEL                  : Mud_type     - MUD TYPE                    
MATR.         LIMESTONE            : Logunit      - NEUTRON MATRIX              
TMAX.C        21.6667              : BHT          - MAXIMUM RECORDED TEMPERATURE
BHTD.M        502.006              : BHTDEP       - MAXIMUM RECORDED TEMPERATURE
MATR.         1                    : LOGUNIT      - NEUTRON MATRIX              
RMT .C        25                   : MDTP         - TEMPERATURE OF MUD          
NEUT.         1                    : NEUTRON      - NEUTRON TYPE                
RESI.         0                    : RESIST       - RESISTIVITY TYPE            
RMC .OHMM     0.25                 : RMC          - RESISTIVITY OF MUD CAKE     
RMF .OHMM     0.25                 : RMF          - RESISTIVITY OF MUD FILTRATE 
SUFT.C        15                   : SUFT         - SURFACE TEMPERATURE         
~A  DEPTH     RESD       GR     PHIN     PHID
# ...
  418.191    4.259  102.299    0.508    0.215
  418.495    4.341  104.159    0.489    0.215
  418.800    4.771  102.320    0.473    0.215
  419.105    5.445   98.015    0.469    0.217
  419.410    6.573   91.244    0.463    0.220
  419.715    7.789   84.473    0.469    0.226
  420.019    8.560   86.337    0.473    0.225
  420.324    9.062   88.197    0.463    0.218
  420.629    8.898   86.974    0.459    0.191
  420.934    9.072   80.206    0.452    0.184
  421.239    9.785   80.213    0.435    0.174
  421.543   10.554   79.609    0.421    0.152
  421.848   11.384   74.689    0.401    0.118
  422.153   11.607   72.849    0.383    0.105
  422.458   11.395   80.876    0.449    0.135
  422.763   10.981   92.602    0.463    0.172
  423.068   10.000  104.946    0.469    0.177
  423.372    7.691  105.572    0.468    0.180
  423.677    6.874  108.668    0.465    0.190
  423.982    6.380  103.131    0.463    0.194
  424.287    6.264  101.909    0.463    0.188
  424.592    6.267  103.154    0.471    0.179
  424.896    6.634  103.782    0.474    0.173
  425.201    7.024  103.792    0.475    0.172
  425.506    7.158  101.337    0.495    0.190
  425.811    6.645   98.267    0.499    0.222
  426.116    5.938   93.344    0.503    0.234
  426.420    4.004   87.188    0.502    0.252
  426.725    3.447   82.884    0.486    0.255
  427.030    3.322   89.679    0.464    0.241
  427.335    3.516   93.389    0.459    0.220
  427.640    3.864   90.935    0.461    0.201
  427.944    4.754   88.480    0.468    0.199
  428.249    5.425   88.493    0.470    0.197
  428.554    5.963   86.037    0.466    0.191
  428.859    5.967   84.814    0.463    0.184
  429.164    5.857   86.059    0.472    0.186
  429.469    5.539   89.770    0.477    0.201
  429.773    4.423   96.562    0.492    0.201
  430.078    3.880  100.273    0.499    0.192
  430.383    3.956   93.504    0.479    0.187
  430.688    4.109   87.351    0.458    0.197
  430.993    4.689   84.894    0.458    0.187
  431.297    5.351   85.520    0.463    0.187
  431.602    5.664   91.697    0.488    0.196
  431.907    5.562  101.573    0.504    0.227
  432.212    5.065  104.669    0.511    0.230
  432.517    3.970  108.996    0.515    0.229
  432.821    3.482  111.475    0.516    0.226
  433.126    3.356  110.253    0.517    0.225
  433.431    3.357  106.566    0.517    0.223
  433.736    3.487  101.643    0.510    0.214
  434.041    3.555   97.954    0.505    0.208
  434.345    3.557   95.502    0.494    0.193
  434.650    3.559   93.661    0.488    0.178
  434.955    3.839   95.523    0.489    0.172
  435.260    3.988   97.382    0.496    0.170
  435.565    4.301   96.160    0.504    0.172
  435.870    4.554  101.106    0.495    0.177
  436.174    4.641  107.284    0.486    0.216
  436.479    4.473  110.376    0.481    0.215
  436.784    4.230  111.623    0.481    0.211
  437.089    4.232  110.401    0.483    0.211
  437.394    4.315  105.479    0.494    0.214
  437.698    4.567   90.693    0.481    0.222
  438.003    4.925   87.003    0.464    0.236
  438.308    5.837   83.314    0.448    0.257
  438.613    6.661   75.926    0.443    0.269
  438.918    7.600   72.240    0.436    0.276
  439.222    8.838   74.100    0.429    0.275
  439.527    9.899   80.894    0.439    0.254
  439.832   10.880   87.687    0.444    0.248
  440.137   11.736   90.784    0.432    0.244
  440.442   11.962   90.181    0.421    0.230
  440.746   11.315   89.573    0.414    0.211
  441.051   11.110   88.970    0.417    0.195
  441.356   11.114   88.980    0.437    0.184
  441.661   11.548   90.223    0.444    0.178
  441.966   11.552   95.781    0.449    0.189
  442.271   11.132  106.276    0.449    0.186
  442.575   10.727   94.571    0.434    0.168
  442.880   10.531   85.335    0.422    0.148
  443.185   10.339   88.430    0.418    0.155
  443.490   10.345   90.908    0.424    0.202
  443.795   10.547   89.686    0.430    0.191
  444.099   10.553   87.850    0.431    0.175
  444.404   10.557   87.864    0.435    0.182
  444.709   10.564   88.487    0.441    0.186
  445.014   10.570   91.578    0.445    0.182
  445.319   10.377   97.757    0.452    0.166
  445.623   10.000   95.917    0.453    0.158
  445.928   10.390   90.381    0.452    0.160
  446.233   10.590   87.312    0.452    0.167
  446.538   11.424   84.859    0.462    0.182
  446.843   12.090   84.865    0.457    0.194
  447.147   13.541   83.642    0.446    0.199
  447.452   14.606   78.721    0.430    0.199
  447.757   14.892   83.668    0.432    0.194
  448.062   14.349   87.378    0.446    0.187
  448.367   13.569   88.004    0.452    0.176
  448.672   12.594   93.566    0.451    0.176
  448.976   12.367   95.425    0.448    0.194
  449.281   12.607   91.737    0.446    0.200
  449.586   13.344   72.635    0.428    0.204
  449.891   14.664   67.714    0.421    0.203
  450.196   17.054   66.493    0.422    0.204
  450.500   19.832   73.287    0.420    0.204
  450.805   20.989   81.928    0.422    0.210
  451.110   23.071   79.473    0.423    0.214
  451.415   24.422   65.920    0.418    0.222
  451.720   25.852   62.234    0.418    0.233
  452.024   25.866   64.094    0.422    0.219
  452.329   24.460   71.505    0.429    0.210
  452.634   22.702   79.531    0.418    0.206
  452.939   21.872   79.542    0.405    0.204
  453.244   20.300   74.621    0.400    0.199
  453.548   19.194   72.781    0.403    0.188
  453.853   18.151   81.426    0.413    0.178
  454.158   16.225   84.520    0.429    0.161
  454.463   13.967   88.847    0.434    0.173
  454.768   12.023   95.640    0.445    0.183
  455.073   10.547  104.284    0.454    0.181
  455.377    9.975  100.598    0.453    0.183
  455.682   10.363   95.676    0.448    0.183
  455.987   10.562   91.374    0.445    0.176
  456.292   10.975   91.999    0.444    0.162
  456.597   10.978   96.943    0.446    0.158
  456.901   10.985   97.572    0.452    0.154
  457.206    9.635   91.166    0.428    0.170
  457.511   10.200   91.159    0.431    0.171
  457.816   10.798   96.064    0.445    0.168
  458.121   11.008   99.745    0.446    0.164
  458.425   11.010  102.808    0.442    0.163
  458.730   10.606  104.033    0.440    0.168
  459.035   11.228  104.027    0.437    0.176
  459.340   11.663   99.106    0.435    0.186
  459.645   12.345   84.974    0.434    0.203
  459.949   13.318   80.053    0.434    0.218
  460.254   14.367   78.819    0.435    0.215
  460.559   15.499   78.195    0.442    0.211
  460.864   16.099   78.192    0.440    0.210
  461.169   16.723   76.957    0.437    0.211
  461.474   17.705   74.493    0.435    0.211
  461.778   18.047   72.644    0.435    0.209
  462.083   17.715   71.411    0.436    0.198
  462.388   16.744   74.476    0.440    0.191
  462.693   14.400   88.597    0.442    0.184
  462.998   13.107   92.275    0.443    0.184
  463.302   13.361   91.041    0.432    0.193
  463.607   14.689   79.979    0.422    0.205
  463.912   16.456   71.374    0.415    0.219
  464.217   16.773   75.053    0.410    0.209
  464.522   17.423   83.031    0.416    0.204
  464.826   17.762   86.096    0.424    0.209
  465.131   17.767   79.948    0.431    0.211
  465.436   17.440   73.799    0.438    0.210
  465.741   16.799   80.550    0.447    0.193
  466.046   15.878   91.600    0.452    0.182
  466.350   14.729   92.821    0.452    0.176
  466.655   14.186   90.359    0.449    0.176
  466.960   13.411   84.210    0.447    0.185
  467.265   13.413   82.361    0.445    0.195
  467.570   13.933   84.813    0.436    0.204
  467.875   15.318   90.950    0.428    0.207
  468.179   16.213   86.644    0.429    0.207
  468.484   17.492   79.267    0.440    0.202
  468.789   18.171   79.259    0.440    0.188
  469.094   18.523   82.325    0.440    0.184
  469.399   17.841   85.389    0.442    0.206
  469.703   16.547   87.838    0.445    0.186
  470.008   15.348   89.677    0.450    0.179
  470.313   14.237   91.513    0.452    0.180
  470.618   13.456   81.680    0.454    0.185
  470.923   12.721   88.431    0.451    0.176
