~VERSION INFORMATION
 VERS.                 2.0:   CWLS LOG ASCII STANDARD -VERSION 2.0
 WRAP.                  NO:   ONE LINE PER DEPTH STEP
~WELL INFORMATION BLOCK
#MNEM.UNIT           DATA                    DESCRIPTION OF MNEMONIC
#---------    -------------------            -------------------------------
# Generated from Intellog Unique Number	CW_76_78/WELL/2808
WELL.         PAN AM S-1 MARTEN HILLS 10-22  : Well_name    - WELL
LOC .         00/10-22-076-24W4/0            : Location     - LOCATION
UWI .         00/10-22-076-24W4/0            : Uwi          - UNIQUE WELL ID
ENTR.         JJ                             : Entered      - ENTERED BY
SRVC.         SCHLUMBERGER                   : Scn          - SERVICE COMPANY
DATE.         18 JAN 66                      : Date         - LOG DATE
STRT.M        701.04                         : top_depth    - START DEPTH
STOP.M        862.54                         : bot_depth    - STOP DEPTH
STEP.M        0.25                           : increment    - STEP LENGTH
 NULL. -999.2500:NULL Value
~CURVE INFORMATION BLOCK
#MNEM UNIT       ERCB CURVE CODE    CURVE DESCRIPTION
#-----------   ------------------   ----------------------------------
DEPT.M        00 001 00 00         : DEPTH        - DEPTH
DELT.US/F     00 520 00 00         : DELT         - SONIC TRAVEL TIME
CALI.MM       00 280 01 00         : CAL          - CALIPER
GR  .API      00 310 00 00         : GR           - GAMMA RAY
ILD .OHMM     00 120 00 00         : RESD         - DEEP RESISTIVITY (DIL)
~PARAMETER INFORMATION
#MNEM.UNIT           DATA             DESCRIPTION OF MNEMONIC
#---------         -----------     ------------------------------
GL  .M        921.38               : gl           - GROUND LEVEL ELEVATION
EREF.M        924.885              : kb           - ELEVATION OF DEPTH REFERENCE
DATM.M        924.885              : datum        - DATUM ELEVATION
TDD .M        865.937              : tdd          - TOTAL DEPTH DRILLER
RUN .         ONE & TWO            : Run          - RUN NUMBER
ENG .         BERRY                : Engineer     - RECORDING ENGINEER
WIT .         SANDERSON            : Witness      - WITNESSED BY
BASE.         EDMONTON             : Branch       - HOME BASE OF LOGGING UNIT
MUD .         GEL CHEM             : Mud_type     - MUD TYPE
MATR.         SANDSTONE            : Logunit      - NEUTRON MATRIX
TMAX.C        25                   : BHT          - MAXIMUM RECORDED TEMPERATURE
BHTD.M        864.108              : BHTDEP       - MAXIMUM RECORDED TEMPERATURE
RMT .C        6.11111              : MDTP         - TEMPERATURE OF MUD
MUDD.KG/M     1056                 : MWT          - MUD DENSITY
NEUT.         1                    : NEUTRON      - NEUTRON TYPE
RESI.         0                    : RESIST       - RESISTIVITY TYPE
RM  .OHMM     5.05                 : RM           - RESISTIVITY OF MUD
RMC .OHMM     0                    : RMC          - RESISTIVITY OF MUD CAKE
RMF .OHMM     0                    : RMF          - RESISTIVITY OF MUD FILTRATE
SUFT.C        5                    : SUFT         - SURFACE TEMPERATURE
~A  DEPTH     DELT      CAL       GR     RESD
# ...
  788.040  334.367  243.072   74.118    6.325
  788.290  331.281  243.592   70.759    6.258
  788.540  334.851  252.913   69.502    6.227
  788.790  318.790  243.469   73.204    6.057
  789.040  323.973  242.506   81.614    5.950
  789.290  308.652  246.950   78.454    5.861
  789.540  311.618  240.367   72.691    5.958
  789.790  313.774  237.390   70.333    6.054
  790.040  312.100  236.851   70.679    6.272
  790.290  306.864  238.540   71.526    6.760
  790.540  299.878  242.557   71.973    7.929
  790.790  234.136  246.365   67.912    8.971
  791.040  209.940  247.311   62.449   10.303
  791.290  206.317  245.712   56.935   12.107
  791.540  221.651  242.630   52.123   14.076
  791.790  238.869  242.091   48.965   13.434
  792.040  256.691  244.838   45.004   12.274
  792.290  272.563  246.949   44.800   11.115
  792.540  265.981  247.471   47.950    9.712
  792.790  256.979  245.872   51.452    8.861
  793.040  267.809  242.153   53.000    7.928
  793.290  296.590  242.886   53.948    6.997
  793.540  317.639  246.163   60.454    6.494
  793.790  309.645  245.411   67.512    6.055
  794.040  315.703  248.053   69.961    5.620
  794.290  318.734  248.575   71.560    5.489
  794.540  317.060  248.882   72.607    5.400
  794.790  318.278  249.404   73.905    5.392
  795.040  320.100  249.608   75.954    5.408
  795.290  325.014  249.493   77.753    5.587
  795.540  329.054  247.788   80.604    6.056
  795.790  330.137  243.326   86.810    6.666
  796.040  323.756  239.395   83.049    8.244
  796.290  285.780  235.783   76.885   10.460
  796.540  285.382  240.542   70.821   13.170
  796.790  243.237  243.186   65.208   16.746
  797.040  232.016  243.283   60.997   18.159
  797.290  240.762  238.398   59.240   16.898
  797.540  241.778  232.558   58.885   14.257
  797.790  251.062  220.359   59.131   11.908
  798.040  264.716  216.957   59.727   10.848
  798.290  277.698  220.554   62.228    9.773
  798.540  290.746  232.947   66.681    8.985
  798.790  292.568  233.150   69.732    8.280
  799.040  289.281  232.186   73.984    7.656
  799.290  296.279  231.542   76.685    7.157
  799.540  302.067  231.745   76.430    6.841
  799.790  306.713  233.962   80.282    6.690
  800.040  312.232  235.650   85.135    6.747
  800.290  319.096  226.525   88.537    6.844
  800.540  312.649  232.028   84.176    6.982
  800.790  302.436  233.926   75.758    7.034
  801.040  299.149  232.116   73.800    7.194
  801.290  303.795  229.776   76.551    7.476
  801.540  299.095  223.725   80.203    8.086
  801.790  311.001  222.019   81.451    9.377
  802.040  306.234  226.251   77.090   10.545
  802.290  246.946  231.224   71.476   11.424
  802.540  221.608  227.187   62.657   11.912
  802.790  234.657  227.390   53.839   11.574
  803.040  252.613  232.364   54.937   10.459
  803.290  276.217  230.129   67.452    9.401
  803.540  290.274  230.862   70.353    7.646
  803.790  301.575  230.747   72.503    6.674
  804.040  305.885  227.770   75.303    6.275
  804.290  318.328  230.094   77.753    6.127
  804.540  308.654  236.127   81.605    6.081
  804.790  307.652  234.528   77.194    6.091
  805.040  312.029  230.279   74.084    6.046
  805.290  318.625  229.846   72.978    6.017
  805.540  321.991  232.911   73.025    5.993
  805.790  323.142  231.631   73.471    6.005
  806.040  322.207  228.865   74.819    6.103
  806.290  317.171  227.373   77.469    6.177
  806.540  316.102  227.363   77.365    6.294
  806.790  321.688  230.429   76.559    6.311
  807.040  323.108  232.647   77.106    6.223
  807.290  320.694  231.048   80.407    6.238
  807.540  323.389  225.844   84.109    6.394
  807.790  330.253  224.774   80.049    6.902
  808.040  342.630  223.918   78.692    7.719
  808.290  322.669  220.199   76.785    7.015
  808.540  310.642  223.053   78.133    6.268
  808.790  332.901  227.284   85.691    5.581
  809.040  346.958  218.583   92.248    4.978
  809.290  344.074  221.436   88.037    4.151
  809.540  356.989  211.145   84.076    3.771
  809.790  353.231  209.227   84.271    3.374
  810.040  367.019  233.388   85.269    3.080
  810.290  402.388  240.270   89.772    2.849
  810.540  430.496  224.784   93.675    2.820
  810.790  455.309  195.305   85.607    3.020
  811.040  397.500  184.060   68.776    3.365
  811.290  353.405  191.577   58.555    4.119
  811.540  325.983  202.699   52.541    6.047
  811.790  332.712  200.040   49.482    7.461
  812.040  348.921  201.939   45.771    7.599
  812.290  360.088  202.885   41.160    6.831
  812.540  359.423  206.692   36.197    6.356
  812.790  305.444  215.376   40.600    6.223
  813.040  287.904  219.925   54.920    6.139
  813.290  296.449  220.128   61.727    6.109
  813.540  315.414  219.166   62.474    6.205
  813.790  337.337  216.083   64.523    6.695
  814.040  346.352  206.957   71.981    7.364
  814.290  333.989  198.786   60.909    8.697
  814.540  353.828  206.197   45.229   10.356
  814.790  366.070  209.263   33.756   14.303
  815.040  365.337  205.438   27.441   17.116
  815.290  361.780  201.717   30.241   23.675
  815.540  367.501  200.014   32.691   23.794
  815.790  360.852  199.262   33.038   21.833
  816.040  346.540  201.373   30.430   19.851
  816.290  332.496  203.908   28.622   18.443
  816.540  327.729  199.978   29.719   17.018
  816.790  334.795  191.276   32.269   15.837
  817.040  336.213  190.101   35.069   14.741
  817.290  331.918  191.788   36.218   13.893
  817.540  325.335  196.972   38.616   13.473
  817.790  325.814  199.827   39.665   12.664
  818.040  330.795  194.518   41.463   11.939
  818.290  336.246  194.085   42.711   11.581
  818.540  339.077  197.575   44.711   10.937
  818.790  339.755  196.718   46.660    9.696
  819.040  335.191  199.677   52.215    8.744
  819.290  326.861  224.580   61.076    8.139
  819.540  334.061  230.402   80.904    7.642
  819.790  329.631  212.477   68.980    7.943
  820.040  315.048  201.656   57.907    9.068
  820.290  340.535  195.604   52.545   10.462
  820.540  352.575  193.581   49.335   11.447
  820.790  359.036  189.333   47.228   12.179
  821.040  331.210  190.384   46.422   12.831
  821.290  322.411  193.661   48.772   13.153
  821.540  318.517  196.408   48.717   13.147
  821.790  320.609  197.670   49.815   12.918
  822.040  322.766  197.979   52.966   12.665
  822.290  322.369  198.395   54.064   12.454
  822.540  322.175  198.386   49.252   12.361
  822.790  321.844  198.165   48.897   12.189
  823.040  319.835  197.732   51.597   11.857
  823.290  318.094  197.937   53.496   11.539
  823.540  315.545  199.199   51.588   11.039
  823.790  312.393  199.827   50.933   10.416
  824.040  310.785  200.241   51.330    9.835
  824.290  307.229  200.657   52.328    9.191
  824.540  321.220  200.754   55.128    8.936
  824.790  324.520  200.216   57.979    9.055
  825.040  326.947  200.629   61.080    9.561
  825.290  322.382  203.908   56.318   10.132
  825.540  308.741  215.666   52.457    9.941
  825.790  287.840  212.160   52.753    9.440
  826.040  294.503  198.899   56.355    8.777
  826.290  305.803  197.830   59.005    8.175
  826.540  315.490  199.306   60.153    7.857
  826.790  310.455  202.053   62.802    7.809
  827.040  323.302  208.405   66.204    8.132
  827.290  326.000  210.516   71.409    8.970
  827.540  328.290  202.344   66.997   10.860
  827.790  328.231  195.551   41.301   12.621
  828.040  323.934  195.224   26.623   14.364
  828.290  321.723  198.714   18.856   16.212
  828.540  319.711  199.871   19.753   17.542
  828.790  316.222  195.198   23.305   18.875
  829.040  315.422  192.539   23.852   21.997
  829.290  301.781  193.166   23.948   42.201
  829.540  318.394  197.398   25.896   46.764
  829.790  321.359  203.748   28.547   48.694
  830.040  324.054  204.906   29.995   49.408
  830.290  330.649  202.246   29.540   45.368
  830.540  331.194  200.861   28.033   41.204
  830.790  328.714  200.215   25.725   33.602
  831.040  324.484  200.525   24.269   20.383
  831.290  337.062  202.636   23.714   15.952
