~VERSION INFORMATION
 VERS.                 2.0:   CWLS LOG ASCII STANDARD -VERSION 2.0
 WRAP.                  NO:   ONE LINE PER DEPTH STEP
~WELL INFORMATION BLOCK
#MNEM.UNIT           DATA                    DESCRIPTION OF MNEMONIC
#---------    -------------------            -------------------------------
# Generated from Intellog Unique Number	CS_73_76/WELL/2195
WELL.         BOW VALLEY INDUSTRIES LTD      : Well_name    - WELL
LOC .         00/11-04-074-15W4/0            : Location     - LOCATION
UWI .         00/11-04-074-15W4/0            : Uwi          - UNIQUE WELL ID
ENTR.         SP                             : Entered      - ENTERED BY
SRVC.         SCHLUMBERGER                   : Scn          - SERVICE COMPANY
STRT.M        285                            : top_depth    - START DEPTH
STOP.M        500                            : bot_depth    - STOP DEPTH
STEP.M        0.25                           : increment    - STEP LENGTH
 NULL. -999.2500:NULL Value
~CURVE INFORMATION BLOCK
#MNEM UNIT       ERCB CURVE CODE    CURVE DESCRIPTION
#-----------   ------------------   ----------------------------------
DEPT.M        00 001 00 00         : DEPTH        - DEPTH
ILD .OHMM     00 120 00 00         : RESD         - DEEP RESISTIVITY (DIL)
DPHI.V/V      00 890 00 00         : PHID         - DENSITY POROSITY (LIMESTONE)
NPHI.V/V      00 330 00 00         : PHIN         - NEUTRON POROSITY (LIMESTONE)
GR  .API      00 310 00 00         : GR           - GAMMA RAY
~PARAMETER INFORMATION
#MNEM.UNIT           DATA             DESCRIPTION OF MNEMONIC
#---------         -----------     ------------------------------
GL  .M        638.2                : gl           - GROUND LEVEL ELEVATION
EREF.M        641.71               : kb           - ELEVATION OF DEPTH REFERENCE
DATM.M        638.2                : datum        - DATUM ELEVATION
TDD .M        504.25               : tdd          - TOTAL DEPTH DRILLER
RUN .         ONE                  : Run          - RUN NUMBER
ENG .         BILL                 : Engineer     - RECORDING ENGINEER
WIT .         JIM                  : Witness      - WITNESSED BY
MUD .         GEL                  : Mud_type     - MUD TYPE
MATR.         LIMESTONE            : Logunit      - NEUTRON MATRIX
TMAX.C        20                   : BHT          - MAXIMUM RECORDED TEMPERATURE
BHTD.M        504.25               : BHTDEP       - MAXIMUM RECORDED TEMPERATURE
MATR.         1                    : LOGUNIT      - NEUTRON MATRIX
RMT .C        25                   : MDTP         - TEMPERATURE OF MUD
NEUT.         1                    : NEUTRON      - NEUTRON TYPE
RESI.         0                    : RESIST       - RESISTIVITY TYPE
RMC .OHMM     0.25                 : RMC          - RESISTIVITY OF MUD CAKE
RMF .OHMM     0.25                 : RMF          - RESISTIVITY OF MUD FILTRATE
SUFT.C        15                   : SUFT         - SURFACE TEMPERATURE
~A  DEPTH     RESD     PHID     PHIN       GR
  285.000    2.556    0.221    0.438  104.084
  285.250    2.509    0.225    0.465  102.254
  285.500    2.509    0.226    0.497  101.645
  285.750    2.462    0.229    0.475  102.264
  286.000    2.417    0.224    0.451  102.882
  286.250    2.417    0.222    0.441  105.949
  286.500    2.463    0.225    0.452  106.567
  286.750    2.463    0.226    0.465  105.960
  287.000    2.510    0.219    0.488  105.353
  287.250    2.557    0.213    0.447  103.521
  287.500    2.606    0.204    0.425  104.140
  287.750    2.706    0.200    0.426  105.982
  288.000    2.917    0.197    0.434  107.213
  288.250    3.086    0.192    0.434  106.606
  288.500    3.265    0.185    0.425  102.939
  288.750    3.327    0.188    0.430  100.495
  289.000    3.390    0.198    0.439   98.663
  289.250    3.390    0.210    0.452   98.669
  289.500    3.327    0.216    0.444  101.736
  289.750    3.266    0.212    0.429   99.906
  290.000    3.145    0.210    0.440  100.524
  290.250    2.973    0.207    0.469  104.204
  290.500    2.864    0.209    0.490  107.270
  290.750    2.758    0.212    0.482  109.113
  291.000    2.759    0.219    0.471  108.505
  291.250    2.811    0.221    0.471  106.675
  291.500    2.811    0.218    0.469  106.680
  291.750    2.919    0.217    0.456  110.360
  292.000    3.030    0.212    0.440  112.813
  292.250    3.088    0.210    0.436  112.208
  292.500    3.031    0.214    0.415  109.152
  292.750    3.031    0.217    0.424  103.648
  293.000    2.975    0.217    0.442  101.205
  293.250    2.919    0.212    0.458   99.987
  293.500    2.865    0.211    0.465   99.990
  293.750    2.865    0.212    0.446  101.220
  294.000    2.866    0.213    0.415  100.616
  294.250    2.920    0.215    0.405  100.009
  294.500    2.975    0.215    0.425  102.463
  294.750    3.032    0.217    0.447  102.467
  295.000    3.148    0.207    0.474   99.412
  295.250    3.331    0.192    0.476   91.459
  295.500    3.658    0.184    0.452   85.342
  295.750    4.251    0.197    0.406   78.613
  296.000    5.130    0.218    0.392   78.006
  296.250    5.741    0.234    0.373   79.849
  296.500    6.189    0.243    0.374   81.080
  296.750    6.672    0.253    0.383   81.086
  297.000    7.059    0.255    0.388   81.702
  297.250    7.193    0.253    0.393   90.281
  297.500    6.800    0.244    0.384   96.408
  297.750    6.800    0.238    0.350  103.148
  298.000    6.929    0.256    0.329  100.705
  298.250    7.902    0.287    0.272   90.303
  298.500    9.183    0.368    0.244   81.737
  298.750   10.473    0.371    0.272   78.069
  299.000   11.080    0.358    0.314   74.403
  299.250   11.291    0.350    0.327   73.183
  299.500   11.081    0.351    0.329   76.864
  299.750   10.673    0.342    0.334   78.092
  300.000   10.280    0.327    0.348   80.546
  300.250    9.718    0.314    0.366   79.941
  300.500    9.015    0.310    0.393   80.559
  300.750    8.684    0.304    0.405   83.016
  301.000    8.522    0.302    0.405   84.244
  301.250    8.523    0.302    0.396   86.085
  301.500    8.523    0.289    0.386   89.155
  301.750    8.850    0.273    0.378   91.607
  302.000    9.018    0.268    0.386   94.675
  302.250    9.189    0.271    0.395   95.904
  302.500    9.364    0.274    0.365   96.522
  302.750    9.190    0.278    0.360   95.916
  303.000    9.364    0.274    0.370   93.473
  303.250    9.191    0.268    0.358   91.640
  303.500    9.191    0.261    0.348   86.748
  303.750    8.853    0.258    0.353   81.244
  304.000    8.689    0.255    0.367   77.576
  304.250    8.527    0.257    0.381   73.296
  304.500    8.528    0.276    0.386   68.403
  304.750    8.370    0.276    0.392   62.287
  305.000    8.370    0.258    0.368   60.456
  305.250    8.215    0.239    0.359   68.423
  305.500    8.062    0.229    0.360   73.325
  305.750    8.062    0.218    0.358   82.514
  306.000    7.480    0.203    0.354   91.703
  306.250    7.204    0.180    0.353   99.058
  306.500    6.939    0.149    0.385  101.513
  306.750    6.200    0.150    0.408  103.353
  307.000    5.972    0.159    0.417  107.645
  307.250    5.645    0.160    0.433  113.161
  307.500    5.237    0.152    0.440  116.839
  307.750    4.951    0.138    0.455  119.294
  308.000    4.859    0.135    0.459  120.525
  308.250    4.680    0.140    0.457  124.204
  308.500    4.508    0.154    0.441  127.272
  308.750    4.424    0.160    0.434  128.501
  309.000    4.342    0.146    0.431  124.834
  309.250    4.342    0.147    0.446  121.167
  309.500    4.342    0.172    0.449  119.946
  309.750    4.343    0.189    0.451  124.850
  310.000    4.343    0.208    0.465  127.918
  310.250    4.262    0.206    0.478  129.762
  310.500    3.954    0.201    0.494  130.377
  310.750    3.668    0.217    0.487  132.832
  311.000    3.468    0.222    0.463  132.838
  311.250    3.278    0.227    0.440  129.782
  311.500    3.098    0.231    0.430  121.216
  311.750    3.403    0.236    0.423  117.550
  312.000    3.809    0.238    0.407  113.884
  312.250    4.511    0.236    0.393  113.275
  312.500    5.442    0.231    0.381  112.055
  312.750    7.213    0.227    0.371  113.287
  313.000    8.226    0.230    0.378  116.355
  313.250    9.035    0.236    0.388  116.970
  313.500    9.207    0.236    0.393  116.977
  313.750    8.868    0.217    0.411  112.084
  314.000    7.924    0.167    0.424  105.968
  314.250    7.214    0.170    0.421  104.136
  314.500    6.693    0.185    0.394  112.101
  314.750    6.209    0.207    0.395  118.230
  315.000    5.869    0.217    0.394  115.785
  315.250    5.653    0.236    0.388  104.772
  315.500    6.094    0.258    0.389   96.207
  315.750    7.353    0.285    0.402   88.865
  316.000    8.386    0.292    0.408   82.747
  316.250    8.872    0.290    0.415   79.692
  316.500    9.386    0.290    0.417   84.597
  316.750    9.746    0.288    0.413   88.890
  317.000   10.311    0.290    0.406   91.342
  317.250   10.311    0.291    0.405   96.247
  317.500   10.312    0.286    0.403  101.150
  317.750    9.748    0.274    0.400  106.667
  318.000    9.214    0.256    0.408  109.733
  318.250    8.710    0.245    0.409  113.413
  318.500    8.233    0.240    0.379  115.865
  318.750    7.783    0.232    0.372  119.546
  319.000    7.357    0.230    0.382  121.387
  319.250    7.357    0.241    0.396  120.169
  319.500    7.358    0.266    0.412  117.113
  319.750    7.498    0.276    0.398  106.098
  320.000    8.083    0.277    0.380   90.798
  320.250    8.236    0.281    0.366   77.334
  320.500    8.551    0.283    0.364   70.605
  320.750    9.047    0.276    0.368   76.122
  321.000    9.394    0.272    0.382   78.575
  321.250    9.754    0.263    0.372   84.094
  321.500    9.939    0.255    0.351   86.549
  321.750    9.939    0.244    0.343   88.391
  322.000    9.940    0.235    0.351   89.619
  322.250    9.940    0.229    0.363   90.237
  322.500    9.756    0.217    0.368   94.529
  322.750    9.397    0.207    0.384  102.495
  323.000    8.717    0.207    0.399  106.172
  323.250    7.644    0.218    0.410  114.752
  323.500    7.092    0.239    0.424  116.591
  323.750    6.219    0.247    0.434  118.434
  324.000    5.769    0.252    0.413  106.809
  324.250    5.155    0.256    0.412  102.526
  324.500    4.873    0.256    0.422   95.185
  324.750    5.155    0.256    0.431   91.517
  325.000    5.770    0.253    0.406   92.136
  325.250    5.880    0.252    0.396   97.653
  325.500    6.105    0.255    0.416  101.944
  325.750    6.105    0.257    0.433  101.949
  326.000    5.992    0.260    0.387   99.505
  326.250    5.992    0.261    0.390   98.287
  326.500    6.106    0.261    0.394   97.682
  326.750    6.582    0.258    0.398   99.523
  327.000    6.834    0.255    0.390  102.590
  327.250    7.368    0.242    0.401  102.595
  327.500    7.508    0.237    0.418  102.601
  327.750    7.650    0.226    0.419  102.606
  328.000    7.651    0.220    0.402  102.000
  328.250    7.651    0.207    0.393   95.273
