~VERSION INFORMATION
 VERS.                 2.0:   CWLS LOG ASCII STANDARD -VERSION 2.0
 WRAP.                  NO:   ONE LINE PER DEPTH STEP
~WELL INFORMATION BLOCK
#MNEM.UNIT           DATA                    DESCRIPTION OF MNEMONIC
#---------    -------------------            -------------------------------
# Generated from Intellog Unique Number	CX_WELLS/WELL/2984
WELL.         ULSTER HANDST                  : Well_name    - WELL
LOC .         00/11-25-082-11W4/0            : Location     - LOCATION
UWI .         00/11-25-082-11W400            : Uwi          - UNIQUE WELL ID
ENTR.         T                              : Entered      - ENTERED BY
SRVC.         SCHLUMBERGER                   : Scn          - SERVICE COMPANY
STRT.M        265                            : top_depth    - START DEPTH
STOP.M        487                            : bot_depth    - STOP DEPTH
STEP.M        0.25                           : increment    - STEP LENGTH
 NULL. -999.2500:NULL Value
~CURVE INFORMATION BLOCK
#MNEM UNIT       ERCB CURVE CODE    CURVE DESCRIPTION
#-----------   ------------------   ----------------------------------
DEPT.M        00 001 00 00         : DEPTH        - DEPTH
GR  .API      00 310 00 00         : GR           - GAMMA RAY
NPHI.V/V      00 330 00 00         : PHIN         - NEUTRON POROSITY (SANDSTONE)
DPHI.V/V      00 890 00 00         : PHID         - DENSITY POROSITY (SANDSTONE)
ILD .OHMM     00 120 00 00         : RESD         - DEEP RESISTIVITY (OTHER)
~PARAMETER INFORMATION
#MNEM.UNIT           DATA             DESCRIPTION OF MNEMONIC
#---------         -----------     ------------------------------
GL  .M        716                  : gl           - GROUND LEVEL ELEVATION
EREF.M        719.1                : kb           - ELEVATION OF DEPTH REFERENCE
DATM.M        719.1                : datum        - DATUM ELEVATION
TDD .M        492                  : tdd          - TOTAL DEPTH DRILLER
RUN .         ONE                  : Run          - RUN NUMBER
ENG .         BILL                 : Engineer     - RECORDING ENGINEER
WIT .         JIM                  : Witness      - WITNESSED BY
MUD .         GEL                  : Mud_type     - MUD TYPE
MATR.         SANDSTONE            : Logunit      - NEUTRON MATRIX
TMAX.C        16                   : BHT          - MAXIMUM RECORDED TEMPERATURE
BHTD.M        492                  : BHTDEP       - MAXIMUM RECORDED TEMPERATURE
MATR.         1                    : LOGUNIT      - NEUTRON MATRIX
RMT .C        20                   : MDTP         - TEMPERATURE OF MUD
NEUT.         1                    : NEUTRON      - NEUTRON TYPE
RESI.         6.3                  : RESIST       - RESISTIVITY TYPE
RMC .OHMM     7.17                 : RMC          - RESISTIVITY OF MUD CAKE
RMF .OHMM     7.17                 : RMF          - RESISTIVITY OF MUD FILTRATE
SUFT.C        4                    : SUFT         - SURFACE TEMPERATURE
~A  DEPTH       GR     PHIN     PHID     RESD
# ...
  395.500  100.991    0.430    0.267    8.258
  395.750  102.241    0.422    0.261    8.582
  396.000  104.116    0.400    0.254    9.088
  396.250  105.367    0.396    0.248    9.444
  396.500  104.743    0.391    0.241    9.812
  396.750  100.369    0.384    0.230   10.005
  397.000   92.871    0.376    0.216   10.199
  397.250   95.372    0.373    0.203   10.598
  397.500  100.371    0.369    0.226   11.012
  397.750  104.747    0.372    0.246   11.662
  398.000  109.746    0.384    0.244   11.669
  398.250  110.997    0.397    0.248   11.240
  398.500  110.998    0.404    0.253   10.827
  398.750  112.248    0.407    0.256   10.430
  399.000  115.374    0.409    0.256   10.048
  399.250  117.249    0.411    0.256    9.500
  399.500  112.250    0.412    0.256    9.151
  399.750  106.627    0.415    0.255    8.983
  400.000  114.127    0.410    0.255    8.653
  400.250  116.627    0.405    0.254    8.659
  400.500  111.629    0.395    0.251    8.663
  400.750  102.256    0.387    0.252    8.832
  401.000   95.382    0.380    0.270   10.088
  401.250   95.383    0.375    0.284   11.095
  401.500   94.759    0.376    0.289   11.973
  401.750   94.760    0.383    0.284   12.206
  402.000   94.760    0.386    0.278   12.212
  402.250   94.761    0.390    0.271   12.218
  402.500   94.762    0.395    0.265   12.225
  402.750   95.388    0.399    0.259   12.231
  403.000  104.762    0.406    0.252   12.008
  403.250  112.261    0.415    0.248   11.352
  403.500  112.887    0.416    0.254   11.143
  403.750  108.514    0.412    0.263   10.337
  404.000  104.140    0.406    0.258    9.772
  404.250   97.891    0.397    0.250    9.412
  404.500   95.393    0.385    0.254    9.069
  404.750   98.518    0.380    0.262    8.902
  405.000   96.019    0.375    0.268    8.906
  405.250   92.895    0.379    0.270    9.255
  405.500   95.395    0.384    0.266    9.438
  405.750  101.020    0.392    0.264    9.622
  406.000  106.645    0.395    0.268    9.628
  406.250  106.646    0.396    0.271    9.631
  406.500  102.898    0.398    0.271    9.634
  406.750   99.774    0.406    0.270    9.640
  407.000   96.025    0.405    0.268    9.644
  407.250   92.276    0.390    0.269    9.649
  407.500   92.277    0.384    0.269    9.655
  407.750   91.028    0.385    0.269    9.659
  408.000   87.904    0.386    0.269    9.483
  408.250   87.280    0.387    0.268    9.310
  408.500   88.530    0.391    0.266    8.969
  408.750   87.906    0.397    0.265    8.640
  409.000   84.782    0.401    0.266    8.323
  409.250   82.909    0.400    0.270    8.019
  409.500   83.534    0.395    0.279    7.870
  409.750   89.159    0.393    0.291    7.583
  410.000   95.409    0.402    0.311    7.446
  410.250   91.035    0.414    0.327    7.591
  410.500   84.162    0.390    0.344    7.739
  410.750   83.538    0.370    0.354    8.353
  411.000   82.914    0.366    0.363    8.677
  411.250   81.665    0.356    0.360    9.912
  411.500   80.415    0.333    0.355   10.900
  411.750   77.291    0.321    0.189   11.988
  412.000   72.293    0.295    0.153   12.694
  412.250   67.920    0.269    0.042   12.230
  412.500   69.795    0.243   -0.010   11.562
  412.750   76.670    0.265    0.103   11.348
  413.000   87.919    0.377    0.254   10.727
  413.250   92.294    0.395    0.255   10.140
  413.500   90.420    0.396    0.254    9.407
  413.750   90.420    0.393    0.253    9.061
  414.000   90.421    0.394    0.251    8.895
  414.250   91.672    0.403    0.248    8.570
  414.500   93.547    0.414    0.245    8.413
  414.750   95.423    0.422    0.241    8.105
  415.000   94.799    0.419    0.239    7.958
  415.250   93.550    0.412    0.237    7.961
  415.500   92.925    0.406    0.237    7.818
  415.750   96.675    0.403    0.239    7.820
  416.000  100.426    0.407    0.240    7.676
  416.250  102.926    0.413    0.243    7.536
  416.500  102.927    0.423    0.245    7.261
  416.750  101.678    0.429    0.249    6.994
  417.000  103.553    0.410    0.254    6.247
  417.250  104.178    0.402    0.264    5.794
  417.500  101.680    0.398    0.277    4.890
  417.750   96.681    0.404    0.298    4.450
  418.000   92.932    0.428    0.309    3.975
  418.250   89.184    0.431    0.286    3.902
  418.500   87.935    0.439    0.276    4.212
  418.750   87.936    0.425    0.266    4.459
  419.000   89.811    0.415    0.257    4.811
  419.250   90.436    0.405    0.256    5.496
  419.500   90.437    0.402    0.254    6.161
  419.750   86.689    0.399    0.254    6.280
  420.000   84.814    0.397    0.254    6.526
  420.250   82.941    0.397    0.255    6.655
  420.500   83.566    0.400    0.257    6.658
  420.750   85.442    0.408    0.261    6.536
  421.000   89.817    0.415    0.264    6.416
  421.250   92.942    0.425    0.268    5.731
  421.500   96.067    0.431    0.271    5.022
  421.750   97.943    0.421    0.267    4.319
  422.000   94.819    0.395    0.261    4.404
  422.250   91.695    0.387    0.250    4.935
  422.500   89.196    0.381    0.231    5.532
  422.750   86.697    0.382    0.215    5.969
  423.000   91.072    0.389    0.246    6.203
  423.250  105.446    0.398    0.260    5.753
  423.500  106.696    0.423    0.275    5.138
  423.750  108.572    0.430    0.276    4.503
  424.000  107.948    0.439    0.276    4.177
  424.250  106.699    0.447    0.276    3.875
  424.500  106.075    0.431    0.268    3.804
  424.750  106.076    0.423    0.265    3.735
  425.000  106.076    0.423    0.265    3.736
  425.250  106.077    0.426    0.265    3.738
  425.500  106.077    0.432    0.265    3.884
  425.750  104.204    0.439    0.260    4.035
  426.000  102.329    0.443    0.250    4.194
  426.250   99.206    0.443    0.239    4.276
  426.500   96.707    0.425    0.224    4.359
  426.750   95.458    0.419    0.203    4.362
  427.000   98.583    0.419    0.205    4.364
  427.250  106.083    0.420    0.230    4.366
  427.500  111.082    0.420    0.247    4.451
  427.750  117.332    0.420    0.267    4.453
  428.000  121.707    0.421    0.260    4.716
  428.250  117.334    0.420    0.253    5.187
  428.500  111.085    0.418    0.247    5.598
  428.750  104.837    0.414    0.248    5.927
  429.000   96.714    0.395    0.262    6.519
  429.250   93.591    0.377    0.273    7.306
  429.500   92.966    0.369    0.289    8.189
  429.750   89.217    0.372    0.308    8.669
  430.000   87.968    0.373    0.281    9.182
  430.250   89.219    0.364    0.260    9.541
  430.500   89.845    0.359    0.262    9.727
  430.750   88.595    0.359    0.273    9.917
  431.000   84.847    0.359    0.282   10.504
  431.250   87.972    0.358    0.284   10.707
  431.500   93.597    0.358    0.282   11.337
  431.750   97.972    0.357    0.280   12.005
  432.000   94.223    0.351    0.277   13.206
  432.250   85.475    0.304    0.287   14.249
  432.500   75.477    0.255    0.320   15.969
  432.750   62.980    0.218    0.372   22.038
  433.000   56.107    0.187    0.440   41.954
  433.250   41.735    0.126    0.451   51.685
  433.500   39.861    0.120    0.449   68.677
  433.750   42.986    0.125    0.444   78.449
  434.000   45.487    0.126    0.440   86.273
  434.250   46.737    0.126    0.443   89.643
  434.500   46.113    0.127    0.447   86.356
  434.750   44.239    0.129    0.451   81.630
  435.000   41.740    0.134    0.458   74.307
  435.250   39.866    0.138    0.462   71.574
  435.500   41.117    0.142    0.468   60.397
  435.750   42.992    0.145    0.474   50.011
  436.000   45.492    0.148    0.478   36.967
  436.250   50.493    0.190    0.470   25.334
  436.500   51.118    0.263    0.452   18.726
  436.750   47.994    0.310    0.349   15.802
  437.000   45.495    0.347    0.343   13.589
  437.250   42.996    0.351    0.344   12.605
  437.500   42.997    0.353    0.346   11.916
  437.750   46.747    0.353    0.346   11.479
  438.000   50.497    0.356    0.343   11.484
  438.250   56.122    0.364    0.338   11.491
  438.500   57.998    0.372    0.325   11.716
  438.750   56.124    0.373    0.321   12.406
