~VERSION INFORMATION
 VERS.                 2.0:   CWLS LOG ASCII STANDARD -VERSION 2.0
 WRAP.                  NO:   ONE LINE PER DEPTH STEP
~WELL INFORMATION BLOCK
#MNEM.UNIT           DATA                    DESCRIPTION OF MNEMONIC
#---------    -------------------            -------------------------------
# Generated from Intellog Unique Number	CW_73_75/WELL/3527
WELL.         pan american                   : Well_name    - WELL
LOC .         00/11-24-075-26W4/0            : Location     - LOCATION
UWI .         00/11-24-075-26W4/0            : Uwi          - UNIQUE WELL ID
ENTR.         TIM                            : Entered      - ENTERED BY
SRVC.         SCHLUMBERGER                   : Scn          - SERVICE COMPANY
STRT.M        502.92                         : top_depth    - START DEPTH
STOP.M        771.17                         : bot_depth    - STOP DEPTH
STEP.M        0.25                           : increment    - STEP LENGTH
 NULL. -999.2500:NULL Value
~CURVE INFORMATION BLOCK
#MNEM UNIT       ERCB CURVE CODE    CURVE DESCRIPTION
#-----------   ------------------   ----------------------------------
DEPT.M        00 001 00 00         : DEPTH        - DEPTH
ILD .OHMM     00 120 00 00         : RESD         - DEEP RESISTIVITY (DIL)
GR  .API      00 310 00 00         : GR           - GAMMA RAY
DELT.US/F     00 520 00 00         : DELT         - SONIC TRAVEL TIME
~PARAMETER INFORMATION
#MNEM.UNIT           DATA             DESCRIPTION OF MNEMONIC
#---------         -----------     ------------------------------
GL  .M        810.768              : gl           - GROUND LEVEL ELEVATION
EREF.M        814.426              : kb           - ELEVATION OF DEPTH REFERENCE
DATM.M        814.426              : datum        - DATUM ELEVATION
TDD .M        773.582              : tdd          - TOTAL DEPTH DRILLER
RUN .         ONE                  : Run          - RUN NUMBER
ENG .         BILL                 : Engineer     - RECORDING ENGINEER
WIT .         JIM                  : Witness      - WITNESSED BY
MUD .         GEL                  : Mud_type     - MUD TYPE
MATR.         SANDSTONE            : Logunit      - NEUTRON MATRIX
TMAX.C        30.5556              : BHT          - MAXIMUM RECORDED TEMPERATURE
BHTD.M        773.582              : BHTDEP       - MAXIMUM RECORDED TEMPERATURE
MATR.         1                    : LOGUNIT      - NEUTRON MATRIX
RMT .C        21.1111              : MDTP         - TEMPERATURE OF MUD
NEUT.         1                    : NEUTRON      - NEUTRON TYPE
RESI.         0                    : RESIST       - RESISTIVITY TYPE
RMC .OHMM     4.6                  : RMC          - RESISTIVITY OF MUD CAKE
RMF .OHMM     2.8                  : RMF          - RESISTIVITY OF MUD FILTRATE
SUFT.C        5                    : SUFT         - SURFACE TEMPERATURE
~A  DEPTH     RESD       GR     DELT
# ...
  611.420    4.035   68.296  292.422
  611.670    4.036   69.280  293.081
  611.920    4.037   69.283  289.753
  612.170    4.039   70.267  344.271
  612.420    4.040   71.252  370.862
  612.670    4.041   73.215  382.826
  612.920    4.042   75.668  401.438
  613.170    4.043   79.100  386.139
  613.420    3.838   82.042  386.137
  613.670    3.840   86.455  387.462
  613.920    3.840   87.927  390.116
  614.170    3.842   87.443  402.745
  614.420    3.843   90.389  404.736
  614.670    3.844   91.861  408.721
  614.920    3.845   94.314  414.035
  615.170    3.847   95.297  418.020
  615.420    3.848   94.323  415.356
  615.670    3.849   92.372  406.043
  615.920    3.850   91.395  414.016
  616.170    3.851   91.400  400.048
  616.420    3.853   93.853  396.054
  616.670    3.648   94.840  398.710
  616.920    3.649   93.374  401.365
  617.170    3.444   90.442  398.701
  617.420    3.239   92.896  402.021
  617.670    3.033   95.840  406.006
  617.920    2.416   96.822  403.340
  618.170    2.210   96.338  405.331
  618.420    2.005   96.342  407.987
  618.670    1.800   96.348  411.305
  618.920    1.801   96.352  408.642
  619.170    1.802   95.379  407.307
  619.420    2.010   93.915  405.973
  619.670    2.218   93.431  406.632
  619.920    2.425   93.434  407.294
  620.170    2.633   94.909  408.619
  620.420    2.841   95.404  407.950
  620.670    3.048   95.408  403.953
  620.920    3.256   94.923  403.286
  621.170    3.256   92.481  401.952
  621.420    3.464   90.529  400.618
  621.670    3.466   92.003  399.282
  621.920    3.673   93.965  400.607
  622.170    3.674   96.909  400.603
  622.420    3.675   98.383  399.933
  622.670    3.677   99.856  405.248
  622.920    3.678  100.840  416.547
  623.170    3.679  101.335  421.862
  623.420    3.680  102.318  424.515
  623.670    3.681   95.469  409.883
  623.920    3.683   90.578  392.592
  624.170    3.684   85.198  382.614
  624.420    3.479   79.817  383.274
  624.670    3.480   75.905  380.608
  624.920    3.481   76.401  379.941
  625.170    3.276   79.344  376.612
  625.420    3.277   84.245  373.947
  625.670    3.485   89.145  373.942
  625.920    3.487   91.110  404.523
  626.170    3.487   90.624  409.838
  626.420    3.695   89.651  411.163
  626.670    3.696   87.207  395.866
  626.920    3.697   80.847  389.877
  627.170    3.698   74.488  384.553
  627.420    3.493   67.149  387.872
  627.670    3.494   66.175  387.868
  627.920    3.496   65.202  385.870
  628.170    3.497   64.717  383.870
  628.420    3.292   64.233  384.530
  628.670    3.293   61.791  384.525
  628.920    3.088   60.817  383.856
  629.170    3.089   61.802  383.853
  629.420    3.090   62.786  386.504
  629.670    3.298   63.768  387.832
  629.920    3.506   65.242  387.827
  630.170    3.920   67.205  385.162
  630.420    4.540   69.169  382.499
  630.670    4.747   70.643  376.510
  630.920    4.748   70.648  305.362
  631.170    4.750   70.654  285.409
  631.420    4.751   70.167  298.039
  631.670    4.546   67.724  312.662
  631.920    4.547   68.222  344.571
  632.170    4.548   70.673  359.196
  632.420    4.343   70.678  345.892
  632.670    4.344   63.829  294.026
  632.920    4.345   61.387  345.883
  633.170    4.760   63.349  375.799
  633.420    5.793   67.271  389.093
  633.670    6.206   72.172  387.093
  633.920    6.826   67.770  374.456
  634.170    6.621   64.350  252.775
  634.420    6.416   59.948  235.483
  634.670    6.005   57.505  248.776
  634.920    5.593   63.384  247.441
  635.170    5.181   72.202  297.970
  635.420    4.770   84.447  365.785
  635.670    4.359   91.796  373.759
  635.920    3.947   91.802  371.760
  636.170    3.742   90.338  367.099
  636.420    3.331   89.855  363.771
  636.670    3.332   89.858  361.106
  636.920    2.920   90.842  362.431
  637.170    2.921   90.848  369.740
  637.420    2.717   90.852  373.062
  637.670    2.718   90.857  376.382
  637.920    2.926   91.842  379.700
  638.170    2.927   91.847  378.366
  638.420    2.928   88.915  377.697
  638.670    3.135   88.430  376.362
  638.920    3.136   89.904  376.359
  639.170    3.137   91.377  376.354
  639.420    3.139   92.361  377.015
  639.670    3.140   94.325  377.008
  639.920    3.348   95.309  377.667
  640.170    3.349   92.378  377.664
  640.420    3.350   87.975  377.660
  640.670    3.145   88.470  377.656
  640.920    2.940   93.861  383.635
  641.170    2.735   93.377  384.961
  641.420    2.736   93.382  386.285
  641.670    2.737   94.857  389.605
  641.920    2.739   95.840  392.926
  642.170    2.739   97.803  394.251
  642.420    2.741   99.276  394.247
  642.670    2.742  100.261  392.910
  642.920    2.949  101.734  392.908
  643.170    3.157  101.250  390.242
  643.420    3.571   94.401  388.908
  643.670    3.778   90.001  385.579
  643.920    3.780   87.068  376.266
  644.170    3.781   82.176  372.271
  644.420    3.782   77.285  372.264
  644.670    3.577   79.738  373.592
  644.920    3.578   79.255  374.253
  645.170    3.579   78.279  378.901
  645.420    3.787   75.349  380.228
  645.670    4.201   73.395  384.878
  645.920    4.615   78.296  387.533
  646.170    5.235   82.217  389.523
  646.420    6.269   80.264  391.514
  646.670    6.476   76.353  389.513
  646.920    6.889   73.420  380.865
  647.170    7.304   69.508  315.700
  647.420    7.305   65.596  244.552
  647.670    7.100   63.153  217.951
  647.920    6.688   62.179  238.558
  648.170    5.864   62.674  253.182
  648.420    5.452   64.147  278.443
  648.670    4.629   65.621  337.614
  648.920    4.423   67.584  342.930
  649.170    4.012   69.550  363.537
  649.420    3.600   70.534  374.171
  649.670    3.395   71.519  376.161
  649.920    3.190   71.523  376.155
  650.170    2.985   71.528  373.488
  650.420    2.986   72.023  371.491
  650.670    2.988   73.007  368.828
  650.920    2.988   73.501  366.829
  651.170    3.196   74.485  370.149
  651.420    3.404   76.448  377.457
  651.670    3.611   78.411  379.448
  651.920    3.612   78.906  378.114
  652.170    3.820   81.851  374.120
  652.420    4.027   84.302  370.791
  652.670    4.235   85.288  372.781
  652.920    4.237   83.825  376.100
  653.170    4.444   83.338  377.426
  653.420    4.239   80.896  377.420
  653.670    4.034   79.921  374.755
  653.920    3.829   77.478  373.422
  654.170    3.829   75.525  374.746
  654.420    3.625   72.104  372.083
  654.670    3.625   70.149  364.100
  654.920    3.421   68.196  344.813
  655.170    3.215   66.732  358.105
  655.420    3.216   65.758  360.096
  655.670    3.217   68.211  356.768
  655.920    3.219   70.175  352.109
  656.170    3.427   71.649  354.764
  656.420    3.428   72.633  367.393
  656.670    3.429   73.129  369.381
  656.920    3.430   73.622  371.371
  657.170    3.431   73.139  373.362
  657.420    3.432   72.165  377.346
  657.670    3.641   71.680  381.332
  657.920    3.641   71.685  386.647
  658.170    3.849   72.178  387.306
  658.420    4.057   73.164  384.643
  658.670    4.058   74.639  380.649
  658.920    4.265   75.131  379.315
  659.170    4.473   76.607  375.320
  659.420    4.680   74.163  372.657
  659.670    4.888   66.335  374.646
  659.920    4.683   64.872  372.648
  660.170    4.478   66.346  384.610
  660.420    4.066   68.797  390.589
  660.670    3.861   74.188  384.601
  660.920    3.656   74.682  375.287
  661.170    3.245   74.687  377.943
  661.420    3.246   75.671  375.279
  661.670    3.453   79.104  354.663
  661.920    3.867   74.702  334.711
  662.170    4.074   70.791  319.414
  662.420    4.695   66.879  314.090
  662.670    4.902   63.948  300.788
  662.920    4.904   61.994  286.819
  663.170    4.493   61.510  274.181
  663.420    4.081   63.473  319.390
  663.670    3.876   74.250  342.657
  663.920    3.671   77.191  355.951
  664.170    3.466   81.603  369.909
  664.420    3.466   82.097  365.250
  664.670    3.468   77.697  353.277
  664.920    3.469   75.745  359.922
  665.170    3.471   75.747  343.295
  665.420    3.678   74.284  324.673
