~VERSION INFORMATION
 VERS.                 2.0:   CWLS LOG ASCII STANDARD -VERSION 2.0
 WRAP.                  NO:   ONE LINE PER DEPTH STEP
~WELL INFORMATION BLOCK
#MNEM.UNIT           DATA                    DESCRIPTION OF MNEMONIC
#---------    -------------------            -------------------------------
# Generated from Intellog Unique Number	CS_67_68/WELL/2209
WELL.         11-24-067-04W4                 : Well_name    - WELL
LOC .         00/11-24-067-04W4/0            : Location     - LOCATION
UWI .         00/11-24-067-04W4/0            : Uwi          - UNIQUE WELL ID
ENTR.         SP                             : Entered      - ENTERED BY
SRVC.         SCHLUMBERGER                   : Scn          - SERVICE COMPANY
STRT.M        320                            : top_depth    - START DEPTH
STOP.M        553                            : bot_depth    - STOP DEPTH
STEP.M        0.25                           : increment    - STEP LENGTH
 NULL. -999.2500:NULL Value
~CURVE INFORMATION BLOCK
#MNEM UNIT       ERCB CURVE CODE    CURVE DESCRIPTION
#-----------   ------------------   ----------------------------------
DEPT.M        00 001 00 00         : DEPTH        - DEPTH
ILD .OHMM     00 120 00 00         : RESD         - DEEP RESISTIVITY (DIL)
DPHI.V/V      00 890 00 00         : PHID         - DENSITY POROSITY (LIMESTONE)
NPHI.V/V      00 330 00 00         : PHIN         - NEUTRON POROSITY (LIMESTONE)
GR  .API      00 310 00 00         : GR           - GAMMA RAY
CALI.MM       00 280 01 00         : CAL          - CALIPER
~PARAMETER INFORMATION
#MNEM.UNIT           DATA             DESCRIPTION OF MNEMONIC
#---------         -----------     ------------------------------
GL  .M        674.8                : gl           - GROUND LEVEL ELEVATION
EREF.M        678                  : kb           - ELEVATION OF DEPTH REFERENCE
DATM.M        678                  : datum        - DATUM ELEVATION
TDD .M        558                  : tdd          - TOTAL DEPTH DRILLER
RUN .         ONE                  : Run          - RUN NUMBER
ENG .         BILL                 : Engineer     - RECORDING ENGINEER
WIT .         JIM                  : Witness      - WITNESSED BY
MUD .         GEL                  : Mud_type     - MUD TYPE
MATR.         LIMESTONE            : Logunit      - NEUTRON MATRIX
TMAX.C        18.3                 : BHT          - MAXIMUM RECORDED TEMPERATURE
BHTD.M        556.5                : BHTDEP       - MAXIMUM RECORDED TEMPERATURE
MATR.         1                    : LOGUNIT      - NEUTRON MATRIX
RMT .C        25                   : MDTP         - TEMPERATURE OF MUD
NEUT.         1                    : NEUTRON      - NEUTRON TYPE
RESI.         0                    : RESIST       - RESISTIVITY TYPE
RMC .OHMM     0.25                 : RMC          - RESISTIVITY OF MUD CAKE
RMF .OHMM     0.25                 : RMF          - RESISTIVITY OF MUD FILTRATE
SUFT.C        15                   : SUFT         - SURFACE TEMPERATURE
~A  DEPTH     RESD     PHID     PHIN       GR      CAL
# ...
  502.500    7.312    0.249    0.392   71.832  159.626
  502.750    7.257    0.273    0.412   62.453  159.851
  503.000    7.409    0.272    0.337   53.440  160.183
  503.250    7.622    0.240    0.335   56.937  160.412
  503.500    7.812    0.217    0.349   69.821  160.543
  503.750    7.931    0.257    0.357   53.428  160.372
  504.000    8.051    0.337    0.574   35.142  160.084
  504.250    8.036    0.473    0.605   25.337  159.501
  504.500    7.841    0.525    0.579   23.583  159.224
  504.750    7.326    0.412    0.488   21.465  159.352
  505.000    6.870    0.363    0.416   21.116  159.582
  505.250    6.603    0.345    0.436   22.658  159.912
  505.500    6.467    0.335    0.420   22.061  160.048
  505.750    6.541    0.326    0.382   25.433  160.169
  506.000    6.566    0.317    0.344   33.929  160.096
  506.250    6.216    0.307    0.328   42.910  160.120
  506.500    6.180    0.300    0.321   58.665  160.351
  506.750    6.251    0.308    0.319   70.393  160.476
  507.000    6.455    0.312    0.323   82.853  160.708
  507.250    6.553    0.306    0.350   93.118  160.632
  507.500    6.528    0.301    0.349  103.810  160.660
  507.750    6.528    0.297    0.347  114.683  160.485
  508.000    6.528    0.295    0.348  127.572  160.507
  508.250    6.528    0.299    0.353  147.474  160.534
  508.500    6.528    0.299    0.361  158.348  160.052
  508.750    6.503    0.298    0.364  160.072  159.980
  509.000    6.442    0.296    0.364  158.380  160.107
  509.250    6.382    0.293    0.365  154.858  160.134
  509.500    6.346    0.307    0.370  150.786  160.163
  509.750    6.322    0.304    0.372  141.774  159.881
  510.000    6.310    0.298    0.369  127.270  159.904
  510.250    6.333    0.292    0.366  110.937  159.729
  510.500    6.321    0.288    0.365   99.180  159.555
  510.750    6.309    0.285    0.373   89.131  159.479
  511.000    6.333    0.289    0.365   81.033  158.891
  511.250    6.333    0.297    0.359   73.057  158.106
  511.500    6.369    0.307    0.354   80.272  157.833
  511.750    6.454    0.307    0.369   92.732  157.956
  512.000    6.577    0.298    0.378  105.802  157.984
  512.250    6.702    0.284    0.372  113.199  157.906
  512.500    6.817    0.270    0.392  103.273  157.934
  512.750    7.039    0.256    0.368   94.138  157.857
  513.000    7.563    0.237    0.337   75.181  157.784
  513.250    8.080    0.225    0.328   79.955  158.417
  513.500    8.502    0.201    0.324   87.901  160.275
  513.750    8.813    0.175    0.324   89.992  161.927
  514.000    8.863    0.234    0.336   78.051  162.767
  514.250    8.502    0.260    0.347   69.286  162.489
  514.500    8.265    0.271    0.342   64.357  162.006
  514.750    8.079    0.277    0.348   60.041  161.525
  515.000    7.928    0.264    0.352   62.192  161.144
  515.250    7.854    0.235    0.363   70.138  160.766
  515.500    7.721    0.210    0.377   78.817  160.484
  515.750    7.765    0.219    0.386   75.541  160.514
  516.000    7.928    0.227    0.372   72.992  160.438
  516.250    8.094    0.205    0.354   71.057  160.365
  516.500    8.125    0.202    0.342   73.635  160.591
  516.750    8.156    0.206    0.338   76.273  160.415
  517.000    8.125    0.222    0.347   76.471  160.236
  517.250    8.033    0.244    0.346   72.095  160.162
  517.500    7.928    0.232    0.353   76.137  160.090
  517.750    7.809    0.234    0.367   77.617  160.112
  518.000    7.721    0.243    0.354   70.803  159.937
  518.250    7.619    0.251    0.354   65.083  159.763
  518.500    7.463    0.253    0.361   61.072  159.385
  518.750    7.309    0.245    0.355   59.196  159.406
  519.000    7.173    0.240    0.351   62.447  159.334
  519.250    7.078    0.237    0.349   63.743  159.359
  519.500    6.972    0.245    0.348   60.708  159.185
  519.750    6.894    0.260    0.370   57.616  159.105
  520.000    6.777    0.274    0.366   55.861  158.930
  520.250    6.688    0.275    0.359   54.046  158.852
  520.500    6.576    0.265    0.363   54.062  158.785
  520.750    6.489    0.256    0.369   54.077  158.803
  521.000    6.380    0.285    0.374   50.433  158.729
  521.250    6.249    0.318    0.386   45.936  158.347
  521.500    6.040    0.339    0.399   43.510  158.070
  521.750    5.750    0.341    0.407   40.844  157.995
  522.000    5.558    0.337    0.402   39.149  158.225
  522.250    5.393    0.337    0.396   43.135  158.253
  522.500    5.444    0.324    0.388   44.855  158.279
  522.750    5.527    0.313    0.407   46.578  158.404
  523.000    5.621    0.321    0.416   45.436  158.334
  523.250    5.696    0.323    0.391   44.355  158.357
  523.500    5.750    0.310    0.366   43.393  158.584
  523.750    5.826    0.297    0.344   40.115  158.817
  524.000    5.837    0.300    0.339   35.801  159.247
  524.250    5.739    0.312    0.361   32.403  159.787
  524.500    5.516    0.322    0.372   30.770  160.117
  524.750    5.352    0.327    0.371   30.112  160.343
  525.000    5.202    0.324    0.373   29.153  160.777
  525.250    5.066    0.324    0.385   28.070  161.412
  525.500    4.972    0.324    0.392   27.110  161.642
  525.750    4.953    0.315    0.379   25.845  161.774
  526.000    4.972    0.310    0.366   24.701  161.696
  526.250    5.009    0.310    0.375   23.499  161.519
  526.500    5.047    0.318    0.367   23.025  161.246
  526.750    5.085    0.326    0.360   22.918  161.265
  527.000    5.114    0.329    0.358   23.972  160.887
  527.250    5.153    0.329    0.358   26.612  160.510
  527.500    5.172    0.323    0.359   29.554  160.025
  527.750    5.202    0.317    0.365   32.804  159.948
  528.000    5.241    0.321    0.361   30.623  159.975
  528.250    5.281    0.317    0.350   30.091  160.001
  528.500    5.361    0.274    0.344   36.023  160.235
  528.750    5.547    0.258    0.358   44.093  160.364
  529.000    5.760    0.250    0.370   50.025  160.692
  529.250    5.959    0.264    0.382   53.822  160.820
  529.500    6.096    0.265    0.381   55.732  161.154
  529.750    6.177    0.266    0.373   56.538  161.584
  530.000    6.224    0.263    0.366   56.740  162.017
  530.250    6.259    0.256    0.360   57.302  162.348
  530.500    6.318    0.250    0.350   58.053  162.780
  530.750    6.354    0.255    0.337   55.810  162.914
  531.000    6.378    0.260    0.331   53.384  163.138
  531.250    6.354    0.239    0.341   58.463  162.457
  531.500    6.259    0.218    0.355   63.725  162.175
  531.750    6.038    0.206    0.366   69.231  161.599
  532.000    5.695    0.224    0.373   56.558  161.516
  532.250    5.361    0.297    0.386   42.178  161.141
  532.500    5.075    0.315    0.363   32.006  161.062
  532.750    4.841    0.313    0.348   26.044  160.987
  533.000    4.697    0.312    0.349   23.436  160.716
  533.250    4.706    0.322    0.365   22.173  160.536
  533.500    4.750    0.322    0.357   22.004  160.352
  533.750    4.777    0.315    0.345   21.533  159.972
  534.000    4.777    0.313    0.344   21.670  160.000
  534.250    4.759    0.313    0.357   22.113  159.924
  534.500    4.741    0.310    0.343   22.495  159.854
  534.750    4.714    0.298    0.322   22.876  159.772
  535.000    4.697    0.291    0.320   22.896  159.902
  535.250    4.697    0.295    0.328   22.543  160.131
  535.500    4.688    0.300    0.362   40.981  160.362
  535.750    4.714    0.305    0.380   41.851  160.589
  536.000    4.732    0.307    0.379   41.136  160.825
  536.250    4.786    0.313    0.363   45.420  161.152
  536.500    4.877    0.295    0.354   50.012  161.278
  536.750    4.942    0.278    0.350   54.419  161.408
  537.000    5.055    0.265    0.349   57.303  161.434
  537.250    5.113    0.270    0.354   53.476  161.256
  537.500    5.132    0.285    0.377   49.831  160.978
  537.750    5.152    0.298    0.388   47.346  160.293
  538.000    5.161    0.274    0.368   47.971  159.813
  538.250    5.171    0.253    0.343   56.344  159.237
  538.500    5.210    0.263    0.350   62.644  159.055
  538.750    5.270    0.311    0.359   51.801  158.774
