~VERSION INFORMATION
VERS.                2.00:   CWLS LOG ASCII STANDARD -VERSION 2.0
WRAP.                  NO:
~WELL INFORMATION BLOCK
#MNEM.UNIT           DATA                    DESCRIPTION OF MNEMONIC
#---------    -------------------            -------------------------------
# Generated from Intellog Unique Number	CN_91_93/WELL/2737
LOC .         11-07-093-18W4                 : Location     - LOCATION          
UWI .         00/11-07-093-18W400            : Uwi          - UNIQUE WELL ID    
ENTR.         JOETTE                         : Entered      - ENTERED BY        
STRT.M            70.0000:
STOP.M           250.0000:
STEP.M             0.2500:
NULL.           -999.2500:
COMP.     :COMPANY
WELL.  PETRO-CANADA INC. :WELL
FLD.      :FIELD
LOC.      :LOCATION
CTRY.     :COUNTRY
PROV.     :PROVINCE
SRVC.  SCHLUMBERGER  :SERVICE COMPANY
DATE.  03/23/92  :LOG DATE
UWI.      :UNIQUE WELL ID
~Curve Information Block
#MNEM UNIT       ERCB CURVE CODE    CURVE DESCRIPTION
#MNEM.UNIT        API CODE    Curve Description
#---------    ------------    -------------------------------------------
DEPT.M                    :   DEPTH
CALI.MM       00 280 01 00:   CAL          - CALIPER
DPHI.V/V      00 890 00 00:   PHID         - DENSITY POROSITY (SANDSTONE)
GR  .API      00 310 00 00:   GR           - GAMMA RAY
ILD .OHMM     00 120 00 00:   RESD         - DEEP RESISTIVITY (DIL)
NPHI.V/V      00 330 00 00:   PHIN         - NEUTRON POROSITY (SANDSTONE)
~PARAMETER INFORMATION       
#MNEM.UNIT           DATA             DESCRIPTION OF MNEMONIC
#---------         -----------     ------------------------------
GL  .M        512.3                : gl           - GROUND LEVEL ELEVATION      
EREF.M        515.6                : kb           - ELEVATION OF DEPTH REFERENCE
DATM.M        515.6                : datum        - DATUM ELEVATION             
TDD .M        250.8                : tdd          - TOTAL DEPTH DRILLER         
RUN .         ONE                  : Run          - RUN NUMBER                  
ENG .         BILL                 : Engineer     - RECORDING ENGINEER          
WIT .         JIM                  : Witness      - WITNESSED BY                
MUD .         GEL                  : Mud_type     - MUD TYPE                    
MATR.         SANDSTONE            : Logunit      - NEUTRON MATRIX              
TMAX.C        18                   : BHT          - MAXIMUM RECORDED TEMPERATURE
BHTD.M        250.8                : BHTDEP       - MAXIMUM RECORDED TEMPERATURE
RMT .C        15                   : MDTP         - TEMPERATURE OF MUD          
MUDD.KG/M     1150                 : MWT          - MUD DENSITY                 
NEUT.         1                    : NEUTRON      - NEUTRON TYPE                
RESI.         0                    : RESIST       - RESISTIVITY TYPE            
RM  .OHMM     2.66                 : RM           - RESISTIVITY OF MUD          
RMC .OHMM     2.66                 : RMC          - RESISTIVITY OF MUD CAKE     
RMF .OHMM     2.66                 : RMF          - RESISTIVITY OF MUD FILTRATE 
SUFT.C        4                    : SUFT         - SURFACE TEMPERATURE         
~A  Depth           CALI        DPHI          GR         ILD        NPHI
# ...
125.0000        169.9860      0.2350    100.5890      4.1910      0.5220
125.2500        169.9470      0.2400    108.3790      4.2660      0.5280
125.5000        170.8740      0.2400    107.1270      4.4240      0.5210
125.7500        171.8020      0.2350    107.6710      4.4220      0.5190
126.0000        173.7330      0.2240    108.2280      4.5850      0.5450
126.2500        174.6610      0.2150    101.5510      4.6670      0.5210
126.5000        176.5920      0.2330    100.8900      4.7510      0.4820
126.7500        176.5150      0.2440     97.8410      4.8360      0.5220
127.0000        175.4330      0.2530     96.5890      4.8310      0.5380
127.2500        180.3590      0.2640     99.5570      4.9180      0.5060
127.5000        180.2820      0.2640     94.0730      4.9110      0.4790
127.7500        180.2050      0.2570     91.0130      4.9060      0.4780
128.0000        185.1700      0.2570     93.9920      4.8090      0.4780
128.2500        185.0920      0.2570     99.9740      4.6240      0.4730
128.5000        183.0060      0.2540     96.9020      4.7990      0.4840
128.7500        181.9240      0.2490     92.0330      5.1710      0.5040
129.0000        180.8220      0.2450     85.3560      5.5700      0.4790
129.2500        179.7210      0.2450     76.2560      6.4760      0.4670
129.5000        177.6150      0.2550     72.0020      7.9670      0.4460
129.7500        175.5670      0.2700     73.1610      9.6140      0.4320
130.0000        168.4380      0.2910     77.3340      9.6030      0.4400
130.2500        165.3660      0.2890     81.5070      9.0650      0.4500
130.5000        163.2790      0.2770     87.4770      7.6360      0.4550
130.7500        167.2010      0.2580     92.8670      6.1930      0.4480
131.0000        169.1330      0.2350     94.0260      5.5200      0.4390
131.2500        169.0550      0.2010     89.1570      6.4160      0.4440
131.5000        161.9650      0.1430     78.2490      7.0470      0.4630
131.7500        157.8300      0.0820     60.7220      8.0360      0.4830
132.0000        158.7770      0.1600     66.7030      8.3370      0.4070
132.2500        163.6840      0.2020     82.9320      8.1690      0.3020
132.5000        166.6390      0.2130     95.5560      7.2840      0.3410
132.7500        170.6000      0.2040    103.9480      6.1350      0.4060
133.0000        172.5320      0.2020    104.5050      5.0700      0.4980
133.2500        168.4360      0.2210    107.4600      4.4360      0.5260
133.5000        166.3490      0.2410    106.2080      4.1070      0.5500
133.7500        165.2280      0.2530    108.5850      3.9510      0.5330
134.0000        164.1850      0.2560    109.7210      3.7980      0.5350
134.2500        163.1030      0.2560    107.2750      3.7230      0.5420
134.5000        160.0120      0.2680    104.8170      3.5810      0.5400
134.7500        166.9470      0.2720    100.5510      3.4430      0.5600
135.0000        168.8990      0.2810     95.6710      3.3740      0.5800
135.2500        169.8060      0.2830     91.4160      3.2450      0.5780
135.5000        166.7150      0.2500     88.9590      3.1820      0.5400
135.7500        163.6240      0.2490     93.7350      3.1180      0.5150
136.0000        166.5600      0.2700     99.1130      3.0570      0.5260
136.2500        172.5110      0.2840    100.2720      3.0510      0.5510
136.5000        174.4620      0.2940     97.8150      3.1070      0.5570
136.7500        174.3850      0.2800     95.3570      3.3480      0.5650
137.0000        174.3070      0.2620     92.9000      3.6080      0.5770
137.2500        172.2200      0.2500     90.4420      4.1940      0.5740
137.5000        170.1140      0.2500     88.5760      4.7830      0.5330
137.7500        170.0370      0.2520     84.9120      5.3520      0.4900
138.0000        167.9310      0.2510     80.6470      7.8050      0.4860
138.2500        164.8400      0.2280     76.3810      8.0970      0.4850
138.5000        160.7440      0.2120     73.9230      8.7270      0.4690
138.7500        159.6810      0.2750     75.0710     10.1400      0.4030
139.0000        162.5980      0.2030     72.0100     11.3510      0.3570
139.2500        166.5590      0.1360     67.1410     12.9450      0.3850
139.5000        159.4490      0.1000     71.9170     14.4860      0.3790
139.7500        157.3620      0.2100     78.5130     14.1980      0.3020
140.0000        162.2880      0.2310     88.7140     12.1890      0.3520
140.2500        168.2580      0.2350     85.6540     11.0750      0.3960
140.5000        165.1480      0.2430     81.3880     10.2550      0.3920
140.7500        159.0620      0.2560     84.3440      9.6780      0.3820
141.0000        157.9600      0.2560     88.5170      9.6640      0.3850
141.2500        160.8970      0.2500     89.6760      9.2920      0.3990
141.5000        166.8280      0.2450     91.4380      8.6040      0.4260
141.7500        168.7600      0.2440     95.0190      8.2750      0.4520
142.0000        169.6680      0.2590     91.3450      8.1080      0.4720
142.2500        170.6330      0.2740     84.6680      8.1010      0.4850
142.5000        169.5320      0.2910     78.5930      8.2490      0.4630
142.7500        166.4410      0.2890     73.1220      9.2260      0.4300
143.0000        160.3550      0.2880     68.8560      9.7570      0.4170
143.2500        157.2630      0.2950     65.1810     10.5160      0.4240
143.5000        155.1570      0.3050     62.7120     11.9860      0.4350
143.7500        153.0510      0.2670     59.6520     12.9190      0.4440
144.0000        152.9930      0.1940     56.0000     13.1550      0.4430
144.2500        152.8970      0.1480     55.3510     13.3910      0.3930
144.5000        153.8630      0.2400     64.3460     12.3930      0.3830
144.7500        154.7700      0.3100     73.9440     11.4790      0.4060
145.0000        154.6740      0.2930     83.5540     10.2370      0.4260
145.2500        157.6100      0.2640     89.5350      6.2480      0.4730
145.5000        163.5800      0.2480     83.4260      5.1640      0.4950
145.7500        169.5500      0.2310     82.8000      4.3500      0.5130
146.0000        164.4300      0.2050     83.9480      4.7770      0.5030
146.2500        172.3890      0.2020     86.9150      5.3450      0.4750
146.5000        169.2790      0.2030     91.1000      6.0940      0.4650
146.7500        170.2060      0.1950     91.0530      6.3240      0.4610
147.0000        173.1420      0.2020     90.3920      6.8120      0.4500
147.2500        175.0740      0.2340     93.3720      6.9370      0.4160
147.5000        173.9920      0.2410     98.7500      7.0610      0.4070
147.7500        170.9010      0.2410     96.2930      7.3230      0.4370
148.0000        174.8420      0.1330     86.6020      7.4570      0.4490
148.2500        175.7890      0.1160     76.9110      7.7340      0.4940
148.5000        169.6830      0.1840     70.1990      8.1740      0.4090
148.7500        163.5780      0.2330     72.5870      8.4830      0.3910
149.0000        159.4630      0.2530     77.9770      8.9710      0.4180
149.2500        158.4000      0.2690     83.9580      9.6630      0.4410
149.5000        157.3180      0.2790     84.5030     10.2170      0.4570
149.7500        159.2110      0.2740     80.2250     10.5990      0.4690
150.0000        159.1340      0.2420     76.5740      8.6485      0.4380
150.2500        158.0710      0.1690     71.6940      9.5929      0.3750
150.5000        156.9500      0.1500     74.6610     10.8271      0.3410
150.7500        156.8920      0.2020     81.8600     11.7471      0.3190
151.0000        158.8240      0.2130     84.2240     11.7809      0.3370
151.2500        160.7560      0.2280     75.1360     10.5732      0.4160
151.5000        160.6790      0.1760     69.0620     11.1017      0.4520
151.7500        158.5920      0.0830     72.6320     10.8448      0.3830
152.0000        158.5150      0.1960     73.7800      9.8239      0.3800
152.2500        166.4740      0.2310     74.3360     10.8216      0.4190
