~VERSION INFORMATION
 VERS.                 2.0:   CWLS LOG ASCII STANDARD -VERSION 2.0
 WRAP.                  NO:   ONE LINE PER DEPTH STEP
~WELL INFORMATION BLOCK
#MNEM.UNIT           DATA                    DESCRIPTION OF MNEMONIC
#---------    -------------------            -------------------------------
# Generated from Intellog Unique Number	CN_91_93/WELL/3201
WELL.         11-34-092-18W4                 : Well_name    - WELL
LOC .         00/11-34-092-18W4/0            : Location     - LOCATION
UWI .         00/11-34-092-18W400            : Uwi          - UNIQUE WELL ID
ENTR.         JOETTE                         : Entered      - ENTERED BY
SRVC.         SCHLUMBERGER                   : Scn          - SERVICE COMPANY
DATE.         04/14/92                       : Date         - LOG DATE
STRT.M        75                             : top_depth    - START DEPTH
STOP.M        240                            : bot_depth    - STOP DEPTH
STEP.M        0.25                           : increment    - STEP LENGTH
 NULL. -999.2500:NULL Value
~CURVE INFORMATION BLOCK
#MNEM UNIT       ERCB CURVE CODE    CURVE DESCRIPTION
#-----------   ------------------   ----------------------------------
DEPT.M        00 001 00 00         : DEPTH        - DEPTH
CALI.MM       00 280 01 00         : CAL          - CALIPER
GR  .API      00 310 00 00         : GR           - GAMMA RAY
NPHI.V/V      00 330 00 00         : PHIN         - NEUTRON POROSITY (SANDSTONE)
DPHI.V/V      00 890 00 00         : PHID         - DENSITY POROSITY (SANDSTONE)
ILD .OHMM     00 120 00 00         : RESD         - DEEP RESISTIVITY (DIL)
~PARAMETER INFORMATION
#MNEM.UNIT           DATA             DESCRIPTION OF MNEMONIC
#---------         -----------     ------------------------------
GL  .M        510.7                : gl           - GROUND LEVEL ELEVATION
EREF.M        513.9                : kb           - ELEVATION OF DEPTH REFERENCE
DATM.M        513.9                : datum        - DATUM ELEVATION
TDD .M        245                  : tdd          - TOTAL DEPTH DRILLER
RUN .         ONE                  : Run          - RUN NUMBER
ENG .         BILL                 : Engineer     - RECORDING ENGINEER
WIT .         JIM                  : Witness      - WITNESSED BY
MUD .         GEL                  : Mud_type     - MUD TYPE
MATR.         SANDSTONE            : Logunit      - NEUTRON MATRIX
TMAX.C        18                   : BHT          - MAXIMUM RECORDED TEMPERATURE
BHTD.M        245                  : BHTDEP       - MAXIMUM RECORDED TEMPERATURE
RMT .C        15                   : MDTP         - TEMPERATURE OF MUD
MUDD.KG/M     1130                 : MWT          - MUD DENSITY
NEUT.         1                    : NEUTRON      - NEUTRON TYPE
RESI.         0                    : RESIST       - RESISTIVITY TYPE
RM  .OHMM     8.35                 : RM           - RESISTIVITY OF MUD
RMC .OHMM     8.35                 : RMC          - RESISTIVITY OF MUD CAKE
RMF .OHMM     8.35                 : RMF          - RESISTIVITY OF MUD FILTRATE
SUFT.C        4                    : SUFT         - SURFACE TEMPERATURE
~A  DEPTH      CAL       GR     PHIN     PHID     RESD
# ...
  111.500  177.554   72.369    0.532    0.318    7.860
  111.750  177.551   58.554    0.550    0.330    8.961
  112.000  177.547   53.148    0.505    0.350    9.123
  112.250  178.544   58.550    0.466    0.335    8.777
  112.500  178.541   53.744    0.486    0.349    9.105
  112.750  178.538   49.539    0.474    0.352    9.269
  113.000  176.533   50.137    0.438    0.340    8.749
  113.250  174.528   61.545    0.483    0.324    7.805
  113.500  174.524   65.146    0.515    0.329    7.507
  113.750  176.524   66.345    0.501    0.343    8.089
  114.000  178.520   62.140    0.528    0.315    8.714
  114.250  178.519   57.334    0.552    0.237    9.749
  114.500  177.514   52.527    0.535    0.284   10.902
  114.750  176.510   48.322    0.505    0.332   11.315
  115.000  175.506   44.716    0.511    0.276   11.962
  115.250  175.501   45.915    0.507    0.229   11.950
  115.500  174.496   48.315    0.485    0.185   11.939
  115.750  174.495   54.919    0.459    0.249   10.851
  116.000  174.491   63.324    0.469    0.295    9.683
  116.250  174.488   66.926    0.486    0.317    8.163
  116.500  175.485   65.722    0.501    0.318    7.851
  116.750  178.485   64.519    0.515    0.320    8.143
  117.000  181.484   70.523    0.526    0.310    7.543
  117.250  183.483   81.931    0.501    0.294    6.731
  117.500  183.478   96.341    0.493    0.276    5.465
  117.750  183.476  102.945    0.553    0.274    4.694
  118.000  182.472  107.748    0.569    0.272    4.188
  118.250  182.468  109.547    0.573    0.265    4.105
  118.500  182.464  108.344    0.563    0.264    4.337
  118.750  181.459  106.541    0.550    0.263    4.502
  119.000  181.458  105.938    0.525    0.264    4.758
  119.250  180.452  105.936    0.536    0.262    4.935
  119.500  180.448  105.934    0.583    0.233    5.025
  119.750  180.446  107.733    0.608    0.184    5.116
  120.000  180.442  111.934    0.597    0.214    5.110
  120.250  181.440  111.932    0.578    0.243    5.012
  120.500  181.435  110.128    0.563    0.269    5.006
  120.750  181.433  108.926    0.560    0.266    4.906
  121.000  181.429  108.323    0.560    0.264    4.812
  121.250  181.427  107.721    0.560    0.268    4.806
  121.500  181.422  107.719    0.560    0.284    4.803
  121.750  181.420  107.116    0.560    0.284    4.708
  122.000  181.416  105.913    0.572    0.280    4.703
  122.250  181.414  103.509    0.596    0.279    4.610
  122.500  180.408  101.706    0.580    0.279    4.604
  122.750  180.406  101.103    0.550    0.281    4.601
  123.000  179.401  102.302    0.538    0.282    4.684
  123.250  179.398  103.501    0.531    0.282    4.678
  123.500  178.394  104.100    0.525    0.274    4.764
  123.750  178.389  101.095    0.544    0.265    4.849
  124.000  178.386   95.688    0.535    0.245    5.126
  124.250  178.382   96.287    0.526    0.237    5.220
  124.500  178.380   95.684    0.530    0.249    5.518
  124.750  179.377   92.079    0.522    0.272    5.945
  125.000  179.374   92.077    0.506    0.284    6.405
  125.250  179.370   91.475    0.513    0.292    6.771
  125.500  179.368   89.070    0.513    0.288    7.023
  125.750  180.366   86.666    0.503    0.277    7.149
  126.000  181.362   90.268    0.513    0.187    7.144
  126.250  182.360   96.271    0.507    0.155    6.743
  126.500  183.358  102.274    0.487    0.132    6.488
  126.750  183.354  107.076    0.469    0.150    6.009
  127.000  183.351  109.476    0.512    0.219    5.566
  127.250  182.345  108.273    0.607    0.198    5.060
  127.500  182.342  110.073    0.603    0.194    4.869
  127.750  182.338  110.671    0.582    0.205    4.511
  128.000  181.335  108.868    0.564    0.217    4.258
  128.250  181.332  105.262    0.551    0.219    4.096
  128.500  181.328  101.056    0.560    0.220    4.016
  128.750  181.326   99.854    0.571    0.225    3.936
  129.000  180.322  102.254    0.585    0.275    3.857
  129.250  179.317  104.653    0.587    0.291    3.782
  129.500  178.313  105.852    0.592    0.288    3.709
  129.750  177.309  105.851    0.590    0.303    3.500
  130.000  179.307  104.648    0.592    0.307    3.368
  130.250  182.306  104.045    0.608    0.306    3.239
  130.500  184.304  103.442    0.622    0.302    3.117
  130.750  183.300  103.440    0.621    0.297    3.056
  131.000  177.292  103.439    0.610    0.300    2.995
  131.250  173.285  105.839    0.586    0.296    2.992
  131.500  170.279  107.639    0.571    0.284    3.046
  131.750  170.276   99.229    0.567    0.276    3.283
  132.000  170.272   95.623    0.558    0.271    3.743
  132.250  169.268   93.820    0.536    0.260    4.601
  132.500  167.263   81.808    0.542    0.256    5.874
  132.750  166.259   72.197    0.547    0.240    8.087
  133.000  165.255   66.190    0.531    0.186   10.521
  133.250  165.250   67.989    0.509    0.111   15.042
  133.500  165.247   71.590    0.270    0.113   18.492
  133.750  167.245   70.987    0.326    0.102   19.184
  134.000  168.244   68.584    0.364    0.085   16.173
  134.250  169.241   68.582    0.384    0.149   15.264
  134.500  170.239   69.781    0.390    0.198   14.141
  134.750  172.237   75.183    0.391    0.247   13.104
  135.000  173.235   79.385    0.448    0.257    9.678
  135.250  173.230   80.584    0.467    0.262    8.796
  135.500  173.228   79.981    0.472    0.273    8.147
  135.750  173.224   85.384    0.454    0.281    7.841
  136.000  174.221   90.787    0.461    0.269    7.262
  136.250  175.219   90.785    0.490    0.255    6.988
  136.500  177.218   91.983    0.485    0.258    6.721
  136.750  176.212   94.384    0.475    0.267    6.591
  137.000  175.209   96.184    0.490    0.280    6.707
  137.250  175.205   91.978    0.511    0.297    6.959
  137.500  175.203   77.564    0.512    0.310    7.359
  137.750  175.200   69.154    0.499    0.309    8.388
  138.000  175.195   63.146    0.487    0.302    9.384
  138.250  175.192   60.142    0.488    0.298   10.304
  138.500  175.189   59.539    0.485    0.303   11.528
  138.750  174.185   61.339    0.476    0.317   12.416
  139.000  174.182   64.941    0.462    0.319   12.881
  139.250  173.177   67.341    0.472    0.287   13.363
  139.500  173.174   66.136    0.485    0.266   14.127
  139.750  172.169   63.733    0.488    0.259   14.113
  140.000  171.165   63.730    0.472    0.285   13.836
  140.250  169.159   66.731    0.457    0.303   13.059
  140.500  166.153   69.132    0.460    0.313   11.872
  140.750  166.150   74.534    0.451    0.306   10.793
  141.000  168.149   82.339    0.436    0.293    9.998
  141.250  171.148   90.144    0.456    0.268    8.922
  141.500  173.146   92.544    0.494    0.259    7.239
  141.750  173.144   91.942    0.524    0.251    5.990
  142.000  172.140   95.543    0.504    0.221    6.333
  142.250  171.135   97.342    0.477    0.221    6.695
  142.500  172.132   95.539    0.483    0.231    6.946
  142.750  173.130   97.939    0.492    0.245    6.809
  143.000  175.128  100.339    0.472    0.241    6.675
  143.250  177.126   99.737    0.466    0.244    6.544
  143.500  177.123   92.528    0.493    0.253    6.535
  143.750  176.119   87.722    0.522    0.240    6.531
  144.000  174.113   82.915    0.526    0.161    6.523
  144.250  173.108   76.308    0.499    0.151    6.277
  144.500  172.106   84.713    0.475    0.183    6.152
  144.750  171.101   93.719    0.506    0.250    6.262
  145.000  171.098   90.114    0.501    0.273    7.005
  145.250  171.094   82.906    0.482    0.288    7.987
  145.500  170.090   75.096    0.465    0.281    9.281
  145.750  170.087   73.293    0.448    0.244   10.583
  146.000  170.084   72.089    0.431    0.198   11.613
  146.250  170.080   71.488    0.417    0.115   11.601
  146.500  170.077   75.089    0.383    0.167   12.265
  146.750  170.073   79.891    0.440    0.192   13.213
  147.000  170.070   80.489    0.455    0.215   13.708
  147.250  170.067   70.279    0.476    0.183   13.694
  147.500  171.063   59.466    0.438    0.128   13.425
  147.750  172.060   66.070    0.404    0.108   12.437
