~VERSION INFORMATION
 VERS.                 2.0:   CWLS LOG ASCII STANDARD -VERSION 2.0
 WRAP.                  NO:   ONE LINE PER DEPTH STEP
~WELL INFORMATION BLOCK
#MNEM.UNIT           DATA                    DESCRIPTION OF MNEMONIC
#---------    -------------------            -------------------------------
# Generated from Intellog Unique Number	CS_77_79/WELL/1024
WELL.         DOME COWPAR                    : Well_name    - WELL
LOC .         00/16-11-079-03W4/0            : Location     - LOCATION
UWI .         00/16-11-079-03W4/0            : Uwi          - UNIQUE WELL ID
ENTR.         JHS                            : Entered      - ENTERED BY
SRVC.         SCHLUMBERGER                   : Scn          - SERVICE COMPANY
STRT.M        120                            : top_depth    - START DEPTH
STOP.M        360                            : bot_depth    - STOP DEPTH
STEP.M        0.25                           : increment    - STEP LENGTH
 NULL. -999.2500:NULL Value
~CURVE INFORMATION BLOCK
#MNEM UNIT       ERCB CURVE CODE    CURVE DESCRIPTION
#-----------   ------------------   ----------------------------------
DEPT.M        00 001 00 00         : DEPTH        - DEPTH
DPHI.V/V      00 890 00 00         : PHID         - DENSITY POROSITY (LIMESTONE)
NPHI.V/V      00 330 00 00         : PHIN         - NEUTRON POROSITY (LIMESTONE)
GR  .API      00 310 00 00         : GR           - GAMMA RAY
ILD .OHMM     00 120 00 00         : RESD         - DEEP RESISTIVITY (DIL)
RHOB.KG/M3    00 350 00 00         : DENS         - BULK DENSITY
~PARAMETER INFORMATION
#MNEM.UNIT           DATA             DESCRIPTION OF MNEMONIC
#---------         -----------     ------------------------------
GL  .M        525.3                : gl           - GROUND LEVEL ELEVATION
EREF.M        528.7                : kb           - ELEVATION OF DEPTH REFERENCE
DATM.M        528.7                : datum        - DATUM ELEVATION
TDD .M        365                  : tdd          - TOTAL DEPTH DRILLER
RUN .         ONE                  : Run          - RUN NUMBER
ENG .         BILL                 : Engineer     - RECORDING ENGINEER
WIT .         JIM                  : Witness      - WITNESSED BY
MUD .         GEL                  : Mud_type     - MUD TYPE
MATR.         LIMESTONE            : Logunit      - NEUTRON MATRIX
TMAX.C        24                   : BHT          - MAXIMUM RECORDED TEMPERATURE
BHTD.M        365                  : BHTDEP       - MAXIMUM RECORDED TEMPERATURE
MATR.         1                    : LOGUNIT      - NEUTRON MATRIX
RMT .C        25                   : MDTP         - TEMPERATURE OF MUD
NEUT.         1                    : NEUTRON      - NEUTRON TYPE
RESI.         0                    : RESIST       - RESISTIVITY TYPE
RMC .OHMM     0.25                 : RMC          - RESISTIVITY OF MUD CAKE
RMF .OHMM     0.25                 : RMF          - RESISTIVITY OF MUD FILTRATE
SUFT.C        15                   : SUFT         - SURFACE TEMPERATURE
~A  DEPTH     PHID     PHIN       GR     RESD     DENS
  120.000    0.259    0.468  103.058    3.282    0.000
  120.250    0.256    0.461  104.300    3.163    0.000
  120.500    0.250    0.476  106.159    3.048    0.000
  120.750    0.251    0.460  106.186    2.937    0.000
  121.000    0.257    0.452  103.779    2.884    0.000
  121.250    0.259    0.495  103.799    2.884    0.000
  121.500    0.258    0.485  107.483    2.831    0.000
  121.750    0.247    0.480  103.858    2.832    0.000
  122.000    0.253    0.454  100.227    2.832    0.000
  122.250    0.256    0.436   99.639    2.832    0.000
  122.500    0.254    0.459  106.376    2.886    0.000
  122.750    0.245    0.431  107.011    2.886    0.000
  123.000    0.241    0.413   99.724    2.941    0.000
  123.250    0.255    0.424  105.232    2.941    0.000
  123.500    0.255    0.454  108.920    2.941    0.000
  123.750    0.243    0.472  105.900    2.942    0.000
  124.000    0.237    0.448  108.365    2.942    0.000
  124.250    0.243    0.440  109.608    2.942    0.000
  124.500    0.254    0.461  105.371    2.943    0.000
  124.750    0.250    0.455  101.738    2.999    0.000
  125.000    0.221    0.451  108.476    3.055    0.000
  125.250    0.212    0.449  109.722    3.171    0.000
  125.500    0.224    0.462  110.357    3.171    0.000
  125.750    0.231    0.442  106.726    3.292    0.000
  126.000    0.218    0.457  104.311    3.354    0.000
  126.250    0.214    0.454  111.657    3.417    0.000
  126.500    0.226    0.463  112.296    3.482    0.000
  126.750    0.225    0.462  105.005    3.482    0.000
  127.000    0.225    0.441  101.371    3.483    0.000
  127.250    0.227    0.430  108.103    3.419    0.000
  127.500    0.235    0.438  112.404    3.419    0.000
  127.750    0.241    0.412  106.939    3.357    0.000
  128.000    0.229    0.427  106.360    3.357    0.000
  128.250    0.227    0.436  104.554    3.358    0.000
  128.500    0.228    0.419  108.242    3.421    0.000
  128.750    0.227    0.419  107.048    3.551    0.000
  129.000    0.210    0.405  114.392    3.825    0.000
  129.250    0.179    0.402  109.541    4.357    0.000
  129.500    0.148    0.383  104.079    4.871    0.000
  129.750    0.171    0.364   91.911    5.056    0.000
  130.000    0.216    0.378   77.918    5.151    0.000
  130.250    0.239    0.367   94.406    5.057    0.000
  130.500    0.224    0.400  101.141    4.874    0.000
  130.750    0.257    0.399   99.339    5.059    0.000
  131.000    0.298    0.358   92.656    5.349    0.000
  131.250    0.119    0.324   88.417    6.562    0.000
  131.500    0.161    0.333   71.978    8.512    0.000
  131.750    0.268    0.360   57.980    9.000    0.000
  132.000    0.241    0.377   64.105    9.002    0.000
  132.250    0.212    0.390   78.158    8.675    0.000
  132.500    0.209    0.383   84.893    8.516    0.000
  132.750    0.211    0.390   91.627    8.056    0.000
  133.000    0.198    0.375   91.044    7.480    0.000
  133.250    0.191    0.383  100.217    6.692    0.000
  133.500    0.208    0.393  109.391    6.449    0.000
  133.750    0.209    0.401  110.027    6.571    0.000
  134.000    0.210    0.412  103.956    6.948    0.000
  134.250    0.222    0.390   98.498    8.062    0.000
  134.500    0.245    0.375   94.868    9.354    0.000
  134.750    0.261    0.371   99.772   11.057    0.000
  135.000    0.261    0.356   97.359   12.362    0.000
  135.250    0.251    0.335   91.898   13.567    0.000
  135.500    0.227    0.334   82.169   14.346    0.000
  135.750    0.184    0.348   76.100   15.454    0.000
  136.000    0.176    0.338   79.174   16.341    0.000
  136.250    0.255    0.341   82.861   16.043    0.000
  136.500    0.242    0.338   79.233   15.749    0.000
  136.750    0.225    0.359   74.377   14.624    0.000
  137.000    0.221    0.360   78.670   13.834    0.000
  137.250    0.223    0.351   90.285   13.580    0.000
  137.500    0.219    0.365   86.655   13.088    0.000
  137.750    0.213    0.351   82.412   13.089    0.000
  138.000    0.218    0.346   92.197   13.336    0.000
  138.250    0.240    0.361   92.833   13.842    0.000
  138.500    0.240    0.362   89.206   14.637    0.000
  138.750    0.237    0.338   90.453   15.477    0.000
  139.000    0.244    0.320   88.037   16.986    0.000
  139.250    0.250    0.329   81.353   17.961    0.000
  139.500    0.260    0.350   75.898   18.992    0.000
  139.750    0.260    0.324   74.091   19.714    0.000
  140.000    0.257    0.344   70.459   19.716    0.000
  140.250    0.247    0.340   68.051   18.650    0.000
  140.500    0.233    0.334   74.174   17.973    0.000
  140.750    0.222    0.336   80.297   17.320    0.000
  141.000    0.220    0.330   81.543   17.322    0.000
  141.250    0.251    0.342   73.644   17.980    0.000
  141.500    0.251    0.344   67.576   18.663    0.000
  141.750    0.258    0.324   65.773   20.104    0.000
  142.000    0.280    0.316   65.194   21.657    0.000
  142.250    0.375    0.362   62.166   22.900    0.000
  142.500    0.428    0.404   52.437   25.603    0.000
  142.750    0.445    0.315   44.537   28.624    0.000
  143.000    0.361    0.310   37.856   30.835    0.000
  143.250    0.299    0.300   36.665   33.218    0.000
  143.500    0.291    0.319   39.132   33.843    0.000
  143.750    0.293    0.331   42.817   33.849    0.000
  144.000    0.305    0.320   40.408   32.619    0.000
  144.250    0.307    0.324   38.001   30.855    0.000
  144.500    0.314    0.317   38.024   27.605    0.000
  144.750    0.301    0.317   41.708   23.360    0.000
  145.000    0.296    0.318   51.489   19.403    0.000
  145.250    0.283    0.333   70.418   14.688    0.000
  145.500    0.245    0.376   83.860   11.327    0.000
  145.750    0.216    0.393   94.863    9.585    0.000
  146.000    0.202    0.376   98.548    8.418    0.000
  146.250    0.171    0.376  103.454    7.672    0.000
  146.500    0.172    0.362   99.822    7.257    0.000
  146.750    0.197    0.365   99.852    7.395    0.000
  147.000    0.216    0.395  102.317    7.675    0.000
  147.250    0.250    0.387  107.835    8.581    0.000
  147.500    0.275    0.381  107.858    9.773    0.000
  147.750    0.281    0.401  104.841   12.443    0.000
  148.000    0.302    0.390   97.544   13.656    0.000
  148.250    0.308    0.378   93.916   12.918    0.000
  148.500    0.256    0.423  104.306   11.774    0.000
  148.750    0.167    0.422  115.920    9.963    0.000
  149.000    0.156    0.390  124.485    9.081    0.000
  149.250    0.200    0.385  126.343    7.828    0.000
  149.500    0.155    0.424  123.319    7.004    0.000
  149.750    0.124    0.401  110.540    6.876    0.000
  150.000    0.134    0.374  100.206    7.005    0.000
  150.250    0.278    0.364   95.349    7.547    0.000
  150.500    0.333    0.376   92.939    8.437    0.000
  150.750    0.341    0.376   97.844   11.149    0.000
  151.000    0.339    0.375   77.747   14.460    0.000
  151.250    0.396    0.399   61.312   18.073    0.000
  151.500    0.394    0.388   41.825   20.584    0.000
  151.750    0.357    0.352   49.782   23.014    0.000
  152.000    0.318    0.340   58.953   23.015    0.000
  152.250    0.311    0.332   61.423   22.595    0.000
  152.500    0.312    0.337   55.350   21.774    0.000
  152.750    0.335    0.335   57.814   20.218    0.000
  153.000    0.404    0.386   70.648   18.773    0.000
  153.250    0.295    0.369   75.552   17.758    0.000
  153.500    0.247    0.355   77.411   16.489    0.000
  153.750    0.239    0.367   81.704   15.598    0.000
  154.000    0.235    0.381   88.438   13.446    0.000
  154.250    0.285    0.422   95.172   12.957    0.000
  154.500    0.383    0.408   84.226   13.959    0.000
  154.750    0.376    0.384   62.912   14.760    0.000
  155.000    0.359    0.373   61.721   17.126    0.000
  155.250    0.367    0.386   58.087   19.506    0.000
  155.500    0.381    0.430   53.845   20.626    0.000
  155.750    0.403    0.420   58.752   21.016    0.000
  156.000    0.435    0.436   58.782   21.019    0.000
  156.250    0.414    0.389   56.987   20.634    0.000
