~VERSION INFORMATION
 VERS.                 2.0:   CWLS LOG ASCII STANDARD -VERSION 2.0
 WRAP.                  NO:   ONE LINE PER DEPTH STEP
~WELL INFORMATION BLOCK
#MNEM.UNIT           DATA                    DESCRIPTION OF MNEMONIC
#---------    -------------------            -------------------------------
# Generated from Intellog Unique Number	CW_79_81/WELL/773
WELL.         PACIFIC STONY RAPIDS           : Well_name    - WELL
LOC .         00/10-13-080-19W4/0            : Location     - LOCATION
UWI .         00/10-13-080-19W4/0            : Uwi          - UNIQUE WELL ID
ENTR.         MAX                            : Entered      - ENTERED BY
SRVC.         SCHLUMBERGER                   : Scn          - SERVICE COMPANY
STRT.M        182.88                         : top_depth    - START DEPTH
STOP.M        365.88                         : bot_depth    - STOP DEPTH
STEP.M        0.25                           : increment    - STEP LENGTH
 NULL. -999.2500:NULL Value
~CURVE INFORMATION BLOCK
#MNEM UNIT       ERCB CURVE CODE    CURVE DESCRIPTION
#-----------   ------------------   ----------------------------------
DEPT.M        00 001 00 00         : DEPTH        - DEPTH
ILD .OHMM     00 120 00 00         : RESD         - DEEP RESISTIVITY (DIL)
NPHI.V/V      00 330 00 00         : PHIN         - NEUTRON POROSITY (SANDSTONE)
DPHI.V/V      00 890 00 00         : PHID         - DENSITY POROSITY (SANDSTONE)
CALI.MM       00 280 01 00         : CAL          - CALIPER
GR  .API      00 310 00 00         : GR           - GAMMA RAY
~PARAMETER INFORMATION
#MNEM.UNIT           DATA             DESCRIPTION OF MNEMONIC
#---------         -----------     ------------------------------
GL  .M        565.526              : gl           - GROUND LEVEL ELEVATION
EREF.M        568.879              : kb           - ELEVATION OF DEPTH REFERENCE
DATM.M        565.526              : datum        - DATUM ELEVATION
TDD .M        407.213              : tdd          - TOTAL DEPTH DRILLER
RUN .         ONE                  : Run          - RUN NUMBER
ENG .         BILL                 : Engineer     - RECORDING ENGINEER
WIT .         JIM                  : Witness      - WITNESSED BY
MUD .         GEL                  : Mud_type     - MUD TYPE
MATR.         SANDSTONE            : Logunit      - NEUTRON MATRIX
TMAX.C        25.5556              : BHT          - MAXIMUM RECORDED TEMPERATURE
BHTD.M        407.213              : BHTDEP       - MAXIMUM RECORDED TEMPERATURE
RMT .C        23.3333              : MDTP         - TEMPERATURE OF MUD
MUDD.KG/M     1100                 : MWT          - MUD DENSITY
NEUT.         1                    : NEUTRON      - NEUTRON TYPE
RESI.         0                    : RESIST       - RESISTIVITY TYPE
RM  .OHMM     2.45                 : RM           - RESISTIVITY OF MUD
RMC .OHMM     0                    : RMC          - RESISTIVITY OF MUD CAKE
RMF .OHMM     2.45                 : RMF          - RESISTIVITY OF MUD FILTRATE
SUFT.C        -20.5556             : SUFT         - SURFACE TEMPERATURE
~A  DEPTH     RESD     PHIN     PHID      CAL       GR
# ...
  292.380    6.982    0.493    0.211  196.726   88.580
  292.630    6.855    0.501    0.237  195.169   88.556
  292.880    6.917    0.511    0.224  193.603   88.839
  293.130    7.238    0.515    0.240  192.042   89.417
  293.380    7.714    0.513    0.264  190.480   84.292
  293.630    8.297    0.507    0.291  189.431   77.670
  293.880    8.843    0.496    0.302  189.394   69.549
  294.130    9.775    0.484    0.298  190.871   65.326
  294.380   10.707    0.476    0.310  191.859   62.902
  294.630   11.516    0.483    0.284  191.314   61.977
  294.880   11.726    0.470    0.283  189.240   60.458
  295.130   11.513    0.430    0.259  189.198   58.036
  295.380   11.303    0.395    0.236  189.160   57.411
  295.630   11.302    0.428    0.273  190.139   58.289
  295.880   11.197    0.459    0.294  191.630   60.064
  296.130   10.893    0.465    0.307  193.624   60.342
  296.380   10.501    0.459    0.314  194.090   60.325
  296.630   10.032    0.447    0.287  193.550   61.197
  296.880    9.496    0.445    0.285  191.476   60.878
  297.130    9.239    0.448    0.302  190.417   61.156
  297.380    8.509    0.455    0.293  189.369   61.731
  297.630    8.128    0.463    0.307  188.819   62.012
  297.880    7.981    0.468    0.303  188.781   62.887
  298.130    7.835    0.487    0.301  188.748   63.767
  298.380    8.051    0.496    0.297  188.706   64.043
  298.630    8.426    0.494    0.287  188.166   62.818
  298.880    8.899    0.488    0.288  187.611   61.898
  299.130    9.484    0.476    0.308  187.583   61.276
  299.380    9.657    0.467    0.311  187.033   61.252
  299.630    9.744    0.462    0.305  187.503   60.932
  299.880   10.197    0.463    0.302  187.466   60.607
  300.130   10.968    0.471    0.287  187.932   60.288
  300.380   11.904    0.465    0.272  188.407   59.063
  300.630   12.345    0.418    0.247  188.365   56.644
  300.880   12.343    0.355    0.204  188.840   55.119
  301.130   11.899    0.361    0.230  189.311   56.894
  301.380   11.161    0.441    0.285  189.777   60.775
  301.630   10.280    0.469    0.275  190.755   62.850
  301.880    9.731    0.489    0.285  191.226   62.828
  302.130    9.296    0.493    0.303  192.204   62.808
  302.380    9.044    0.477    0.306  193.183   63.386
  302.630    9.042    0.477    0.296  193.644   63.664
  302.880    9.208    0.477    0.288  193.616   64.539
  303.130    9.814    0.473    0.282  195.102   65.417
  303.380   10.555    0.464    0.283  197.595   65.692
  303.630   11.046    0.448    0.273  198.583   66.273
  303.880   11.773    0.455    0.248  201.081   65.948
  304.130   12.895    0.456    0.210  202.563   64.726
  304.380   14.125    0.380    0.180  203.546   63.204
  304.630   16.046    0.342    0.148  204.520   61.385
  304.880   16.488    0.323    0.138  205.503   59.562
  305.130   15.896    0.316    0.140  206.482   59.240
  305.380   14.508    0.332    0.156  207.460   60.416
  305.630   12.651    0.346    0.168  208.439   63.093
  305.880   10.832    0.380    0.186  208.909   66.971
  306.130    9.977    0.422    0.229  209.888   70.849
  306.380    9.023    0.460    0.248  211.365   75.327
  306.630    8.698    0.470    0.256  212.353   76.499
  306.880    8.618    0.469    0.254  213.327   79.180
  307.130    8.618    0.484    0.258  214.305   82.757
  307.380    8.774    0.486    0.260  214.776   82.435
  307.630    9.016    0.472    0.253  215.242   80.616
  307.880    9.181    0.460    0.240  216.216   79.694
  308.130    9.179    0.446    0.214  216.691   81.766
  308.380    9.095    0.441    0.213  217.166   84.447
  308.630    8.849    0.456    0.234  218.140   84.725
  308.880    8.767    0.474    0.234  218.615   85.602
  309.130    8.766    0.478    0.220  219.086   86.483
  309.380    8.764    0.472    0.208  219.556   88.858
  309.630    8.763    0.467    0.214  219.514   89.733
  309.880    8.762    0.463    0.225  219.477   87.314
  310.130    8.841    0.453    0.210  218.922   84.592
  310.380    8.920    0.454    0.222  218.381   85.170
  310.630    9.083    0.464    0.219  218.344   86.645
  310.880    9.334    0.469    0.217  217.803   89.025
  311.130    9.334    0.474    0.217  217.248   89.903
  311.380    9.503    0.473    0.210  217.220   89.276
  311.630    9.855    0.478    0.198  216.666   87.757
  311.880    9.943    0.489    0.191  216.120   85.332
  312.130    9.942    0.488    0.195  216.591   85.307
  312.380    9.941    0.472    0.206  217.061   86.787
  312.630   10.030    0.469    0.225  218.045   87.965
  312.880   10.121    0.498    0.236  219.526   87.346
  313.130   10.119    0.504    0.228  221.013   87.024
  313.380   10.211    0.473    0.217  222.499   88.202
  313.630   10.303    0.482    0.205  223.478   89.980
  313.880   10.395    0.481    0.202  223.953   91.757
  314.130   10.489    0.481    0.217  224.414   94.135
  314.380   10.488    0.475    0.223  224.890   94.710
  314.630   10.485    0.473    0.228  224.843   93.488
  314.880   10.485    0.482    0.226  225.318   91.963
  315.130   10.388    0.477    0.227  225.276   91.944
  315.380   10.199    0.469    0.217  225.239   91.922
  315.630    9.922    0.476    0.203  225.206   91.597
  315.880    9.222    0.484    0.218  224.665   91.875
  316.130    8.494    0.494    0.226  224.623   92.756
  316.380    7.895    0.505    0.222  224.586   92.731
  316.630    7.681    0.504    0.223  224.040   90.009
  316.880    7.541    0.484    0.203  221.961   89.087
  317.130    7.609    0.473    0.194  219.393   89.062
  317.380    7.963    0.464    0.206  217.324   88.740
  317.630    8.334    0.457    0.207  216.774   88.420
  317.880    9.296    0.447    0.202  217.753   88.096
  318.130   10.561    0.429    0.191  219.239   88.376
  318.380   10.952    0.447    0.178  220.218   88.651
  318.630   10.655    0.465    0.209  220.176   89.524
  318.880    9.813    0.473    0.214  218.619   90.107
  319.130    9.635    0.470    0.215  215.529   91.285
  319.380    9.722    0.463    0.219  211.423   92.160
  319.630    9.990    0.459    0.210  208.855   91.238
  319.880   10.360    0.459    0.202  205.765   89.416
  320.130    9.254    0.452    0.216  201.482   87.049
  320.380    9.708    0.454    0.198  200.537   84.691
  320.630   10.090    0.460    0.201  198.095   80.219
  320.880   10.677    0.418    0.156  196.120   72.442
  321.130   11.414    0.387    0.197  191.639   71.295
  321.380   11.543    0.438    0.214  189.664   72.549
  321.630   11.050    0.438    0.260  188.231   75.912
  321.880   10.386    0.434    0.243  188.316   79.876
  322.130   10.409    0.441    0.262  188.402   77.223
  322.380   10.336    0.444    0.269  189.008   77.581
  322.630    9.902    0.439    0.280  189.593   80.636
  322.880    9.651    0.448    0.265  190.698   83.992
  323.130    9.157    0.458    0.252  191.803   85.246
  323.380    8.932    0.455    0.238  193.428   84.701
  323.630    8.948    0.456    0.212  195.022   83.554
  323.880    8.970    0.459    0.196  198.188   83.611
  324.130    8.989    0.460    0.188  199.792   86.057
  324.380    9.176    0.444    0.207  208.544   89.419
  324.630    9.448    0.465    0.216  215.777   90.981
  324.880    9.912    0.453    0.191  203.107   87.714
  325.130   10.984    0.438    0.187  197.606   86.861
  325.380   11.944    0.416    0.184  196.662   85.406
  325.630   13.479    0.417    0.160  196.736   77.328
  325.880   14.537    0.400    0.145  196.334   72.255
  326.130   14.967    0.391    0.124  195.888   67.501
  326.380   14.463    0.380    0.126  195.888   67.238
  326.630   14.362    0.400    0.159  195.592   69.709
  326.880   14.525    0.417    0.166  195.645   73.065
  327.130   14.560    0.374    0.137  195.232   71.623
  327.380   14.728    0.335    0.127  194.797   70.457
  327.630   14.358    0.321    0.148  194.904   70.212
  327.880   13.620    0.361    0.182  194.989   71.768
  328.130   12.347    0.406    0.244  195.064   72.421
  328.380   11.095    0.435    0.243  195.150   73.682
  328.630   10.522    0.451    0.200  195.225   73.438
