~VERSION INFORMATION
 VERS.                 2.0:   CWLS LOG ASCII STANDARD -VERSION 2.0
 WRAP.                  NO:   ONE LINE PER DEPTH STEP
~WELL INFORMATION BLOCK
#MNEM.UNIT           DATA                    DESCRIPTION OF MNEMONIC
#---------    -------------------            -------------------------------
# Generated from Intellog Unique Number	CW_70_72/WELL/3311
NULL.         -999.25                        : NULL_VALUE
WELL.         CALSTAN SOBC MITSUE            : Well_name    - WELL              
LOC .         16-12-071-05W5                 : Location     - LOCATION          
UWI .         00/16-12-071-05W5/0            : Uwi          - UNIQUE WELL ID    
ENTR.         CAMPBELL                       : Entered      - ENTERED BY        
SRVC.         SCHLUMBERGER                   : Scn          - SERVICE COMPANY   
DATE.         12 JULY 1965                   : Date         - LOG DATE          
STRT.M        667.512                        : top_depth    - START DEPTH       
STOP.M        813.762                        : bot_depth    - STOP DEPTH        
STEP.M        0.25                           : increment    - STEP LENGTH       
~CURVE INFORMATION BLOCK
#MNEM UNIT       ERCB CURVE CODE    CURVE DESCRIPTION
#-----------   ------------------   ----------------------------------
DEPT.M        00 001 00 00         : DEPTH        - DEPTH                       
ILD .OHMM     00 120 00 00         : RESD         - DEEP RESISTIVITY (DIL)      
DELT.US/F     00 520 00 00         : DELT         - SONIC TRAVEL TIME           
GR  .API      00 310 00 00         : GR           - GAMMA RAY                   
~PARAMETER INFORMATION       
#MNEM.UNIT           DATA             DESCRIPTION OF MNEMONIC
#---------         -----------     ------------------------------
GL  .M        752.46               : gl           - GROUND LEVEL ELEVATION      
EREF.M        756.27               : kb           - ELEVATION OF DEPTH REFERENCE
DATM.M        756.27               : datum        - DATUM ELEVATION             
TDD .M        1864.77              : tdd          - TOTAL DEPTH DRILLER         
RUN .         ONE                  : Run          - RUN NUMBER                  
ENG .         HAMILTON             : Engineer     - RECORDING ENGINEER          
WIT .         BROWN                : Witness      - WITNESSED BY                
MUD .         GEL                  : Mud_type     - MUD TYPE                    
MATR.         SANDSTONE            : Logunit      - NEUTRON MATRIX              
TMAX.C        52.2222              : BHT          - MAXIMUM RECORDED TEMPERATURE
BHTD.M        1864.77              : BHTDEP       - MAXIMUM RECORDED TEMPERATURE
RMT .C        20                   : MDTP         - TEMPERATURE OF MUD          
MUDD.KG/M     10000                : MWT          - MUD DENSITY                 
NEUT.         1                    : NEUTRON      - NEUTRON TYPE                
RESI.         0                    : RESIST       - RESISTIVITY TYPE            
RM  .OHMM     1.5                  : RM           - RESISTIVITY OF MUD          
RMC .OHMM     1.62                 : RMC          - RESISTIVITY OF MUD CAKE     
RMF .OHMM     1.25                 : RMF          - RESISTIVITY OF MUD FILTRATE 
SUFT.C        20                   : SUFT         - SURFACE TEMPERATURE         
~A  DEPTH     RESD     DELT       GR
# ...
  776.012    4.328  324.967   77.117
  776.262    4.334  324.237   80.994
  776.512    4.339  327.441   74.723
  776.762    4.245  331.942   80.179
  777.012    4.152  332.518   78.025
  777.262    4.057  322.080   77.467
  777.512    4.063  321.729   80.075
  777.762    4.068  325.283   87.125
  778.012    3.975  329.481   92.597
  778.262    3.980  333.364   87.588
  778.512    3.986  337.240   83.204
  778.762    3.892  340.140   79.155
  779.012    3.897  349.544   79.850
  779.262    3.903  357.322   83.735
  779.512    3.910  349.817   81.591
  779.762    3.914  340.036   83.872
  780.012    3.919  327.651   88.400
  780.262    3.928  327.622   91.643
  780.512    3.931  327.596   92.989
  780.762    4.036  327.566   90.501
  781.012    4.042  327.872   87.722
  781.262    4.047  329.147   87.481
  781.512    3.854  333.020   87.224
  781.762    3.561  340.476   89.839
  782.012    3.367  350.858   92.447
  782.262    2.974  380.096   94.411
  782.512    2.680  380.721   85.910
  782.762    2.089  372.241   75.814
  783.012    1.697  387.826   66.670
  783.262    1.403  431.700   51.178
  783.512    1.309  466.469   47.129
  783.762    1.316  530.181   45.602
  784.012    1.220  568.202   43.131
  784.262    1.326  597.444   44.795
  784.512    1.432  616.274   49.933
  784.762    1.437  613.000   54.453
  785.012    1.442  610.373   57.060
  785.262    1.449  648.069   58.724
  785.512    1.553  650.969   61.331
  785.762    1.858  643.464   65.525
  786.012    2.162  649.617   65.276
  786.262    2.667  656.744   71.383
  786.512    2.971  516.561   68.287
  786.762    3.275  478.163   69.942
  787.012    3.479  372.775   73.501
  787.262    3.486  361.687   78.021
  787.512    3.490  365.891   77.772
  787.762    3.497  359.037   71.176
  788.012    3.497  336.246   71.570
  788.262    3.510  341.095   72.891
  788.512    3.514  342.695   72.324
  788.762    3.519  355.356   74.940
  789.012    3.724  362.484   75.969
  789.262    3.928  373.188   74.442
  789.512    3.934  367.960   73.241
  789.762    3.939  341.592   73.309
  790.012    3.945  331.161   74.012
  790.262    3.950  312.595   74.080
  790.512    3.956  314.523   71.936
  790.762    3.663  313.193   66.600
  791.012    3.370  303.741   67.621
  791.262    3.176  303.390   68.015
  791.512    3.082  332.631   66.496
  791.762    2.889  391.466   66.573
  792.012    2.795  419.079   65.998
  792.262    2.800  452.548   65.432
  792.512    3.104  410.247   68.039
  792.762    3.608  391.196   72.233
  793.012    3.913  411.710   79.292
  793.262    4.018  373.423   77.456
  793.512    4.024  309.324   78.477
  793.762    4.029  336.031   79.497
  794.012    3.935  347.731   80.209
  794.262    3.743  379.025   81.238
  794.512    3.747  403.455   79.393
  794.762    3.952  393.585   76.923
  795.012    4.257  375.219   81.434
  795.262    4.561  308.844   89.763
  795.512    4.567  271.210   94.926
  795.762    4.572  293.347   79.735
  796.012    4.379  301.774   76.947
  796.262    4.186  325.870   77.024
  796.512    3.992  338.222   76.775
  796.762    3.798  356.442   75.565
  797.012    3.704  348.196   75.976
  797.262    3.610  366.759   78.258
  797.512    3.615  373.211   81.182
  797.762    3.620  376.415   87.607
  798.012    3.627  329.959   94.657
  798.262    3.831  324.342  100.447
  798.512    4.038  311.207   90.033
  798.762    4.541  287.945   79.620
  799.012    5.144  270.885   73.332
  799.262    5.648  276.366   68.005
  799.512    5.851  290.024   64.582
  799.762    5.359  300.393   65.603
  800.012    5.166  297.721   69.162
  800.262    5.171  293.083   72.730
  800.512    5.177  304.113   73.116
  800.762    5.582  312.213   75.406
  801.012    5.885  321.611   64.675
  801.262    6.688  324.815   52.382
  801.512    7.888  246.344   48.617
  801.762    9.488  232.557   43.289
  802.012   10.789  221.382   42.097
  802.262   11.393  221.966   45.339
  802.512   11.597  230.719   48.907
  802.762   11.802  235.212   52.466
  803.012   12.006  237.111   58.256
  803.262   12.410  245.211   63.711
  803.512   12.814  238.606   62.519
  803.762   13.220  233.624   66.078
  804.012   13.324  232.258   71.542
  804.262   13.030  227.284   78.927
  804.512   11.442  235.385   82.812
  804.762   10.850  241.527   87.006
  805.012   10.358  237.859   87.383
  805.262    9.966  241.055  104.607
  805.512    9.573  250.126  109.753
  805.762    9.478  251.372   75.846
  806.012    9.484  258.484   63.528
  806.262    9.590  253.837   54.066
  806.512    9.795  249.843   52.873
  806.762   10.099  246.837   51.681
  807.012   10.303  242.207   50.154
  807.262   10.607  235.274   49.587
  807.512   11.411  232.594   48.703
  807.762   11.316  233.170   48.455
  808.012   10.326  232.457   49.784
  808.262    9.932  242.843   60.668
  808.512    9.539  256.819   58.181
  808.762    9.246  265.238   63.979
  809.012    8.755  273.012   57.691
  809.262    8.960  272.600   51.412
  809.512    9.364  287.572   49.250
  809.762    9.967  283.578   49.001
  810.012   11.267  249.527   48.769
  810.262   12.268  245.550   48.520
  810.512   13.669  237.638   47.945
  810.762   14.870  258.478   46.109
  811.012   15.971  232.278   43.947
  811.262   17.272  207.058   39.890
  811.512   17.078  210.253   38.380
  811.762   16.187  210.176   38.122
  812.012   15.495  216.971   34.382
  812.262   14.903  222.125   35.720
  812.512   14.411  221.387   35.471
  812.762   13.919  220.030   38.095
  813.012   13.526  218.320   39.441
  813.262   13.233  218.578   40.453
  813.512   13.040  223.406   44.330
  813.762   12.950  223.346   48.842
