~VERSION INFORMATION
 VERS.                 2.0:   CWLS LOG ASCII STANDARD -VERSION 2.0
 WRAP.                  NO:   ONE LINE PER DEPTH STEP
~WELL INFORMATION BLOCK
#MNEM.UNIT           DATA                    DESCRIPTION OF MNEMONIC
#---------    -------------------            -------------------------------
# Generated from Intellog Unique Number	CW_79_81/WELL/2470
NULL.         -999.25                        : NULL_VALUE
WELL.         CHEVRON FINA MUSKWA            : Well_name    - WELL              
LOC .         10-18-081-04W5                 : Location     - LOCATION          
UWI .         00/10-18-081-04W5/0            : Uwi          - UNIQUE WELL ID    
ENTR.         MAX                            : Entered      - ENTERED BY        
SRVC.         SCHLUMBERGER                   : Scn          - SERVICE COMPANY   
DATE.         06 MAR 74                      : Date         - LOG DATE
STRT.M        298.704                        : top_depth    - START DEPTH       
STOP.M        542.204                        : bot_depth    - STOP DEPTH        
STEP.M        0.25                           : increment    - STEP LENGTH       
~CURVE INFORMATION BLOCK
#MNEM UNIT       ERCB CURVE CODE    CURVE DESCRIPTION
#-----------   ------------------   ----------------------------------
DEPT.M        00 001 00 00         : DEPTH        - DEPTH                       
ILD .OHMM     00 120 00 00         : RESD         - DEEP RESISTIVITY (DIL)      
NPHI.V/V      00 330 00 00         : PHIN         - NEUTRON POROSITY (SANDSTONE)
DPHI.V/V      00 890 00 00         : PHID         - DENSITY POROSITY (SANDSTONE)
GR  .API      00 310 00 00         : GR           - GAMMA RAY                   
CALI.MM       00 280 01 00         : CAL          - CALIPER                     
~PARAMETER INFORMATION       
#MNEM.UNIT           DATA             DESCRIPTION OF MNEMONIC
#---------         -----------     ------------------------------
GL  .M        596.189              : gl           - GROUND LEVEL ELEVATION      
EREF.M        599.999              : kb           - ELEVATION OF DEPTH REFERENCE
DATM.M        596.189              : datum        - DATUM ELEVATION             
TDD .M        541.934              : tdd          - TOTAL DEPTH DRILLER         
RUN .         ONE                  : Run          - RUN NUMBER                  
ENG .         BILL                 : Engineer     - RECORDING ENGINEER          
WIT .         JIM                  : Witness      - WITNESSED BY                
MUD .         GEL                  : Mud_type     - MUD TYPE                    
MATR.         SANDSTONE            : Logunit      - NEUTRON MATRIX              
TMAX.C        28.3333              : BHT          - MAXIMUM RECORDED TEMPERATURE
BHTD.M        541.934              : BHTDEP       - MAXIMUM RECORDED TEMPERATURE
MATR.         1                    : LOGUNIT      - NEUTRON MATRIX              
RMT .C        20.5556              : MDTP         - TEMPERATURE OF MUD          
NEUT.         1                    : NEUTRON      - NEUTRON TYPE                
RESI.         0                    : RESIST       - RESISTIVITY TYPE            
RMC .OHMM     7.58                 : RMC          - RESISTIVITY OF MUD CAKE     
RMF .OHMM     8.19                 : RMF          - RESISTIVITY OF MUD FILTRATE 
SUFT.C        -15                  : SUFT         - SURFACE TEMPERATURE         
~A  DEPTH     RESD     PHIN     PHID       GR      CAL
# ...
  408.204   11.033    0.405    0.245   72.395  198.922
  408.454   10.335    0.409    0.252   71.926  198.924
  408.704    9.954    0.405    0.242   72.866  198.926
  408.954    9.671    0.407    0.228   74.979  199.126
  409.204    9.325    0.415    0.216   77.034  199.327
  409.454    8.739    0.421    0.209   76.556  199.015
  409.704    8.418    0.424    0.215   75.335  199.431
  409.954    7.943    0.429    0.235   76.040  199.830
  410.204    7.372    0.427    0.234   77.977  200.825
  410.454    6.888    0.420    0.234   80.443  202.020
  410.704    6.389    0.414    0.236   82.673  202.916
  410.954    5.594    0.420    0.222   84.141  203.084
  411.204    5.270    0.435    0.214   85.610  203.914
  411.454    5.156    0.431    0.211   85.141  203.915
  411.704    5.295    0.425    0.205   83.793  203.917
  411.954    5.566    0.423    0.212   81.917  203.919
  412.204    5.956    0.425    0.223   80.158  203.922
  412.454    6.708    0.430    0.219   79.260  203.841
  412.704    7.344    0.433    0.237   78.283  203.429
  412.954    7.450    0.435    0.251   78.050  203.033
  413.204    7.037    0.437    0.261   79.048  202.638
  413.454    6.025    0.436    0.259   80.575  202.441
  413.704    4.942    0.429    0.249   82.746  203.039
  413.954    4.164    0.423    0.241   86.552  206.502
  414.204    3.982    0.439    0.228   86.797  211.885
  414.454    4.039    0.475    0.232   88.207  216.258
  414.704    4.251    0.482    0.240   88.208  213.480
  414.954    4.673    0.476    0.248   87.740  206.528
  415.204    5.308    0.466    0.253   87.096  199.575
  415.454    6.092    0.455    0.256   85.386  197.905
  415.704    6.825    0.446    0.266   82.698  197.493
  415.954    7.276    0.433    0.282   78.944  196.700
  416.204    7.599    0.429    0.297   76.071  196.205
  416.454    7.821    0.429    0.298   74.429  196.207
  416.704    8.005    0.430    0.288   73.140  196.606
  416.954    8.335    0.425    0.279   69.748  197.254
  417.204    8.852    0.418    0.277   68.038  198.498
  417.454    9.640    0.356    0.270   67.804  200.884
  417.704   10.503    0.314    0.214   66.515  201.781
  417.954   11.716    0.289    0.153   65.225  201.385
  418.204   13.405    0.274    0.116   64.522  200.294
  418.454   15.437    0.256    0.108   64.524  199.502
  418.704   16.901    0.243    0.101   64.525  199.504
  418.954   18.148    0.206    0.079   62.883  199.506
  419.204   20.002    0.188    0.055   61.418  199.508
  419.454   21.834    0.178    0.027   60.597  199.708
  419.704   22.726    0.169    0.003   60.481  199.909
  419.954   21.550    0.170    0.004   60.815  199.348
  420.204   19.857    0.190    0.014   61.305  198.523
  420.454   18.330    0.213    0.031   62.479  199.717
  420.704   18.176    0.220    0.047   63.478  200.911
  420.954   19.023    0.209    0.040   64.887  201.906
  421.204   20.697    0.186    0.017   66.824  202.405
  421.454   23.117    0.180    0.021   69.524  202.010
  421.704   24.182    0.207    0.035   72.459  202.012
  421.954   22.652    0.234    0.047   76.920  201.616
  422.204   18.691    0.262    0.066   78.915  201.519
  422.454   15.199    0.299    0.105   80.442  201.521
  422.704   12.031    0.340    0.155   82.731  201.523
  422.954    8.265    0.380    0.192   86.448  201.525
  423.204    6.271    0.417    0.221   87.427  201.527
  423.454    5.179    0.414    0.221   89.071  201.529
  423.704    4.697    0.406    0.210   91.243  201.233
  423.954    4.486    0.412    0.202   93.239  200.838
  424.204    4.437    0.429    0.202   94.413  200.542
  424.454    4.560    0.432    0.206   94.229  200.544
  424.704    4.699    0.429    0.205   94.475  200.546
  424.954    5.046    0.423    0.194   92.129  200.548
  425.204    5.392    0.407    0.177   89.784  200.550
  425.454    5.732    0.398    0.179   89.550  200.552
  425.704    6.082    0.400    0.199   92.132  200.554
  425.954    6.530    0.417    0.211   97.023  200.639
  426.204    6.729    0.435    0.213   98.002  201.055
  426.454    6.166    0.435    0.209   94.718  201.454
  426.704    5.716    0.435    0.202   92.137  201.854
  426.954    5.439    0.442    0.196   90.613  202.253
  427.204    5.361    0.453    0.197   89.969  202.553
  427.454    5.566    0.450    0.212   89.110  202.555
  427.704    5.822    0.431    0.209   87.156  202.557
  427.954    5.991    0.419    0.196   82.933  202.559
  428.204    5.969    0.385    0.176   80.646  202.859
  428.454    5.797    0.353    0.154   81.116  202.861
  428.704    5.553    0.346    0.139   84.226  202.168
  428.954    5.286    0.395    0.154   89.166  200.498
  429.204    5.130    0.425    0.191   90.389  200.086
  429.454    5.092    0.424    0.179   91.329  201.678
  429.704    5.055    0.422    0.166   92.445  202.673
  429.954    5.091    0.420    0.157   93.737  202.873
  430.204    5.211    0.420    0.153   95.029  202.677
  430.454    5.370    0.422    0.157   95.871  203.573
  430.704    5.410    0.431    0.167   95.383  206.059
  430.954    5.410    0.439    0.159   96.089  206.856
  431.204    5.380    0.438    0.168   96.618  206.758
  431.454    5.341    0.433    0.170   96.619  205.369
  431.704    5.311    0.428    0.164   96.209  203.980
  431.954    5.310    0.423    0.173   96.172  205.904
  432.204    5.310    0.421    0.175   97.151  207.562
  432.454    5.271    0.420    0.179   98.325  207.563
  432.704    5.176    0.424    0.183   98.620  206.969
  432.954    5.102    0.430    0.175   98.856  206.574
  433.204    5.065    0.435    0.158   99.267  206.576
  433.454    5.020    0.432    0.144   99.455  206.496
  433.704    4.982    0.425    0.134   99.211  206.083
  433.954    4.982    0.415    0.135   98.743  206.085
  434.204    4.981    0.413    0.151   98.275  206.087
  434.454    4.980    0.417    0.164   98.041  205.890
  434.704    4.980    0.422    0.167   97.984  205.594
  434.954    4.979    0.423    0.164   97.946  205.597
  435.204    4.978    0.426    0.164   98.925  205.599
  435.454    4.907    0.433    0.169  100.100  205.203
  435.704    4.889    0.437    0.167   99.162  204.808
  435.954    4.888    0.438    0.160   98.342  205.008
  436.204    4.887    0.437    0.152   98.812  205.308
  436.454    4.894    0.430    0.151  101.180  204.119
  436.704    4.930    0.427    0.151  103.626  204.121
  436.954    4.930    0.428    0.152  103.392  204.918
  437.204    4.929    0.426    0.150  103.335  205.118
  437.454    4.928    0.425    0.154  103.219  204.723
  437.704    4.928    0.426    0.165  103.396  203.930
  437.954    4.920    0.427    0.172  104.756  203.055
  438.204    4.882    0.427    0.167  104.513  202.642
  438.454    4.917    0.406    0.158  103.106  203.042
  438.704    5.032    0.400    0.149  101.171  203.143
  438.954    5.215    0.401    0.150   98.591  203.145
  439.204    5.491    0.409    0.158   95.483  203.147
  439.454    6.091    0.420    0.168   91.661  203.067
  439.704    6.928    0.415    0.192   88.973  202.655
  439.954    8.034    0.408    0.205   88.035  202.657
  440.204    8.593    0.413    0.210   86.922  202.957
  440.454    8.465    0.417    0.211   86.219  203.555
  440.704    7.843    0.418    0.208   86.162  204.550
  440.954    6.918    0.416    0.190   86.681  206.308
  441.204    6.328    0.415    0.167   86.927  207.137
  441.454    6.237    0.401    0.150   84.582  207.139
  441.704    6.382    0.395    0.145   82.940  207.141
  441.954    7.238    0.395    0.154   82.052  206.994
  442.204    9.232    0.395    0.178   79.644  205.873
  442.454   12.508    0.393    0.220   70.230  202.275
  442.704   15.680    0.406    0.230   65.793  202.285
  442.954   17.604    0.408    0.233   66.273  202.297
  443.204   18.569    0.405    0.235   68.354  201.407
  443.454   18.855    0.399    0.232   70.494  200.615
  443.704   18.829    0.393    0.226   72.219  200.224
  443.954   18.702    0.384    0.216   74.470  199.836
  444.204   18.714    0.377    0.222   76.203  199.845
  444.454   18.721    0.378    0.217   77.633  199.455
