~VERSION INFORMATION
 VERS.                 2.0:   CWLS LOG ASCII STANDARD -VERSION 2.0
 WRAP.                  NO:   ONE LINE PER DEPTH STEP
~WELL INFORMATION BLOCK
#MNEM.UNIT           DATA                    DESCRIPTION OF MNEMONIC
#---------    -------------------            -------------------------------
# Generated from Intellog Unique Number	CS_69_70/WELL/894
WELL.         UNIVERSAL EXPLORATIONS         : Well_name    - WELL
LOC .         00/11-23-069-10W4/0            : Location     - LOCATION
UWI .         00/11-23-069-10W4/0            : Uwi          - UNIQUE WELL ID
ENTR.         SP                             : Entered      - ENTERED BY
SRVC.         SCHLUMBERGER                   : Scn          - SERVICE COMPANY
STRT.M        390                            : top_depth    - START DEPTH
STOP.M        610                            : bot_depth    - STOP DEPTH
STEP.M        0.25                           : increment    - STEP LENGTH
 NULL. -999.2500:NULL Value
~CURVE INFORMATION BLOCK
#MNEM UNIT       ERCB CURVE CODE    CURVE DESCRIPTION
#-----------   ------------------   ----------------------------------
DEPT.M        00 001 00 00         : DEPTH        - DEPTH
ILD .OHMM     00 120 00 00         : RESD         - DEEP RESISTIVITY (DIL)
DPHI.V/V      00 890 00 00         : PHID         - DENSITY POROSITY (LIMESTONE)
NPHI.V/V      00 330 00 00         : PHIN         - NEUTRON POROSITY (LIMESTONE)
GR  .API      00 310 00 00         : GR           - GAMMA RAY
~PARAMETER INFORMATION
#MNEM.UNIT           DATA             DESCRIPTION OF MNEMONIC
#---------         -----------     ------------------------------
GL  .M        716.4                : gl           - GROUND LEVEL ELEVATION
EREF.M        719.75               : kb           - ELEVATION OF DEPTH REFERENCE
DATM.M        716.4                : datum        - DATUM ELEVATION
TDD .M        625                  : tdd          - TOTAL DEPTH DRILLER
RUN .         ONE                  : Run          - RUN NUMBER
ENG .         BILL                 : Engineer     - RECORDING ENGINEER
WIT .         JIM                  : Witness      - WITNESSED BY
MUD .         GEL                  : Mud_type     - MUD TYPE
MATR.         LIMESTONE            : Logunit      - NEUTRON MATRIX
TMAX.C        27                   : BHT          - MAXIMUM RECORDED TEMPERATURE
BHTD.M        625                  : BHTDEP       - MAXIMUM RECORDED TEMPERATURE
MATR.         1                    : LOGUNIT      - NEUTRON MATRIX
RMT .C        25                   : MDTP         - TEMPERATURE OF MUD
NEUT.         1                    : NEUTRON      - NEUTRON TYPE
RESI.         0                    : RESIST       - RESISTIVITY TYPE
RMC .OHMM     0.25                 : RMC          - RESISTIVITY OF MUD CAKE
RMF .OHMM     0.25                 : RMF          - RESISTIVITY OF MUD FILTRATE
SUFT.C        15                   : SUFT         - SURFACE TEMPERATURE
~A  DEPTH     RESD     PHID     PHIN       GR
# ...
  564.000    4.263    0.270    0.349   58.822
  564.250    3.572    0.272    0.341   57.963
  564.500    3.264    0.263    0.342   64.504
  564.750    3.587    0.257    0.353   70.617
  565.000    4.227    0.253    0.359   76.546
  565.250    4.654    0.256    0.360   84.065
  565.500    4.915    0.259    0.362   93.113
  565.750    5.271    0.259    0.386   92.682
  566.000    5.453    0.251    0.401   86.260
  566.250    5.558    0.233    0.393   91.088
  566.500    5.612    0.221    0.393  108.391
  566.750    5.613    0.209    0.402  115.788
  567.000    5.604    0.196    0.391  109.671
  567.250    5.563    0.184    0.380   98.111
  567.500    5.471    0.173    0.379   87.285
  567.750    5.430    0.187    0.369   82.208
  568.000    5.300    0.208    0.349   75.295
  568.250    5.124    0.228    0.376   75.110
  568.500    5.030    0.244    0.409   79.509
  568.750    4.937    0.232    0.384   81.708
  569.000    4.938    0.215    0.364   82.808
  569.250    4.883    0.205    0.363   80.726
  569.500    4.446    0.203    0.353   65.742
  569.750    4.306    0.219    0.326   53.327
  570.000    4.148    0.226    0.300   63.781
  570.250    4.507    0.200    0.289   80.105
  570.500    4.815    0.173    0.283   89.703
  570.750    5.134    0.155    0.296   97.345
  571.000    5.465    0.147    0.328  105.415
  571.250    5.435    0.152    0.351  108.776
  571.500    5.436    0.159    0.338  103.331
  571.750    5.345    0.151    0.319   87.369
  572.000    4.496    0.146    0.305   76.237
  572.250    4.155    0.178    0.307   70.487
  572.500    3.833    0.208    0.310   77.150
  572.750    3.609    0.202    0.314   82.834
  573.000    3.286    0.172    0.325   83.994
  573.250    3.177    0.178    0.340   69.561
  573.500    3.014    0.205    0.341   60.875
  573.750    2.942    0.229    0.323   63.808
  574.000    2.850    0.223    0.309   70.348
  574.250    2.845    0.208    0.321   74.932
  574.500    2.889    0.229    0.345   68.754
  574.750    2.933    0.246    0.348   66.917
  575.000    2.995    0.256    0.332   84.343
  575.250    3.329    0.203    0.376  101.279
  575.500    3.418    0.133    0.423  112.650
  575.750    3.570    0.101    0.447  119.863
  576.000    3.924    0.082    0.457  122.124
  576.250    4.207    0.040    0.464  119.492
  576.500    4.337   -0.007    0.438  111.540
  576.750    4.346   -0.006    0.420  108.725
  577.000    4.290    0.069    0.455  118.996
  577.250    4.226    0.117    0.494  126.759
  577.500    4.188    0.123    0.510  131.221
  577.750    4.149    0.133    0.468  131.831
  578.000    4.096    0.144    0.405  128.587
  578.250    4.066    0.158    0.355  113.481
  578.500    4.006    0.179    0.353   91.404
  578.750    3.880    0.214    0.353   80.334
  579.000    3.668    0.228    0.356   73.788
  579.250    3.480    0.228    0.372   69.138
  579.500    3.327    0.224    0.384   69.931
  579.750    3.241    0.221    0.373   71.335
  580.000    3.211    0.217    0.376   69.621
  580.250    3.242    0.211    0.369   76.467
  580.500    3.348    0.201    0.357   82.274
  580.750    3.611    0.186    0.345   87.164
  581.000    3.938    0.154    0.335   92.482
  581.250    4.328    0.141    0.327   96.821
  581.500    4.738    0.135    0.324   98.959
  581.750    5.091    0.133    0.320   99.201
  582.000    5.357    0.133    0.316   97.670
  582.250    5.585    0.130    0.324  101.581
  582.500    5.713    0.126    0.343  107.572
  582.750    5.651    0.132    0.355  112.645
  583.000    5.557    0.137    0.365  115.211
  583.250    5.454    0.148    0.376  117.593
  583.500    5.455    0.156    0.389  119.059
  583.750    5.905    0.153    0.374  109.334
  584.000    6.368    0.158    0.355   78.634
  584.250    7.051    0.199    0.348   69.093
  584.500    7.420    0.213    0.344   62.731
  584.750    7.794    0.219    0.333   59.365
  585.000    7.869    0.223    0.343   61.748
  585.250    6.899    0.214    0.336   69.756
  585.500    5.727    0.217    0.347   81.495
  585.750    5.030    0.232    0.397  100.082
  586.000    4.502    0.246    0.511  111.698
  586.250    4.280    0.171    0.507  121.113
  586.500    4.146    0.146    0.455  128.387
  586.750    4.225    0.124    0.414  117.989
  587.000    4.574    0.121    0.381  111.566
  587.250    4.813    0.096    0.358  104.471
  587.500    5.114    0.077    0.338   99.210
  587.750    5.261    0.084    0.336  100.308
  588.000    5.392    0.100    0.345  100.244
  588.250    5.434    0.105    0.354   97.063
  588.500    5.394    0.109    0.327   97.182
  588.750    5.305    0.114    0.312   96.813
  589.000    5.119    0.130    0.328   91.858
  589.250    4.848    0.156    0.326   82.622
  589.500    4.514    0.179    0.317   75.098
  589.750    4.195    0.174    0.305   70.449
  590.000    4.173    0.176    0.323   76.439
  590.250    4.358    0.181    0.327   82.491
  590.500    4.510    0.172    0.326   88.726
  590.750    4.561    0.155    0.330   96.000
  591.000    4.536    0.146    0.330   95.876
  591.250    4.345    0.147    0.322   91.654
  591.500    4.000    0.153    0.322   93.058
  591.750    3.560    0.167    0.338   93.056
  592.000    3.163    0.178    0.349   92.626
  592.250    2.967    0.200    0.363   79.415
  592.500    2.763    0.228    0.361   61.679
  592.750    2.612    0.249    0.340   64.918
  593.000    2.497    0.224    0.330   77.207
  593.250    2.419    0.208    0.363   71.212
  593.500    2.424    0.232    0.377   58.307
  593.750    2.415    0.232    0.328   58.916
  594.000    2.335    0.164    0.349   63.928
  594.250    2.249    0.185    0.365   52.002
  594.500    2.183    0.221    0.365   42.460
  594.750    2.204    0.253    0.341   44.170
  595.000    2.408    0.260    0.327   49.549
  595.250    2.612    0.253    0.341   53.215
  595.500    2.892    0.242    0.338   57.249
  595.750    3.178    0.225    0.324   67.642
  596.000    3.307    0.203    0.326   81.827
  596.250    3.493    0.173    0.345   89.651
  596.500    2.983    0.160    0.340   71.365
  596.750    2.615    0.172    0.358   54.792
  597.000    2.297    0.248    0.375   43.232
  597.250    2.079    0.274    0.378   33.201
  597.500    1.943    0.294    0.366   25.739
  597.750    1.904    0.289    0.360   29.038
  598.000    1.883    0.273    0.349   28.669
  598.250    1.883    0.266    0.350   29.707
  598.500    1.901    0.265    0.355   34.718
  598.750    1.909    0.272    0.368   36.428
  599.000    1.891    0.288    0.389   33.185
  599.250    1.853    0.297    0.377   30.003
  599.500    1.832    0.304    0.368   30.062
  599.750    1.809    0.299    0.362   31.222
  600.000    1.809    0.292    0.362   33.604
  600.250    1.827    0.281    0.367   34.397
  600.500    1.844    0.271    0.369   32.071
  600.750    1.845    0.279    0.358   31.579
  601.000    1.838    0.286    0.349   32.066
  601.250    1.821    0.286    0.357   32.553
  601.500    1.791    0.285    0.352   32.795
  601.750    1.764    0.284    0.359   33.772
  602.000    1.729    0.283    0.367   33.464
  602.250    1.697    0.288    0.357   30.648
  602.500    1.668    0.292    0.361   25.571
  602.750    1.644    0.296    0.365   22.633
  603.000    1.638    0.297    0.368   22.325
  603.250    1.635    0.294    0.361   25.503
  603.500    1.714    0.289    0.353   27.518
  603.750    1.971    0.286    0.349   27.393
  604.000    2.305    0.285    0.345   26.719
  604.250    2.726    0.292    0.329   26.105
  604.500    3.224    0.295    0.308   26.103
  604.750    4.157    0.231    0.305   33.133
  605.000    5.857    0.019    0.332   52.637
  605.250   12.893   -0.002    0.366   63.764
  605.500   16.786   -0.012    0.372   53.672
  605.750   19.481   -0.014    0.279   43.397
  606.000   22.609   -0.013    0.159   35.812
  606.250   23.218   -0.006    0.132   29.756
  606.500   21.742    0.003    0.157   31.037
  606.750   20.746    0.023    0.209   59.347
  607.000   20.363    0.041    0.249   65.093
  607.250   19.430    0.041    0.272   61.422
