~VERSION INFORMATION
 VERS.                 2.0:   CWLS LOG ASCII STANDARD -VERSION 2.0
 WRAP.                  NO:   ONE LINE PER DEPTH STEP
~WELL INFORMATION BLOCK
#MNEM.UNIT           DATA                    DESCRIPTION OF MNEMONIC
#---------    -------------------            -------------------------------
# Generated from Intellog Unique Number	CS_77_79/WELL/929
WELL.         HOME OIL COMPANY LIMITED       : Well_name    - WELL
LOC .         00/10-04-077-07W4/0            : Location     - LOCATION
UWI .         00/10-04-077-07W4/0            : Uwi          - UNIQUE WELL ID
ENTR.         SP                             : Entered      - ENTERED BY
SRVC.         SCHLUMBERGER                   : Scn          - SERVICE COMPANY
STRT.M        140                            : top_depth    - START DEPTH
STOP.M        375                            : bot_depth    - STOP DEPTH
STEP.M        0.25                           : increment    - STEP LENGTH
 NULL. -999.2500:NULL Value
~CURVE INFORMATION BLOCK
#MNEM UNIT       ERCB CURVE CODE    CURVE DESCRIPTION
#-----------   ------------------   ----------------------------------
DEPT.M        00 001 00 00         : DEPTH        - DEPTH
DPHI.V/V      00 890 00 00         : PHID         - DENSITY POROSITY (LIMESTONE)
NPHI.V/V      00 330 00 00         : PHIN         - NEUTRON POROSITY (LIMESTONE)
GR  .API      00 310 00 00         : GR           - GAMMA RAY
ILD .OHMM     00 120 00 00         : RESD         - DEEP RESISTIVITY (DIL)
~PARAMETER INFORMATION
#MNEM.UNIT           DATA             DESCRIPTION OF MNEMONIC
#---------         -----------     ------------------------------
GL  .M        565.97               : gl           - GROUND LEVEL ELEVATION
EREF.M        569.42               : kb           - ELEVATION OF DEPTH REFERENCE
DATM.M        565.97               : datum        - DATUM ELEVATION
TDD .M        385                  : tdd          - TOTAL DEPTH DRILLER
RUN .         ONE                  : Run          - RUN NUMBER
ENG .         BILL                 : Engineer     - RECORDING ENGINEER
WIT .         JIM                  : Witness      - WITNESSED BY
MUD .         GEL                  : Mud_type     - MUD TYPE
MATR.         LIMESTONE            : Logunit      - NEUTRON MATRIX
TMAX.C        5                    : BHT          - MAXIMUM RECORDED TEMPERATURE
BHTD.M        385                  : BHTDEP       - MAXIMUM RECORDED TEMPERATURE
MATR.         1                    : LOGUNIT      - NEUTRON MATRIX
RMT .C        25                   : MDTP         - TEMPERATURE OF MUD
NEUT.         1                    : NEUTRON      - NEUTRON TYPE
RESI.         0                    : RESIST       - RESISTIVITY TYPE
RMC .OHMM     0.25                 : RMC          - RESISTIVITY OF MUD CAKE
RMF .OHMM     0.25                 : RMF          - RESISTIVITY OF MUD FILTRATE
SUFT.C        15                   : SUFT         - SURFACE TEMPERATURE
~A  DEPTH     PHID     PHIN       GR     RESD
# ...
  270.500    0.359    0.436   52.747    6.959
  270.750    0.357    0.430   50.938    6.959
  271.000    0.358    0.421   48.527    6.959
  271.250    0.341    0.353   47.323    7.356
  271.500    0.264    0.173   44.305    9.018
  271.750    0.105    0.168   41.894   11.055
  272.000    0.036    0.182   47.950   12.127
  272.250    0.054    0.264   52.191   13.059
  272.500    0.093    0.319   56.432   11.903
  272.750    0.210    0.407   57.650   10.651
  273.000    0.293    0.435   56.449    9.355
  273.250    0.345    0.431   55.850    8.218
  273.500    0.343    0.441   55.855    7.630
  273.750    0.351    0.436   56.472    7.218
  274.000    0.333    0.425   56.477    7.085
  274.250    0.340    0.418   57.087    7.085
  274.500    0.339    0.428   57.702    7.084
  274.750    0.355    0.440   57.709    7.217
  275.000    0.358    0.437   57.715    7.488
  275.250    0.347    0.428   57.119    7.628
  275.500    0.333    0.422   55.915    8.064
  275.750    0.317    0.423   54.106    8.524
  276.000    0.308    0.403   52.904    8.845
  276.250    0.294    0.407   54.725    8.523
  276.500    0.275    0.423   55.338    7.914
  276.750    0.342    0.436   55.346    7.486
  277.000    0.346    0.440   54.747    7.081
  277.250    0.346    0.482   54.754    6.951
  277.500    0.359    0.475   53.552    6.823
  277.750    0.358    0.454   52.955    6.698
  278.000    0.350    0.456   54.171    6.574
  278.250    0.350    0.459   55.997    6.574
  278.500    0.350    0.448   56.608    6.453
  278.750    0.350    0.452   57.218    6.453
  279.000    0.346    0.454   57.223    6.334
  279.250    0.343    0.441   56.626    6.218
  279.500    0.348    0.431   53.609    6.334
  279.750    0.349    0.437   55.431    6.452
  280.000    0.350    0.441   57.252    6.572
  280.250    0.348    0.452   59.076    6.572
  280.500    0.337    0.459   59.686    6.572
  280.750    0.332    0.460   59.697    6.571
  281.000    0.338    0.468   59.702    6.451
  281.250    0.359    0.474   59.709    6.102
  281.500    0.360    0.465   57.902    5.880
  281.750    0.353    0.442   57.912    5.879
  282.000    0.349    0.449   57.313    5.989
  282.250    0.342    0.427   56.716    6.101
  282.500    0.350    0.413   56.116    6.449
  282.750    0.349    0.404   54.309    6.569
  283.000    0.344    0.412   53.105    6.569
  283.250    0.342    0.430   53.112    6.691
  283.500    0.342    0.447   54.330    6.691
  283.750    0.343    0.443   54.335    6.816
  284.000    0.349    0.438   55.554    6.815
  284.250    0.360    0.433   55.560    6.690
  284.500    0.352    0.431   54.963    6.690
  284.750    0.357    0.430   54.365    6.689
  285.000    0.355    0.444   55.581    6.566
  285.250    0.348    0.454   55.589    6.566
  285.500    0.352    0.458   54.386    6.445
  285.750    0.362    0.463   54.393    6.445
  286.000    0.364    0.458   55.611    6.327
  286.250    0.355    0.455   56.224    6.326
  286.500    0.352    0.448   56.230    6.210
  286.750    0.360    0.438   55.631    6.210
  287.000    0.352    0.425   54.430    6.209
  287.250    0.349    0.439   55.647    6.325
  287.500    0.357    0.455   57.468    6.443
  287.750    0.356    0.455   61.711    6.443
  288.000    0.351    0.438   64.741    6.324
  288.250    0.332    0.426   70.194    6.094
  288.500    0.307    0.444   72.618    5.872
  288.750    0.276    0.458   74.440    5.764
  289.000    0.274    0.469   72.633    5.554
  289.250    0.279    0.456   72.037    5.554
  289.500    0.288    0.444   72.042    5.554
  289.750    0.242    0.439   73.865    5.658
  290.000    0.254    0.434   77.501    5.871
  290.250    0.273    0.432   81.136    5.871
  290.500    0.256    0.435   85.377    5.980
  290.750    0.239    0.439   86.596    5.870
  291.000    0.241    0.451   86.603    5.656
  291.250    0.251    0.461   85.400    5.552
  291.500    0.238    0.459   84.803    5.450
  291.750    0.234    0.468   84.809    5.552
  292.000    0.241    0.475   84.211    5.552
  292.250    0.256    0.494   84.219    5.655
  292.500    0.264    0.471   86.041    5.655
  292.750    0.264    0.463   87.258    5.655
  293.000    0.261    0.467   86.659    5.654
  293.250    0.259    0.473   85.457    5.348
  293.500    0.261    0.458   85.464    5.250
  293.750    0.267    0.448   86.079    5.154
  294.000    0.258    0.440   86.084    5.059
  294.250    0.259    0.433   85.485    5.059
  294.500    0.263    0.427   80.050    5.153
  294.750    0.279    0.425   78.241    5.347
  295.000    0.295    0.435   78.855    5.447
  295.250    0.297    0.437   80.677    5.548
  295.500    0.212    0.439   81.289    5.652
  295.750    0.182    0.434   81.900    5.652
  296.000    0.162    0.423   80.093    5.446
  296.250    0.185    0.439   79.494    5.248
  296.500    0.233    0.451   81.321    4.964
  296.750    0.257    0.471   81.327    4.609
  297.000    0.228    0.489   81.333    4.124
  297.250    0.252    0.501   80.735    3.623
  297.500    0.264    0.533   79.532    3.124
  297.750    0.283    0.567   77.723    2.644
  298.000    0.304    0.585   75.917    2.410
  298.250    0.306    0.557   74.713    2.322
  298.500    0.326    0.551   72.906    2.280
  298.750    0.306    0.565   74.122    2.279
  299.000    0.317    0.556   76.550    2.279
  299.250    0.322    0.541   76.558    2.322
  299.500    0.310    0.547   78.381    2.322
  299.750    0.289    0.528   79.597    2.365
  300.000    0.294    0.533   80.812    2.365
  300.250    0.284    0.534   81.424    2.321
  300.500    0.285    0.552   79.617    2.321
  300.750    0.278    0.563   78.414    2.409
  301.000    0.263    0.570   79.631    2.594
  301.250    0.248    0.528   82.665    2.742
  301.500    0.240    0.488   83.881    2.953
  301.750    0.226    0.464   83.889    3.180
  302.000    0.230    0.431   83.291    3.687
  302.250    0.218    0.413   82.088    4.045
  302.500    0.211    0.397   79.674    4.520
  302.750    0.188    0.397   80.286    5.242
  303.000    0.170    0.430   85.133    5.644
  303.250    0.220    0.450   89.978    5.541
  303.500    0.246    0.456   92.405    5.050
  303.750    0.249    0.462   92.412    4.519
  304.000    0.244    0.459   89.398    4.119
  304.250    0.231    0.459   88.797    4.043
  304.500    0.236    0.458   89.409    3.825
  304.750    0.235    0.459   91.233    3.754
  305.000    0.220    0.468   92.448    3.685
  305.250    0.213    0.484   94.269    3.551
  305.500    0.226    0.488   92.462    3.486
  305.750    0.229    0.471   90.053    3.422
  306.000    0.237    0.459   90.059    3.359
  306.250    0.244    0.467   90.670    3.297
  306.500    0.247    0.480   90.678    3.236
  306.750    0.251    0.497   90.684    3.236
  307.000    0.260    0.507   89.483    3.236
  307.250    0.253    0.498   88.887    3.236
  307.500    0.236    0.492   88.285    3.236
  307.750    0.208    0.484   87.083    3.236
  308.000    0.222    0.467   84.067    3.236
  308.250    0.232    0.466   85.888    3.296
  308.500    0.239    0.498   89.525    3.357
  308.750    0.249    0.509   91.346    3.420
  309.000    0.246    0.477   87.725    3.484
  309.250    0.238    0.419   83.498    3.615
  309.500    0.244    0.380   78.061    4.115
  309.750    0.234    0.353   72.625    4.952
  310.000    0.232    0.338   69.606    6.300
  310.250    0.238    0.320   66.589    7.581
  310.500    0.245    0.306   62.967    8.792
  310.750    0.260    0.307   63.579   10.580
  311.000    0.269    0.311   69.636   11.393
  311.250    0.282    0.316   71.460   11.822
  311.500    0.270    0.324   70.860   12.043
  311.750    0.257    0.340   68.448   12.042
  312.000    0.244    0.358   64.826   12.042
  312.250    0.262    0.348   56.970   12.041
  312.500    0.264    0.341   49.718   12.728
  312.750    0.275    0.336   42.467   12.966
  313.000    0.290    0.309   35.820   13.454
  313.250    0.302    0.288   30.384   13.705
  313.500    0.299    0.288   40.070   13.705
  313.750    0.298    0.292   46.730   13.704
