~VERSION INFORMATION
 VERS.                 2.0:   CWLS LOG ASCII STANDARD -VERSION 2.0
 WRAP.                  NO:   ONE LINE PER DEPTH STEP
~WELL INFORMATION BLOCK
#MNEM.UNIT           DATA                    DESCRIPTION OF MNEMONIC
#---------    -------------------            -------------------------------
# Generated from Intellog Unique Number	CS_73_76/WELL/2201
WELL.         PEX KIRBY                      : Well_name    - WELL
LOC .         00/11-18-074-08W4/0            : Location     - LOCATION
UWI .         00/11-18-074-08W4/0            : Uwi          - UNIQUE WELL ID
ENTR.         SP                             : Entered      - ENTERED BY
SRVC.         SCHLUMBERGER                   : Scn          - SERVICE COMPANY
STRT.M        290                            : top_depth    - START DEPTH
STOP.M        505                            : bot_depth    - STOP DEPTH
STEP.M        0.25                           : increment    - STEP LENGTH
 NULL. -999.2500:NULL Value
~CURVE INFORMATION BLOCK
#MNEM UNIT       ERCB CURVE CODE    CURVE DESCRIPTION
#-----------   ------------------   ----------------------------------
DEPT.M        00 001 00 00         : DEPTH        - DEPTH
ILD .OHMM     00 120 00 00         : RESD         - DEEP RESISTIVITY (DIL)
DPHI.V/V      00 890 00 00         : PHID         - DENSITY POROSITY (LIMESTONE)
NPHI.V/V      00 330 00 00         : PHIN         - NEUTRON POROSITY (LIMESTONE)
GR  .API      00 310 00 00         : GR           - GAMMA RAY
~PARAMETER INFORMATION
#MNEM.UNIT           DATA             DESCRIPTION OF MNEMONIC
#---------         -----------     ------------------------------
GL  .M        665.27               : gl           - GROUND LEVEL ELEVATION
EREF.M        669.23               : kb           - ELEVATION OF DEPTH REFERENCE
DATM.M        665.27               : datum        - DATUM ELEVATION
TDD .M        518                  : tdd          - TOTAL DEPTH DRILLER
RUN .         ONE                  : Run          - RUN NUMBER
ENG .         BILL                 : Engineer     - RECORDING ENGINEER
WIT .         JIM                  : Witness      - WITNESSED BY
MUD .         GEL                  : Mud_type     - MUD TYPE
MATR.         LIMESTONE            : Logunit      - NEUTRON MATRIX
TMAX.C        34                   : BHT          - MAXIMUM RECORDED TEMPERATURE
BHTD.M        518                  : BHTDEP       - MAXIMUM RECORDED TEMPERATURE
MATR.         1                    : LOGUNIT      - NEUTRON MATRIX
RMT .C        25                   : MDTP         - TEMPERATURE OF MUD
NEUT.         1                    : NEUTRON      - NEUTRON TYPE
RESI.         0                    : RESIST       - RESISTIVITY TYPE
RMC .OHMM     0.25                 : RMC          - RESISTIVITY OF MUD CAKE
RMF .OHMM     0.25                 : RMF          - RESISTIVITY OF MUD FILTRATE
SUFT.C        15                   : SUFT         - SURFACE TEMPERATURE
~A  DEPTH     RESD     PHID     PHIN       GR
# ...
  333.500    8.284    0.184    0.409  114.440
  333.750    7.827    0.187    0.424  115.070
  334.000    7.537    0.196    0.422  108.883
  334.250    7.396    0.206    0.404  107.032
  334.500    7.981    0.217    0.386  104.565
  334.750    8.945    0.226    0.366  103.332
  335.000   10.025    0.237    0.360   99.622
  335.250   11.024    0.230    0.370   96.530
  335.500   11.896    0.238    0.373   99.640
  335.750   12.595    0.248    0.354  101.509
  336.000   12.839    0.258    0.346   99.039
  336.250   13.086    0.257    0.336   94.088
  336.500   13.339    0.256    0.346   89.139
  336.750   13.341    0.246    0.362   94.110
  337.000   13.859    0.243    0.355   96.596
  337.250   14.398    0.246    0.351  100.326
  337.500   15.536    0.239    0.356  100.335
  337.750   16.448    0.225    0.361  100.964
  338.000   18.788    0.213    0.362   98.494
  338.250   20.272    0.193    0.360   93.545
  338.500   21.060    0.185    0.348   87.355
  338.750   19.523    0.209    0.348   83.024
  339.000   17.759    0.229    0.373   82.414
  339.250   16.463    0.238    0.404   86.143
  339.500   15.852    0.239    0.405   89.252
  339.750   16.159    0.250    0.390   89.881
  340.000   18.811    0.272    0.366   80.594
  340.250   21.487    0.288    0.347   62.007
  340.500   23.630    0.301    0.332   53.958
  340.750   25.497    0.311    0.310   45.912
  341.000   25.988    0.319    0.320   41.580
  341.250   26.490    0.321    0.346   41.592
  341.500   25.508    0.311    0.349   42.838
  341.750   22.768    0.303    0.337   47.191
  342.000   21.106    0.293    0.340   49.675
  342.250   18.837    0.285    0.358   56.507
  342.500   17.134    0.278    0.364   60.233
  342.750   15.293    0.263    0.365   67.060
  343.000   13.911    0.252    0.372   78.845
  343.250   12.896    0.235    0.378   92.490
  343.500   11.510    0.229    0.389   94.361
  343.750   10.470    0.241    0.400   90.030
  344.000   10.081    0.253    0.399   86.940
  344.250   10.473    0.247    0.375   89.430
  344.500   11.518    0.231    0.354   88.200
  344.750   11.965    0.215    0.348   85.730
  345.000   11.741    0.238    0.359   90.081
  345.250   12.198    0.248    0.355   91.949
  345.500   12.432    0.254    0.352   90.715
  345.750   12.673    0.255    0.365   88.247
  346.000   12.918    0.258    0.380   87.637
  346.250   12.920    0.257    0.370   91.366
  346.500   13.422    0.252    0.354   94.475
  346.750   13.944    0.252    0.349   94.481
  347.000   14.213    0.253    0.372   91.391
  347.250   14.487    0.249    0.380   85.824
  347.500   14.767    0.245    0.391   82.734
  347.750   15.341    0.241    0.396   81.504
  348.000   15.342    0.239    0.367   80.895
  348.250   15.639    0.239    0.356   79.665
  348.500   15.941    0.238    0.355   77.191
  348.750   16.250    0.239    0.362   79.062
  349.000   16.251    0.244    0.367   81.549
  349.250   15.949    0.237    0.370   78.461
  349.500   15.650    0.224    0.362   79.710
  349.750   15.070    0.218    0.362   84.061
  350.000   13.198    0.210    0.368   85.925
  350.250   12.005    0.217    0.355   89.034
  350.500   10.513    0.234    0.360   86.567
  350.750    8.216    0.250    0.386   84.098
  351.000    7.060    0.254    0.418   81.626
  351.250    6.421    0.255    0.436   80.393
  351.500    5.953    0.253    0.426   84.125
  351.750    5.519    0.250    0.416   87.856
  352.000    5.214    0.266    0.408   89.103
  352.250    5.844    0.282    0.418   89.729
  352.500    7.480    0.299    0.409   87.882
  352.750    8.874    0.307    0.372   84.792
  353.000   11.577    0.303    0.382   82.318
  353.250   15.687    0.299    0.368   74.269
  353.500   19.331    0.298    0.360   65.605
  353.750   22.504    0.300    0.355   61.895
  354.000   24.284    0.303    0.350   60.043
  354.250   25.227    0.307    0.363   58.192
  354.500   25.230    0.305    0.377   56.961
  354.750   24.296    0.295    0.383   56.352
  355.000   23.394    0.284    0.383   56.979
  355.250   21.687    0.282    0.375   53.273
  355.500   20.882    0.279    0.368   49.563
  355.750   19.359    0.279    0.370   52.672
  356.000   18.640    0.274    0.388   56.397
  356.250   16.019    0.268    0.386   65.087
  356.500   15.134    0.260    0.369   68.192
  356.750   14.030    0.253    0.343   73.160
  357.000   13.255    0.247    0.337   70.692
  357.250   11.608    0.246    0.352   70.080
  357.500   10.967    0.257    0.368   75.671
  357.750   10.361    0.263    0.381   79.400
  358.000   10.562    0.271    0.383   79.407
  358.250   11.615    0.277    0.391   76.317
  358.500   12.297    0.278    0.395   74.466
  358.750   13.020    0.279    0.397   72.618
  359.000   13.525    0.280    0.384   73.248
  359.250   13.786    0.284    0.371   75.115
  359.500   13.789    0.285    0.391   73.266
  359.750   13.791    0.288    0.396   71.417
  360.000   13.535    0.285    0.390   73.287
  360.250   13.282    0.280    0.390   73.911
  360.500   13.034    0.278    0.401   75.782
  360.750   12.550    0.278    0.406   76.410
  361.000   12.552    0.281    0.412   75.800
  361.250   13.040    0.288    0.398   75.809
  361.500   13.292    0.294    0.373   73.961
  361.750   13.548    0.300    0.365   73.348
  362.000   13.810    0.303    0.375   73.357
  362.250   13.812    0.307    0.382   71.507
  362.500   14.079    0.310    0.379   69.041
  362.750   14.082    0.310    0.374   69.046
  363.000   14.354    0.310    0.382   70.296
  363.250   14.086    0.306    0.401   69.687
  363.500   14.088    0.301    0.413   65.978
  363.750   14.090    0.295    0.401   65.987
  364.000   13.827    0.292    0.387   68.475
  364.250   13.829    0.289    0.409   70.963
  364.500   13.067    0.284    0.423   72.832
  364.750   12.822    0.282    0.422   72.842
  365.000   11.887    0.280    0.431   73.469
  365.250   11.020    0.279    0.426   77.820
  365.500   10.611    0.279    0.419   80.308
  365.750   10.413    0.279    0.418   80.936
  366.000   10.219    0.279    0.416   79.086
  366.250   10.220    0.278    0.405   76.619
  366.500   10.618    0.278    0.399   74.769
  366.750   10.822    0.276    0.378   72.918
  367.000   11.243    0.272    0.363   72.305
  367.250   11.244    0.270    0.378   73.557
  367.500   11.461    0.264    0.386   74.806
  367.750   11.037    0.260    0.388   78.532
  368.000   10.427    0.259    0.379   81.640
  368.250    9.666    0.260    0.376   85.989
  368.500    8.628    0.262    0.373   87.858
  368.750    7.701    0.267    0.373   87.250
  369.000    7.414    0.275    0.383   85.396
  369.250    7.850    0.292    0.397   80.449
  369.500    8.799    0.305    0.408   74.882
  369.750    9.315    0.308    0.424   73.648
  370.000   11.264    0.305    0.430   71.799
  370.250   12.624    0.300    0.414   71.186
  370.500   13.621    0.293    0.382   70.576
  370.750   14.151    0.290    0.382   69.349
  371.000   13.370    0.299    0.396   71.837
  371.250    9.503    0.301    0.431   75.567
  371.500    7.287    0.299    0.457   78.674
  371.750    5.914    0.281    0.473   82.400
  372.000    4.366    0.258    0.462   89.849
  372.250    3.752    0.248    0.428  100.398
  372.500    3.104    0.237    0.430  105.365
  372.750    2.823    0.234    0.446  107.853
  373.000    2.667    0.236    0.470  106.623
  373.250    2.878    0.242    0.457  104.771
  373.500    3.106    0.248    0.413   99.823
  373.750    3.756    0.258    0.394   93.634
  374.000    4.130    0.267    0.397   89.304
  374.250    4.808    0.269    0.399   85.594
  374.500    6.038    0.266    0.400   86.224
  374.750    6.640    0.256    0.407   89.334
  375.000    7.302    0.249    0.437   89.959
  375.250    7.732    0.243    0.431   86.875
  375.500    7.732    0.238    0.416   86.260
  375.750    7.882    0.232    0.398   86.890
  376.000    7.735    0.228    0.381   85.660
  376.250    7.591    0.225    0.368   86.287
  376.500    7.592    0.222    0.373   89.398
  376.750    7.739    0.223    0.384   90.026
