~VERSION INFORMATION
 VERS.                 2.0:   CWLS LOG ASCII STANDARD -VERSION 2.0
 WRAP.                  NO:   ONE LINE PER DEPTH STEP
~WELL INFORMATION BLOCK
#MNEM.UNIT           DATA                    DESCRIPTION OF MNEMONIC
#---------    -------------------            -------------------------------
# Generated from Intellog Unique Number	CW_70_72/WELL/1066
NULL.         -999.25                        : NULL_VALUE
WELL.         LARIO ET AL MITSUE 12-20       : Well_name    - WELL              
LOC .         12-20-071-03W5                 : Location     - LOCATION          
UWI .         00/12-20-071-03W5/0            : Uwi          - UNIQUE WELL ID    
ENTR.         JAYE                           : Entered      - ENTERED BY        
SRVC.         SCHLUMBERGER                   : Scn          - SERVICE COMPANY   
DATE.         9 JAN 82                       : Date         - LOG DATE          
STRT.M        475                            : top_depth    - START DEPTH       
STOP.M        740                            : bot_depth    - STOP DEPTH        
STEP.M        0.25                           : increment    - STEP LENGTH       
~CURVE INFORMATION BLOCK
#MNEM UNIT       ERCB CURVE CODE    CURVE DESCRIPTION
#-----------   ------------------   ----------------------------------
DEPT.M        00 001 00 00         : DEPTH        - DEPTH                       
DPHI.V/V      00 890 00 00         : PHID         - DENSITY POROSITY (SANDSTONE)
NPHI.V/V      00 330 00 00         : PHIN         - NEUTRON POROSITY (SANDSTONE)
GR  .API      00 310 00 00         : GR           - GAMMA RAY                   
CALI.MM       00 280 01 00         : CAL          - CALIPER                     
ILD .OHMM     00 120 00 00         : RESD         - DEEP RESISTIVITY (DIL)      
~PARAMETER INFORMATION       
#MNEM.UNIT           DATA             DESCRIPTION OF MNEMONIC
#---------         -----------     ------------------------------
GL  .M        676                  : gl           - GROUND LEVEL ELEVATION      
EREF.M        679.9                : kb           - ELEVATION OF DEPTH REFERENCE
DATM.M        676                  : datum        - DATUM ELEVATION             
TDD .M        750                  : tdd          - TOTAL DEPTH DRILLER         
RUN .         ONE                  : Run          - RUN NUMBER                  
ENG .         BOHN                 : Engineer     - RECORDING ENGINEER          
WIT .         MYERS                : Witness      - WITNESSED BY                
BASE.         EDSON                : Branch       - HOME BASE OF LOGGING UNIT   
MUD .         GEL CHEM             : Mud_type     - MUD TYPE                    
MATR.         SANDSTONE            : Logunit      - NEUTRON MATRIX              
TMAX.C        31.1                 : BHT          - MAXIMUM RECORDED TEMPERATURE
BHTD.M        749                  : BHTDEP       - MAXIMUM RECORDED TEMPERATURE
RMT .C        30.5                 : MDTP         - TEMPERATURE OF MUD          
MUDD.KG/M     1200                 : MWT          - MUD DENSITY                 
NEUT.         1                    : NEUTRON      - NEUTRON TYPE                
RESI.         0                    : RESIST       - RESISTIVITY TYPE            
RM  .OHMM     3.19                 : RM           - RESISTIVITY OF MUD          
RMC .OHMM     0                    : RMC          - RESISTIVITY OF MUD CAKE     
RMF .OHMM     2.52                 : RMF          - RESISTIVITY OF MUD FILTRATE 
SUFT.C        0                    : SUFT         - SURFACE TEMPERATURE         
~A  DEPTH     PHID     PHIN       GR      CAL     RESD
# ...
  548.000    0.371    0.476   47.765  191.967    2.292
  548.250    0.357    0.453   53.270  192.227    2.233
  548.500    0.342    0.433   54.177  192.399    2.146
  548.750    0.330    0.431   53.841  192.451    2.106
  549.000    0.322    0.435   54.496  192.098    2.086
  549.250    0.316    0.433   55.589  192.057    2.109
  549.500    0.312    0.422   56.746  191.812    2.165
  549.750    0.294    0.415   60.014  191.856    2.213
  550.000    0.283    0.425   61.729  191.915    2.293
  550.250    0.306    0.433   53.247  191.990    2.380
  550.500    0.307    0.433   50.115  192.256    2.397
  550.750    0.296    0.451   54.252  192.416    2.361
  551.000    0.302    0.444   53.043  192.689    2.266
  551.250    0.302    0.425   53.639  192.642    2.174
  551.500    0.309    0.416   53.796  192.699    2.110
  551.750    0.315    0.404   52.279  192.661    2.097
  552.000    0.321    0.398   50.018  192.712    2.125
  552.250    0.313    0.406   54.593  192.673    2.144
  552.500    0.294    0.416   57.673  192.734    2.176
  552.750    0.281    0.447   58.329  192.900    2.225
  553.000    0.283    0.436   56.503  192.954    2.279
  553.250    0.290    0.410   57.717  193.122    2.313
  553.500    0.291    0.400   55.204  193.181    2.317
  553.750    0.281    0.411   50.393  193.139    2.312
  554.000    0.281    0.414   52.668  193.192    2.378
  554.250    0.265    0.402   69.797  193.253    2.491
  554.500    0.217    0.400   79.654  193.521    2.714
  554.750    0.169    0.411   84.287  193.686    2.946
  555.000    0.198    0.437   84.201  193.850    3.307
  555.250    0.245    0.465   80.819  193.910    3.401
  555.500    0.272    0.481   75.257  193.851    3.269
  555.750    0.286    0.471   71.006  193.913    3.011
  556.000    0.276    0.449   66.630  193.974    2.873
  556.250    0.258    0.411   71.575  194.140    2.861
  556.500    0.232    0.370   78.325  194.204    2.926
  556.750    0.220    0.395   74.691  194.059    2.969
  557.000    0.232    0.425   71.000  193.904    2.952
  557.250    0.256    0.448   68.300  193.865    2.908
  557.500    0.267    0.444   66.347  193.717    2.864
  557.750    0.275    0.432   64.767  193.777    2.821
  558.000    0.284    0.425   66.730  193.835    2.763
  558.250    0.289    0.425   70.182  193.895    2.727
  558.500    0.281    0.431   73.824  194.163    2.676
  558.750    0.274    0.448   77.216  194.336    2.645
  559.000    0.284    0.449   79.616  194.488    2.615
  559.250    0.293    0.425   80.957  194.658    2.600
  559.500    0.300    0.424   74.466  194.497    2.629
  559.750    0.304    0.436   69.342  194.556    2.639
  560.000    0.309    0.425   67.885  194.530    2.653
  560.250    0.316    0.427   67.177  194.380    2.718
  560.500    0.329    0.479   64.849  194.334    2.895
  560.750    0.331    0.457   62.773  194.289    3.005
  561.000    0.284    0.440   60.322  194.239    3.073
  561.250    0.256    0.410   63.402  194.204    3.055
  561.500    0.238    0.394   64.868  194.258    3.003
  561.750    0.250    0.413   62.728  194.419    2.980
  562.000    0.272    0.444   60.156  194.594    2.963
  562.250    0.277    0.436   57.641  194.758    2.963
  562.500    0.285    0.414   56.124  194.920    2.984
  562.750    0.297    0.443   56.344  194.876    3.023
  563.000    0.332    0.482   58.559  194.626    3.085
  563.250    0.342    0.477   54.119  194.477    3.143
  563.500    0.351    0.466   50.923  194.223    3.142
  563.750    0.333    0.454   54.065  193.968    3.107
  564.000    0.309    0.434   60.255  194.024    3.037
  564.250    0.305    0.428   61.348  193.888    2.904
  564.500    0.307    0.432   58.584  193.842    2.844
  564.750    0.304    0.419   55.514  193.692    2.870
  565.000    0.300    0.413   52.380  193.438    2.918
  565.250    0.297    0.418   48.997  193.298    2.984
  565.500    0.300    0.435   50.338  193.249    3.057
  565.750    0.286    0.435   53.853  193.305    3.161
  566.000    0.281    0.421   56.067  193.270    3.311
  566.250    0.277    0.418   57.780  193.222    3.541
  566.500    0.266    0.412   56.635  193.281    3.829
  566.750    0.267    0.422   53.439  193.445    4.188
  567.000    0.249    0.440   51.049  193.714    4.589
  567.250    0.202    0.407   47.977  193.880    4.852
  567.500    0.189    0.341   49.506  194.044    4.789
  567.750    0.218    0.312   51.530  194.096    4.377
  568.000    0.259    0.337   51.320  194.058    4.023
  568.250    0.287    0.380   54.897  193.900    3.775
  568.500    0.296    0.419   56.858  193.861    3.575
  568.750    0.294    0.429   53.477  193.925    3.411
  569.000    0.287    0.437   53.389  194.088    3.285
  569.250    0.281    0.444   58.461  194.138    3.176
  569.500    0.279    0.444   61.353  194.301    3.111
  569.750    0.278    0.438   57.412  194.270    3.093
  570.000    0.278    0.444   54.713  194.313    3.127
  570.250    0.278    0.442   55.929  194.384    3.215
  570.500    0.278    0.425   58.018  194.336    3.369
  570.750    0.273    0.433   57.556  194.289    3.569
  571.000    0.267    0.428   53.115  194.243    3.795
  571.250    0.282    0.419   50.541  194.215    4.127
  571.500    0.274    0.431   50.081  194.274    4.397
  571.750    0.212    0.409   50.674  194.434    4.471
  572.000    0.192    0.370   52.080  194.373    4.396
  572.250    0.223    0.386   54.291  194.340    4.226
  572.500    0.279    0.417   55.880  194.302    3.950
  572.750    0.295    0.431   56.288  194.457    3.741
  573.000    0.296    0.425   56.635  194.627    3.530
  573.250    0.288    0.407   58.349  194.576    3.406
  573.500    0.278    0.394   61.245  194.752    3.268
  573.750    0.273    0.397   58.671  194.813    3.177
  574.000    0.271    0.394   56.655  194.650    3.100
  574.250    0.270    0.390   56.068  194.712    3.048
  574.500    0.271    0.385   56.228  194.672    3.036
  574.750    0.272    0.380   59.124  194.615    3.058
  575.000    0.271    0.372   61.770  194.577    3.110
  575.250    0.261    0.364   63.051  194.551    3.179
  575.500    0.241    0.355   67.001  194.698    3.245
  575.750    0.210    0.369   73.875  194.770    3.281
  576.000    0.183    0.408   80.560  194.926    3.280
  576.250    0.190    0.434   84.016  194.989    3.201
  576.500    0.195    0.450   85.918  195.054    3.106
  576.750    0.187    0.455   86.512  195.426    2.992
  577.000    0.177    0.449   87.044  195.688    2.930
  577.250    0.184    0.439   89.195  195.438    3.007
  577.500    0.182    0.430   90.035  194.985    3.168
  577.750    0.179    0.434   90.200  194.314    3.414
  578.000    0.177    0.436   90.235  193.964    3.678
  578.250    0.175    0.427   89.773  193.397    3.955
  578.500    0.181    0.413   84.402  193.152    4.128
  578.750    0.204    0.423   79.276  192.693    4.097
  579.000    0.220    0.436   75.149  192.024    3.938
  579.250    0.238    0.441   70.524  191.256    3.744
  579.500    0.256    0.441   66.519  190.272    3.435
  579.750    0.265    0.438   63.384  190.127    3.163
  580.000    0.278    0.434   62.545  189.983    2.918
  580.250    0.276    0.429   62.524  190.136    2.774
  580.500    0.261    0.427   59.764  190.306    2.702
  580.750    0.247    0.437   60.109  190.675    2.666
  581.000    0.263    0.432   63.316  190.844    2.646
  581.250    0.274    0.428   66.209  190.908    2.670
  581.500    0.261    0.418   68.171  191.268    2.730
  581.750    0.243    0.440   69.826  191.539    2.792
  582.000    0.215    0.440   71.287  191.601    2.898
  582.250    0.227    0.443   72.757  191.863    2.968
  582.500    0.244    0.436   75.404  192.029    2.996
  582.750    0.248    0.443   73.383  192.191    2.918
  583.000    0.259    0.453   70.440  192.147    2.748
  583.250    0.268    0.449   66.435  192.100    2.612
  583.500    0.281    0.427   59.944  192.064    2.511
  583.750    0.294    0.442   57.743  191.496    2.391
  584.000    0.299    0.452   59.458  191.251    2.321
  584.250    0.292    0.448   61.667  191.098    2.265
