~VERSION INFORMATION
 VERS.                 2.0:   CWLS LOG ASCII STANDARD -VERSION 2.0
 WRAP.                  NO:   ONE LINE PER DEPTH STEP
~WELL INFORMATION BLOCK
#MNEM.UNIT           DATA                    DESCRIPTION OF MNEMONIC
#---------    -------------------            -------------------------------
# Generated from Intellog Unique Number	CS_71_72/WELL/929
WELL.         AEC ET AL FOSTER CREEK         : Well_name    - WELL
LOC .         00/16-36-072-01W4/0            : Location     - LOCATION
UWI .         00/16-36-072-01W4/0            : Uwi          - UNIQUE WELL ID
ENTR.         SP                             : Entered      - ENTERED BY
SRVC.         SCHLUMBERGER                   : Scn          - SERVICE COMPANY
STRT.M        315                            : top_depth    - START DEPTH
STOP.M        585                            : bot_depth    - STOP DEPTH
STEP.M        0.25                           : increment    - STEP LENGTH
 NULL. -999.2500:NULL Value
~CURVE INFORMATION BLOCK
#MNEM UNIT       ERCB CURVE CODE    CURVE DESCRIPTION
#-----------   ------------------   ----------------------------------
DEPT.M        00 001 00 00         : DEPTH        - DEPTH
ILD .OHMM     00 120 00 00         : RESD         - DEEP RESISTIVITY (DIL)
DPHI.V/V      00 890 00 00         : PHID         - DENSITY POROSITY (LIMESTONE)
NPHI.V/V      00 330 00 00         : PHIN         - NEUTRON POROSITY (LIMESTONE)
GR  .API      00 310 00 00         : GR           - GAMMA RAY
~PARAMETER INFORMATION
#MNEM.UNIT           DATA             DESCRIPTION OF MNEMONIC
#---------         -----------     ------------------------------
GL  .M        676                  : gl           - GROUND LEVEL ELEVATION
EREF.M        680.3                : kb           - ELEVATION OF DEPTH REFERENCE
DATM.M        676                  : datum        - DATUM ELEVATION
TDD .M        775                  : tdd          - TOTAL DEPTH DRILLER
RUN .         ONE                  : Run          - RUN NUMBER
ENG .         BILL                 : Engineer     - RECORDING ENGINEER
WIT .         JIM                  : Witness      - WITNESSED BY
MUD .         GEL                  : Mud_type     - MUD TYPE
MATR.         LIMESTONE            : Logunit      - NEUTRON MATRIX
TMAX.C        19                   : BHT          - MAXIMUM RECORDED TEMPERATURE
BHTD.M        775                  : BHTDEP       - MAXIMUM RECORDED TEMPERATURE
MATR.         1                    : LOGUNIT      - NEUTRON MATRIX
RMT .C        25                   : MDTP         - TEMPERATURE OF MUD
NEUT.         1                    : NEUTRON      - NEUTRON TYPE
RESI.         0                    : RESIST       - RESISTIVITY TYPE
RMC .OHMM     0.25                 : RMC          - RESISTIVITY OF MUD CAKE
RMF .OHMM     0.25                 : RMF          - RESISTIVITY OF MUD FILTRATE
SUFT.C        15                   : SUFT         - SURFACE TEMPERATURE
~A  DEPTH     RESD     PHID     PHIN       GR
# ...
  489.000    3.988    0.316    0.398   59.342
  489.250    4.065    0.314    0.436   58.759
  489.500    4.065    0.310    0.430   53.303
  489.750    3.990    0.309    0.414   41.178
  490.000    3.916    0.312    0.400   33.302
  490.250    3.772    0.326    0.395   30.278
  490.500    3.702    0.329    0.408   27.872
  490.750    3.634    0.324    0.403   32.138
  491.000    3.704    0.318    0.357   42.486
  491.250    3.846    0.310    0.340   47.966
  491.500    4.069    0.305    0.413   51.015
  491.750    4.070    0.302    0.443   51.029
  492.000    3.847    0.299    0.424   42.546
  492.250    3.569    0.315    0.412   32.238
  492.500    3.312    0.331    0.390   23.144
  492.750    3.250    0.338    0.386   23.172
  493.000    3.073    0.340    0.386   23.189
  493.250    3.073    0.337    0.401   23.197
  493.500    3.073    0.328    0.398   31.110
  493.750    3.132    0.325    0.384   42.065
  494.000    3.252    0.330    0.376   46.326
  494.250    3.573    0.334    0.422   54.242
  494.500    3.780    0.294    0.426   56.686
  494.750    4.000    0.269    0.413   56.094
  495.000    4.153    0.276    0.400   53.686
  495.250    4.395    0.285    0.393   56.133
  495.500    4.478    0.224    0.388   61.012
  495.750    4.564    0.184    0.387   63.458
  496.000    4.480    0.202    0.416   62.861
  496.250    4.079    0.241    0.432   53.769
  496.500    3.929    0.280    0.420   42.248
  496.750    3.714    0.316    0.383   37.404
  497.000    3.578    0.282    0.355   52.605
  497.250    3.382    0.269    0.396   52.021
  497.500    3.320    0.288    0.400   41.107
  497.750    3.139    0.314    0.389   31.406
  498.000    3.024    0.334    0.379   26.559
  498.250    2.968    0.328    0.368   24.150
  498.500    2.859    0.322    0.363   22.953
  498.750    2.859    0.331    0.361   23.577
  499.000    2.913    0.324    0.360   29.675
  499.250    2.969    0.307    0.354   34.552
  499.500    2.969    0.293    0.350   38.209
  499.750    3.026    0.293    0.378   40.647
  500.000    3.626    0.329    0.402   29.383
  500.250    3.559    0.319    0.393   28.145
  500.500    3.493    0.302    0.347   36.704
  500.750    3.626    0.268    0.326   49.548
  501.000    3.835    0.238    0.337   56.883
  501.250    4.210    0.250    0.344   55.024
  501.500    4.453    0.260    0.350   55.020
  501.750    4.622    0.266    0.360   57.458
  502.000    4.709    0.261    0.355   61.729
  502.250    4.622    0.245    0.344   62.943
  502.500    4.453    0.272    0.366   50.072
  502.750    4.290    0.288    0.380   40.878
  503.000    4.056    0.295    0.374   32.907
  503.250    3.695    0.307    0.372   29.834
  503.500    3.493    0.303    0.370   26.144
  503.750    3.303    0.295    0.355   25.518
  504.000    3.065    0.294    0.351   25.510
  504.250    3.009    0.291    0.340   27.947
  504.500    2.953    0.296    0.334   27.934
  504.750    2.898    0.305    0.324   25.469
  505.000    2.898    0.318    0.322   24.844
  505.250    2.953    0.324    0.329   26.061
  505.500    3.009    0.305    0.344   34.619
  505.750    3.123    0.282    0.348   54.194
  506.000    3.242    0.271    0.356   60.304
  506.250    3.303    0.272    0.347   59.680
  506.500    3.365    0.289    0.362   48.034
  506.750    3.303    0.302    0.367   40.063
  507.000    3.182    0.310    0.372   33.929
  507.250    3.009    0.315    0.368   30.857
  507.500    2.845    0.319    0.363   27.778
  507.750    2.792    0.322    0.358   27.157
  508.000    2.741    0.323    0.356   28.983
  508.250    2.690    0.316    0.345   38.151
  508.500    2.741    0.313    0.344   35.080
  508.750    2.792    0.324    0.378   25.881
  509.000    2.792    0.338    0.373   22.200
  509.250    2.792    0.333    0.357   19.738
  509.500    2.741    0.324    0.356   25.838
  509.750    2.741    0.312    0.373   29.500
  510.000    2.741    0.303    0.361   32.550
  510.250    2.741    0.294    0.372   35.602
  510.500    2.792    0.294    0.395   38.652
  510.750    3.009    0.283    0.382   34.968
  511.000    3.182    0.185    0.350   50.869
  511.250    3.559    0.159    0.372   55.757
  511.500    4.133    0.137    0.384   46.560
  511.750    4.622    0.182    0.331   45.323
  512.000    5.367    0.206    0.338   63.678
  512.250    5.892    0.220    0.374   80.192
  512.500    6.232    0.206    0.406   87.525
  512.750    6.469    0.199    0.430   91.188
  513.000    6.469    0.207    0.399   94.845
  513.250    6.232    0.208    0.400   96.671
  513.500    5.676    0.207    0.417   91.151
  513.750    5.170    0.238    0.450   75.220
  514.000    4.622    0.259    0.478   54.392
  514.250    4.210    0.299    0.404   40.302
  514.500    3.695    0.347    0.372   39.675
  514.750    3.429    0.310    0.353   49.455
  515.000    3.303    0.297    0.346   56.178
  515.250    3.182    0.304    0.348   61.678
  515.500    3.065    0.307    0.355   69.006
  515.750    3.009    0.300    0.358   70.835
  516.000    2.953    0.298    0.357   48.170
  516.250    2.953    0.308    0.359   38.976
  516.500    2.953    0.320    0.359   34.067
  516.750    2.953    0.324    0.354   42.007
  517.000    2.953    0.329    0.348   45.672
  517.250    3.009    0.312    0.352   49.334
  517.500    3.009    0.305    0.370   43.198
  517.750    3.009    0.301    0.380   43.188
  518.000    3.009    0.300    0.351   38.887
  518.250    3.009    0.312    0.341   37.041
  518.500    2.953    0.318    0.351   33.963
  518.750    2.898    0.328    0.357   32.730
  519.000    2.845    0.330    0.360   33.330
  519.250    2.792    0.333    0.373   36.378
  519.500    2.792    0.336    0.388   35.750
  519.750    2.792    0.337    0.405   33.286
  520.000    2.741    0.344    0.408   33.888
  520.250    2.741    0.348    0.402   34.492
  520.500    2.690    0.348    0.401   34.472
  520.750    2.690    0.345    0.387   34.461
  521.000    2.690    0.348    0.382   35.064
  521.250    2.690    0.345    0.379   38.111
  521.500    2.690    0.338    0.380   42.998
  521.750    2.690    0.329    0.366   49.106
  522.000    2.690    0.328    0.361   52.767
  522.250    2.690    0.330    0.372   39.895
  522.500    2.741    0.328    0.381   36.216
  522.750    2.792    0.330    0.372   31.917
  523.000    2.845    0.343    0.370   38.635
  523.250    2.898    0.330    0.374   38.626
  523.500    3.009    0.309    0.358   44.119
  523.750    3.065    0.299    0.337   47.784
  524.000    3.123    0.288    0.341   58.173
  524.250    3.182    0.277    0.366   61.228
  524.500    3.182    0.300    0.380   50.807
  524.750    3.123    0.318    0.372   39.773
  525.000    3.009    0.321    0.369   34.253
  525.250    2.953    0.323    0.379   31.791
  525.500    2.845    0.327    0.386   35.453
  525.750    2.792    0.328    0.373   42.787
  526.000    2.690    0.316    0.350   76.445
  526.250    2.690    0.311    0.339  146.833
  526.500    2.690    0.308    0.367  127.842
  526.750    2.741    0.317    0.389  100.279
  527.000    2.741    0.322    0.379   77.005
  527.250    2.845    0.317    0.366   57.403
  527.500    2.898    0.302    0.349   45.759
  527.750    3.009    0.280    0.330   46.970
  528.000    3.123    0.251    0.310   46.344
  528.250    3.242    0.259    0.284   38.983
  528.500    3.303    0.278    0.314   34.691
  528.750    3.365    0.285    0.327   27.328
  529.000    3.303    0.279    0.320   23.642
  529.250    3.242    0.293    0.329   22.410
  529.500    3.182    0.309    0.337   21.779
  529.750    3.182    0.314    0.349   21.767
  530.000    3.182    0.292    0.332   22.370
  530.250    3.242    0.286    0.304   25.412
  530.500    3.303    0.283    0.321   26.017
  530.750    3.365    0.281    0.332   27.226
  531.000    3.365    0.291    0.337   28.438
  531.250    3.303    0.313    0.363   29.039
  531.500    3.242    0.318    0.365   29.031
  531.750    3.242    0.319    0.347   26.570
  532.000    3.242    0.317    0.331   24.104
  532.250    3.303    0.309    0.328   23.482
