~VERSION INFORMATION
 VERS.                 2.0:   CWLS LOG ASCII STANDARD -VERSION 2.0
 WRAP.                  NO:   ONE LINE PER DEPTH STEP
~WELL INFORMATION BLOCK
#MNEM.UNIT           DATA                    DESCRIPTION OF MNEMONIC
#---------    -------------------            -------------------------------
# Generated from Intellog Unique Number	CW_82_90/WELL/3074
WELL.         PARA ET AL LIVOCK 10-36        : Well_name    - WELL
LOC .         00/10-36-085-19W4/0            : Location     - LOCATION
UWI .         00/10-36-085-19W4/0            : Uwi          - UNIQUE WELL ID
ENTR.         JAYE                           : Entered      - ENTERED BY
SRVC.         COMPUTALOG                     : Scn          - SERVICE COMPANY
DATE.         6 FEB 78                       : Date         - LOG DATE
STRT.M        188.976                        : top_depth    - START DEPTH
STOP.M        304.726                        : bot_depth    - STOP DEPTH
STEP.M        0.25                           : increment    - STEP LENGTH
 NULL. -999.2500:NULL Value
~CURVE INFORMATION BLOCK
#MNEM UNIT       ERCB CURVE CODE    CURVE DESCRIPTION
#-----------   ------------------   ----------------------------------
DEPT.M        00 001 00 00         : DEPTH        - DEPTH
CALI.MM       00 280 01 00         : CAL          - CALIPER
GR  .API      00 310 00 00         : GR           - GAMMA RAY
NPHI.V/V      00 330 00 00         : PHIN         - NEUTRON POROSITY (SANDSTONE)
DPHI.V/V      00 890 00 00         : PHID         - DENSITY POROSITY (SANDSTONE)
ILD .OHMM     00 120 00 00         : RESD         - DEEP RESISTIVITY (DIL)
~PARAMETER INFORMATION
#MNEM.UNIT           DATA             DESCRIPTION OF MNEMONIC
#---------         -----------     ------------------------------
GL  .M        576.072              : gl           - GROUND LEVEL ELEVATION
EREF.M        579.12               : kb           - ELEVATION OF DEPTH REFERENCE
DATM.M        576.072              : datum        - DATUM ELEVATION
TDD .M        304.19               : tdd          - TOTAL DEPTH DRILLER
RUN .         ONE                  : Run          - RUN NUMBER
ENG .         FITZSIMMONS          : Engineer     - RECORDING ENGINEER
WIT .         GEORGE               : Witness      - WITNESSED BY
BASE.         EDMONTON             : Branch       - HOME BASE OF LOGGING UNIT
MUD .         GEL CHEM             : Mud_type     - MUD TYPE
MATR.         SANDSTONE            : Logunit      - NEUTRON MATRIX
TMAX.C        18.3333              : BHT          - MAXIMUM RECORDED TEMPERATURE
BHTD.M        304.19               : BHTDEP       - MAXIMUM RECORDED TEMPERATURE
RMT .C        15.5556              : MDTP         - TEMPERATURE OF MUD
MUDD.KG/M     9300                 : MWT          - MUD DENSITY
NEUT.         0                    : NEUTRON      - NEUTRON TYPE
RESI.         0                    : RESIST       - RESISTIVITY TYPE
RM  .OHMM     5                    : RM           - RESISTIVITY OF MUD
RMC .OHMM     0                    : RMC          - RESISTIVITY OF MUD CAKE
RMF .OHMM     4.6                  : RMF          - RESISTIVITY OF MUD FILTRATE
SUFT.C        -17.7778             : SUFT         - SURFACE TEMPERATURE
~A  DEPTH      CAL       GR     PHIN     PHID     RESD
# ...
  225.476  179.802   66.788    0.393    0.259    9.300
  225.726  176.315   63.545    0.361    0.259    9.439
  225.976  171.666   60.064    0.281    0.267    9.639
  226.226  159.266   54.595    0.292    0.287    9.919
  226.476  152.208   53.591    0.300    0.283   10.379
  226.726  147.568   55.055    0.299    0.271   11.080
  226.976  144.600   53.064    0.291    0.248   11.058
  227.226  143.224   52.233    0.292    0.242   10.736
  227.476  143.811   54.386    0.301    0.250   10.554
  227.726  145.772   59.383    0.297    0.246   10.472
  227.976  146.896   60.725    0.292    0.233   10.491
  228.226  147.495   62.515    0.287    0.229   10.570
  228.476  146.623   63.790    0.288    0.253   10.850
  228.726  146.696   63.459    0.316    0.295   11.149
  228.976  145.304   54.589    0.324    0.299   11.549
  229.226  142.654   55.873    0.333    0.293   11.629
  229.476  140.324   56.595    0.334    0.288   10.905
  229.726  140.096   52.181    0.325    0.285   10.342
  229.976  141.008   54.955    0.312    0.251    9.799
  230.226  143.376   56.049    0.300    0.222    9.476
  230.476  147.851   53.183    0.287    0.198    9.194
  230.726  151.179   47.345    0.282    0.193    8.892
  230.976  152.512   53.084    0.290    0.217    8.569
  231.226  153.113   57.712    0.297    0.233    8.468
  231.476  151.304   61.223    0.294    0.263    8.788
  231.726  148.027   65.915    0.296    0.288    8.947
  231.976  145.784   65.585    0.301    0.273    8.464
  232.226  145.555   66.061    0.307    0.304    7.861
  232.476  147.194   63.380    0.307    0.388    7.739
  232.726  151.676   58.224    0.302    0.427    7.617
  232.976  155.520   58.519    0.294    0.373    7.677
  233.226  157.799   58.809    0.281    0.230    7.836
  233.476  152.111   58.481    0.281    0.187    8.777
  233.726  146.949   55.742    0.270    0.086    9.739
  233.976  146.812   50.900    0.258    0.111   10.560
  234.226  147.720   56.820    0.259    0.154   11.382
  234.476  148.327   67.081    0.292    0.190   11.140
  234.726  149.027   72.711    0.290    0.223   10.436
  234.976  149.949   71.199    0.275    0.220   10.094
  235.226  151.165   61.206    0.274    0.225    9.812
  235.476  155.227   58.649    0.279    0.233    9.369
  235.726  158.243   63.837    0.298    0.247    9.147
  235.976  159.885   61.897    0.315    0.265    8.704
  236.226  161.661   57.422    0.329    0.284    8.262
  236.476  162.873   60.437    0.315    0.284    7.719
  236.726  163.798   64.695    0.292    0.272    7.436
  236.976  164.167   61.093    0.285    0.272    7.535
  237.226  164.871   62.740    0.283    0.282    7.835
  237.476  165.378   70.029    0.290    0.286    8.375
  237.726  165.466   73.912    0.285    0.261    8.454
  237.976  164.269   73.034    0.279    0.268    8.312
  238.226  160.786   67.192    0.276    0.218    8.051
  238.476  159.800   65.187    0.280    0.202    7.567
  238.726  159.566   64.682    0.282    0.207    7.426
  238.976  159.854   63.852    0.278    0.216    7.405
  239.226  160.240   62.909    0.274    0.236    7.423
  239.476  161.042   66.176    0.295    0.247    7.643
  239.726  163.219   69.072    0.290    0.252    7.681
  239.976  167.269   67.562    0.281    0.261    7.780
  240.226  171.442   60.669    0.288    0.268    7.880
  240.476  174.355   63.255    0.295    0.266    8.139
  240.726  174.220   69.055    0.287    0.245    8.479
  240.976  176.908   72.942    0.265    0.249    8.979
  241.226  176.248   75.158    0.265    0.215    9.700
  241.476  164.681   75.630    0.269    0.222   10.261
  241.726  159.204   68.055    0.263    0.227   10.921
  241.976  157.716   61.547    0.263    0.227   11.342
  242.226  156.850   61.461    0.262    0.215   11.842
  242.476  155.873   59.459    0.262    0.195   12.402
  242.726  154.258   55.477    0.259    0.162   12.642
  242.976  152.452   59.243    0.270    0.217   13.042
  243.226  150.128   59.158    0.286    0.242   13.301
  243.476  148.936   54.065    0.297    0.267   13.360
  243.726  148.595   52.812    0.299    0.279   13.279
  243.976  148.869   57.252    0.290    0.279   12.896
  244.226  149.472   57.541    0.293    0.277   12.373
  244.476  149.852   57.899    0.287    0.267   11.910
  244.726  150.348   58.186    0.282    0.246   11.548
  244.976  150.107   61.214    0.288    0.239   11.326
  245.226  149.033   65.459    0.292    0.254   10.984
  245.476  148.590   66.560    0.292    0.260   10.761
  245.726  148.145   62.520    0.286    0.252   10.961
  245.976  148.523   58.839    0.281    0.253   11.562
  246.226  150.169   54.738    0.270    0.246   12.503
  246.476  152.759   49.516    0.269    0.231   13.284
  246.726  154.098   47.644    0.264    0.201   13.825
  246.976  154.383   49.792    0.259    0.190   14.104
  247.226  155.094   55.593    0.261    0.193   14.404
  247.476  156.002   56.880    0.254    0.189   14.945
  247.726  157.751   53.640    0.188    0.176   15.465
  247.976  159.920   47.926    0.186    0.083   15.123
  248.226  160.521   47.538    0.199    0.106   17.449
  248.476  160.613   57.738    0.224    0.107   18.691
  248.726  160.996   62.051    0.209    0.071   18.189
  248.976  160.436   41.724    0.143    0.031   16.181
  249.226  160.193   42.528    0.192    0.103   15.758
  249.476  160.480   45.901    0.248    0.173   15.677
  249.726  160.665   60.004    0.240    0.151   14.893
  249.976  161.177   65.128    0.238    0.155   13.888
  250.226  161.235   62.874    0.247    0.167   13.626
  250.476  160.681   72.332    0.240    0.149   14.066
  250.726  160.129   74.111    0.234    0.131   14.446
  250.976  160.115   66.055    0.254    0.188   14.666
  251.226  159.870   63.178    0.263    0.217   15.407
  251.476  159.950   59.196    0.257    0.235   16.368
  251.726  159.904   60.296    0.258    0.226   16.427
  251.976  159.238   61.764    0.259    0.212   15.684
  252.226  157.424   67.262    0.258    0.194   15.201
  252.476  156.476   70.398    0.262    0.177   14.377
  252.726  156.128   69.264    0.263    0.178   13.733
  252.976  155.879   65.162    0.259    0.181   13.150
  253.226  155.001   71.210    0.256    0.169   12.587
  253.476  154.442   74.603    0.259    0.165   12.646
  253.726  154.210   72.849    0.266    0.178   12.645
  253.976  153.771   71.037    0.267    0.171   12.583
  254.226  153.831   72.191    0.268    0.148   12.582
  254.476  153.492   76.573    0.273    0.156   12.581
  254.726  152.721   74.083    0.279    0.187   12.499
  254.976  152.699   73.566    0.280    0.187   12.457
  255.226  153.832   71.812    0.266    0.171   12.396
  255.476  154.841   68.573    0.253    0.156   12.174
  255.726  155.545   73.696    0.251    0.145   11.972
  255.976  156.464   77.954    0.275    0.189   11.870
  256.226  157.483   76.137    0.282    0.190   11.809
  256.476  158.075   70.054    0.279    0.184   11.607
  256.726  158.882   73.501    0.271    0.186   11.485
  256.976  159.793   74.102    0.267    0.187   11.464
  257.226  160.295   74.588    0.269    0.191   11.383
  257.476  160.475   77.103    0.272    0.194   11.321
  257.726  161.073   75.352    0.273    0.202   11.280
  257.976  161.468   71.435    0.275    0.207   11.278
  258.226  161.854   74.324    0.269    0.206   11.257
  258.476  162.359   75.240    0.272    0.197   11.316
  258.726  162.114   73.302    0.273    0.196   11.395
  258.976  161.860   72.661    0.269    0.214   11.554
  259.226  161.104   68.561    0.260    0.210   11.834
  259.476  160.869   66.196    0.252    0.203   11.953
  259.726  161.153   68.410    0.255    0.208   12.112
  259.976  162.073   67.144    0.262    0.206   12.251
  260.226  162.867   67.935    0.273    0.203   12.310
  260.476  163.675   71.631    0.280    0.208   12.449
  260.726  163.973   68.638    0.281    0.209   12.769
  260.976  163.940   72.841    0.275    0.222   13.209
  261.226  164.116   75.787    0.267    0.227   13.549
  261.476  164.710   68.771    0.255    0.214   14.069
  261.726  164.261   67.458    0.257    0.217   14.810
