~VERSION INFORMATION
 VERS.                 2.0:   CWLS LOG ASCII STANDARD -VERSION 2.0
 WRAP.                  NO:   ONE LINE PER DEPTH STEP
~WELL INFORMATION BLOCK
#MNEM.UNIT           DATA                    DESCRIPTION OF MNEMONIC
#---------    -------------------            -------------------------------
# Generated from Intellog Unique Number	CS_71_72/WELL/2059
WELL.         GEPC WANDER                    : Well_name    - WELL
LOC .         00/11-29-071-13W4/0            : Location     - LOCATION
UWI .         00/11-29-071-13W4/0            : Uwi          - UNIQUE WELL ID
ENTR.         T                              : Entered      - ENTERED BY
SRVC.         SCHLUMBERGER                   : Scn          - SERVICE COMPANY
DATE.         01/15/92                       : Date         - LOG DATE
STRT.M        335.28                         : top_depth    - START DEPTH
STOP.M        563.78                         : bot_depth    - STOP DEPTH
STEP.M        0.25                           : increment    - STEP LENGTH
 NULL. -999.2500:NULL Value
~CURVE INFORMATION BLOCK
#MNEM UNIT       ERCB CURVE CODE    CURVE DESCRIPTION
#-----------   ------------------   ----------------------------------
DEPT.M        00 001 00 00         : DEPTH        - DEPTH
GR  .API      00 310 00 00         : GR           - GAMMA RAY
NPHI.V/V      00 330 00 00         : PHIN         - NEUTRON POROSITY (SANDSTONE)
ILD .OHMM     00 120 00 00         : RESD         - DEEP RESISTIVITY (DIL)
~PARAMETER INFORMATION
#MNEM.UNIT           DATA             DESCRIPTION OF MNEMONIC
#---------         -----------     ------------------------------
GL  .M        657.758              : gl           - GROUND LEVEL ELEVATION
EREF.M        661.721              : kb           - ELEVATION OF DEPTH REFERENCE
DATM.M        661.721              : datum        - DATUM ELEVATION
TDD .M        566.928              : tdd          - TOTAL DEPTH DRILLER
RUN .         ONE                  : Run          - RUN NUMBER
ENG .         BILL                 : Engineer     - RECORDING ENGINEER
WIT .         JIM                  : Witness      - WITNESSED BY
MUD .         GEL                  : Mud_type     - MUD TYPE
MATR.         SANDSTONE            : Logunit      - NEUTRON MATRIX
TMAX.C        10.5556              : BHT          - MAXIMUM RECORDED TEMPERATURE
BHTD.M        566.928              : BHTDEP       - MAXIMUM RECORDED TEMPERATURE
RMT .C        8.33333              : MDTP         - TEMPERATURE OF MUD
MUDD.KG/M     9800                 : MWT          - MUD DENSITY
NEUT.         1                    : NEUTRON      - NEUTRON TYPE
RESI.         0                    : RESIST       - RESISTIVITY TYPE
RM  .OHMM     4.4                  : RM           - RESISTIVITY OF MUD
RMC .OHMM     5.08                 : RMC          - RESISTIVITY OF MUD CAKE
RMF .OHMM     4.4                  : RMF          - RESISTIVITY OF MUD FILTRATE
SUFT.C        4                    : SUFT         - SURFACE TEMPERATURE
~A  DEPTH       GR     PHIN     RESD
# ...
  389.530  119.211    0.477    5.211
  389.780  122.224    0.481    5.742
  390.030  122.234    0.468    6.579
  390.280  116.231    0.456    7.837
  390.530  109.627    0.448    8.807
  390.780  103.625    0.443    8.807
  391.030  103.038    0.435    8.639
  391.280  104.245    0.435    8.310
  391.530  106.661    0.433    8.151
  391.780  107.272    0.429    8.810
  392.030  106.079    0.422    9.160
  392.280  104.886    0.419    9.160
  392.530  104.297    0.416    9.524
  392.780  102.503    0.427   10.295
  393.030  100.107    0.446   10.913
  393.280  101.918    0.443   10.704
  393.530  107.343    0.438    9.904
  393.780  109.156    0.437    9.905
  394.030  109.762    0.435    9.345
  394.280  112.179    0.430    8.817
  394.530  113.388    0.430    8.481
  394.780  115.201    0.425    8.991
  395.030  117.014    0.420    9.718
  395.280  111.012    0.424    9.348
  395.530  104.408    0.438    9.532
  395.780  100.209    0.441   10.711
  396.030   95.409    0.417   10.506
  396.280   96.621    0.402    9.912
  396.530  106.851    0.438    8.653
  396.780  105.658    0.448    8.323
  397.030   96.649    0.459    8.996
  397.280   91.248    0.470   10.716
  397.530   83.442    0.485   11.583
  397.780   78.644    0.487   11.584
  398.030   79.856    0.483   10.929
  398.280   78.663    0.477   10.112
  398.530   77.468    0.472    9.357
  398.780   85.293    0.467    8.828
  399.030   97.326    0.444    8.659
  399.280  105.757    0.428    8.493
  399.530  106.969    0.414    8.170
  399.780  107.579    0.415    7.708
  400.030  108.190    0.418    7.708
  400.280  106.394    0.420    8.171
  400.530   94.379    0.426    9.362
  400.780   88.980    0.433    9.547
  401.030   88.987    0.439    9.364
  401.280   89.598    0.444    9.184
  401.530   92.613    0.454    9.008
  401.780  100.438    0.447    8.666
  402.030  107.662    0.439    8.336
  402.280  113.684    0.443    8.019
  402.530  118.505    0.444    7.420
  402.780  116.110    0.443    6.352
  403.030  113.714    0.438    6.734
  403.280  111.920    0.439    7.421
  403.530  110.126    0.446    7.867
  403.780  108.933    0.452    8.023
  404.030  110.143    0.459    8.023
  404.280  111.354    0.465    8.023
  404.530  110.763    0.457    8.342
  404.780  111.977    0.451    8.843
  405.030  113.790    0.436    9.375
  405.280  115.002    0.426   10.133
  405.530  112.604    0.425   11.167
  405.780   57.905    0.421   12.795
  406.030   45.890    0.428   13.564
  406.280   44.700    0.441   12.797
  406.530   49.516    0.455   11.841
  406.780   57.341    0.462    9.942
  407.030   62.160    0.467    8.030
  407.280   65.779    0.471    8.512
  407.530   67.592    0.475   10.139
  407.780   67.001    0.489   13.310
  408.030   64.603    0.483   12.804
  408.280   63.415    0.478   11.396
  408.530   67.029    0.476    8.853
  408.780   70.646    0.481    9.027
  409.030   73.062    0.488    9.570
  409.280   71.869    0.496   10.964
  409.530   66.466    0.497   12.809
  409.780   61.067    0.486   13.845
  410.030   62.877    0.475   13.318
  410.280   66.494    0.465   11.402
  410.530   70.714    0.465    9.761
  410.780   71.926    0.468    8.357
  411.030   69.531    0.470    8.358
  411.280   68.338    0.473    9.034
  411.530   68.347    0.468   10.152
  411.780   65.952    0.458   11.188
  412.030   64.158    0.452   11.860
  412.280   63.568    0.444   13.071
  412.530   64.775    0.440   12.094
  412.780   67.791    0.457    8.693
  413.030   67.202    0.486    9.960
  413.280   64.203    0.492   12.334
  413.530   66.617    0.495   10.157
  413.780   71.436    0.479    9.963
  414.030   76.856    0.461   10.980
  414.280   76.866    0.468   10.562
  414.530   75.074    0.473    8.698
  414.780   67.867    0.469    9.220
  415.030   60.662    0.489    9.775
  415.280   60.671    0.497    8.532
  415.530   63.687    0.486    9.776
  415.780   67.907    0.471   11.421
  416.030   69.722    0.465   11.421
  416.280   68.527    0.461   11.875
  416.530   66.733    0.460   12.109
  416.780   64.340    0.463   12.347
  417.030   62.546    0.476   12.837
  417.280   60.752    0.479   13.090
  417.530   60.160    0.471   12.592
  417.780   61.369    0.473   12.351
  418.030   65.587    0.484   11.652
  418.280   69.807    0.500   11.653
  418.530   74.023    0.497   11.429
  418.780   76.437    0.481   10.783
  419.030   78.250    0.489   10.995
  419.280   80.664    0.489   11.656
  419.530   78.269    0.481   11.213
  419.780   75.876    0.484   10.786
  420.030   81.895    0.495   10.177
  420.280   88.518    0.503    9.235
  420.530   93.337    0.495    7.754
  420.780   93.346    0.487    6.511
  421.030   93.356    0.476    5.467
  421.280   93.365    0.463    6.902
  421.530   95.185    0.446    8.064
  421.780   95.791    0.429    7.608
  422.030   96.404    0.420    6.771
  422.280   95.812    0.425    6.388
  422.530   93.417    0.446    7.319
  422.780   90.421    0.476    7.610
  423.030   87.422    0.488    7.912
  423.280   81.419    0.487    8.226
  423.530   76.624    0.472    8.720
  423.780   74.825    0.458    9.426
  424.030   71.831    0.435   11.672
  424.280   70.638    0.407   14.176
  424.530   72.453    0.362   17.555
  424.780   74.262    0.221   47.286
  425.030   74.872    0.106   98.941
  425.280   68.269    0.085  163.975
  425.530   61.665    0.082  184.261
  425.780   55.061    0.096  211.122
  426.030   51.463    0.121  170.509
  426.280   59.890    0.153   52.132
  426.530   72.524    0.341   20.921
  426.780   85.760    0.406   12.383
  427.030   89.377    0.425   10.197
  427.280   74.356    0.419   11.912
  427.530   71.961    0.289   15.944
  427.780   68.363    0.245   22.620
  428.030   70.777    0.271   27.472
  428.280   76.198    0.323   16.904
  428.530   82.219    0.394   11.463
  428.780   87.642    0.446   10.202
  429.030   90.657    0.448   13.134
  429.280   87.660    0.431   15.344
  429.530   82.261    0.299   19.374
  429.780   82.271    0.274   25.431
  430.030   85.284    0.320   19.377
  430.280   91.907    0.391   12.395
  430.530   94.922    0.448    8.738
  430.780   90.723    0.457   10.012
  431.030   85.925    0.433   10.409
  431.280   86.538    0.375   11.472
  431.530   87.144    0.336   12.643
  431.780   85.353    0.337   15.060
  432.030   84.160    0.423   13.146
  432.280   85.973    0.457    9.449
  432.530   88.986    0.485    9.635
  432.780   90.799    0.481    9.269
  433.030   91.412    0.464    9.636
  433.280   91.419    0.478   10.216
  433.530   93.838    0.491    9.638
  433.780   94.446    0.496    9.453
  434.030   94.456    0.488    9.094
  434.280   93.866    0.489    8.748
  434.530   95.076    0.494    9.830
  434.780   96.285    0.486   10.023
  435.030   98.103    0.481    9.642
  435.280   98.711    0.475    9.097
  435.530  100.524    0.451    9.276
  435.780  102.337    0.444    8.923
  436.030  103.549    0.444    8.584
  436.280   97.549    0.449    9.278
  436.530   95.151    0.455    9.646
  436.780   93.961    0.457   10.427
  437.030   96.976    0.450   10.427
  437.280   99.391    0.447    9.281
  437.530  101.204    0.444    8.101
  437.780  100.013    0.436    8.261
  438.030   99.419    0.426    8.423
  438.280   97.625    0.426    8.758
  438.530   95.229    0.439    8.590
  438.780   92.832    0.450    8.590
  439.030   94.044    0.449    8.591
  439.280   99.464    0.445    8.592
  439.530  101.277    0.445    8.761
  439.780   97.681    0.442    8.933
  440.030   94.685    0.436    9.110
  440.280   91.087    0.413    9.471
  440.530   87.487    0.413   11.065
  440.780   82.689    0.405   12.433
  441.030   80.292    0.225   14.525
  441.280   77.295    0.165   17.987
  441.530   74.900    0.157   11.732
  441.780   85.130    0.204    9.114
  442.030   91.752    0.251    8.599
  442.280   94.768    0.314    7.956
  442.530   97.783    0.382    8.113
  442.780   97.191    0.421    8.435
  443.030   99.007    0.447    8.114
  443.280  102.027    0.466    7.655
  443.530  102.633    0.453    6.947
