~VERSION INFORMATION
 VERS.                 2.0:   CWLS LOG ASCII STANDARD -VERSION 2.0
 WRAP.                  NO:   ONE LINE PER DEPTH STEP
~WELL INFORMATION BLOCK
#MNEM.UNIT           DATA                    DESCRIPTION OF MNEMONIC
#---------    -------------------            -------------------------------
# Generated from Intellog Unique Number	CS_69_70/WELL/873
WELL.         ET AL HEART LAKE               : Well_name    - WELL
LOC .         00/10-29-069-10W4/0            : Location     - LOCATION
UWI .         00/10-29-069-10W4/0            : Uwi          - UNIQUE WELL ID
ENTR.         SP                             : Entered      - ENTERED BY
SRVC.         SCHLUMBERGER                   : Scn          - SERVICE COMPANY
STRT.M        250                            : top_depth    - START DEPTH
STOP.M        460                            : bot_depth    - STOP DEPTH
STEP.M        0.25                           : increment    - STEP LENGTH
 NULL. -999.2500:NULL Value
~CURVE INFORMATION BLOCK
#MNEM UNIT       ERCB CURVE CODE    CURVE DESCRIPTION
#-----------   ------------------   ----------------------------------
DEPT.M        00 001 00 00         : DEPTH        - DEPTH
ILD .OHMM     00 120 00 00         : RESD         - DEEP RESISTIVITY (DIL)
DPHI.V/V      00 890 00 00         : PHID         - DENSITY POROSITY (LIMESTONE)
NPHI.V/V      00 330 00 00         : PHIN         - NEUTRON POROSITY (LIMESTONE)
GR  .API      00 310 00 00         : GR           - GAMMA RAY
~PARAMETER INFORMATION
#MNEM.UNIT           DATA             DESCRIPTION OF MNEMONIC
#---------         -----------     ------------------------------
GL  .M        598                  : gl           - GROUND LEVEL ELEVATION
EREF.M        601.5                : kb           - ELEVATION OF DEPTH REFERENCE
DATM.M        598                  : datum        - DATUM ELEVATION
TDD .M        500                  : tdd          - TOTAL DEPTH DRILLER
RUN .         ONE                  : Run          - RUN NUMBER
ENG .         BILL                 : Engineer     - RECORDING ENGINEER
WIT .         JIM                  : Witness      - WITNESSED BY
MUD .         GEL                  : Mud_type     - MUD TYPE
MATR.         LIMESTONE            : Logunit      - NEUTRON MATRIX
TMAX.C        22                   : BHT          - MAXIMUM RECORDED TEMPERATURE
BHTD.M        500                  : BHTDEP       - MAXIMUM RECORDED TEMPERATURE
MATR.         1                    : LOGUNIT      - NEUTRON MATRIX
RMT .C        25                   : MDTP         - TEMPERATURE OF MUD
NEUT.         1                    : NEUTRON      - NEUTRON TYPE
RESI.         0                    : RESIST       - RESISTIVITY TYPE
RMC .OHMM     0.25                 : RMC          - RESISTIVITY OF MUD CAKE
RMF .OHMM     0.25                 : RMF          - RESISTIVITY OF MUD FILTRATE
SUFT.C        15                   : SUFT         - SURFACE TEMPERATURE
~A  DEPTH     RESD     PHID     PHIN       GR
# ...
  337.000    7.762    0.295    0.402   77.433
  337.250    7.751    0.316    0.401   70.831
  337.500    7.769    0.327    0.408   65.377
  337.750    7.831    0.323    0.425   71.358
  338.000    7.833    0.295    0.421   76.374
  338.250    7.837    0.292    0.420   81.389
  338.500    7.811    0.310    0.443   73.514
  338.750    7.756    0.318    0.468   69.816
  339.000    7.644    0.321    0.459   68.115
  339.250    7.477    0.315    0.459   68.167
  339.500    6.966    0.310    0.461   73.665
  339.750    6.170    0.302    0.447   80.193
  340.000    5.324    0.292    0.455   86.417
  340.250    4.725    0.293    0.460   86.047
  340.500    4.130    0.304    0.468   87.733
  340.750    3.427    0.303    0.571   85.789
  341.000    4.165    0.330    0.557   78.581
  341.250    4.768    0.354    0.510   71.069
  341.500    5.829    0.360    0.467   69.731
  341.750    7.072    0.352    0.469   69.300
  342.000    8.310    0.348    0.465   67.901
  342.250    9.096    0.342    0.464   70.132
  342.500    9.377    0.337    0.484   72.121
  342.750    9.522    0.341    0.471   72.295
  343.000    9.384    0.347    0.444   68.837
  343.250    9.266    0.351    0.433   66.289
  343.500    9.218    0.354    0.453   63.317
  343.750    9.136    0.356    0.472   61.614
  344.000    9.088    0.355    0.474   62.454
  344.250    9.008    0.351    0.478   63.595
  344.500    9.011    0.348    0.487   64.375
  344.750    9.014    0.344    0.479   64.670
  345.000    8.985    0.341    0.465   63.935
  345.250    9.022    0.338    0.452   62.718
  345.500    9.026    0.339    0.454   61.016
  345.750    9.064    0.348    0.456   61.069
  346.000    9.067    0.354    0.454   62.272
  346.250    9.054    0.357    0.453   57.301
  346.500    9.007    0.349    0.454   53.602
  346.750    8.994    0.344    0.457   52.325
  347.000    8.965    0.355    0.467   52.741
  347.250    8.968    0.365    0.474   54.245
  347.500    8.905    0.372    0.466   55.085
  347.750    8.875    0.369    0.459   55.198
  348.000    8.845    0.365    0.462   55.373
  348.250    8.800    0.361    0.458   55.304
  348.500    8.738    0.359    0.440   55.055
  348.750    8.693    0.356    0.422   55.045
  349.000    8.632    0.357    0.406   55.280
  349.250    8.572    0.364    0.416   56.242
  349.500    8.574    0.366    0.454   56.899
  349.750    8.545    0.357    0.487   55.742
  350.000    8.533    0.354    0.471   53.675
  350.250    8.538    0.343    0.464   53.367
  350.500    8.525    0.328    0.455   54.811
  350.750    8.481    0.348    0.444   56.134
  351.000    8.389    0.353    0.442   57.882
  351.250    8.361    0.349    0.452   57.148
  351.500    8.380    0.356    0.458   54.417
  351.750    8.383    0.364    0.454   53.502
  352.000    8.450    0.367    0.452   56.398
  352.250    8.469    0.363    0.454   57.722
  352.500    8.504    0.360    0.454   56.201
  352.750    8.508    0.357    0.444   53.167
  353.000    8.512    0.355    0.438   50.801
  353.250    8.467    0.356    0.444   48.554
  353.500    8.519    0.357    0.451   49.213
  353.750    8.474    0.357    0.459   53.380
  354.000    8.574    0.345    0.456   55.974
  354.250    8.740    0.308    0.418   58.387
  354.500    8.842    0.281    0.387   58.380
  354.750    9.046    0.284    0.359   53.831
  355.000    9.101    0.330    0.428   52.434
  355.250    8.903    0.358    0.453   54.665
  355.500    8.203    0.372    0.461   56.594
  355.750    7.949    0.383    0.475   56.282
  356.000    7.819    0.394    0.487   55.367
  356.250    7.749    0.392    0.467   53.665
  356.500    7.695    0.381    0.450   52.025
  356.750    7.698    0.371    0.442   54.014
  357.000    7.716    0.360    0.455   56.124
  357.250    7.577    0.352    0.468   54.785
  357.500    7.708    0.354    0.465   54.292
  357.750    7.711    0.356    0.445   54.466
  358.000    7.728    0.355    0.437   55.062
  358.250    7.717    0.354    0.433   56.086
  358.500    7.720    0.356    0.436   57.530
  358.750    7.694    0.364    0.442   58.611
  359.000    7.684    0.369    0.454   56.787
  359.250    7.686    0.363    0.470   56.236
  359.500    7.691    0.358    0.478   58.829
  359.750    7.636    0.360    0.467   61.121
  360.000    7.582    0.366    0.459   62.928
  360.250    7.585    0.368    0.453   63.769
  360.500    7.560    0.367    0.454   63.882
  360.750    7.520    0.366    0.465   63.934
  361.000    7.524    0.362    0.465   64.048
  361.250    7.556    0.363    0.460   62.830
  361.500    7.601    0.366    0.455   60.039
  361.750    7.648    0.362    0.451   56.460
  362.000    7.679    0.358    0.458   55.183
  362.250    7.668    0.353    0.451   55.901
  362.500    7.642    0.350    0.451   57.467
  362.750    7.617    0.348    0.457   58.306
  363.000    7.521    0.349    0.462   58.117
  363.250    7.412    0.351    0.459   57.868
  363.500    7.291    0.352    0.453   59.252
  363.750    7.239    0.353    0.447   60.636
  364.000    7.216    0.355    0.459   61.717
  364.250    7.179    0.355    0.460   61.044
  364.500    7.116    0.356    0.449   60.370
  364.750    7.091    0.358    0.461   59.696
  365.000    7.107    0.363    0.475   58.661
  365.250    7.218    0.368    0.466   56.717
  365.500    7.440    0.371    0.425   57.073
  365.750    7.597    0.362    0.433   57.851
  366.000    7.730    0.366    0.449   58.569
  366.250    7.763    0.374    0.463   58.016
  366.500    7.780    0.379    0.483   57.646
  366.750    7.783    0.378    0.476   57.940
  367.000    7.830    0.376    0.462   58.720
  367.250    7.863    0.371    0.451   60.407
  367.500    7.910    0.327    0.447   64.756
  367.750    7.767    0.290    0.440   71.102
  368.000    7.457    0.261    0.431   77.931
  368.250    7.212    0.246    0.427   82.945
  368.500    7.122    0.242    0.442   84.874
  368.750    7.152    0.236    0.455   84.685
  369.000    7.167    0.238    0.463   83.951
  369.250    6.792    0.243    0.467   85.758
  369.500    6.435    0.244    0.479   88.837
  369.750    6.109    0.240    0.468   92.762
  370.000    5.953    0.234    0.464   96.202
  370.250    5.901    0.213    0.472   98.072
  370.500    5.936    0.195    0.459  100.303
  370.750    6.028    0.205    0.447  101.262
  371.000    5.776    0.220    0.461   97.382
  371.250    5.422    0.229    0.471   93.260
  371.500    5.177    0.228    0.475   90.832
  371.750    5.045    0.230    0.485   91.185
  372.000    5.230    0.234    0.469   91.843
  372.250    5.452    0.235    0.452   92.985
  372.500    5.505    0.232    0.445   94.250
  372.750    5.355    0.228    0.461   95.876
  373.000    5.046    0.224    0.474   93.146
  373.250    4.826    0.227    0.481   91.021
  373.500    4.573    0.239    0.472   92.828
  373.750    4.189    0.247    0.475   91.429
  374.000    3.725    0.255    0.480   88.275
  374.250    3.196    0.254    0.479   89.961
  374.500    2.732    0.245    0.492   94.855
  374.750    2.475    0.244    0.523   98.356
  375.000    2.332    0.245    0.552   93.083
  375.250    2.272    0.243    0.531   90.233
  375.500    2.321    0.238    0.518   92.162
  375.750    2.451    0.244    0.504   95.057
  376.000    2.638    0.238    0.493   96.200
  376.250    2.981    0.233    0.502   95.708
  376.500    3.349    0.245    0.513   92.251
  376.750    3.693    0.268    0.503   88.129
  377.000    4.012    0.287    0.478   83.887
  377.250    4.334    0.303    0.459   78.978
  377.500    4.476    0.260    0.443   84.234
  377.750    4.554    0.241    0.429   89.007
  378.000    4.642    0.238    0.424   90.632
  378.250    4.696    0.249    0.430   88.810
  378.500    4.743    0.260    0.446   83.477
  378.750    4.807    0.275    0.458   77.721
  379.000    4.836    0.294    0.467   74.446
  379.250    4.802    0.304    0.469   78.492
  379.500    4.619    0.285    0.468   81.571
  379.750    4.256    0.276    0.483   83.862
  380.000    4.025    0.279    0.503   79.982
  380.250    3.893    0.299    0.525   75.617
