~VERSION INFORMATION
 VERS.                 2.0:   CWLS LOG ASCII STANDARD -VERSION 2.0
 WRAP.                  NO:   ONE LINE PER DEPTH STEP
~WELL INFORMATION BLOCK
#MNEM.UNIT           DATA                    DESCRIPTION OF MNEMONIC
#---------    -------------------            -------------------------------
# Generated from Intellog Unique Number	CC_80_83/WELL/2331
NULL.         -999.25                        : NULL_VALUE
WELL.         GULF PONY                      : Well_name    - WELL              
LOC .         10-03-081-09W4                 : Location     - LOCATION          
UWI .         00/10-03-081-09W400            : Uwi          - UNIQUE WELL ID    
ENTR.         DW                             : Entered      - ENTERED BY        
SRVC.         SCHLUMBERGER                   : Scn          - SERVICE COMPANY   
DATE.         01 FEB 75                      : Date         - LOG DATE
STRT.M        259.08                         : top_depth    - START DEPTH       
STOP.M        496.831                        : bot_depth    - STOP DEPTH        
STEP.M        0.305                          : increment    - STEP LENGTH       
~CURVE INFORMATION BLOCK
#MNEM UNIT       ERCB CURVE CODE    CURVE DESCRIPTION
#-----------   ------------------   ----------------------------------
DEPT.M        00 001 00 00         : DEPTH        - DEPTH                       
GR  .API      00 310 00 00         : GR           - GAMMA RAY                   
NPHI.V/V      00 330 00 00         : PHIN         - NEUTRON POROSITY (LIMESTONE)
DPHI.V/V      00 890 00 00         : PHID         - DENSITY POROSITY (LIMESTONE)
~PARAMETER INFORMATION       
#MNEM.UNIT           DATA             DESCRIPTION OF MNEMONIC
#---------         -----------     ------------------------------
GL  .M        702.259              : gl           - GROUND LEVEL ELEVATION      
EREF.M        706.039              : kb           - ELEVATION OF DEPTH REFERENCE
DATM.M        706.039              : datum        - DATUM ELEVATION             
TDD .M        499.872              : tdd          - TOTAL DEPTH DRILLER         
RUN .         ONE                  : Run          - RUN NUMBER                  
ENG .         BILL                 : Engineer     - RECORDING ENGINEER          
WIT .         JIM                  : Witness      - WITNESSED BY                
MUD .         GEL                  : Mud_type     - MUD TYPE                    
MATR.         LIMESTONE            : Logunit      - NEUTRON MATRIX              
TMAX.C        22.2222              : BHT          - MAXIMUM RECORDED TEMPERATURE
BHTD.M        499.872              : BHTDEP       - MAXIMUM RECORDED TEMPERATURE
MATR.         1                    : LOGUNIT      - NEUTRON MATRIX              
RMT .C        25                   : MDTP         - TEMPERATURE OF MUD          
NEUT.         1                    : NEUTRON      - NEUTRON TYPE                
RESI.         0                    : RESIST       - RESISTIVITY TYPE            
RMC .OHMM     0.25                 : RMC          - RESISTIVITY OF MUD CAKE     
RMF .OHMM     0.25                 : RMF          - RESISTIVITY OF MUD FILTRATE 
SUFT.C        4                    : SUFT         - SURFACE TEMPERATURE         
~A  DEPTH       GR     PHIN     PHID
# ...
  391.367   88.872    0.549    0.217
  391.672   98.082    0.541    0.219
  391.977   93.209    0.520    0.247
  392.282   93.845    0.504    0.225
  392.587   95.697    0.511    0.251
  392.891   96.333    0.576    0.234
  393.196   93.293    0.595    0.227
  393.501   93.318    0.584    0.231
  393.806   97.011    0.534    0.240
  394.111  102.545    0.494    0.270
  394.415  100.732    0.505    0.231
  394.720   90.342    0.521    0.205
  395.025   86.687    0.528    0.211
  395.330   90.386    0.539    0.225
  395.635   93.470    0.550    0.233
  395.939   91.656    0.544    0.218
  396.244   89.839    0.542    0.214
  396.549   89.250    0.537    0.202
  396.854   89.883    0.529    0.221
  397.159   91.134    0.521    0.221
  397.464   91.766    0.526    0.213
  397.768   93.013    0.534    0.217
  398.073   95.481    0.543    0.229
  398.378   94.893    0.564    0.235
  398.683   94.915    0.588    0.234
  398.988   96.775    0.628    0.280
  399.292   98.021    0.625    0.268
  399.597  100.491    0.629    0.241
  399.902  104.189    0.620    0.268
  400.207  103.597    0.610    0.251
  400.512   99.337    0.594    0.259
  400.816   95.685    0.564    0.236
  401.121   92.028    0.547    0.267
  401.426   88.990    0.545    0.251
  401.731   89.013    0.540    0.216
  402.036   89.643    0.524    0.230
  402.340   89.666    0.528    0.238
  402.645   87.850    0.524    0.248
  402.950   84.814    0.512    0.263
  403.255   84.831    0.499    0.282
  403.560   86.082    0.496    0.291
  403.865   88.549    0.505    0.272
  404.169   92.246    0.491    0.232
  404.474   94.107    0.476    0.215
  404.779   96.581    0.463    0.201
  405.084   94.152    0.460    0.160
  405.389   93.564    0.466    0.162
  405.693   94.810    0.483    0.216
  405.998   94.220    0.512    0.236
  406.303   91.788    0.536    0.241
  406.608   89.366    0.513    0.242
  406.913   92.448    0.483    0.230
  407.217   96.144    0.481    0.228
  407.522   97.388    0.500    0.231
  407.827   94.352    0.528    0.211
  408.132   91.310    0.508    0.225
  408.437   87.658    0.461    0.234
  408.741   84.618    0.456    0.236
  409.046   82.798    0.461    0.236
  409.351   82.215    0.462    0.247
  409.656   82.236    0.462    0.258
  409.961   82.865    0.482    0.275
  410.266   86.562    0.500    0.269
  410.570   91.487    0.488    0.244
  410.875   88.446    0.484    0.232
  411.180   88.469    0.507    0.234
  411.485   90.328    0.516    0.226
  411.790   90.349    0.511    0.229
  412.094   89.144    0.487    0.251
  412.399   89.782    0.479    0.226
  412.704   87.352    0.470    0.249
  413.009   82.476    0.476    0.253
  413.314   83.719    0.487    0.228
  413.618   86.805    0.501    0.243
  413.923   85.606    0.534    0.240
  414.228   80.725    0.524    0.252
  414.533   70.947    0.486    0.260
  414.838   71.581    0.485    0.267
  415.142   78.953    0.497    0.294
  415.447   81.425    0.498    0.281
  415.752   80.835    0.499    0.268
  416.057   76.568    0.503    0.277
  416.362   74.759    0.506    0.268
  416.667   75.389    0.507    0.276
  416.971   78.476    0.525    0.268
  417.276   80.944    0.543    0.237
  417.581   85.867    0.583    0.254
  417.886   93.853    0.586    0.236
  418.191   85.298    0.560    0.276
  418.495   73.069    0.524    0.301
  418.800   73.091    0.507    0.288
  419.105   68.827    0.503    0.282
  419.410   70.688    0.518    0.275
  419.715   79.285    0.529    0.269
  420.019   78.696    0.544    0.239
  420.324   76.876    0.523    0.203
  420.629   73.229    0.482    0.146
  420.934   73.248    0.404    0.083
  421.239   77.557    0.476    0.103
  421.543   82.480    0.532    0.204
  421.848   82.498    0.545    0.213
  422.153   82.527    0.556    0.213
  422.458   84.383    0.559    0.216
  422.763   87.469    0.544    0.214
  423.068   89.326    0.482    0.220
  423.372   90.572    0.486    0.214
  423.677   86.311    0.495    0.219
  423.982   88.166    0.499    0.217
  424.287   93.090    0.492    0.204
  424.592   94.951    0.471    0.218
  424.896   96.196    0.445    0.219
  425.201   96.220    0.458    0.216
  425.506   96.852    0.467    0.219
  425.811   96.263    0.466    0.214
  426.116   90.772    0.478    0.209
  426.420   92.631    0.499    0.206
  426.725   92.657    0.551    0.228
  427.030   92.674    0.599    0.244
  427.335   90.246    0.620    0.264
  427.640   85.983    0.632    0.289
  427.944   84.166    0.618    0.305
  428.249   79.291    0.595    0.295
  428.554   78.700    0.559    0.266
  428.859   79.337    0.509    0.249
  429.164   79.967    0.530    0.223
  429.469   82.437    0.525    0.218
  429.773   86.138    0.476    0.228
  430.078   83.094    0.468    0.221
  430.383   81.285    0.472    0.229
  430.688   81.301    0.465    0.218
  430.993   85.000    0.434    0.185
  431.297   88.697    0.473    0.131
  431.602   89.942    0.522    0.202
  431.907   90.581    0.534    0.213
  432.212   91.214    0.541    0.203
  432.517   90.620    0.560    0.215
  432.821   88.805    0.539    0.225
  433.126   88.829    0.532    0.224
  433.431   94.362    0.553    0.230
  433.736   95.608    0.575    0.240
  434.041   89.507    0.571    0.226
  434.345   88.916    0.556    0.257
  434.650   92.002    0.555    0.209
  434.955   96.922    0.583    0.216
  435.260   95.108    0.571    0.230
  435.565   93.291    0.530    0.206
  435.870   90.254    0.545    0.207
  436.174   88.434    0.492    0.212
  436.479   88.460    0.490    0.207
  436.784   90.319    0.504    0.220
  437.089   89.114    0.509    0.190
  437.394   89.135    0.470    0.195
  437.698   87.932    0.481    0.186
  438.003   88.569    0.505    0.205
  438.308   90.426    0.503    0.195
  438.613   82.485    0.448    0.172
  438.918   77.609    0.443    0.097
  439.222   88.044    0.475    0.059
  439.527   91.133    0.495    0.176
  439.832   88.090    0.478    0.207
  440.137   82.596    0.471    0.226
  440.442   56.282    0.457    0.254
  440.746   54.464    0.466    0.302
  441.051   61.223    0.452    0.289
  441.356   70.435    0.455    0.286
  441.661   75.358    0.478    0.275
  441.966   76.605    0.467    0.268
  442.271   69.888    0.451    0.268
  442.575   65.626    0.433    0.277
  442.880   66.259    0.411    0.259
  443.185   71.181    0.419    0.264
  443.490   74.263    0.432    0.267
  443.795   73.675    0.451    0.275
  444.099   73.082    0.436    0.260
  444.404   75.559    0.416    0.237
  444.709   82.314    0.410    0.246
  445.014   87.850    0.409    0.177
  445.319   93.995    0.421    0.166
  445.623  102.591    0.454    0.227
  445.928  109.965    0.472    0.185
  446.233  110.599    0.458    0.189
  446.538  105.721    0.444    0.222
  446.843  104.522    0.437    0.202
  447.147  105.154    0.467    0.180
  447.452  102.727    0.469    0.202
  447.757   88.046    0.434    0.222
  448.062   71.533    0.423    0.237
  448.367   62.365    0.416    0.220
  448.672   56.265    0.393    0.179
  448.976   55.061    0.394    0.174
  449.281   59.372    0.383    0.227
  449.586   61.229    0.392    0.257
  449.891   61.862    0.445    0.280
  450.196   64.947    0.453    0.324
  450.500   67.423    0.456    0.326
  450.805   68.671    0.434    0.285
  451.110   76.038    0.404    0.220
  451.415   79.124    0.392    0.181
  451.720   77.307    0.394    0.160
  452.024   85.292    0.452    0.163
  452.329   93.279    0.452    0.209
  452.634   88.401    0.431    0.228
  452.939   80.459    0.446    0.218
  453.244   70.067    0.431    0.203
  453.548   64.578    0.410    0.244
  453.853   62.767    0.343    0.226
  454.158   64.621    0.349    0.166
  454.463   75.056    0.436    0.190
  454.768   87.329    0.473    0.224
  455.073   97.151    0.575    0.240
  455.377   99.625    0.561    0.241
  455.682  100.258    0.529    0.223
  455.987  103.342    0.517    0.190
  456.292  101.529    0.507    0.174
  456.597   98.488    0.483    0.168
  456.901   97.899    0.478    0.210
  457.206  100.758    0.476    0.196
