~VERSION INFORMATION
 VERS.                 2.0:   CWLS LOG ASCII STANDARD -VERSION 2.0
 WRAP.                  NO:   ONE LINE PER DEPTH STEP
~WELL INFORMATION BLOCK
#MNEM.UNIT           DATA                    DESCRIPTION OF MNEMONIC
#---------    -------------------            -------------------------------
# Generated from Intellog Unique Number	CW_73_75/WELL/2743
WELL.         LAND BANK ET AL BLANCHE 11-03  : Well_name    - WELL
LOC .         00/11-03-073-02W5/0            : Location     - LOCATION
UWI .         00/11-03-073-02W5/0            : Uwi          - UNIQUE WELL ID
ENTR.         JAYE                           : Entered      - ENTERED BY
SRVC.         SCHLUMBERGER                   : Scn          - SERVICE COMPANY
DATE.         7 JAN 80                       : Date         - LOG DATE
STRT.M        380                            : top_depth    - START DEPTH
STOP.M        590                            : bot_depth    - STOP DEPTH
STEP.M        0.25                           : increment    - STEP LENGTH
 NULL. -999.2500:NULL Value
~CURVE INFORMATION BLOCK
#MNEM UNIT       ERCB CURVE CODE    CURVE DESCRIPTION
#-----------   ------------------   ----------------------------------
DEPT.M        00 001 00 00         : DEPTH        - DEPTH
DPHI.V/V      00 890 00 00         : PHID         - DENSITY POROSITY (SANDSTONE)
NPHI.V/V      00 330 00 00         : PHIN         - NEUTRON POROSITY (SANDSTONE)
GR  .API      00 310 00 00         : GR           - GAMMA RAY
CALI.MM       00 280 01 00         : CAL          - CALIPER
ILD .OHMM     00 120 00 00         : RESD         - DEEP RESISTIVITY (DIL)
~PARAMETER INFORMATION
#MNEM.UNIT           DATA             DESCRIPTION OF MNEMONIC
#---------         -----------     ------------------------------
GL  .M        597                  : gl           - GROUND LEVEL ELEVATION
EREF.M        600.2                : kb           - ELEVATION OF DEPTH REFERENCE
DATM.M        597                  : datum        - DATUM ELEVATION
TDD .M        601                  : tdd          - TOTAL DEPTH DRILLER
RUN .         ONE                  : Run          - RUN NUMBER
ENG .         WALTERHOUSE          : Engineer     - RECORDING ENGINEER
WIT .         LOWTHER              : Witness      - WITNESSED BY
BASE.         EDM                  : Branch       - HOME BASE OF LOGGING UNIT
MUD .         GEL CHEM             : Mud_type     - MUD TYPE
MATR.         SANDSTONE            : Logunit      - NEUTRON MATRIX
TMAX.C        24.4                 : BHT          - MAXIMUM RECORDED TEMPERATURE
BHTD.M        602.5                : BHTDEP       - MAXIMUM RECORDED TEMPERATURE
RMT .C        12.8                 : MDTP         - TEMPERATURE OF MUD
MUDD.KG/M     1170                 : MWT          - MUD DENSITY
NEUT.         1                    : NEUTRON      - NEUTRON TYPE
RESI.         0                    : RESIST       - RESISTIVITY TYPE
RM  .OHMM     2.98                 : RM           - RESISTIVITY OF MUD
RMC .OHMM     0                    : RMC          - RESISTIVITY OF MUD CAKE
RMF .OHMM     2.85                 : RMF          - RESISTIVITY OF MUD FILTRATE
SUFT.C        0                    : SUFT         - SURFACE TEMPERATURE
~A  DEPTH     PHID     PHIN       GR      CAL     RESD
# ...
  489.500    0.275    0.399   73.585  172.702    4.207
  489.750    0.289    0.404   75.766  173.151    4.256
  490.000    0.287    0.405   76.715  172.570    4.298
  490.250    0.297    0.397   76.490  170.039    4.390
  490.500    0.282    0.394   75.649  169.566    4.509
  490.750    0.278    0.401   75.363  169.294    4.623
  491.000    0.280    0.407   75.076  169.227    4.651
  491.250    0.278    0.410   75.285  169.163    4.644
  491.500    0.271    0.410   75.800  168.892    4.610
  491.750    0.286    0.410   75.266  168.617    4.534
  492.000    0.288    0.411   74.796  168.143    4.451
  492.250    0.282    0.411   76.545  167.460    4.353
  492.500    0.279    0.411   80.145  167.188    4.264
  492.750    0.282    0.407   81.647  167.332    4.162
  493.000    0.285    0.404   81.422  167.368    4.086
  493.250    0.268    0.401   77.930  167.402    4.041
  493.500    0.268    0.396   80.111  168.469    3.997
  493.750    0.266    0.391   79.949  169.434    3.961
  494.000    0.286    0.381   79.724  170.292    3.962
  494.250    0.242    0.363   79.191  171.254    3.964
  494.500    0.213    0.341   74.587  172.222    3.972
  494.750    0.194    0.310   69.614  173.279    4.004
  495.000    0.162    0.242   67.231  175.377    4.082
  495.250    0.142    0.229   67.624  176.133    4.272
  495.500    0.123    0.224   65.981  176.580    4.742
  495.750    0.121    0.225   65.386  176.925    5.560
  496.000    0.123    0.228   66.272  177.169    6.409
  496.250    0.110    0.220   62.717  177.001    7.290
  496.500    0.089    0.207   64.220  176.732    8.531
  496.750    0.069    0.187   65.537  177.075    9.362
  497.000    0.055    0.177   66.117  177.523   10.255
  497.250    0.044    0.174   64.534  177.970   11.064
  497.500    0.036    0.175   65.111  177.496   11.669
  497.750    0.048    0.181   67.478  176.197   12.215
  498.000    0.073    0.195   70.398  175.513   12.835
  498.250    0.107    0.215   74.184  175.755   13.284
  498.500    0.129    0.245   75.748  177.028   13.748
  498.750    0.151    0.275   76.201  178.609   13.444
  499.000    0.175    0.320   78.383  177.103   12.075
  499.250    0.247    0.356   79.764  173.746   10.364
  499.500    0.287    0.394   80.341  166.795    8.296
  499.750    0.275    0.396   80.238  165.807    6.715
  500.000    0.256    0.398   80.445  165.740    5.603
  500.250    0.269    0.401   82.319  165.680    4.892
  500.500    0.269    0.406   85.055  165.615    4.344
  500.750    0.274    0.404   81.746  165.649    3.836
  501.000    0.278    0.407   82.325  165.683    3.511
  501.250    0.281    0.410   85.246  165.932    3.344
  501.500    0.276    0.405   85.145  166.275    3.209
  501.750    0.279    0.400   83.934  166.719    3.144
  502.000    0.278    0.396   83.710  166.861    3.086
  502.250    0.270    0.395   85.520  167.204    3.064
  502.500    0.273    0.399   85.420  167.662    3.076
  502.750    0.267    0.392   85.010  167.896    3.124
  503.000    0.244    0.385   87.684  166.804    3.185
  503.250    0.231    0.387   85.610  169.617    3.303
  503.500    0.247    0.396   82.178  169.861    3.437
  503.750    0.266    0.389   82.263  167.945    3.660
  504.000    0.260    0.398   86.788  166.130    3.831
  504.250    0.241    0.398   90.696  165.966    4.018
  504.500    0.233    0.386   94.418  165.793    4.057
  504.750    0.215    0.391   94.996  167.172    4.005
  505.000    0.192    0.405   90.949  168.539    3.902
  505.250    0.215    0.395   88.504  169.708    3.809
  505.500    0.244    0.380   88.219  169.747    3.897
  505.750    0.231    0.389   90.336  169.584    4.080
  506.000    0.222    0.397   94.307  169.511    4.246
  506.250    0.230    0.409   96.426  169.654    4.411
  506.500    0.224    0.417   94.597  169.279    4.422
  506.750    0.227    0.407   94.375  170.449    4.365
  507.000    0.230    0.388   96.369  171.512    4.244
  507.250    0.225    0.402   98.983  172.478    4.150
  507.500    0.219    0.416   99.560  172.932    4.074
  507.750    0.219    0.425  100.941  173.270    4.022
  508.000    0.219    0.417  100.036  173.819    4.023
  508.250    0.222    0.405   96.975  174.783    4.133
  508.500    0.241    0.394   97.985  173.996    4.213
  508.750    0.247    0.384   99.548  171.773    4.335
  509.000    0.229    0.390  101.668  171.913    4.445
  509.250    0.215    0.398  102.615  172.982    4.548
  509.500    0.205    0.401   99.617  173.528    4.584
  509.750    0.195    0.395   95.939  174.703    4.577
  510.000    0.205    0.389   93.494  174.634    4.562
  510.250    0.217    0.385   92.406  174.052    4.563
  510.500    0.217    0.383   91.871  174.094    4.573
  510.750    0.211    0.383   92.943  174.949    4.636
  511.000    0.201    0.391   95.864  177.967    4.708
  511.250    0.224    0.396   99.464  175.127    4.781
  511.500    0.235    0.393  100.103  174.243    4.838
  511.750    0.219    0.393  101.114  174.587    4.904
  512.000    0.200    0.395  102.923  174.931    4.933
  512.250    0.214    0.400  100.849  175.279    4.944
  512.500    0.220    0.391  100.378  175.728    4.955
  512.750    0.215    0.384  101.943  175.766    4.985
  513.000    0.199    0.403  104.740  175.799    4.987
  513.250    0.175    0.420  104.948  176.658    4.998
  513.500    0.188    0.426  100.037  178.547    5.028
  513.750    0.200    0.417   98.210  180.228    5.107
  514.000    0.211    0.403   98.537  173.481    5.225
  514.250    0.207    0.395   99.855  173.210    5.307
  514.500    0.200    0.392  103.394  175.406    5.329
  514.750    0.181    0.409  104.775  178.013    5.311
  515.000    0.172    0.412  102.329  179.492    5.282
  515.250    0.179    0.404  101.240  173.566    5.225
  515.500    0.181    0.394  103.052  172.783    5.177
  515.750    0.194    0.391  106.096  173.948    5.111
  516.000    0.207    0.394  107.290  175.630    5.084
  516.250    0.198    0.392  107.004  176.698    5.114
  516.500    0.189    0.399  110.111  178.071    5.174
  516.750    0.186    0.394  108.531  180.162    5.295
  517.000    0.184    0.392  104.174  180.921    5.480
  517.250    0.187    0.407  105.059  181.575    5.597
  517.500    0.188    0.398  102.738  181.924    5.663
  517.750    0.187    0.389  100.910  182.059    5.676
  518.000    0.171    0.384  100.500  182.412    5.699
  518.250    0.161    0.377  102.435  182.648    5.658
  518.500    0.167    0.396  102.396  182.997    5.523
  518.750    0.196    0.389  104.330  182.726    5.289
  519.000    0.188    0.381  109.841  182.457    5.105
  519.250    0.178    0.393  115.477  182.180    5.030
  519.500    0.172    0.404  117.535  182.736    5.079
  519.750    0.170    0.407  117.433  183.183    5.247
  520.000    0.167    0.405  113.939  183.937    5.576
  520.250    0.166    0.412  109.028  182.435    6.189
  520.500    0.180    0.426  101.218  180.524    7.093
  520.750    0.203    0.432   90.261  178.089    8.412
  521.000    0.223    0.422   85.534  175.454    9.843
  521.250    0.225    0.384   86.543  173.639   11.092
  521.500    0.223    0.360   86.381  172.648    9.981
  521.750    0.202    0.334   87.267  172.686    8.847
  522.000    0.145    0.313   84.390  174.882    7.710
  522.250    0.105    0.299   92.369  177.903    6.925
  522.500    0.091    0.331   96.525  179.688    6.314
  522.750    0.120    0.359   97.471  180.756    5.890
  523.000    0.150    0.372   98.295  180.685    5.620
  523.250    0.147    0.375  101.219  181.038    5.414
  523.500    0.154    0.381  103.768  181.068    5.284
  523.750    0.179    0.378  104.592  181.210    5.187
  524.000    0.170    0.384  105.418  181.356    5.053
  524.250    0.161    0.376  105.624  181.286    4.923
  524.500    0.154    0.373  103.859  181.013    4.805
  524.750    0.164    0.386  102.895  181.053    4.681
  525.000    0.161    0.378  101.559  180.989    4.586
  525.250    0.158    0.369   99.545  181.123    4.658
  525.500    0.152    0.373   97.164  180.960    4.875
  525.750    0.144    0.372   95.766  180.894    5.250
