~VERSION INFORMATION
 VERS.                 2.0:   CWLS LOG ASCII STANDARD -VERSION 2.0
 WRAP.                  NO:   ONE LINE PER DEPTH STEP
~WELL INFORMATION BLOCK
#MNEM.UNIT           DATA                    DESCRIPTION OF MNEMONIC
#---------    -------------------            -------------------------------
# Generated from Intellog Unique Number	CS_73_76/WELL/810
WELL.         PEX PHILLIPS AEC GRIST         : Well_name    - WELL
LOC .         00/10-04-073-08W4/0            : Location     - LOCATION
UWI .         00/10-04-073-08W4/0            : Uwi          - UNIQUE WELL ID
ENTR.         SP                             : Entered      - ENTERED BY
SRVC.         SCHLUMBERGER                   : Scn          - SERVICE COMPANY
STRT.M        315                            : top_depth    - START DEPTH
STOP.M        540                            : bot_depth    - STOP DEPTH
STEP.M        0.25                           : increment    - STEP LENGTH
 NULL. -999.2500:NULL Value
~CURVE INFORMATION BLOCK
#MNEM UNIT       ERCB CURVE CODE    CURVE DESCRIPTION
#-----------   ------------------   ----------------------------------
DEPT.M        00 001 00 00         : DEPTH        - DEPTH
ILD .OHMM     00 120 00 00         : RESD         - DEEP RESISTIVITY (DIL)
DPHI.V/V      00 890 00 00         : PHID         - DENSITY POROSITY (LIMESTONE)
NPHI.V/V      00 330 00 00         : PHIN         - NEUTRON POROSITY (LIMESTONE)
GR  .API      00 310 00 00         : GR           - GAMMA RAY
~PARAMETER INFORMATION
#MNEM.UNIT           DATA             DESCRIPTION OF MNEMONIC
#---------         -----------     ------------------------------
GL  .M        692.94               : gl           - GROUND LEVEL ELEVATION
EREF.M        696.02               : kb           - ELEVATION OF DEPTH REFERENCE
DATM.M        692.94               : datum        - DATUM ELEVATION
TDD .M        550.8                : tdd          - TOTAL DEPTH DRILLER
RUN .         ONE                  : Run          - RUN NUMBER
ENG .         BILL                 : Engineer     - RECORDING ENGINEER
WIT .         JIM                  : Witness      - WITNESSED BY
MUD .         GEL                  : Mud_type     - MUD TYPE
MATR.         LIMESTONE            : Logunit      - NEUTRON MATRIX
TMAX.C        29                   : BHT          - MAXIMUM RECORDED TEMPERATURE
BHTD.M        550.8                : BHTDEP       - MAXIMUM RECORDED TEMPERATURE
MATR.         1                    : LOGUNIT      - NEUTRON MATRIX
RMT .C        25                   : MDTP         - TEMPERATURE OF MUD
NEUT.         1                    : NEUTRON      - NEUTRON TYPE
RESI.         0                    : RESIST       - RESISTIVITY TYPE
RMC .OHMM     0.25                 : RMC          - RESISTIVITY OF MUD CAKE
RMF .OHMM     0.25                 : RMF          - RESISTIVITY OF MUD FILTRATE
SUFT.C        15                   : SUFT         - SURFACE TEMPERATURE
~A  DEPTH     RESD     PHID     PHIN       GR
# ...
  445.500    5.744    0.245    0.374   86.293
  445.750    6.194    0.233    0.357   82.023
  446.000    6.432    0.244    0.355   78.360
  446.250    6.807    0.248    0.347   80.794
  446.500    6.937    0.243    0.356   82.619
  446.750    7.203    0.226    0.339   83.835
  447.000    7.341    0.212    0.340   84.441
  447.250    7.481    0.207    0.349   80.777
  447.500    7.624    0.220    0.342   78.945
  447.750    7.624    0.227    0.342   78.332
  448.000    7.770    0.236    0.346   78.327
  448.250    7.770    0.216    0.339   78.933
  448.500    7.918    0.204    0.329   85.027
  448.750    7.919    0.225    0.335   89.290
  449.000    7.919    0.217    0.329   88.677
  449.250    7.772    0.209    0.332   87.453
  449.500    6.685    0.212    0.345   86.228
  449.750    5.643    0.188    0.347   85.006
  450.000    4.254    0.176    0.349   83.783
  450.250    3.089    0.215    0.376   88.655
  450.500    2.759    0.249    0.395   92.919
  450.750    2.708    0.257    0.428   96.574
  451.000    2.759    0.244    0.422   97.180
  451.250    2.866    0.235    0.421   92.298
  451.500    3.209    0.276    0.411   94.124
  451.750    3.661    0.312    0.397   96.558
  452.000    4.504    0.301    0.394   95.945
  452.250    4.949    0.238    0.387   92.282
  452.500    5.337    0.215    0.370   92.279
  452.750    5.976    0.218    0.366   92.884
  453.000    6.206    0.209    0.357   92.880
  453.250    6.819    0.173    0.338   91.047
  453.500    7.081    0.170    0.328   87.994
  453.750    7.781    0.210    0.316   85.550
  454.000    8.233    0.210    0.236   83.108
  454.250    9.219    0.149    0.209   78.835
  454.500    9.574    0.049    0.262   76.393
  454.750    8.714    0.103    0.313   81.877
  455.000    8.236    0.126    0.348   90.408
  455.250    7.496    0.133    0.348   94.672
  455.500    7.085    0.145    0.354   96.497
  455.750    7.085    0.193    0.370   97.713
  456.000    6.953    0.194    0.369   98.320
  456.250    6.954    0.175    0.353  100.144
  456.500    7.086    0.167    0.344  102.579
  456.750    7.087    0.176    0.353  103.185
  457.000    6.955    0.189    0.364   93.424
  457.250    6.956    0.198    0.361   91.592
  457.500    6.956    0.180    0.358   94.026
  457.750    6.957    0.171    0.360   90.364
  458.000    6.827    0.165    0.355   87.311
  458.250    6.827    0.183    0.359   89.137
  458.500    6.958    0.169    0.351   93.400
  458.750    6.958    0.169    0.354   92.177
  459.000    6.958    0.188    0.365   89.732
  459.250    7.091    0.183    0.355   90.949
  459.500    7.227    0.188    0.363   93.385
  459.750    7.227    0.176    0.342   93.990
  460.000    7.365    0.160    0.352   96.424
  460.250    7.365    0.149    0.366   98.859
  460.500    7.228    0.153    0.368  100.685
  460.750    6.961    0.158    0.369   95.191
  461.000    6.336    0.179    0.368   93.969
  461.250    5.151    0.164    0.376   93.966
  461.500    4.267    0.202    0.399   95.790
  461.750    3.469    0.195    0.406   93.957
  462.000    2.984    0.165    0.407   93.344
  462.250    2.820    0.163    0.419   92.728
  462.500    2.716    0.229    0.425   92.116
  462.750    2.665    0.241    0.439   87.234
  463.000    2.665    0.241    0.446   82.962
  463.250    2.666    0.224    0.422   83.567
  463.500    2.717    0.224    0.409   86.002
  463.750    2.768    0.238    0.403   87.828
  464.000    2.821    0.220    0.406   93.919
  464.250    2.930    0.206    0.403   95.746
  464.500    2.985    0.209    0.403   95.742
  464.750    3.219    0.244    0.422   93.909
  465.000    3.343    0.268    0.404   95.124
  465.250    3.887    0.287    0.382   92.680
  465.500    4.192    0.240    0.371   91.458
  465.750    4.435    0.207    0.379   89.623
  466.000    4.694    0.263    0.387   89.011
  466.250    4.874    0.250    0.393   89.007
  466.500    5.061    0.240    0.401   87.783
  466.750    5.256    0.265    0.402   88.389
  467.000    5.668    0.239    0.375   87.165
  467.250    6.112    0.218    0.376   81.673
  467.500    6.346    0.225    0.376   76.182
  467.750    6.716    0.346    0.340   67.641
  468.000    7.242    0.314    0.347   63.978
  468.250    7.663    0.310    0.363   63.365
  468.500    7.958    0.299    0.373   65.190
  468.750    8.581    0.282    0.372   68.234
  469.000    9.429    0.276    0.370   68.230
  469.250   10.168    0.273    0.342   65.177
  469.500   11.385    0.275    0.338   64.564
  469.750   13.237    0.287    0.345   68.218
  470.000   15.104    0.281    0.330   65.775
  470.250   17.233    0.277    0.318   66.990
  470.500   20.806    0.237    0.304   67.596
  470.750   22.436    0.195    0.248   66.982
  471.000   22.864    0.190    0.211   65.148
  471.250   22.020    0.060    0.194   62.706
  471.500   18.941    0.011    0.233   57.824
  471.750   15.398    0.055    0.314   54.772
  472.000   13.497    0.173    0.348   59.645
  472.250   12.998    0.276    0.352   63.297
  472.500   12.757    0.276    0.342   64.514
  472.750   12.758    0.277    0.336   64.510
  473.000   12.758    0.283    0.331   63.898
  473.250   12.759    0.260    0.289   58.405
  473.500   13.502    0.204    0.285   57.182
  473.750   14.021    0.298    0.325   62.055
  474.000   14.022    0.280    0.331   66.319
  474.250   14.022    0.189    0.312   67.536
  474.500   13.505    0.015    0.255   66.922
  474.750   12.526    0.000    0.288   60.818
  475.000   10.979    0.118    0.355   61.425
  475.250    9.444    0.167    0.356   66.299
  475.500    8.759    0.279    0.366   68.125
  475.750    7.973    0.287    0.379   68.121
  476.000    7.678    0.279    0.383   69.336
  476.250    7.535    0.267    0.378   71.771
  476.500    7.122    0.282    0.375   72.986
  476.750    6.989    0.291    0.363   71.763
  477.000    6.606    0.286    0.357   68.710
  477.250    6.362    0.270    0.367   66.877
  477.500    6.127    0.258    0.368   68.702
  477.750    5.901    0.266    0.360   69.918
  478.000    5.683    0.261    0.353   69.913
  478.250    5.473    0.232    0.352   69.298
  478.500    5.272    0.234    0.353   69.295
  478.750    5.173    0.264    0.356   69.291
  479.000    4.983    0.266    0.357   70.507
  479.250    4.799    0.250    0.362   68.063
  479.500    4.622    0.239    0.365   64.399
  479.750    4.622    0.260    0.358   64.398
  480.000    4.536    0.285    0.347   71.099
  480.250    4.536    0.271    0.344   72.925
  480.500    4.623    0.252    0.341   72.921
  480.750    4.623    0.257    0.351   72.918
  481.000    4.711    0.238    0.355   73.524
  481.250    4.801    0.248    0.346   74.738
  481.500    4.986    0.252    0.351   75.954
  481.750    5.081    0.181    0.349   79.608
  482.000    5.178    0.160    0.336   82.653
  482.250    5.583    0.215    0.370   85.698
  482.500    5.908    0.264    0.393   87.524
  482.750    6.252    0.231    0.378   83.250
  483.000    7.408    0.267    0.356   76.538
  483.250    7.692    0.278    0.334   74.707
  483.500    8.613    0.221    0.324   71.044
  483.750    7.989    0.204    0.329   70.429
  484.000    6.617    0.194    0.327   71.643
  484.250    5.911    0.183    0.318   72.860
  484.500    6.023    0.188    0.322   75.295
  484.750    6.873    0.193    0.341   80.779
  485.000    7.991    0.208    0.375   84.434
  485.250    8.948    0.219    0.357   88.697
  485.500    9.468    0.197    0.332   89.913
  485.750    9.649    0.208    0.319   89.910
  486.000    9.650    0.247    0.319   89.904
  486.250    9.293    0.227    0.328   90.510
  486.500    9.834    0.192    0.339   91.726
  486.750   11.012    0.202    0.329   93.550
  487.000   12.330    0.204    0.332   93.547
  487.250   14.336    0.192    0.333   92.932
  487.500   17.973    0.202    0.332   91.710
  487.750   20.124    0.221    0.335   85.609
  488.000   25.709    0.215    0.332   71.581
  488.250   29.334    0.232    0.327   61.211
  488.500   26.700    0.245    0.334   54.500
  488.750   22.538    0.235    0.349   56.325
