~VERSION INFORMATION
 VERS.                 2.0:   CWLS LOG ASCII STANDARD -VERSION 2.0
 WRAP.                  NO:   ONE LINE PER DEPTH STEP
~WELL INFORMATION BLOCK
#MNEM.UNIT           DATA                    DESCRIPTION OF MNEMONIC
#---------    -------------------            -------------------------------
# Generated from Intellog Unique Number	CS_69_70/WELL/2879
WELL.         HUSKY OIL PRODUCTION LTD.      : Well_name    - WELL
LOC .         00/12-28-069-08W4/0            : Location     - LOCATION
UWI .         00/12-28-069-08W4/0            : Uwi          - UNIQUE WELL ID
ENTR.         JOETTE                         : Entered      - ENTERED BY
SRVC.         SCHLUMBERGER                   : Scn          - SERVICE COMPANY
DATE.         05/15/92                       : Date         - LOG DATE
STRT.M        325                            : top_depth    - START DEPTH
STOP.M        575                            : bot_depth    - STOP DEPTH
STEP.M        0.25                           : increment    - STEP LENGTH
 NULL. -999.2500:NULL Value
~CURVE INFORMATION BLOCK
#MNEM UNIT       ERCB CURVE CODE    CURVE DESCRIPTION
#-----------   ------------------   ----------------------------------
DEPT.M        00 001 00 00         : DEPTH        - DEPTH
GR  .API      00 310 00 00         : GR           - GAMMA RAY
CALI.MM       00 280 01 00         : CAL          - CALIPER
ILD .OHMM     00 120 00 00         : RESD         - DEEP RESISTIVITY (DIL)
DPHI.V/V      00 890 00 00         : PHID         - DENSITY POROSITY (SANDSTONE)
NPHI.V/V      00 330 00 00         : PHIN         - NEUTRON POROSITY (SANDSTONE)
~PARAMETER INFORMATION
#MNEM.UNIT           DATA             DESCRIPTION OF MNEMONIC
#---------         -----------     ------------------------------
GL  .M        662.9                : gl           - GROUND LEVEL ELEVATION
EREF.M        666.9                : kb           - ELEVATION OF DEPTH REFERENCE
DATM.M        666.9                : datum        - DATUM ELEVATION
TDD .M        580                  : tdd          - TOTAL DEPTH DRILLER
RUN .         ONE                  : Run          - RUN NUMBER
ENG .         BILL                 : Engineer     - RECORDING ENGINEER
WIT .         JIM                  : Witness      - WITNESSED BY
MUD .         GEL                  : Mud_type     - MUD TYPE
MATR.         SANDSTONE            : Logunit      - NEUTRON MATRIX
TMAX.C        26                   : BHT          - MAXIMUM RECORDED TEMPERATURE
BHTD.M        580                  : BHTDEP       - MAXIMUM RECORDED TEMPERATURE
RMT .C        18                   : MDTP         - TEMPERATURE OF MUD
MUDD.KG/M     1080                 : MWT          - MUD DENSITY
NEUT.         1                    : NEUTRON      - NEUTRON TYPE
RESI.         0                    : RESIST       - RESISTIVITY TYPE
RM  .OHMM     8.55                 : RM           - RESISTIVITY OF MUD
RMC .OHMM     8.57                 : RMC          - RESISTIVITY OF MUD CAKE
RMF .OHMM     8.57                 : RMF          - RESISTIVITY OF MUD FILTRATE
SUFT.C        4                    : SUFT         - SURFACE TEMPERATURE
~A  DEPTH       GR      CAL     RESD     PHID     PHIN
# ...
  544.000   71.998  184.597    8.223    0.082    0.276
  544.250   66.049  184.710    8.697    0.074    0.258
  544.500   64.876  186.834    9.374    0.066    0.255
  544.750   61.926  183.987   10.104    0.059    0.259
  545.000   63.822  183.038   10.697    0.055    0.267
  545.250   65.717  182.145   11.112    0.051    0.267
  545.500   65.768  180.247   11.331    0.048    0.257
  545.750   64.042  179.383   11.554    0.046    0.256
  546.000   61.697  179.496   12.005    0.043    0.252
  546.250   61.764  178.603   12.011    0.043    0.241
  546.500   61.229  178.688   12.248    0.046    0.228
  546.750   59.486  177.824   12.489    0.048    0.241
  547.000   58.934  176.988   12.739    0.049    0.239
  547.250   58.398  177.073   12.993    0.043    0.228
  547.500   52.432  176.152   13.243    0.032    0.229
  547.750   51.913  175.316   13.507    0.032    0.226
  548.000   53.791  175.401   13.770    0.028    0.214
  548.250   53.859  175.542   14.052    0.022    0.214
  548.500   50.307  176.661   14.059    0.023    0.221
  548.750   50.961  176.746   14.077    0.032    0.218
  549.000   52.236  177.837   14.088    0.032    0.224
  549.250   53.511  178.984   13.847    0.030    0.225
  549.500   53.578  180.074   13.607    0.028    0.216
  549.750   54.250  182.227   13.368    0.032    0.257
  550.000   57.352  183.346   12.205    0.040    0.278
  550.250   62.247  184.465   11.555    0.052    0.270
  550.500   66.556  185.584   10.348    0.055    0.267
  550.750   66.021  187.737    9.271    0.052    0.263
  551.000   68.502  188.856    8.460    0.054    0.264
  551.250   72.794  189.946    7.720    0.060    0.269
  551.500   77.103  190.088    6.791    0.066    0.295
  551.750   79.568  189.167    6.085    0.070    0.313
  552.000   84.463  190.286    5.761    0.071    0.320
  552.250   88.789  191.433    5.455    0.072    0.325
  552.500   87.650  192.552    5.263    0.080    0.326
  552.750   87.718  194.705    5.077    0.094    0.325
  553.000   90.183  195.796    4.897    0.097    0.331
  553.250   96.889  195.937    4.724    0.095    0.337
  553.500   99.387  195.044    4.641    0.092    0.349
  553.750   95.835  193.118    4.562    0.097    0.351
  554.000   91.661  192.254    4.652    0.101    0.351
  554.250   89.919  192.367    4.832    0.101    0.351
  554.500   91.797  191.474    4.835    0.098    0.353
  554.750   92.469  190.553    4.666    0.096    0.356
  555.000   93.777  187.678    4.584    0.096    0.349
  555.250   95.052  185.779    4.423    0.096    0.340
  555.500   96.344  182.875    4.345    0.096    0.349
  555.750   97.585  180.977    4.270    0.099    0.383
  556.000  100.100  179.079    4.197    0.108    0.375
  556.250  101.375  178.186    4.203    0.106    0.361
  556.500  102.616  177.294    4.207    0.100    0.350
  556.750  102.114  176.401    4.289    0.098    0.351
  557.000  100.941  175.537    4.455    0.097    0.351
  557.250   95.578  174.588    4.628    0.097    0.347
  557.500   91.456  173.695    4.807    0.096    0.343
  557.750   92.094  173.808    5.183    0.092    0.336
  558.000   90.954  172.944    5.483    0.082    0.321
  558.250   82.574  172.023    6.133    0.076    0.290
  558.500   74.797  172.164    6.488    0.068    0.272
  558.750   68.814  171.300    7.676    0.062    0.259
  559.000   64.054  170.408    8.122    0.054    0.250
  559.250   62.312  169.515    7.691    0.089    0.239
  559.500   64.190  168.651    6.888    0.104    0.327
  559.750   68.499  168.736    5.731    0.097    0.277
  560.000   66.153  167.843    7.296    0.086    0.247
  560.250   42.687  167.928    9.463    0.072    0.232
  560.500   35.480  168.098   12.274    0.057    0.223
  560.750   30.117  167.149   22.631    0.043    0.191
  561.000   29.581  167.262   28.287    0.021    0.183
  561.250   29.666  166.369   35.355    0.011    0.152
  561.500   29.734  166.482   42.584    0.000    0.119
  561.750   23.750  164.612   53.252   -0.011    0.104
  562.000   14.767  163.748   54.288   -0.023    0.079
  562.250   10.611  162.799   52.382   -0.015    0.080
  562.500    8.885  162.940   50.518   -0.005    0.088
  562.750    9.540  163.082   45.267   -0.003    0.095
  563.000   13.832  163.167   43.656   -0.005    0.095
  563.250   20.537  163.308   40.583   -0.009    0.096
  563.500   30.277  163.393   38.440   -0.008    0.096
  563.750   36.396  163.535   37.764    0.006    0.096
  564.000   32.844  163.676   37.128    0.013    0.096
  564.250   31.705  163.733   37.157    0.008    0.096
  564.500   33.583  163.874   37.185    0.002    0.092
  564.750   34.237  164.015   37.223   -0.004    0.081
  565.000   40.356  164.100   29.841   -0.010    0.113
  565.250   43.442  164.185   24.371    0.005    0.187
  565.500   51.354  164.298   19.538    0.042    0.237
  565.750   58.077  164.440   14.818    0.059    0.234
  566.000   59.972  164.553   10.830    0.061    0.233
  566.250   57.006  164.638    8.680    0.064    0.246
  566.500   45.608  163.802    8.851    0.054    0.259
  566.750   45.056  163.887    8.865    0.041    0.255
  567.000   44.520  163.972    8.241    0.046    0.246
  567.250   53.053  163.107    7.949    0.058    0.238
  567.500   58.552  163.221    8.567    0.049    0.230
  567.750   64.688  163.334   11.111    0.030    0.222
  568.000   60.498  163.475   15.233    0.012    0.211
  568.250   36.412  162.583   35.071   -0.010    0.193
  568.500   26.221  162.667   44.653   -0.023    0.122
  568.750   12.410  160.797   55.811   -0.010    0.110
  569.000   10.047  159.905   61.314    0.001    0.118
  569.250   14.356  160.018   59.132    0.008    0.120
  569.500   18.648  160.160   54.969    0.014    0.119
  569.750   22.354  157.227   51.099    0.006    0.116
  570.000   21.818  153.289   48.402    0.004    0.108
  570.250   17.058  114.179   45.835    0.006    0.099
  570.500   17.730  111.246   45.040    0.000    0.109
  570.750   18.384  116.388   46.786   -0.013    0.109
  571.000   20.866  122.536   52.319   -0.017    0.101
  571.250   24.588  144.803   61.877   -0.004    0.090
  571.500   25.863  151.957   66.681    0.003    0.073
  571.750   25.931  156.121   69.283    0.002    0.073
  572.000   26.016  157.268   65.608    0.003    0.081
  572.250   26.050  157.381   57.697    0.000    0.078
  572.500   26.118  158.500   51.673   -0.002    0.072
  572.750   24.979  159.619   44.609    0.001    0.079
  573.000   23.236  159.732   38.520    0.005    0.092
  573.250   23.321  159.846   35.809    0.009    0.110
  573.500   23.372  159.987   37.187    0.006    0.128
  573.750   24.681  160.044   42.394   -0.003    0.138
  574.000   24.715  160.213   44.014   -0.013    0.137
  574.250   26.023  160.270   46.597   -0.020    0.136
  574.500   26.091  160.383   45.789   -0.021    0.137
  574.750   25.556  160.496   40.268   -0.021    0.139
  575.000   24.417  160.638   37.424   -0.016    0.140
