~VERSION INFORMATION
 VERS.                 2.0:   CWLS LOG ASCII STANDARD -VERSION 2.0
 WRAP.                  NO:   ONE LINE PER DEPTH STEP
~WELL INFORMATION BLOCK
#MNEM.UNIT           DATA                    DESCRIPTION OF MNEMONIC
#---------    -------------------            -------------------------------
# Generated from Intellog Unique Number	CS_69_70/WELL/867
WELL.         MAYNARD EXPLORATION            : Well_name    - WELL
LOC .         00/10-13-070-16W4/0            : Location     - LOCATION
UWI .         00/10-13-070-16W4/0            : Uwi          - UNIQUE WELL ID
ENTR.         SP                             : Entered      - ENTERED BY
SRVC.         SCHLUMBERGER                   : Scn          - SERVICE COMPANY
STRT.M        275                            : top_depth    - START DEPTH
STOP.M        500                            : bot_depth    - STOP DEPTH
STEP.M        0.25                           : increment    - STEP LENGTH
 NULL. -999.2500:NULL Value
~CURVE INFORMATION BLOCK
#MNEM UNIT       ERCB CURVE CODE    CURVE DESCRIPTION
#-----------   ------------------   ----------------------------------
DEPT.M        00 001 00 00         : DEPTH        - DEPTH
GR  .API      00 310 00 00         : GR           - GAMMA RAY
NPHI.V/V      00 330 00 00         : PHIN         - NEUTRON POROSITY (LIMESTONE)
DPHI.V/V      00 890 00 00         : PHID         - DENSITY POROSITY (LIMESTONE)
ILD .OHMM     00 120 00 00         : RESD         - DEEP RESISTIVITY (DIL)
~PARAMETER INFORMATION
#MNEM.UNIT           DATA             DESCRIPTION OF MNEMONIC
#---------         -----------     ------------------------------
GL  .M        570.5                : gl           - GROUND LEVEL ELEVATION
EREF.M        573.7                : kb           - ELEVATION OF DEPTH REFERENCE
DATM.M        570.5                : datum        - DATUM ELEVATION
TDD .M        508                  : tdd          - TOTAL DEPTH DRILLER
RUN .         ONE                  : Run          - RUN NUMBER
ENG .         BILL                 : Engineer     - RECORDING ENGINEER
WIT .         JIM                  : Witness      - WITNESSED BY
MUD .         GEL                  : Mud_type     - MUD TYPE
MATR.         LIMESTONE            : Logunit      - NEUTRON MATRIX
TMAX.C        22                   : BHT          - MAXIMUM RECORDED TEMPERATURE
BHTD.M        508                  : BHTDEP       - MAXIMUM RECORDED TEMPERATURE
MATR.         1                    : LOGUNIT      - NEUTRON MATRIX
RMT .C        25                   : MDTP         - TEMPERATURE OF MUD
NEUT.         1                    : NEUTRON      - NEUTRON TYPE
RESI.         0                    : RESIST       - RESISTIVITY TYPE
RMC .OHMM     0.25                 : RMC          - RESISTIVITY OF MUD CAKE
RMF .OHMM     0.25                 : RMF          - RESISTIVITY OF MUD FILTRATE
SUFT.C        15                   : SUFT         - SURFACE TEMPERATURE
~A  DEPTH       GR     PHIN     PHID     RESD
# ...
  318.500  112.880    0.418    0.241    4.510
  318.750  108.257    0.419    0.252    4.290
  319.000  101.870    0.411    0.266    4.070
  319.250   94.996    0.402    0.277    3.964
  319.500   91.834    0.394    0.285    3.858
  319.750   90.923    0.394    0.292    3.769
  320.000   93.542    0.403    0.286    3.737
  320.250   97.925    0.409    0.290    3.746
  320.500   98.840    0.414    0.300    3.787
  320.750   96.590    0.406    0.291    3.829
  321.000   91.846    0.395    0.288    3.846
  321.250   88.501    0.383    0.291    3.862
  321.500   86.435    0.377    0.298    3.888
  321.750   85.889    0.373    0.300    3.937
  322.000   86.987    0.374    0.290    4.020
  322.250   88.571    0.381    0.286    4.094
  322.500   90.277    0.387    0.283    4.144
  322.750   92.287    0.380    0.288    4.152
  323.000   94.237    0.383    0.310    4.071
  323.250   94.056    0.389    0.322    3.949
  323.500   91.684    0.392    0.326    3.819
  323.750   87.914    0.394    0.321    3.754
  324.000   82.926    0.383    0.314    3.755
  324.250   78.790    0.371    0.311    3.870
  324.500   73.681    0.366    0.309    4.451
  324.750   71.188    0.362    0.294    5.401
  325.000   69.486    0.261    0.252    6.931
  325.250   70.766    0.226    0.177    8.739
  325.500   69.855    0.182    0.123   10.703
  325.750   67.910    0.154    0.099   16.160
  326.000   66.147    0.133    0.087   17.731
  326.250   64.993    0.144    0.096   14.100
  326.500   65.543    0.201    0.121    9.012
  326.750   66.824    0.296    0.203    7.017
  327.000   67.982    0.348    0.274    5.276
  327.250   71.574    0.372    0.309    4.082
  327.500   73.828    0.384    0.329    3.584
  327.750   74.803    0.390    0.321    3.380
  328.000   75.900    0.390    0.315    3.339
  328.250   78.398    0.389    0.313    3.381
  328.500   80.530    0.385    0.309    3.504
  328.750   82.722    0.381    0.304    3.685
  329.000   85.037    0.380    0.304    3.792
  329.250   86.439    0.387    0.305    3.940
  329.500   86.684    0.391    0.302    4.088
  329.750   86.747    0.394    0.299    4.260
  330.000   87.114    0.398    0.295    4.367
  330.250   88.333    0.404    0.292    4.409
  330.500   90.344    0.410    0.287    4.466
  330.750   92.536    0.414    0.277    4.532
  331.000   95.763    0.410    0.269    4.582
  331.250   98.200    0.406    0.262    4.575
  331.500   98.993    0.402    0.268    4.592
  331.750   95.283    0.396    0.276    4.633
  332.000   91.695    0.393    0.281    4.724
  332.250   87.985    0.390    0.279    4.790
  332.500   85.614    0.393    0.277    4.856
  332.750   84.764    0.401    0.272    4.897
  333.000   86.896    0.408    0.264    4.947
  333.250   90.245    0.411    0.256    4.858
  333.500   93.411    0.411    0.250    4.760
  333.750   98.282    0.410    0.255    4.614
  334.000  101.144    0.411    0.259    4.410
  334.250  102.728    0.417    0.261    4.214
  334.500  101.939    0.426    0.272    4.026
  334.750  101.089    0.436    0.288    4.011
  335.000   99.692    0.446    0.284    4.069
  335.250   97.260    0.448    0.276    4.241
  335.500   94.645    0.438    0.263    4.479
  335.750   92.579    0.427    0.247    4.823
  336.000   91.728    0.411    0.231    4.971
  336.250   92.583    0.397    0.219    5.274
  336.500   93.558    0.382    0.219    5.569
  336.750   95.447    0.378    0.228    5.807
  337.000   96.422    0.392    0.231    5.939
  337.250   96.972    0.391    0.227    6.037
  337.500   94.053    0.375    0.224    6.112
  337.750   91.074    0.378    0.231    6.080
  338.000   89.007    0.389    0.239    5.966
  338.250   90.226    0.389    0.248    5.680
  338.500   90.106    0.371    0.258    5.280
  338.750   87.370    0.361    0.267    5.166
  339.000   81.652    0.359    0.269    4.864
  339.250   77.638    0.364    0.269    4.627
  339.500   75.754    0.370    0.277    4.383
  339.750   76.668    0.371    0.288    4.236
  340.000   77.948    0.386    0.300    4.367
  340.250   77.768    0.384    0.309    4.581
  340.500   76.675    0.378    0.320    4.639
  340.750   74.973    0.380    0.334    4.721
  341.000   72.663    0.394    0.386    4.730
  341.250   69.379    0.429    0.437    4.681
  341.500   65.365    0.463    0.453    4.290
  341.750   66.158    0.444    0.406    3.988
  342.000   66.465    0.386    0.349    3.677
  342.250   66.405    0.376    0.343    3.482
  342.500   65.374    0.372    0.347    3.368
  342.750   65.132    0.372    0.351    3.229
  343.000   64.829    0.375    0.356    3.124
  343.250   64.772    0.388    0.361    3.100
  343.500   65.625    0.400    0.354    3.084
  343.750   67.209    0.390    0.347    3.076
  344.000   69.767    0.392    0.343    3.085
  344.250   72.629    0.394    0.344    3.069
  344.500   73.361    0.389    0.341    3.070
  344.750   73.181    0.381    0.334    3.071
  345.000   71.540    0.375    0.335    3.063
  345.250   71.907    0.376    0.342    3.072
  345.500   72.153    0.375    0.339    3.089
  345.750   70.938    0.367    0.333    3.106
  346.000   68.627    0.361    0.327    3.115
  346.250   66.195    0.356    0.329    3.124
  346.500   66.441    0.354    0.336    3.132
  346.750   67.295    0.351    0.346    3.264
  347.000   67.905    0.349    0.349    3.232
  347.250   65.960    0.354    0.344    3.192
  347.500   65.902    0.355    0.340    3.168
  347.750   67.060    0.351    0.335    3.168
  348.000   68.340    0.350    0.330    3.169
  348.250   69.376    0.355    0.330    3.145
  348.500   69.865    0.354    0.329    3.096
  348.750   69.259    0.353    0.331    3.073
  349.000   68.348    0.359    0.336    3.041
  349.250   66.525    0.354    0.337    3.000
  349.500   66.405    0.349    0.337    2.968
  349.750   66.042    0.346    0.335    2.936
  350.000   64.888    0.346    0.332    2.880
  350.250   62.639    0.350    0.328    2.872
  350.500   61.241    0.353    0.334    2.938
  350.750   60.270    0.354    0.340    3.028
  351.000   59.785    0.360    0.347    3.086
  351.250   59.422    0.367    0.352    3.144
  351.500   59.607    0.372    0.359    3.194
  351.750   61.191    0.374    0.365    3.227
  352.000   65.453    0.379    0.370    3.269
  352.250   67.280    0.389    0.376    3.311
  352.500   68.195    0.384    0.364    3.327
  352.750   66.250    0.373    0.349    3.385
  353.000   64.913    0.364    0.343    3.435
  353.250   64.003    0.358    0.337    3.534
  353.500   64.126    0.364    0.331    3.543
  353.750   65.103    0.371    0.330    3.625
  354.000   66.383    0.364    0.331    3.683
  354.250   67.115    0.351    0.329    3.684
  354.500   67.603    0.341    0.334    3.406
  354.750   67.179    0.337    0.340    3.390
  355.000   65.782    0.346    0.347    3.342
  355.250   66.453    0.354    0.351    3.301
  355.500   65.360    0.358    0.356    3.228
  355.750   62.502    0.354    0.355    3.188
  356.000   60.800    0.351    0.348    3.156
  356.250   59.829    0.342    0.341    3.132
  356.500   58.980    0.338    0.335    3.125
  356.750   58.738    0.340    0.337    3.133
  357.000   59.289    0.343    0.340    3.159
  357.250   59.472    0.345    0.340    3.184
  357.500   62.456    0.352    0.339    3.225
  357.750   65.379    0.370    0.340    3.275
  358.000   67.876    0.381    0.340    3.341
  358.250   69.217    0.376    0.338    3.366
  358.500   70.314    0.372    0.335    3.359
  358.750   70.377    0.373    0.341    3.359
  359.000   69.649    0.377    0.345    3.344
  359.250   68.739    0.382    0.346    3.344
  359.500   68.132    0.384    0.342    3.345
  359.750   68.012    0.372    0.337    3.337
  360.000   69.840    0.363    0.332    3.330
  360.250   71.242    0.357    0.330    3.322
  360.500   71.183    0.362    0.332    3.315
  360.750   69.420    0.370    0.334    3.307
  361.000   67.658    0.372    0.337    3.316
  361.250   67.234    0.366    0.339    3.325
  361.500   67.175    0.363    0.340    3.325
  361.750   68.029    0.358    0.339    3.310
