~VERSION INFORMATION
 VERS.                 2.0:   CWLS LOG ASCII STANDARD -VERSION 2.0
 WRAP.                  NO:   ONE LINE PER DEPTH STEP
~WELL INFORMATION BLOCK
#MNEM.UNIT           DATA                    DESCRIPTION OF MNEMONIC
#---------    -------------------            -------------------------------
# Generated from Intellog Unique Number	CW_73_75/WELL/2740
WELL.         SUNDALE ET AL FRANCIS 10-16    : Well_name    - WELL
LOC .         00/10-16-073-21W4/0            : Location     - LOCATION
UWI .         00/10-16-073-21W4/0            : Uwi          - UNIQUE WELL ID
ENTR.         JAYE                           : Entered      - ENTERED BY
SRVC.         SCHLUMBERGER                   : Scn          - SERVICE COMPANY
DATE.         11 FEB 1976                    : Date         - LOG DATE
STRT.M        377.952                        : top_depth    - START DEPTH
STOP.M        579.202                        : bot_depth    - STOP DEPTH
STEP.M        0.25                           : increment    - STEP LENGTH
 NULL. -999.2500:NULL Value
~CURVE INFORMATION BLOCK
#MNEM UNIT       ERCB CURVE CODE    CURVE DESCRIPTION
#-----------   ------------------   ----------------------------------
DEPT.M        00 001 00 00         : DEPTH        - DEPTH
ILD .OHMM     00 120 00 00         : RESD         - DEEP RESISTIVITY (DIL)
NPHI.V/V      00 330 00 00         : PHIN         - NEUTRON POROSITY (SANDSTONE)
DPHI.V/V      00 890 00 00         : PHID         - DENSITY POROSITY (SANDSTONE)
GR  .API      00 310 00 00         : GR           - GAMMA RAY
CALI.MM       00 280 01 00         : CAL          - CALIPER
~PARAMETER INFORMATION
#MNEM.UNIT           DATA             DESCRIPTION OF MNEMONIC
#---------         -----------     ------------------------------
GL  .M        668.731              : gl           - GROUND LEVEL ELEVATION
EREF.M        672.998              : kb           - ELEVATION OF DEPTH REFERENCE
DATM.M        668.731              : datum        - DATUM ELEVATION
TDD .M        609.6                : tdd          - TOTAL DEPTH DRILLER
RUN .         ONE                  : Run          - RUN NUMBER
MUD .         GEL CHEM             : Mud_type     - MUD TYPE
MATR.         SANDSTONE            : Logunit      - NEUTRON MATRIX
TMAX.C        21.6667              : BHT          - MAXIMUM RECORDED TEMPERATURE
BHTD.M        578.206              : BHTDEP       - MAXIMUM RECORDED TEMPERATURE
RMT .C        16.6667              : MDTP         - TEMPERATURE OF MUD
MUDD.KG/M     1080                 : MWT          - MUD DENSITY
NEUT.         1                    : NEUTRON      - NEUTRON TYPE
RESI.         0                    : RESIST       - RESISTIVITY TYPE
RM  .OHMM     3.62                 : RM           - RESISTIVITY OF MUD
RMC .OHMM     0                    : RMC          - RESISTIVITY OF MUD CAKE
RMF .OHMM     2.9                  : RMF          - RESISTIVITY OF MUD FILTRATE
SUFT.C        0                    : SUFT         - SURFACE TEMPERATURE
~A  DEPTH     RESD     PHIN     PHID       GR      CAL
# ...
  414.452    5.394    0.500    0.253   88.201  159.822
  414.702    5.718    0.508    0.266   87.773  160.139
  414.952    6.163    0.515    0.271   88.329  160.249
  415.202    6.655    0.535    0.281   91.222  160.149
  415.452    6.953    0.575    0.297   93.378  160.048
  415.702    7.197    0.554    0.243   92.765  159.534
  415.952    7.089    0.534    0.201   91.661  159.329
  416.202    6.781    0.525    0.208   91.909  159.229
  416.452    6.474    0.514    0.217   91.912  159.129
  416.702    6.079    0.506    0.218   90.377  158.925
  416.952    5.772    0.504    0.190   88.596  158.722
  417.202    5.551    0.556    0.226   88.783  158.518
  417.452    5.408    0.575    0.242   91.000  158.210
  417.702    5.366    0.563    0.247   95.184  158.005
  417.952    5.616    0.548    0.284   95.003  157.593
  418.202    5.954    0.542    0.273   94.944  157.389
  418.452    6.266    0.567    0.276   85.906  157.396
  418.702    6.704    0.580    0.299   69.242  157.400
  418.952    7.442    0.592    0.418   57.191  157.299
  419.202    8.096    0.520    0.408   44.524  157.199
  419.452    8.349    0.463    0.308   47.295  157.307
  419.702    8.104    0.436    0.309   49.880  157.104
  419.952    7.638    0.439    0.316   51.482  157.004
  420.202    7.239    0.437    0.322   50.808  156.799
  420.452    6.937    0.424    0.330   47.551  156.493
  420.702    6.795    0.437    0.310   48.783  156.184
  420.952    6.718    0.453    0.284   49.770  155.877
  421.202    6.678    0.456    0.311   48.419  155.880
  421.452    6.639    0.452    0.330   46.270  155.780
  421.702    6.661    0.450    0.344   46.272  155.681
  421.952    6.794    0.455    0.321   47.321  155.685
  422.202    6.943    0.468    0.308   48.492  155.690
  422.452    7.134    0.466    0.321   49.724  155.798
  422.702    7.344    0.447    0.326   51.264  155.908
  422.952    7.382    0.439    0.324   53.419  156.120
  423.202    7.298    0.457    0.317   56.989  156.436
  423.452    7.255    0.480    0.310   61.297  156.857
  423.702    7.239    0.490    0.307   65.112  156.965
  423.952    7.196    0.496    0.307   69.358  157.074
  424.202    7.141    0.482    0.304   61.612  157.183
  424.452    7.021    0.464    0.299   51.282  157.396
  424.702    6.890    0.456    0.319   48.702  157.503
  424.952    6.713    0.458    0.323   49.688  157.612
  425.202    6.637    0.464    0.331   48.892  157.514
  425.452    6.453    0.463    0.326   47.603  157.517
  425.702    6.333    0.451    0.331   45.638  157.625
  425.952    6.319    0.434    0.337   45.025  157.734
  426.202    6.294    0.431    0.331   46.258  157.738
  426.452    6.256    0.442    0.332   49.397  157.536
  426.702    6.243    0.441    0.341   49.584  157.436
  426.952    6.286    0.438    0.353   49.340  157.335
  427.202    6.353    0.441    0.353   50.266  157.339
  427.452    6.398    0.441    0.344   50.760  157.240
  427.702    6.407    0.437    0.345   50.640  157.246
  427.952    6.369    0.436    0.345   48.920  157.248
  428.202    6.332    0.441    0.333   46.278  157.357
  428.452    6.260    0.447    0.320   48.188  157.572
  428.702    6.200    0.452    0.330   50.404  157.678
  428.952    6.152    0.458    0.340   49.976  157.891
  429.202    6.094    0.455    0.343   50.348  158.103
  429.452    6.058    0.449    0.339   51.150  158.212
  429.702    6.055    0.442    0.341   51.952  158.425
  429.952    6.075    0.447    0.325   52.754  158.742
  430.202    6.118    0.448    0.317   53.188  158.850
  430.452    6.115    0.441    0.322   53.743  159.063
  430.702    6.079    0.424    0.329   55.283  159.172
  430.952    5.847    0.436    0.322   59.345  159.176
  431.202    5.654    0.439    0.325   58.117  158.973
  431.452    5.662    0.445    0.324   56.460  158.874
  431.702    5.681    0.452    0.340   55.786  158.772
  431.952    5.721    0.456    0.352   54.928  158.570
  432.202    5.750    0.478    0.345   53.577  158.470
  432.452    5.790    0.503    0.364   52.350  158.265
  432.702    5.852    0.510    0.374   52.844  158.270
  432.952    5.958    0.485    0.328   53.892  158.588
  433.202    6.134    0.440    0.337   56.662  158.802
  433.452    6.303    0.436    0.339   60.416  158.804
  433.702    6.633    0.432    0.324   56.791  158.914
  433.952    7.032    0.422    0.298   54.272  159.020
  434.202    7.510    0.410    0.281   52.306  159.442
  434.452    7.263    0.392    0.278   50.095  159.550
  434.702    7.050    0.414    0.301   48.499  159.764
  434.952    6.893    0.475    0.299   45.119  159.665
  435.202    6.509    0.512    0.322   43.707  159.563
  435.452    6.045    0.509    0.320   47.707  159.777
  435.702    5.846    0.475    0.334   51.215  159.678
  435.952    5.812    0.470    0.321   52.878  159.682
  436.202    5.809    0.462    0.301   51.097  159.583
  436.452    5.882    0.443    0.310   48.332  159.481
  436.702    5.945    0.439    0.321   50.180  159.486
  436.952    5.976    0.458    0.325   52.520  159.491
  437.202    6.040    0.471    0.322   52.891  159.286
  437.452    6.093    0.466    0.330   51.356  159.499
  437.702    6.192    0.462    0.314   50.190  159.400
  437.952    6.213    0.458    0.335   48.840  159.197
  438.202    6.176    0.457    0.332   49.089  159.096
  438.452    6.140    0.452    0.327   50.752  158.996
  438.702    6.092    0.460    0.321   50.877  158.896
  438.952    6.068    0.476    0.329   49.650  158.900
  439.202    6.032    0.487    0.323   46.393  159.010
  439.452    6.040    0.481    0.311   46.089  159.014
  439.702    6.173    0.475    0.290   46.583  159.019
  439.952    6.402    0.473    0.301   46.647  159.024
  440.202    7.224    0.472    0.302   45.727  159.131
  440.452    8.289    0.464    0.306   44.500  159.240
  440.702    9.812    0.449    0.312   43.149  159.349
  440.952   11.383    0.431    0.293   41.307  159.249
  441.202   13.827    0.408    0.219   38.727  159.357
  441.452   17.424    0.296    0.145   36.085  159.465
  441.702   21.086    0.168    0.062   33.012  159.470
  441.952   20.057    0.149    0.041   31.047  159.578
  442.202   17.661    0.154    0.015   31.234  159.375
  442.452   15.017    0.172    0.004   31.852  159.275
  442.702   13.568    0.192    0.031   32.346  159.279
  442.952   12.394    0.158    0.035   31.119  159.283
  443.202   11.596    0.125    0.023   29.338  159.183
  443.452   10.849    0.097    0.016   28.848  159.085
  443.702   10.002    0.102    0.015   29.282  159.193
  443.952    9.307    0.164    0.018   30.206  159.302
  444.202    9.218    0.199    0.031   32.300  159.306
  444.452   10.308    0.291    0.087   36.300  159.414
  444.702   13.352    0.334    0.147   38.886  159.418
  444.952   16.610    0.348    0.065   37.228  159.318
  445.202   18.884    0.190    0.022   33.971  159.220
  445.452   21.193    0.130   -0.001   31.145  159.119
  445.702   23.483    0.098   -0.009   30.163  159.019
  445.952   24.669    0.092   -0.015   29.920  158.816
  446.202   25.115    0.091   -0.017   30.230  158.717
  446.452   25.384    0.091   -0.017   30.602  158.722
  446.702   25.514    0.091   -0.016   30.666  158.516
  446.952   25.645    0.091   -0.017   31.099  158.625
  447.202   25.730    0.092   -0.018   31.532  158.525
  447.452   25.672    0.092   -0.018   31.842  158.531
  447.702   25.663    0.091   -0.019   32.214  158.534
  447.952   25.323    0.092   -0.019   31.540  158.538
  448.202   25.083    0.092   -0.017   31.542  158.543
  448.452   24.889    0.092   -0.014   32.959  158.548
  448.702   24.560    0.093   -0.015   34.438  158.448
  448.952   24.371    0.095   -0.016   34.932  156.473
  449.202   23.919    0.097   -0.017   32.168  154.811
  449.452   23.473    0.099   -0.019   32.355  153.774
  449.702   22.951    0.102   -0.020   33.772  153.154
  449.952   22.567    0.103   -0.017   34.205  152.637
  450.202   22.188    0.106   -0.018   34.638  152.121
  450.452   21.977    0.107   -0.019   32.119  151.813
  450.702   21.648    0.108   -0.018   34.029  151.818
