~VERSION INFORMATION
 VERS.                 2.0:   CWLS LOG ASCII STANDARD -VERSION 2.0
 WRAP.                  NO:   ONE LINE PER DEPTH STEP
~WELL INFORMATION BLOCK
#MNEM.UNIT           DATA                    DESCRIPTION OF MNEMONIC
#---------    -------------------            -------------------------------
# Generated from Intellog Unique Number	CN_91_93/WELL/3595
WELL.         EPIC RESOURCES LTD.            : Well_name    - WELL
LOC .         00/10-07-093-15W4/0            : Location     - LOCATION
UWI .         00/10-07-093-15W400            : Uwi          - UNIQUE WELL ID
ENTR.         JOETTE                         : Entered      - ENTERED BY
SRVC.         SCHLUMBERGER                   : Scn          - SERVICE COMPANY
DATE.         03/18/92                       : Date         - LOG DATE
STRT.M        100                            : top_depth    - START DEPTH
STOP.M        205                            : bot_depth    - STOP DEPTH
STEP.M        0.25                           : increment    - STEP LENGTH
 NULL. -999.2500:NULL Value
~CURVE INFORMATION BLOCK
#MNEM UNIT       ERCB CURVE CODE    CURVE DESCRIPTION
#-----------   ------------------   ----------------------------------
DEPT.M        00 001 00 00         : DEPTH        - DEPTH
GR  .API      00 310 00 00         : GR           - GAMMA RAY
CALI.MM       00 280 01 00         : CAL          - CALIPER
NPHI.V/V      00 330 00 00         : PHIN         - NEUTRON POROSITY (SANDSTONE)
DPHI.V/V      00 890 00 00         : PHID         - DENSITY POROSITY (SANDSTONE)
ILD .OHMM     00 120 00 00         : RESD         - DEEP RESISTIVITY (DIL)
~PARAMETER INFORMATION
#MNEM.UNIT           DATA             DESCRIPTION OF MNEMONIC
#---------         -----------     ------------------------------
GL  .M        466                  : gl           - GROUND LEVEL ELEVATION
EREF.M        469.5                : kb           - ELEVATION OF DEPTH REFERENCE
DATM.M        469.5                : datum        - DATUM ELEVATION
TDD .M        208                  : tdd          - TOTAL DEPTH DRILLER
RUN .         ONE                  : Run          - RUN NUMBER
ENG .         BILL                 : Engineer     - RECORDING ENGINEER
WIT .         JIM                  : Witness      - WITNESSED BY
MUD .         GEL                  : Mud_type     - MUD TYPE
MATR.         SANDSTONE            : Logunit      - NEUTRON MATRIX
TMAX.C        18                   : BHT          - MAXIMUM RECORDED TEMPERATURE
BHTD.M        208                  : BHTDEP       - MAXIMUM RECORDED TEMPERATURE
RMT .C        20                   : MDTP         - TEMPERATURE OF MUD
MUDD.KG/M     1020                 : MWT          - MUD DENSITY
NEUT.         1                    : NEUTRON      - NEUTRON TYPE
RESI.         0                    : RESIST       - RESISTIVITY TYPE
RM  .OHMM     0.29                 : RM           - RESISTIVITY OF MUD
RMC .OHMM     0.26                 : RMC          - RESISTIVITY OF MUD CAKE
RMF .OHMM     0.26                 : RMF          - RESISTIVITY OF MUD FILTRATE
SUFT.C        4                    : SUFT         - SURFACE TEMPERATURE
~A  DEPTH       GR      CAL     PHIN     PHID     RESD
# ...
  173.000   52.130  169.596    0.418    0.340   42.669
  173.250   47.045  169.578    0.432    0.340   40.346
  173.500   44.779  168.620    0.446    0.332   36.076
  173.750   46.457  168.598    0.426    0.325   32.865
  174.000   48.138  168.575    0.414    0.325   29.940
  174.250   49.257  168.562    0.415    0.327   26.277
  174.500   51.502  168.549    0.412    0.322   24.388
  174.750   53.746  168.526    0.400    0.309   22.635
  175.000   53.172  168.513    0.384    0.296   21.008
  175.250   52.597  169.430    0.372    0.287   19.864
  175.500   60.478  169.417    0.382    0.278   19.497
  175.750   64.980  169.390    0.399    0.273   18.435
  176.000   66.659  169.381    0.414    0.272   18.093
  176.250   63.828  169.363    0.407    0.272   17.757
  176.500   62.129  168.401    0.377    0.267   17.428
  176.750   66.068  168.388    0.359    0.260   17.426
  177.000   70.001  168.370    0.381    0.254   17.103
  177.250   68.863  168.347    0.392    0.254   17.102
  177.500   66.597  168.329    0.368    0.258   17.100
  177.750   64.333  168.316    0.368    0.265   17.099
  178.000   66.014  168.298    0.390    0.269   17.418
  178.250   72.203  168.280    0.398    0.264   17.417
  178.500   71.628  168.262    0.392    0.258   17.416
  178.750   76.695  169.180    0.412    0.257   17.414
  179.000   76.120  169.166    0.399    0.263   17.739
  179.250   70.471  170.088    0.384    0.270   17.738
  179.500   71.588  171.001    0.380    0.274   18.070
  179.750   76.652  170.988    0.388    0.274   18.068
  180.000   80.022  171.914    0.419    0.274   17.406
  180.250   77.194  172.836    0.446    0.274   18.750
  180.500   72.673  173.758    0.455    0.274   20.965
  180.750   78.300  173.735    0.495    0.277   23.442
  181.000   83.928  171.838    0.524    0.279   27.206
  181.250   78.843  168.996    0.530    0.286   29.858
  181.500   70.938  168.987    0.452    0.295   30.416
  181.750   70.928  168.021    0.403    0.307   30.414
  182.000   81.066  168.012    0.346    0.275   30.411
  182.250   89.513  167.994    0.270    0.193   30.407
  182.500   96.263  168.916    0.294    0.182   30.976
  182.750   93.436  168.893    0.326    0.205   31.555
  183.000   90.042  169.820    0.363    0.235   31.553
  183.250   91.725  170.733    0.382    0.257   31.550
  183.500   92.278  170.724    0.399    0.294   31.547
  183.750   84.374  170.706    0.404    0.294   31.544
  184.000   75.342  170.692    0.394    0.287   30.959
  184.250   66.874  170.675    0.399    0.282   29.274
  184.500   61.224  170.648    0.414    0.288   26.176
  184.750   57.831  170.634    0.429    0.313   23.406
  185.000   79.810  170.612    0.340    0.296   21.723
  185.250  100.097  170.594    0.329    0.256   20.541
  185.500  106.289  169.641    0.386    0.236   19.065
  185.750  105.150  169.627    0.382    0.231   17.694
  186.000  102.884  168.670    0.355    0.223   17.366
  186.250  102.309  168.652    0.361    0.215   17.044
  186.500  102.299  168.630    0.376    0.219   16.728
  186.750  102.288  168.616    0.388    0.227   16.726
  187.000  102.277  168.598    0.408    0.236   16.725
  187.250  101.139  168.576    0.408    0.248   16.414
  187.500  100.000  168.558    0.375    0.252   16.110
  187.750   95.479  168.540    0.363    0.244   15.519
  188.000   93.213  168.527    0.358    0.250   14.951
  188.250   93.202  168.504    0.356    0.254   14.403
  188.500   93.189  169.422    0.369    0.248   13.874
  188.750   98.819  169.408    0.389    0.228   13.873
  189.000  105.574  169.395    0.419    0.228   14.669
  189.250  101.053  170.317    0.438    0.245   15.803
  189.500   94.276  170.294    0.462    0.233   18.340
  189.750   81.297  171.221    0.283    0.054   23.362
  190.000   60.988  171.189    0.227   -0.023   28.672
  190.250   45.190  171.180    0.177   -0.068   37.210
  190.500   30.519  171.163    0.149   -0.052   46.525
  190.750   27.126  172.089    0.097   -0.010   45.662
  191.000   37.828  172.062    0.100    0.029   39.337
  191.250   51.913  172.049    0.117    0.050   33.263
  191.500   68.818  172.031    0.203    0.058   30.302
  191.750   67.679  172.013    0.213    0.052   27.605
  192.000   64.847  171.999    0.222    0.049   26.102
  192.250   63.144  171.977    0.233    0.050   26.099
  192.500   63.697  171.959    0.246    0.051   26.588
  192.750   65.378  171.941    0.239    0.052   27.594
  193.000   63.676  171.919    0.227    0.044   29.177
  193.250   61.407  171.910    0.228    0.032   30.850
  193.500   60.838  171.883    0.227    0.032   31.429
  193.750   60.827  171.874    0.220    0.037   32.618
  194.000   63.633  171.852    0.213    0.038   32.615
  194.250   63.625  171.834    0.206    0.035   32.011
  194.500   61.359  171.816    0.200    0.026   30.268
  194.750   56.837  171.798    0.194    0.012   28.092
  195.000   51.186  171.780    0.176    0.010   24.655
  195.250   50.614  171.767    0.213    0.024   22.462
  195.500   61.316  171.749    0.222    0.035   19.714
  195.750   68.632  171.727    0.234    0.053   17.628
  196.000   82.159  172.648    0.250    0.066   15.186
  196.250   93.989  172.635    0.264    0.087   14.094
  196.500   93.412  173.552    0.281    0.075   13.327
  196.750   94.529  174.479    0.276    0.088   13.080
  197.000  106.925  176.340    0.318    0.120   13.575
  197.250  114.808  176.322    0.364    0.101   14.089
  197.500  106.904  173.476    0.296    0.051   15.177
  197.750   88.850  171.575    0.188    0.015   18.627
  198.000   66.283  170.626    0.188    0.022   22.860
  198.250   65.145  170.612    0.196    0.027   25.560
  198.500   69.084  170.586    0.198    0.020   27.026
  198.750   69.073  170.572    0.205    0.023   26.525
  199.000   66.807  170.550    0.211    0.030   26.523
  199.250   63.410  170.541    0.219    0.031   25.549
  199.500   61.711  170.523    0.214    0.030   25.077
  199.750   60.008  170.496    0.210    0.034   24.612
  200.000   58.867  170.487    0.210    0.032   24.156
  200.250   60.551  170.465    0.213    0.028   23.269
  200.500   66.740  170.443    0.218    0.027   22.838
  200.750   68.987  171.369    0.226    0.028   21.594
  201.000   70.668  171.351    0.234    0.033   21.194
  201.250   74.604  171.333    0.240    0.042   20.801
  201.500   81.923  171.320    0.248    0.054   20.799
  201.750   85.295  172.242    0.257    0.064   20.414
  202.000   81.902  172.219    0.262    0.059   20.412
  202.250   75.125  172.206    0.265    0.057   20.409
  202.500   76.806  172.179    0.266    0.059   20.792
  202.750   82.997  172.165    0.266    0.064   21.181
  203.000   86.933  172.148    0.244    0.058   21.577
  203.250   90.303  172.130    0.243    0.051   21.574
  203.500   93.678  172.107    0.252    0.050   21.978
  203.750   91.975  172.098    0.254    0.050   22.809
  204.000   83.507  172.076    0.246    0.051   22.808
  204.250   86.313  172.063    0.243    0.052   23.234
  204.500   86.305  172.040    0.246    0.054   23.232
  204.750   82.911  172.022    0.247    0.044   23.230
  205.000   78.951  172.004    0.245    0.043   23.228
