~VERSION INFORMATION
 VERS.                 2.0:   CWLS LOG ASCII STANDARD -VERSION 2.0
 WRAP.                  NO:   ONE LINE PER DEPTH STEP
~WELL INFORMATION BLOCK
#MNEM.UNIT           DATA                    DESCRIPTION OF MNEMONIC
#---------    -------------------            -------------------------------
# Generated from Intellog Unique Number	CS_73_76/WELL/3258
WELL.         11-08-075-05W4                 : Well_name    - WELL
LOC .         00/11-08-075-05W4/0            : Location     - LOCATION
UWI .         00/11-08-075-05W4/0            : Uwi          - UNIQUE WELL ID
ENTR.         SP                             : Entered      - ENTERED BY
SRVC.         SCHLUMBERGER                   : Scn          - SERVICE COMPANY
STRT.M        240                            : top_depth    - START DEPTH
STOP.M        480                            : bot_depth    - STOP DEPTH
STEP.M        0.25                           : increment    - STEP LENGTH
 NULL. -999.2500:NULL Value
~CURVE INFORMATION BLOCK
#MNEM UNIT       ERCB CURVE CODE    CURVE DESCRIPTION
#-----------   ------------------   ----------------------------------
DEPT.M        00 001 00 00         : DEPTH        - DEPTH
ILD .OHMM     00 120 00 00         : RESD         - DEEP RESISTIVITY (DIL)
DPHI.V/V      00 890 00 00         : PHID         - DENSITY POROSITY (LIMESTONE)
NPHI.V/V      00 330 00 00         : PHIN         - NEUTRON POROSITY (LIMESTONE)
GR  .API      00 310 00 00         : GR           - GAMMA RAY
~PARAMETER INFORMATION
#MNEM.UNIT           DATA             DESCRIPTION OF MNEMONIC
#---------         -----------     ------------------------------
GL  .M        636.15               : gl           - GROUND LEVEL ELEVATION
EREF.M        639.43               : kb           - ELEVATION OF DEPTH REFERENCE
DATM.M        636.15               : datum        - DATUM ELEVATION
TDD .M        483.5                : tdd          - TOTAL DEPTH DRILLER
RUN .         ONE                  : Run          - RUN NUMBER
ENG .         BILL                 : Engineer     - RECORDING ENGINEER
WIT .         JIM                  : Witness      - WITNESSED BY
MUD .         GEL                  : Mud_type     - MUD TYPE
MATR.         LIMESTONE            : Logunit      - NEUTRON MATRIX
TMAX.C        25                   : BHT          - MAXIMUM RECORDED TEMPERATURE
BHTD.M        483.5                : BHTDEP       - MAXIMUM RECORDED TEMPERATURE
MATR.         1                    : LOGUNIT      - NEUTRON MATRIX
RMT .C        25                   : MDTP         - TEMPERATURE OF MUD
NEUT.         1                    : NEUTRON      - NEUTRON TYPE
RESI.         0                    : RESIST       - RESISTIVITY TYPE
RMC .OHMM     0.25                 : RMC          - RESISTIVITY OF MUD CAKE
RMF .OHMM     0.25                 : RMF          - RESISTIVITY OF MUD FILTRATE
SUFT.C        15                   : SUFT         - SURFACE TEMPERATURE
~A  DEPTH     RESD     PHID     PHIN       GR
  240.000    2.779    0.298    0.465   96.344
  240.250    2.886    0.280    0.466   95.743
  240.500    3.055    0.261    0.463   96.361
  240.750    3.234    0.248    0.454   94.544
  241.000    3.296    0.237    0.439   93.331
  241.250    3.489    0.237    0.420   90.902
  241.500    3.490    0.245    0.424   91.521
  241.750    3.491    0.250    0.427   95.191
  242.000    3.426    0.251    0.432   95.810
  242.250    3.427    0.258    0.431   95.211
  242.500    3.428    0.273    0.428   96.439
  242.750    3.494    0.260    0.429   98.887
  243.000    3.495    0.255    0.449  103.776
  243.250    3.630    0.261    0.461  106.222
  243.500    3.770    0.260    0.444  107.453
  243.750    3.917    0.243    0.440  106.850
  244.000    4.068    0.222    0.433  105.641
  244.250    4.146    0.212    0.439  102.604
  244.500    4.070    0.198    0.433  102.004
  244.750    4.071    0.189    0.423  102.623
  245.000    4.072    0.191    0.432   99.582
  245.250    3.922    0.202    0.446   95.932
  245.500    3.923    0.208    0.425   91.675
  245.750    4.075    0.205    0.412   92.293
  246.000    4.564    0.190    0.401   94.131
  246.250    5.112    0.181    0.390   88.044
  246.500    5.411    0.220    0.357   78.297
  246.750    5.412    0.208    0.342   67.940
  247.000    5.414    0.166    0.355   62.463
  247.250    5.518    0.100    0.380   68.570
  247.500    5.841    0.147    0.401   89.921
  247.750    6.300    0.213    0.403   96.637
  248.000    7.191    0.224    0.403   94.817
  248.250    8.364    0.239    0.388   91.170
  248.500   11.102    0.226    0.372   89.959
  248.750   13.411    0.181    0.364   90.579
  249.000   14.195    0.155    0.372   92.416
  249.250   15.900    0.116    0.370   94.865
  249.500   17.478    0.158    0.369   91.829
  249.750   18.153    0.198    0.370   90.615
  250.000   19.214    0.234    0.382   89.406
  250.250   19.959    0.258    0.363   85.147
  250.500   19.963    0.243    0.367   81.501
  250.750   19.228    0.229    0.376   81.507
  251.000   18.174    0.213    0.366   87.005
  251.250   17.507    0.224    0.371   91.284
  251.500   17.510    0.218    0.374   94.952
  251.750   17.516    0.221    0.369   96.181
  252.000   17.519    0.226    0.355   94.361
  252.250   17.194    0.237    0.367   92.541
  252.500   16.877    0.247    0.376   90.720
  252.750   15.952    0.243    0.367   89.511
  253.000   15.079    0.231    0.375   87.691
  253.250   14.523    0.217    0.381   88.313
  253.500   13.727    0.202    0.367   89.538
  253.750   13.222    0.182    0.364   96.865
  254.000   12.978    0.184    0.362   96.266
  254.250   12.982    0.182    0.379   95.664
  254.500   12.985    0.172    0.368   93.236
  254.750   13.235    0.190    0.357   94.464
  255.000   13.748    0.205    0.349   93.256
  255.250   14.012    0.206    0.343   94.486
  255.500   14.556    0.211    0.350   95.102
  255.750   15.118    0.225    0.365   95.113
  256.000   15.408    0.234    0.367   95.125
  256.250   16.311    0.232    0.365   94.523
  256.500   17.265    0.227    0.370   92.094
  256.750   17.596    0.233    0.361   86.004
  257.000   18.277    0.253    0.351   79.916
  257.250   17.939    0.292    0.373   79.318
  257.500   14.581    0.307    0.367   77.495
  257.750   11.200    0.282    0.358   84.212
  258.000    9.453    0.207    0.371   93.369
  258.250    8.768    0.194    0.394  100.087
  258.500    7.981    0.193    0.404  101.315
  258.750    8.290    0.210    0.400  100.714
  259.000    9.826    0.238    0.380   93.407
  259.250   11.430    0.196    0.349   89.147
  259.500   12.801    0.163    0.329   85.499
  259.750   15.464    0.153    0.323   83.679
  260.000   17.320    0.150    0.324   78.201
  260.250   19.038    0.136    0.329   72.114
  260.500   21.326    0.196    0.335   68.466
  260.750   22.149    0.256    0.345   66.037
  261.000   21.741    0.265    0.347   64.215
  261.250   19.789    0.282    0.352   59.956
  261.500   18.012    0.248    0.348   59.357
  261.750   15.493    0.227    0.347   62.413
  262.000   13.838    0.218    0.348   70.350
  262.250   12.595    0.164    0.361   75.847
  262.500   10.433    0.171    0.374   78.905
  262.750    9.318    0.187    0.381   88.066
  263.000    8.323    0.125    0.386   90.512
  263.250    7.575    0.095    0.391   96.617
  263.500    6.895    0.105    0.395  105.773
  263.750    6.044    0.121    0.395  114.931
  264.000    5.821    0.084    0.385  118.597
  264.250    5.298    0.139    0.385  119.828
  264.500    4.733    0.160    0.391  122.888
  264.750    4.308    0.157    0.387  124.726
  265.000    4.072    0.164    0.403  124.732
  265.250    3.849    0.175    0.423  123.523
  265.500    3.638    0.176    0.439  124.751
  265.750    3.438    0.176    0.468  127.201
  266.000    3.439    0.179    0.477  129.040
  266.250    3.780    0.187    0.468  128.441
  266.500    4.924    0.193    0.468  126.011
  266.750    5.948    0.204    0.447  123.581
  267.000    7.747    0.217    0.436  119.935
  267.250    9.536    0.207    0.419  115.675
  267.500   11.091    0.225    0.409  108.976
  267.750   11.964    0.241    0.423  102.887
  268.000   11.967    0.253    0.419   96.798
  268.250   11.527    0.223    0.417   94.368
  268.500   11.103    0.212    0.412   93.772
  268.750   10.898    0.216    0.393   96.219
  269.000   10.497    0.207    0.390   95.617
  269.250   10.111    0.202    0.399   91.357
  269.500    9.923    0.220    0.401   88.320
  269.750    9.741    0.242    0.399   87.718
  270.000    9.743    0.220    0.402   90.169
  270.250    9.931    0.205    0.397   91.397
  270.500    9.933    0.205    0.394   92.018
  270.750   10.125    0.202    0.398   92.638
  271.000   10.126    0.194    0.408   91.424
  271.250   10.129    0.195    0.396   87.168
  271.500   10.131    0.204    0.386   86.565
  271.750    9.945    0.208    0.367   86.574
  272.000    9.948    0.216    0.372   87.195
  272.250    9.949    0.233    0.378   87.814
  272.500    9.766    0.227    0.382   89.043
  272.750    9.586    0.222    0.384   89.052
  273.000    9.588    0.222    0.398   87.841
  273.250    9.411    0.206    0.405   87.245
  273.500    9.413    0.203    0.394   87.252
  273.750    9.416    0.207    0.394   87.263
  274.000    9.418    0.205    0.400   87.882
  274.250    9.599    0.194    0.411   86.670
  274.500    9.785    0.196    0.419   85.459
  274.750    9.973    0.205    0.400   84.251
  275.000   10.165    0.206    0.390   81.820
  275.250   10.167    0.242    0.388   79.391
  275.500    9.981    0.244    0.394   77.571
  275.750    9.796    0.265    0.373   76.364
  276.000    9.614    0.259    0.368   76.371
  276.250    9.261    0.231    0.389   81.258
  276.500    9.090    0.210    0.414   82.488
  276.750    9.622    0.201    0.393   81.278
  277.000   10.185    0.220    0.379   81.290
  277.250   10.781    0.237    0.371   81.299
  277.500   11.198    0.270    0.362   81.917
  277.750   11.412    0.267    0.379   82.538
  278.000   11.854    0.238    0.394   83.769
  278.250   12.313    0.246    0.401   83.774
  278.500   12.550    0.243    0.395   84.396
  278.750   13.284    0.233    0.379   84.401
  279.000   14.061    0.233    0.372   85.022
  279.250   14.883    0.256    0.388   83.202
  279.500   15.171    0.287    0.380   77.727
  279.750   15.174    0.298    0.369   70.418
  280.000   13.554    0.302    0.366   67.376
  280.250   11.880    0.308    0.377   67.389
  280.500   10.218    0.277    0.374   71.057
  280.750    9.126    0.254    0.388   78.382
  281.000    7.850    0.266    0.394   89.367
  281.250    7.420    0.200    0.396   95.473
  281.500    7.013    0.190    0.389  101.580
  281.750    6.884    0.198    0.399  107.078
  282.000    7.150    0.211    0.407  108.915
  282.250    7.568    0.203    0.404  104.660
  282.500    8.011    0.218    0.405  104.057
  282.750    8.479    0.202    0.401  108.335
  283.000    8.808    0.188    0.401  102.252
  283.250    8.977    0.184    0.392  101.037
