~VERSION INFORMATION
 VERS.                 2.0:   CWLS LOG ASCII STANDARD -VERSION 2.0
 WRAP.                  NO:   ONE LINE PER DEPTH STEP
~WELL INFORMATION BLOCK
#MNEM.UNIT           DATA                    DESCRIPTION OF MNEMONIC
#---------    -------------------            -------------------------------
# Generated from Intellog Unique Number	CS_77_79/WELL/1006
WELL.         NORTHSTAR THORNBURY            : Well_name    - WELL
LOC .         00/11-32-079-12W4/0            : Location     - LOCATION
UWI .         00/11-32-079-12W4/0            : Uwi          - UNIQUE WELL ID
ENTR.         JHS                            : Entered      - ENTERED BY
SRVC.         SCHLUMBERGER                   : Scn          - SERVICE COMPANY
STRT.M        250                            : top_depth    - START DEPTH
STOP.M        495                            : bot_depth    - STOP DEPTH
STEP.M        0.25                           : increment    - STEP LENGTH
 NULL. -999.2500:NULL Value
~CURVE INFORMATION BLOCK
#MNEM UNIT       ERCB CURVE CODE    CURVE DESCRIPTION
#-----------   ------------------   ----------------------------------
DEPT.M        00 001 00 00         : DEPTH        - DEPTH
DPHI.V/V      00 890 00 00         : PHID         - DENSITY POROSITY (LIMESTONE)
NPHI.V/V      00 330 00 00         : PHIN         - NEUTRON POROSITY (LIMESTONE)
GR  .API      00 310 00 00         : GR           - GAMMA RAY
ILD .OHMM     00 120 00 00         : RESD         - DEEP RESISTIVITY (DIL)
RHOB.KG/M3    00 350 00 00         : DENS         - BULK DENSITY
~PARAMETER INFORMATION
#MNEM.UNIT           DATA             DESCRIPTION OF MNEMONIC
#---------         -----------     ------------------------------
GL  .M        683.9                : gl           - GROUND LEVEL ELEVATION
EREF.M        687.9                : kb           - ELEVATION OF DEPTH REFERENCE
DATM.M        687.9                : datum        - DATUM ELEVATION
TDD .M        502                  : tdd          - TOTAL DEPTH DRILLER
RUN .         ONE                  : Run          - RUN NUMBER
ENG .         BILL                 : Engineer     - RECORDING ENGINEER
WIT .         JIM                  : Witness      - WITNESSED BY
MUD .         GEL                  : Mud_type     - MUD TYPE
MATR.         LIMESTONE            : Logunit      - NEUTRON MATRIX
TMAX.C        21.1                 : BHT          - MAXIMUM RECORDED TEMPERATURE
BHTD.M        502                  : BHTDEP       - MAXIMUM RECORDED TEMPERATURE
MATR.         1                    : LOGUNIT      - NEUTRON MATRIX
RMT .C        25                   : MDTP         - TEMPERATURE OF MUD
NEUT.         1                    : NEUTRON      - NEUTRON TYPE
RESI.         0                    : RESIST       - RESISTIVITY TYPE
RMC .OHMM     0.25                 : RMC          - RESISTIVITY OF MUD CAKE
RMF .OHMM     0.25                 : RMF          - RESISTIVITY OF MUD FILTRATE
SUFT.C        15                   : SUFT         - SURFACE TEMPERATURE
~A  DEPTH     PHID     PHIN       GR     RESD     DENS
# ...
  323.000    0.359    0.491   57.437   17.056    0.000
  323.250    0.371    0.487   56.826   17.712    0.000
  323.500    0.353    0.473   56.218   17.716    0.000
  323.750    0.341    0.450   54.992   17.074    0.000
  324.000    0.309    0.428   51.924   16.455    0.000
  324.250    0.297    0.426   53.159   15.862    0.000
  324.500    0.371    0.476   55.623   15.572    0.000
  324.750    0.374    0.482   56.858   15.291    0.000
  325.000    0.355    0.491   56.862   15.296    0.000
  325.250    0.348    0.502   55.637   15.019    0.000
  325.500    0.369    0.508   53.184   15.024    0.000
  325.750    0.382    0.492   53.803   15.313    0.000
  326.000    0.376    0.492   55.654   15.317    0.000
  326.250    0.365    0.497   56.273   15.612    0.000
  326.500    0.364    0.500   56.278   15.908    0.000
  326.750    0.369    0.492   55.668   16.214    0.000
  327.000    0.372    0.481   54.446   16.526    0.000
  327.250    0.379    0.477   54.449   16.529    0.000
  327.500    0.371    0.473   53.225   16.535    0.000
  327.750    0.364    0.469   52.000   16.851    0.000
  328.000    0.361    0.472   51.390   16.856    0.000
  328.250    0.350    0.480   50.780   17.179    0.000
  328.500    0.358    0.487   50.171   17.510    0.000
  328.750    0.354    0.498   50.176   18.180    0.000
  329.000    0.350    0.469   50.181   19.231    0.000
  329.250    0.350    0.462   50.187   20.342    0.000
  329.500    0.348    0.475   49.577   21.922    0.000
  329.750    0.340    0.491   48.967   24.068    0.000
  330.000    0.332    0.503   48.972   26.923    0.000
  330.250    0.336    0.487   48.362   34.307    0.000
  330.500    0.337    0.473   48.983   38.377    0.000
  330.750    0.351    0.478   50.832   35.633    0.000
  331.000    0.361    0.475   51.451   31.291    0.000
  331.250    0.366    0.468   51.456   28.517    0.000
  331.500    0.378    0.461   52.077   24.126    0.000
  331.750    0.389    0.470   53.925   20.412    0.000
  332.000    0.391    0.475   56.390   18.603    0.000
  332.250    0.373    0.479   57.010   17.598    0.000
  332.500    0.361    0.490   56.402   16.647    0.000
  332.750    0.375    0.495   57.636   16.046    0.000
  333.000    0.382    0.492   58.256   15.755    0.000
  333.250    0.391    0.496   58.260   15.758    0.000
  333.500    0.377    0.503   58.267   15.765    0.000
  333.750    0.379    0.497   59.501   15.772    0.000
  334.000    0.386    0.475   60.734   15.777    0.000
  334.250    0.397    0.465   61.356   15.780    0.000
  334.500    0.398    0.466   61.359   15.209    0.000
  334.750    0.380    0.485   61.366   14.658    0.000
  335.000    0.389    0.499   62.599   14.129    0.000
  335.250    0.379    0.496   63.219   13.871    0.000
  335.500    0.369    0.492   62.609   13.878    0.000
  335.750    0.364    0.497   62.000   13.882    0.000
  336.000    0.379    0.502   62.620   13.885    0.000
  336.250    0.384    0.503   63.854   13.891    0.000
  336.500    0.372    0.492   64.475   13.894    0.000
  336.750    0.359    0.485   63.866   13.900    0.000
  337.000    0.367    0.488   63.871   13.649    0.000
  337.250    0.383    0.491   62.645   13.401    0.000
  337.500    0.364    0.482   61.421   13.404    0.000
  337.750    0.357    0.480   60.811   13.163    0.000
  338.000    0.329    0.492   62.045   13.415    0.000
  338.250    0.285    0.453   62.050   13.927    0.000
  338.500    0.238    0.409   59.596   15.291    0.000
  338.750    0.184    0.370   56.528   18.427    0.000
  339.000    0.101    0.305   52.230   21.000    0.000
  339.250    0.095    0.272   51.620   22.631    0.000
  339.500    0.163    0.283   54.083   21.812    0.000
  339.750    0.186    0.307   59.007   19.512    0.000
  340.000    0.211    0.378   62.701   16.204    0.000
  340.250    0.328    0.444   62.706   14.228    0.000
  340.500    0.350    0.503   60.867   13.459    0.000
  340.750    0.362    0.506   62.102   13.464    0.000
  341.000    0.367    0.501   60.262   13.980    0.000
  341.250    0.369    0.501   54.734   14.247    0.000
  341.500    0.360    0.475   49.822   14.794    0.000
  341.750    0.360    0.459   42.450   15.650    0.000
  342.000    0.353    0.460   40.609   15.653    0.000
  342.250    0.345    0.473   40.000   15.954    0.000
  342.500    0.358    0.483   41.234   15.960    0.000
  342.750    0.360    0.490   41.856   15.964    0.000
  343.000    0.351    0.490   41.860   15.971    0.000
  343.250    0.353    0.484   41.866   15.680    0.000
  343.500    0.360    0.472   41.255   15.686    0.000
  343.750    0.357    0.465   40.646   15.404    0.000
  344.000    0.357    0.466   40.651   15.408    0.000
  344.250    0.360    0.459   43.730   15.415    0.000
  344.500    0.352    0.457   47.423   15.418    0.000
  344.750    0.346    0.467   51.117   15.422    0.000
  345.000    0.349    0.477   49.893   15.429    0.000
  345.250    0.347    0.485   48.054   15.432    0.000
  345.500    0.363    0.489   48.059   15.439    0.000
  345.750    0.344    0.468   49.908   15.736    0.000
  346.000    0.342    0.461   53.602   15.740    0.000
  346.250    0.355    0.473   55.451   15.744    0.000
  346.500    0.342    0.482   57.301   15.751    0.000
  346.750    0.346    0.480   57.308   15.755    0.000
  347.000    0.355    0.480   56.697   15.762    0.000
  347.250    0.369    0.484   56.703   15.767    0.000
  347.500    0.370    0.471   57.321   15.770    0.000
  347.750    0.360    0.467   56.712   15.487    0.000
  348.000    0.360    0.466   54.872   15.491    0.000
  348.250    0.349    0.461   53.649   15.495    0.000
  348.500    0.344    0.461   57.342   15.216    0.000
  348.750    0.352    0.450   60.420   15.220    0.000
  349.000    0.350    0.456   60.426   14.945    0.000
  349.250    0.358    0.471   59.201   14.951    0.000
  349.500    0.349    0.461   58.592   14.680    0.000
  349.750    0.349    0.455   58.597   14.685    0.000
  350.000    0.337    0.456   57.372   14.420    0.000
  350.250    0.337    0.468   54.921   14.423    0.000
  350.500    0.344    0.483   54.308   14.430    0.000
  350.750    0.344    0.475   56.772   14.433    0.000
  351.000    0.345    0.470   58.008   14.174    0.000
  351.250    0.331    0.466   58.013   14.177    0.000
  351.500    0.337    0.457   59.862   13.920    0.000
  351.750    0.336    0.449   62.327   13.923    0.000
  352.000    0.331    0.445   62.332   13.421    0.000
  352.250    0.332    0.453   62.338   13.424    0.000
  352.500    0.322    0.459   62.343   13.182    0.000
  352.750    0.332    0.474   62.962   13.185    0.000
  353.000    0.334    0.476   62.967   12.948    0.000
  353.250    0.337    0.471   62.971   12.952    0.000
  353.500    0.340    0.465   62.363   12.955    0.000
  353.750    0.339    0.463   60.524   12.961    0.000
  354.000    0.341    0.470   58.683   12.964    0.000
  354.250    0.354    0.468   57.459   13.213    0.000
  354.500    0.349    0.468   59.924   13.466    0.000
  354.750    0.345    0.469   60.544   13.471    0.000
  355.000    0.340    0.465   59.318   13.475    0.000
  355.250    0.337    0.473   57.480   13.478    0.000
  355.500    0.332    0.481   59.329   13.738    0.000
  355.750    0.326    0.475   59.950   13.240    0.000
  356.000    0.316    0.480   59.339   12.066    0.000
  356.250    0.335    0.488   59.344   10.400    0.000
  356.500    0.335    0.492   62.424    9.132    0.000
  356.750    0.327    0.494   63.044    8.801    0.000
  357.000    0.319    0.488   63.048    8.970    0.000
  357.250    0.312    0.483   64.284    9.667    0.000
  357.500    0.313    0.492   64.902   10.614    0.000
  357.750    0.342    0.504   63.064   12.323    0.000
  358.000    0.353    0.488   63.684   13.034    0.000
  358.250    0.349    0.497   67.378   13.788    0.000
  358.500    0.341    0.514   72.300   12.108    0.000
  358.750    0.327    0.506   77.841   10.831    0.000
  359.000    0.319    0.498   80.918    8.505    0.000
  359.250    0.310    0.493   85.227    6.200    0.000
