~VERSION INFORMATION
 VERS.                 2.0:   CWLS LOG ASCII STANDARD -VERSION 2.0
 WRAP.                  NO:   ONE LINE PER DEPTH STEP
~WELL INFORMATION BLOCK
#MNEM.UNIT           DATA                    DESCRIPTION OF MNEMONIC
#---------    -------------------            -------------------------------
# Generated from Intellog Unique Number	CW_70_72/WELL/1067
NULL.         -999.25                        : NULL_VALUE
WELL.         WINCAN ET AL CALL W 12-30      : Well_name    - WELL              
LOC .         12-30-071-19W4                 : Location     - LOCATION          
UWI .         00/12-30-071-19W4/0            : Uwi          - UNIQUE WELL ID    
ENTR.         JAYE                           : Entered      - ENTERED BY        
SRVC.         SCHLUMBERGER                   : Scn          - SERVICE COMPANY   
DATE.         19 FEB 80                      : Date         - LOG DATE          
STRT.M        305                            : top_depth    - START DEPTH       
STOP.M        495                            : bot_depth    - STOP DEPTH        
STEP.M        0.25                           : increment    - STEP LENGTH       
~CURVE INFORMATION BLOCK
#MNEM UNIT       ERCB CURVE CODE    CURVE DESCRIPTION
#-----------   ------------------   ----------------------------------
DEPT.M        00 001 00 00         : DEPTH        - DEPTH                       
DPHI.V/V      00 890 00 00         : PHID         - DENSITY POROSITY (SANDSTONE)
NPHI.V/V      00 330 00 00         : PHIN         - NEUTRON POROSITY (SANDSTONE)
GR  .API      00 310 00 00         : GR           - GAMMA RAY                   
CALI.MM       00 280 01 00         : CAL          - CALIPER                     
ILD .OHMM     00 120 00 00         : RESD         - DEEP RESISTIVITY (DIL)      
~PARAMETER INFORMATION       
#MNEM.UNIT           DATA             DESCRIPTION OF MNEMONIC
#---------         -----------     ------------------------------
GL  .M        592.17               : gl           - GROUND LEVEL ELEVATION      
EREF.M        596.27               : kb           - ELEVATION OF DEPTH REFERENCE
DATM.M        592.17               : datum        - DATUM ELEVATION             
TDD .M        498                  : tdd          - TOTAL DEPTH DRILLER         
RUN .         ONE                  : Run          - RUN NUMBER                  
ENG .         HOOK                 : Engineer     - RECORDING ENGINEER          
WIT .         WAUNCH               : Witness      - WITNESSED BY                
BASE.         EDM                  : Branch       - HOME BASE OF LOGGING UNIT   
MUD .         GEL CHEM             : Mud_type     - MUD TYPE                    
MATR.         SANDSTONE            : Logunit      - NEUTRON MATRIX              
TMAX.C        27.5                 : BHT          - MAXIMUM RECORDED TEMPERATURE
BHTD.M        498                  : BHTDEP       - MAXIMUM RECORDED TEMPERATURE
RMT .C        18.9                 : MDTP         - TEMPERATURE OF MUD          
MUDD.KG/M     9.5                  : MWT          - MUD DENSITY                 
NEUT.         1                    : NEUTRON      - NEUTRON TYPE                
RESI.         0                    : RESIST       - RESISTIVITY TYPE            
RM  .OHMM     4.68                 : RM           - RESISTIVITY OF MUD          
RMC .OHMM     0                    : RMC          - RESISTIVITY OF MUD CAKE     
RMF .OHMM     4.03                 : RMF          - RESISTIVITY OF MUD FILTRATE 
SUFT.C        0                    : SUFT         - SURFACE TEMPERATURE         
~A  DEPTH     PHID     PHIN       GR      CAL     RESD
# ...
  451.000    0.200    0.423   93.606  158.891    5.421
  451.250    0.219    0.397   94.580  164.580    5.400
  451.500    0.208    0.407   94.495  160.370    5.366
  451.750    0.194    0.423   94.410  158.453    5.208
  452.000    0.178    0.436   93.573  158.729    5.090
  452.250    0.171    0.446   91.549  160.976    5.089
  452.500    0.181    0.441   88.585  161.670    5.163
  452.750    0.182    0.424   84.310  161.317    5.308
  453.000    0.182    0.402   79.409  160.547    5.643
  453.250    0.171    0.373   75.572  157.587    6.394
  453.500    0.155    0.351   70.608  155.253    7.351
  453.750    0.203    0.365   68.334  153.128    8.485
  454.000    0.218    0.378   67.372  151.417    9.738
  454.250    0.218    0.385   68.660  150.129   11.712
  454.500    0.209    0.363   70.447  148.947   12.782
  454.750    0.202    0.327   73.800  147.758   11.837
  455.000    0.186    0.318   78.401  147.094   10.598
  455.250    0.171    0.337   82.693  146.738    9.331
  455.500    0.163    0.364   87.168  147.223    6.933
  455.750    0.151    0.391   88.710  149.058    6.185
  456.000    0.176    0.419   86.561  151.517    6.114
  456.250    0.161    0.421   85.597  153.355    6.123
  456.500    0.149    0.411   88.010  154.982    6.064
  456.750    0.147    0.412   88.988  155.144    5.972
  457.000    0.157    0.409   85.651  155.110    5.959
  457.250    0.168    0.404   79.812  154.647    6.197
  457.500    0.165    0.395   74.724  153.568    6.346
  457.750    0.144    0.385   77.013  152.278    6.512
  458.000    0.130    0.369   82.178  150.779    6.633
  458.250    0.117    0.367   89.967  149.174    6.667
  458.500    0.129    0.388   93.820  149.866    6.716
  458.750    0.142    0.412   88.795  153.056    6.739
  459.000    0.158    0.410   83.645  155.514    6.775
  459.250    0.154    0.396   82.744  156.310    6.899
  459.500    0.146    0.388   84.032  156.580    7.041
  459.750    0.143    0.384   86.197  156.433    7.065
  460.000    0.145    0.377   89.173  156.187    6.866
  460.250    0.158    0.382   91.771  155.728    6.626
  460.500    0.181    0.398   93.751  154.232    6.478
  460.750    0.194    0.398   96.165  152.211    6.367
  461.000    0.179    0.394   97.017  153.214    6.305
  461.250    0.170    0.388   93.805  156.506    6.327
  461.500    0.165    0.378   91.402  158.970    6.420
  461.750    0.161    0.373   89.380  152.678    6.674
  462.000    0.143    0.363   86.356  146.384    6.772
  462.250    0.123    0.350   84.827  145.719    6.797
  462.500    0.094    0.357   82.930  145.662    6.731
  462.750    0.138    0.377   82.028  145.732    6.692
  463.000    0.151    0.388   82.505  145.482    6.650
  463.250    0.150    0.366   83.044  145.653    6.587
  463.500    0.132    0.354   84.270  145.924    6.463
  463.750    0.113    0.368   85.874  146.297    5.874
  464.000    0.128    0.384   89.474  146.478    4.720
  464.250    0.157    0.403   93.328  146.543    3.771
  464.500    0.179    0.417   97.303  146.920    2.941
  464.750    0.193    0.438   98.717  147.607    2.467
  465.000    0.206    0.499   97.132  148.504    2.251
  465.250    0.218    0.520   88.853  151.069    2.484
  465.500    0.228    0.496   85.265  154.991    2.999
  465.750    0.203    0.418   82.930  160.575    3.442
  466.000    0.185    0.392   81.279  164.807    4.077
  466.250    0.180    0.373   82.755  162.581    5.138
  466.500    0.176    0.385   80.105  159.305    6.168
  466.750    0.152    0.395   79.830  158.956    6.694
  467.000    0.145    0.386   81.056  159.540    6.386
  467.250    0.116    0.390   83.285  161.686    5.696
  467.500    0.128    0.400   87.825  164.042    5.216
  467.750    0.147    0.412   84.673  166.191    5.062
  468.000    0.163    0.428   82.147  169.176    5.291
  468.250    0.156    0.444   80.187  174.658    6.496
  468.500    0.173    0.448   76.910  182.432    7.332
  468.750    0.177    0.355   71.448  196.041    7.927
  469.000    0.138    0.317   71.611  184.333    7.909
  469.250    0.071    0.327   74.900  160.534    7.082
  469.500    0.118    0.359   79.378  153.305    6.293
  469.750    0.167    0.398   83.415  153.886    5.408
  470.000    0.225    0.442   84.892  158.224    4.971
  470.250    0.228    0.460   86.370  168.082    4.879
  470.500    0.204    0.431   87.659  180.341    4.858
  470.750    0.183    0.408   88.882  173.733    4.876
  471.000    0.188    0.397   89.674  169.838    4.928
  471.250    0.214    0.401   90.712  163.025    5.009
  471.500    0.202    0.412   91.064  173.196    5.132
  471.750    0.208    0.441   89.039  178.263    5.286
  472.000    0.215    0.449   83.886  190.724    5.464
  472.250    0.193    0.428   78.861  201.099    5.874
  472.500    0.176    0.429   75.649  208.457    6.119
  472.750    0.165    0.434   77.624  215.816    5.698
  473.000    0.150    0.440   78.790  201.923    5.074
  473.250    0.133    0.454   79.266  160.825    4.742
  473.500    0.269    0.465   79.365  168.079    4.611
  473.750    0.301    0.470   78.591  171.893    4.582
  474.000    0.320    0.471   77.439  184.150    4.573
  474.250    0.340    0.468   77.794  192.344    4.564
  474.500    0.332    0.463   78.267  179.277    4.578
  474.750    0.311    0.457   77.430  195.595    4.629
  475.000    0.294    0.456   75.408  182.220    4.661
  475.250    0.301    0.460   71.131  209.688    4.738
  475.500    0.309    0.460   65.231  232.051    4.936
  475.750    0.293    0.451   59.580  228.781    5.268
  476.000    0.279    0.439   52.303  255.521    5.737
  476.250    0.257    0.404   47.090  199.211    6.415
  476.500    0.234    0.272   50.629  162.389    7.433
  476.750    0.131    0.289   56.294  155.992    8.404
  477.000    0.159    0.297   63.460  157.304    9.137
  477.250    0.170    0.301   69.625  158.405    9.696
  477.500    0.140    0.303   73.290  157.742   10.101
  477.750    0.124    0.301   72.890  156.140   10.385
  478.000    0.110    0.290   69.177  155.050   10.654
  478.250    0.103    0.289   69.154  154.908   10.933
  478.500    0.126    0.301   71.068  154.356   11.177
  478.750    0.160    0.299   75.168  151.604   11.302
  479.000    0.172    0.285   77.456  151.456   11.401
  479.250    0.153    0.267   78.810  151.312   11.420
  479.500    0.146    0.252   76.910  151.263   11.205
  479.750    0.183    0.239   67.633  150.919   10.691
  480.000    0.223    0.232   59.795  149.943   10.181
  480.250    0.248    0.262   60.393  147.092    9.427
  480.500    0.203    0.284   63.248  144.133    8.395
  480.750    0.148    0.291   67.412  143.677    7.745
  481.000    0.145    0.291   72.015  143.737    7.362
  481.250    0.147    0.291   75.991  144.526    7.156
  481.500    0.156    0.293   78.031  145.737    7.022
  481.750    0.170    0.292   77.317  146.220    7.178
  482.000    0.187    0.283   75.793  146.804    7.475
  482.250    0.200    0.272   71.518  147.075    8.143
  482.500    0.219    0.249   58.865  147.145    8.937
  482.750    0.258    0.235   50.963  146.680    9.432
  483.000    0.276    0.218   48.500  146.645    9.732
  483.250    0.296    0.206   48.352  146.395    9.877
  483.500    0.305    0.214   49.013  146.559    9.890
  483.750    0.301    0.224   49.675  146.422    9.888
  484.000    0.300    0.232   49.591  145.954    9.830
  484.250    0.304    0.246   49.502  145.506    9.680
  484.500    0.303    0.265   50.104  145.046    9.430
  484.750    0.315    0.272   51.020  145.116    9.268
  485.000    0.291    0.284   52.684  145.592    9.111
  485.250    0.267    0.313   55.593  146.282    8.989
  485.500    0.252    0.325   58.072  147.077    8.886
  485.750    0.242    0.335   61.300  148.395    8.736
  486.000    0.222    0.350   65.150  149.909    8.571
  486.250    0.210    0.366   71.194  150.494    8.408
  486.500    0.232    0.386   72.045  151.180    8.206
  486.750    0.246    0.395   71.144  151.148    8.006
  487.000    0.252    0.385   76.686  150.485    7.829
  487.250    0.238    0.379   84.476  144.505    7.750
