~VERSION INFORMATION
 VERS.                 2.0:   CWLS LOG ASCII STANDARD -VERSION 2.0
 WRAP.                  NO:   ONE LINE PER DEPTH STEP
~WELL INFORMATION BLOCK
#MNEM.UNIT           DATA                    DESCRIPTION OF MNEMONIC
#---------    -------------------            -------------------------------
# Generated from Intellog Unique Number	CW_82_90/WELL/3448
WELL.         NUMAC LIEGE                    : Well_name    - WELL
LOC .         00/11-14-088-21W4/0            : Location     - LOCATION
UWI .         00/11-14-088-21W4/0            : Uwi          - UNIQUE WELL ID
ENTR.         MAX                            : Entered      - ENTERED BY
SRVC.         WESTERN ATLAS                  : Scn          - SERVICE COMPANY
STRT.M        125                            : top_depth    - START DEPTH
STOP.M        303                            : bot_depth    - STOP DEPTH
STEP.M        0.25                           : increment    - STEP LENGTH
 NULL. -999.2500:NULL Value
~CURVE INFORMATION BLOCK
#MNEM UNIT       ERCB CURVE CODE    CURVE DESCRIPTION
#-----------   ------------------   ----------------------------------
DEPT.M        00 001 00 00         : DEPTH        - DEPTH
ILD .OHMM     00 120 00 00         : RESD         - DEEP RESISTIVITY (DIL)
NPHI.V/V      00 330 00 00         : PHIN         - NEUTRON POROSITY (SANDSTONE)
DPHI.V/V      00 890 00 00         : PHID         - DENSITY POROSITY (SANDSTONE)
CALI.MM       00 280 01 00         : CAL          - CALIPER
GR  .API      00 310 00 00         : GR           - GAMMA RAY
~PARAMETER INFORMATION
#MNEM.UNIT           DATA             DESCRIPTION OF MNEMONIC
#---------         -----------     ------------------------------
GL  .M        529.86               : gl           - GROUND LEVEL ELEVATION
EREF.M        532.96               : kb           - ELEVATION OF DEPTH REFERENCE
DATM.M        529.86               : datum        - DATUM ELEVATION
TDD .M        304                  : tdd          - TOTAL DEPTH DRILLER
RUN .         ONE                  : Run          - RUN NUMBER
ENG .         BILL                 : Engineer     - RECORDING ENGINEER
WIT .         JIM                  : Witness      - WITNESSED BY
MUD .         GEL                  : Mud_type     - MUD TYPE
MATR.         SANDSTONE            : Logunit      - NEUTRON MATRIX
TMAX.C        18                   : BHT          - MAXIMUM RECORDED TEMPERATURE
BHTD.M        304                  : BHTDEP       - MAXIMUM RECORDED TEMPERATURE
MATR.         1                    : LOGUNIT      - NEUTRON MATRIX
RMT .C        18                   : MDTP         - TEMPERATURE OF MUD
NEUT.         1                    : NEUTRON      - NEUTRON TYPE
RESI.         0                    : RESIST       - RESISTIVITY TYPE
RMC .OHMM     2.5                  : RMC          - RESISTIVITY OF MUD CAKE
RMF .OHMM     1                    : RMF          - RESISTIVITY OF MUD FILTRATE
SUFT.C        -1                   : SUFT         - SURFACE TEMPERATURE
~A  DEPTH     RESD     PHIN     PHID      CAL       GR
  125.000   19.994    0.354    0.216  223.053   67.685
  125.250   17.258    0.366    0.227  228.570   73.974
  125.500   15.038    0.363    0.243  234.585   82.353
  125.750   13.346    0.383    0.249  233.637   90.728
  126.000   11.955    0.413    0.259  233.689   97.917
  126.250   11.010    0.435    0.277  234.232   96.451
  126.500   10.047    0.453    0.272  234.272   89.920
  126.750    9.257    0.439    0.278  234.312   86.075
  127.000    8.768    0.411    0.312  234.364   88.786
  127.250    8.695    0.407    0.365  231.926   91.198
  127.500    8.786    0.452    0.343  229.002   94.800
  127.750    9.386    0.447    0.308  227.049   93.937
  128.000   10.407    0.436    0.280  226.102   85.017
  128.250   12.311    0.433    0.295  226.645   83.558
  128.500   14.565    0.453    0.299  225.200   78.514
  128.750   17.396    0.404    0.308  225.743   69.896
  129.000   16.939    0.382    0.322  225.298   68.141
  129.250   15.313    0.409    0.322  224.344   71.442
  129.500   14.104    0.433    0.307  223.911   80.715
  129.750   15.072    0.441    0.305  223.968   83.727
  130.000   15.228    0.421    0.308  223.991   78.981
  130.250   14.558    0.418    0.305  224.540   71.854
  130.500   13.789    0.441    0.306  223.096   79.335
  130.750   13.176    0.435    0.321  221.148   89.204
  131.000   12.712    0.432    0.345  215.734   88.337
  131.250   12.152    0.448    0.322  214.781   92.539
  131.500   11.724    0.413    0.303  214.833  100.321
  131.750   11.526    0.424    0.335  213.879   98.563
  132.000   11.535    0.451    0.341  211.944   98.893
  132.250   11.766    0.406    0.318  208.506  101.298
  132.500   11.351    0.386    0.317  208.061   98.046
  132.750   10.951    0.401    0.349  218.056   92.708
  133.000   11.170    0.438    0.397  215.618   89.754
  133.250   12.384    0.480    0.392  212.671   81.732
  133.500   16.377    0.468    0.360  210.233   68.043
  133.750   22.472    0.424    0.349  211.272   56.145
  134.000   31.710    0.376    0.355  210.822   52.301
  134.250   42.326    0.390    0.387  210.873   52.027
  134.500   55.973    0.375    0.377  211.416   48.179
  134.750   58.166    0.354    0.355  211.462   43.734
  135.000   56.116    0.333    0.350  207.533   45.551
  135.250   50.260    0.336    0.349  199.635   55.122
  135.500   42.983    0.369    0.348  195.700   58.134
  135.750   38.509    0.395    0.345  201.212   62.332
  136.000   38.550    0.377    0.339  197.289   65.047
  136.250   40.433    0.394    0.316  187.888   68.357
  136.500   45.239    0.374    0.268  179.488   65.698
  136.750   57.656    0.300    0.141  179.545   60.959
  137.000   63.323    0.278    0.244  193.492   63.368
  137.250   65.217    0.305    0.289  206.463   63.399
  137.500   62.328    0.384    0.337  207.012   66.707
  137.750   60.700    0.439    0.369  204.573   62.259
  138.000   60.755    0.444    0.393  203.123   54.237
  138.250   61.394    0.421    0.403  201.678   54.563
  138.500   60.347    0.424    0.410  201.228   51.612
  138.750   59.862    0.438    0.395  204.261   51.044
  139.000   59.934    0.395    0.359  208.282   53.456
  139.250   60.565    0.351    0.347  208.345   55.873
  139.500   60.656    0.372    0.382  208.882   52.021
  139.750   60.728    0.396    0.392  210.408   51.158
  140.000   61.349    0.409    0.381  211.453   50.586
  140.250   62.004    0.412    0.360  209.009   53.300
  140.500   62.666    0.414    0.368  209.072   53.622
  140.750   63.316    0.421    0.404  211.597   51.265
  141.000   64.578    0.429    0.396  213.140   50.398
  141.250   66.489    0.436    0.381  212.695   51.026
  141.500   69.717    0.435    0.396  211.238   51.053
  141.750   74.492    0.417    0.403  210.285   50.783
  142.000   81.071    0.379    0.409  209.337   49.320
  142.250   92.431    0.346    0.409  207.396   46.370
  142.500  115.603    0.308    0.351  202.976   43.114
  142.750  182.325    0.260    0.018  193.581   40.161
  143.000  312.577    0.170   -0.032  190.640   39.890
  143.250  621.571    0.106   -0.017  193.673   40.216
  143.500  728.767    0.094   -0.017  188.762   40.244
  143.750  716.130    0.102   -0.012  179.853   46.834
  144.000  801.360    0.108   -0.018  160.520   52.231
  144.250 1030.680    0.110   -0.015  161.560   50.168
  144.500 1242.140    0.107    0.009  178.003   47.215
  144.750 1568.250    0.107    0.058  197.925   44.559
  145.000 1188.720    0.109    0.099  209.902   41.307
  145.250  383.993    0.116    0.113  213.426   35.670
  145.500  253.276    0.143    0.146  211.490   35.102
  145.750  175.010    0.286    0.208  206.567   40.794
  146.000  102.327    0.382    0.324  204.632   46.195
  146.250   85.904    0.414    0.399  202.684   48.607
  146.500   69.491    0.419    0.416  202.730   51.017
  146.750   63.995    0.414    0.409  204.267   55.221
  147.000   66.502    0.351    0.370  205.318   56.743
  147.250   73.741    0.305    0.261  205.861   55.277
  147.500   82.505    0.254    0.180  207.889   55.602
  147.750   94.943    0.240    0.094  208.923   54.739
  148.000   95.057    0.242    0.150  210.460   53.273
  148.250   86.770    0.247    0.254  213.499   51.217
  148.500   73.511    0.268    0.319  215.030   49.751
  148.750   64.044    0.331    0.343  217.069   47.989
  149.000   58.979    0.368    0.369  218.115   51.296
  149.250   53.325    0.398    0.386  218.155   51.029
  149.500   49.114    0.403    0.381  215.226   49.272
  149.750   47.390    0.360    0.378  214.266   51.681
  150.000   46.575    0.369    0.381  213.324   52.014
  150.250   45.768    0.417    0.382  212.879   49.951
  150.500   44.572    0.440    0.383  212.423   49.382
  150.750   43.800    0.418    0.385  212.475   52.388
  151.000   42.649    0.395    0.387  212.018   54.208
  151.250   41.158    0.392    0.385  210.573   52.447
  151.500   40.077    0.415    0.391  208.632   51.881
  151.750   39.019    0.417    0.391  207.690   53.698
  152.000   38.348    0.359    0.384  208.227   55.809
  152.250   37.346    0.373    0.379  208.770   60.014
  152.500   35.703    0.413    0.381  209.822   64.215
  152.750   34.755    0.415    0.382  210.856   63.050
  153.000   34.162    0.386    0.386  210.405   59.507
  153.250   33.888    0.380    0.392  208.481   64.302
  153.500   33.305    0.406    0.392  207.533   64.922
  153.750   32.136    0.449    0.382  207.562   64.353
  154.000   30.998    0.394    0.370  209.098   64.981
  154.250   29.085    0.371    0.365  210.635   67.095
  154.500   25.340    0.359    0.358  211.686   70.104
  154.750   19.752    0.386    0.345  210.733   81.461
  155.000   16.426    0.432    0.312  210.779   96.994
  155.250   12.224    0.459    0.246  213.310  103.882
  155.500    8.290    0.424    0.180  214.349  112.258
  155.750    6.403    0.416    0.218  216.389  113.776
  156.000    5.579    0.443    0.253  221.906  119.770
  156.250    5.381    0.472    0.259  224.437  123.673
  156.500    5.290    0.461    0.270  224.980  126.387
  156.750    5.247    0.441    0.271  225.026  123.132
  157.000    5.255    0.467    0.266  222.587  116.309
  157.250    5.260    0.493    0.261  219.155  113.945
  157.500    5.266    0.508    0.259  215.226  109.504
  157.750    5.273    0.518    0.267  213.285  111.914
  158.000    5.428    0.508    0.265  214.325  119.696
  158.250    5.435    0.471    0.244  219.842  119.425
  158.500    5.341    0.479    0.226  226.844  123.031
  158.750    5.202    0.480    0.228  230.374  121.866
  159.000    5.112    0.513    0.253  230.906  121.897
  159.250    5.024    0.476    0.268  227.971  117.449
  159.500    4.984    0.476    0.280  217.582  119.564
  159.750    4.944    0.461    0.290  215.647  123.172
  160.000    4.950    0.447    0.285  218.177  120.517
  160.250    5.003    0.435    0.269  222.204  119.955
  160.500    5.056    0.433    0.267  223.238  121.470
  160.750    5.062    0.450    0.270  223.296  117.618
  161.000    5.115    0.466    0.271  223.342  113.774
  161.250    5.168    0.438    0.273  223.376  114.994
