~VERSION INFORMATION
 VERS.                 2.0:   CWLS LOG ASCII STANDARD -VERSION 2.0
 WRAP.                  NO:   ONE LINE PER DEPTH STEP
~WELL INFORMATION BLOCK
#MNEM.UNIT           DATA                    DESCRIPTION OF MNEMONIC
#---------    -------------------            -------------------------------
# Generated from Intellog Unique Number	CX_WELLS/WELL/2878
WELL.         PACIFIC STONY RAPIDS           : Well_name    - WELL
LOC .         00/11-12-081-18W4/0            : Location     - LOCATION
UWI .         00/11-12-081-18W4/0            : Uwi          - UNIQUE WELL ID
ENTR.         T                              : Entered      - ENTERED BY
SRVC.         SCHLUMBERGER                   : Scn          - SERVICE COMPANY
STRT.F        400                            : top_depth    - START DEPTH
STOP.F        1049.61                        : bot_depth    - STOP DEPTH
STEP.F        0.82                           : increment    - STEP LENGTH
 NULL. -999.2500:NULL Value
~CURVE INFORMATION BLOCK
#MNEM UNIT       ERCB CURVE CODE    CURVE DESCRIPTION
#-----------   ------------------   ----------------------------------
DEPT.F        00 001 00 00         : DEPTH        - DEPTH
GR  .API      00 310 00 00         : GR           - GAMMA RAY
NPHI.V/V      00 330 00 00         : PHIN         - NEUTRON POROSITY (SANDSTONE)
ILD .OHMM     00 120 00 00         : RESD         - DEEP RESISTIVITY (OTHER)
~PARAMETER INFORMATION
#MNEM.UNIT           DATA             DESCRIPTION OF MNEMONIC
#---------         -----------     ------------------------------
GL  .F        1794                 : gl           - GROUND LEVEL ELEVATION
EREF.F        1804                 : kb           - ELEVATION OF DEPTH REFERENCE
DATM.F        1804                 : datum        - DATUM ELEVATION
TDD .F        1059                 : tdd          - TOTAL DEPTH DRILLER
RUN .         ONE                  : Run          - RUN NUMBER
ENG .         BILL                 : Engineer     - RECORDING ENGINEER
WIT .         JIM                  : Witness      - WITNESSED BY
MUD .         GEL                  : Mud_type     - MUD TYPE
MATR.         SANDSTONE            : Logunit      - NEUTRON MATRIX
TMAX.F        62                   : BHT          - MAXIMUM RECORDED TEMPERATURE
BHTD.F        1059                 : BHTDEP       - MAXIMUM RECORDED TEMPERATURE
MATR.         1                    : LOGUNIT      - NEUTRON MATRIX
RMT .F        64.4                 : MDTP         - TEMPERATURE OF MUD
NEUT.         1                    : NEUTRON      - NEUTRON TYPE
RESI.         8.4                  : RESIST       - RESISTIVITY TYPE
RMC .OHMM     8.4                  : RMC          - RESISTIVITY OF MUD CAKE
RMF .OHMM     5.75                 : RMF          - RESISTIVITY OF MUD FILTRATE
SUFT.F        39.2                 : SUFT         - SURFACE TEMPERATURE
~A  DEPTH       GR     PHIN     RESD
# ...
  755.971   55.339    0.329    4.073
  756.791   54.097    0.332    4.076
  757.612   53.480    0.334    4.078
  758.432   53.492    0.333    4.080
  759.252   53.501    0.333    4.082
  760.072   53.512    0.333    4.084
  760.892   56.042    0.331    4.086
  761.713   58.567    0.324    4.088
  762.533   59.207    0.319    4.090
  763.353   57.965    0.328    4.010
  764.173   56.717    0.322    4.011
  764.993   56.728    0.311    3.931
  765.814   59.881    0.305    3.852
  766.634   63.665    0.342    3.771
  767.454   65.556    0.366    3.609
  768.274   66.824    0.358    3.528
  769.094   66.207    0.347    3.448
  769.915   64.337    0.343    3.368
  770.735   62.460    0.343    3.288
  771.555   60.587    0.343    3.207
  772.375   58.719    0.342    3.128
  773.196   57.477    0.340    3.129
  774.016   57.486    0.339    3.132
  774.836   56.866    0.339    3.133
  775.656   56.877    0.339    3.135
  776.476   57.520    0.339    3.137
  777.297   58.157    0.337    3.221
  778.117   61.313    0.333    3.223
  778.937   63.835    0.322    3.225
  779.757   67.622    0.312    3.310
  780.577   68.256    0.312    3.311
  781.398   67.642    0.312    3.313
  782.218   65.143    0.312    3.397
  783.038   62.013    0.312    3.399
  783.858   60.139    0.313    3.402
  784.678   60.154    0.319    3.403
  785.499   60.788    0.324    3.406
  786.319   62.059    0.337    3.408
  787.139   62.067    0.342    3.410
  787.959   60.194    0.340    3.495
  788.780   60.206    0.335    3.496
  789.600   64.615    0.330    3.581
  790.420   64.004    0.327    3.665
  791.240   62.756    0.320    3.666
  792.060   60.885    0.321    3.668
  792.881   60.266    0.326    3.670
  793.701   60.280    0.326    3.672
  794.521   60.920    0.325    3.674
  795.341   62.816    0.322    3.594
  796.161   64.713    0.320    3.431
  796.982   65.981    0.317    3.433
  797.802   66.623    0.316    3.271
  798.622   66.632    0.316    3.191
  799.442   66.641    0.316    3.111
  800.262   66.655    0.316    3.112
  801.083   66.664    0.316    3.115
  801.903   67.306    0.320    3.199
  802.723   67.315    0.323    3.283
  803.543   64.185    0.328    3.532
  804.364   60.426    0.334    3.698
  805.184   54.783    0.342    4.111
  806.004   49.768    0.342    4.524
  806.824   46.013    0.344    5.021
  807.644   47.281    0.352    5.187
  808.465   48.549    0.363    5.271
  809.285   49.820    0.356    5.273
  810.105   51.719    0.302    5.357
  810.925   52.985    0.276    5.358
  811.745   55.512    0.252    5.360
  812.566   56.774    0.236    5.281
  813.386   58.671    0.266    5.118
  814.206   63.080    0.280    4.874
  815.026   66.865    0.281    4.710
  815.846   68.761    0.284    4.301
  816.667   70.032    0.286    3.974
  817.487   69.418    0.292    3.483
  818.307   68.170    0.295    3.156
  819.127   66.925    0.301    3.077
  819.948   64.420    0.304    3.161
  820.768   61.919    0.312    3.245
  821.588   60.048    0.319    3.329
  822.408   59.434    0.326    3.413
  823.228   58.814    0.331    3.497
  824.049   58.195    0.326    3.581
  824.869   58.834    0.320    3.665
  825.689   61.993    0.320    3.750
  826.509   63.887    0.321    3.752
  827.329   64.524    0.325    3.754
  828.150   64.538    0.326    3.756
  828.970   63.921    0.326    3.758
  829.790   63.933    0.326    3.760
  830.610   62.062    0.325    3.681
  831.430   61.445    0.319    3.682
  832.251   62.716    0.313    3.601
  833.071   63.981    0.308    3.603
  833.891   65.247    0.306    3.523
  834.711   66.518    0.308    3.443
  835.531   67.786    0.314    3.445
  836.352   68.425    0.317    3.447
  837.172   68.434    0.319    3.450
  837.992   69.074    0.319    3.451
  838.812   69.716    0.316    3.371
  839.633   69.728    0.315    3.291
  840.453   68.483    0.314    3.210
  841.273   64.725    0.312    3.130
  842.093   67.255    0.312    3.050
  842.913   67.889    0.312    3.052
  843.734   67.903    0.315    3.055
  844.554   66.658    0.317    3.056
  845.374   65.410    0.324    3.058
  846.194   62.911    0.328    3.059
  847.014   61.035    0.334    3.309
  847.835   59.162    0.340    3.640
  848.655   56.660    0.345    4.052
  849.475   51.017    0.332    4.959
  850.295   44.120    0.307    5.619
  851.115   42.872    0.285    6.690
  851.936   49.166    0.282    7.760
  852.756   51.069    0.244    8.502
  853.576   49.821    0.174    8.999
  854.396   46.693    0.133    9.083
  855.217   44.192    0.099    9.167
  856.037   41.687    0.093    9.251
  856.857   39.816    0.102    9.335
  857.677   41.082    0.123    8.844
  858.497   43.606    0.150    8.188
  859.318   42.992    0.177    7.532
  860.138   39.862    0.190    6.959
  860.958   37.358    0.203    6.878
  861.778   33.602    0.222    7.209
  862.598   31.726    0.129    7.540
  863.419   29.853    0.107    8.364
  864.239   29.864    0.075    9.189
  865.059   32.392    0.073    9.519
  865.879   36.173    0.085    9.604
  866.699   40.583    0.112    9.359
  867.520   46.249    0.160    8.621
  868.340   47.517    0.187    7.800
  869.160   47.528    0.209    7.062
  869.980   47.543    0.273    6.407
  870.801   48.182    0.304    5.586
  871.621   50.082    0.356    4.848
  872.441   51.347    0.364    4.357
  873.261   54.497    0.364    3.948
  874.081   56.393    0.363    3.785
  874.902   57.036    0.363    3.623
  875.722   56.422    0.354    3.625
  876.542   56.434    0.344    3.627
  877.362   56.445    0.360    3.629
  878.182   56.454    0.364    3.631
  879.003   56.468    0.364    3.634
  879.823   57.108    0.363    3.635
  880.643   57.117    0.361    3.638
  881.463   57.128    0.358    3.721
  882.283   57.139    0.355    3.723
  883.104   57.151    0.352    3.725
  883.924   57.168    0.348    3.727
  884.744   57.174    0.340    3.729
  885.564   56.560    0.323    3.814
  886.385   54.692    0.305    3.898
  887.205   53.441    0.289    4.065
  888.025   51.568    0.264    4.478
  888.845   50.951    0.242    5.219
  889.665   50.963    0.210    5.797
  890.486   52.234    0.185    6.292
  891.306   54.758    0.196    6.212
  892.126   57.911    0.222    5.474
  892.946   60.433    0.277    4.736
  893.766   63.592    0.312    3.998
  894.587   64.226    0.308    3.424
  895.407   65.497    0.298    3.097
  896.227   67.393    0.285    2.853
  897.047   69.292    0.283    2.855
  897.867   70.561    0.293    2.774
  898.688   70.575    0.294    2.777
  899.508   69.952    0.293    2.779
  900.328   69.964    0.291    2.780
  901.148   69.978    0.289    2.783
  901.969   69.990    0.288    2.867
  902.789   69.998    0.286    2.869
  903.609   71.272    0.282    2.871
  904.429   71.909    0.276    2.955
  905.249   71.918    0.267    2.957
  906.070   71.932    0.269    3.042
  906.890   71.941    0.274    3.043
  907.710   71.329    0.273    3.045
  908.530   70.710    0.272    3.130
  909.350   70.096    0.271    3.131
  910.171   71.367    0.264    3.215
  910.991   71.373    0.261    3.299
  911.811   72.641    0.253    3.384
  912.631   73.280    0.246    3.386
  913.451   72.664    0.253    3.471
  914.272   71.421    0.264    3.472
  915.092   72.689    0.267    3.475
  915.912   73.955    0.267    3.477
  916.732   75.851    0.267    3.479
  917.552   75.237    0.264    3.480
  918.373   74.617    0.257    3.483
  919.193   74.632    0.251    3.484
  920.013   74.643    0.249    3.486
  920.833   72.773    0.252    3.488
  921.654   72.156    0.260    3.490
  922.474   70.914    0.268    3.492
  923.294   70.922    0.269    3.576
  924.114   71.559    0.271    3.579
  924.934   72.199    0.273    3.663
  925.755   72.210    0.273    3.748
  926.575   70.971    0.274    3.749
  927.395   69.723    0.275    3.833
  928.215   68.475    0.275    3.918
  929.035   70.374    0.276    3.919
  929.856   70.383    0.280    3.921
  930.676   67.259    0.290    4.006
  931.496   65.382    0.304    4.007
  932.316   62.883    0.315    3.927
  933.136   61.007    0.314    3.929
