~VERSION INFORMATION
 VERS.                 2.0:   CWLS LOG ASCII STANDARD -VERSION 2.0
 WRAP.                  NO:   ONE LINE PER DEPTH STEP
~WELL INFORMATION BLOCK
#MNEM.UNIT           DATA                    DESCRIPTION OF MNEMONIC
#---------    -------------------            -------------------------------
# Generated from Intellog Unique Number	CS_77_79/WELL/3008
WELL.         CDN OXY WINEFRED               : Well_name    - WELL
LOC .         00/11-34-077-03W4/0            : Location     - LOCATION
UWI .         00/11-34-077-03W4/0            : Uwi          - UNIQUE WELL ID
ENTR.         TIM                            : Entered      - ENTERED BY
SRVC.         SCHLUMBERGER                   : Scn          - SERVICE COMPANY
STRT.M        195                            : top_depth    - START DEPTH
STOP.M        455                            : bot_depth    - STOP DEPTH
STEP.M        0.25                           : increment    - STEP LENGTH
 NULL. -999.2500:NULL Value
~CURVE INFORMATION BLOCK
#MNEM UNIT       ERCB CURVE CODE    CURVE DESCRIPTION
#-----------   ------------------   ----------------------------------
DEPT.M        00 001 00 00         : DEPTH        - DEPTH
GR  .API      00 310 00 00         : GR           - GAMMA RAY
NPHI.V/V      00 330 00 00         : PHIN         - NEUTRON POROSITY (DOLOMITE)
DPHI.V/V      00 890 00 00         : PHID         - DENSITY POROSITY (DOLOMITE)
ILD .OHMM     00 120 00 00         : RESD         - DEEP RESISTIVITY (DIL)
~PARAMETER INFORMATION
#MNEM.UNIT           DATA             DESCRIPTION OF MNEMONIC
#---------         -----------     ------------------------------
GL  .M        588.9                : gl           - GROUND LEVEL ELEVATION
EREF.M        591.9                : kb           - ELEVATION OF DEPTH REFERENCE
DATM.M        591.9                : datum        - DATUM ELEVATION
TDD .M        457                  : tdd          - TOTAL DEPTH DRILLER
RUN .         ONE                  : Run          - RUN NUMBER
ENG .         BILL                 : Engineer     - RECORDING ENGINEER
WIT .         JIM                  : Witness      - WITNESSED BY
MUD .         GEL                  : Mud_type     - MUD TYPE
MATR.         DOLOMITE             : Logunit      - NEUTRON MATRIX
TMAX.C        13                   : BHT          - MAXIMUM RECORDED TEMPERATURE
BHTD.M        457                  : BHTDEP       - MAXIMUM RECORDED TEMPERATURE
MATR.         1                    : LOGUNIT      - NEUTRON MATRIX
RMT .C        20                   : MDTP         - TEMPERATURE OF MUD
NEUT.         1                    : NEUTRON      - NEUTRON TYPE
RESI.         2.8                  : RESIST       - RESISTIVITY TYPE
RMC .OHMM     2.6                  : RMC          - RESISTIVITY OF MUD CAKE
RMF .OHMM     2.6                  : RMF          - RESISTIVITY OF MUD FILTRATE
SUFT.C        15                   : SUFT         - SURFACE TEMPERATURE
~A  DEPTH       GR     PHIN     PHID     RESD
# ...
  369.000   53.252    0.347    0.291    2.489
  369.250   52.051    0.343    0.291    2.397
  369.500   48.475    0.339    0.294    2.352
  369.750   47.865    0.338    0.291    2.224
  370.000   50.787    0.341    0.294    2.182
  370.250   46.036    0.339    0.301    2.140
  370.500   40.103    0.340    0.306    2.139
  370.750   34.762    0.350    0.312    2.099
  371.000   33.555    0.349    0.315    2.097
  371.250   32.341    0.342    0.315    2.058
  371.500   31.134    0.334    0.311    2.057
  371.750   30.524    0.316    0.305    2.055
  372.000   32.271    0.323    0.299    2.017
  372.250   38.152    0.337    0.296    2.015
  372.500   32.213    0.341    0.291    2.014
  372.750   29.825    0.341    0.288    2.050
  373.000   33.343    0.342    0.290    2.126
  373.250   38.634    0.350    0.291    2.125
  373.500   42.743    0.358    0.292    2.163
  373.750   43.302    0.364    0.301    2.162
  374.000   42.692    0.365    0.314    2.160
  374.250   40.297    0.364    0.319    2.159
  374.500   39.687    0.362    0.320    2.157
  374.750   37.889    0.359    0.322    2.156
  375.000   36.676    0.352    0.322    2.155
  375.250   36.066    0.347    0.322    2.154
  375.500   38.403    0.345    0.322    2.113
  375.750   40.137    0.351    0.322    2.112
  376.000   41.877    0.355    0.323    2.110
  376.250   43.636    0.357    0.317    2.071
  376.500   45.376    0.360    0.309    2.069
  376.750   43.585    0.359    0.300    2.029
  377.000   41.781    0.356    0.305    2.029
  377.250   39.983    0.353    0.311    2.027
  377.500   38.770    0.358    0.316    2.026
  377.750   38.166    0.365    0.325    2.024
  378.000   36.940    0.372    0.337    2.024
  378.250   35.156    0.367    0.344    2.022
  378.500   32.761    0.361    0.336    2.021
  378.750   33.326    0.353    0.313    2.020
  379.000   40.985    0.346    0.307    2.019
  379.250   49.820    0.343    0.302    2.017
  379.500   53.929    0.341    0.305    2.016
  379.750   52.722    0.339    0.307    2.015
  380.000   50.334    0.338    0.310    2.014
  380.250   46.764    0.338    0.312    2.013
  380.500   42.013    0.338    0.312    2.011
  380.750   37.256    0.338    0.312    2.010
  381.000   35.458    0.337    0.312    2.009
  381.250   36.614    0.331    0.311    2.008
  381.500   41.314    0.325    0.310    1.970
  381.750   46.604    0.326    0.309    1.968
  382.000   46.578    0.332    0.311    1.967
  382.250   42.418    0.338    0.316    1.966
  382.500   38.842    0.343    0.315    1.965
  382.750   41.776    0.344    0.305    1.927
  383.000   45.885    0.344    0.308    1.926
  383.250   41.719    0.344    0.318    1.925
  383.500   38.149    0.351    0.327    1.924
  383.750   34.579    0.362    0.338    1.923
  384.000   31.600    0.366    0.337    1.922
  384.250   30.971    0.360    0.333    1.920
  384.500   30.959    0.356    0.331    1.919
  384.750   30.329    0.359    0.336    1.883
  385.000   30.310    0.362    0.339    1.881
  385.250   29.700    0.361    0.340    1.846
  385.500   29.084    0.356    0.343    1.845
  385.750   29.052    0.352    0.344    1.843
  386.000   29.033    0.354    0.345    1.843
  386.250   29.001    0.355    0.343    1.808
  386.500   29.566    0.355    0.340    1.807
  386.750   29.540    0.354    0.339    1.805
  387.000   30.099    0.350    0.337    1.805
  387.250   30.664    0.347    0.337    1.804
  387.500   30.639    0.345    0.336    1.802
  387.750   31.197    0.348    0.335    1.801
  388.000   31.172    0.352    0.335    1.767
  388.250   31.152    0.353    0.337    1.766
  388.500   31.133    0.354    0.337    1.765
  388.750   31.095    0.355    0.334    1.764
  389.000   31.082    0.357    0.330    1.796
  389.250   31.056    0.357    0.331    1.795
  389.500   33.978    0.356    0.329    1.794
  389.750   38.677    0.356    0.320    1.826
  390.000   42.196    0.356    0.312    1.859
  390.250   46.896    0.355    0.307    1.858
  390.500   48.045    0.353    0.305    1.891
  390.750   47.435    0.350    0.311    1.961
  391.000   45.631    0.346    0.316    1.996
  391.250   43.243    0.341    0.322    2.032
  391.500   39.082    0.342    0.327    2.031
  391.750   37.869    0.342    0.319    2.029
  392.000   37.850    0.340    0.311    2.028
  392.250   37.240    0.338    0.304    1.990
  392.500   37.214    0.337    0.302    1.988
  392.750   36.592    0.335    0.302    2.140
  393.000   34.197    0.332    0.302    2.219
  393.250   31.212    0.330    0.302    2.217
  393.500   30.017    0.327    0.304    2.216
  393.750   29.401    0.326    0.308    2.174
  394.000   29.966    0.328    0.309    2.133
  394.250   30.531    0.331    0.313    2.132
  394.500   31.096    0.333    0.312    2.091
  394.750   31.071    0.333    0.310    2.090
  395.000   31.026    0.329    0.306    2.050
  395.250   31.007    0.319    0.304    2.049
  395.500   31.572    0.309    0.299    2.048
  395.750   32.130    0.313    0.293    2.047
  396.000   33.286    0.320    0.293    2.083
  396.250   33.864    0.327    0.299    2.082
  396.500   35.020    0.334    0.305    2.119
  396.750   37.357    0.331    0.303    2.158
  397.000   41.466    0.306    0.279    2.237
  397.250   51.482    0.294    0.251    2.320
  397.500   64.451    0.294    0.273    2.496
  397.750   97.509    0.298    0.278    2.589
  398.000  111.660    0.301    0.268    2.734
  398.250  114.588    0.309    0.256    2.835
  398.500   92.110    0.323    0.269    2.887
  398.750   81.452    0.331    0.280    2.939
  399.000   79.064    0.338    0.275    2.830
  399.250   72.541    0.346    0.266    2.829
  399.500   77.825    0.347    0.261    2.674
  399.750   82.531    0.348    0.265    2.624
  400.000   83.687    0.350    0.271    2.574
  400.250   87.796    0.352    0.274    2.526
  400.500   91.905    0.350    0.281    2.478
  400.750   90.698    0.339    0.275    2.476
  401.000   89.485    0.333    0.269    2.475
  401.250   92.413    0.339    0.278    2.474
  401.500   79.983    0.350    0.289    2.472
  401.750   77.004    0.357    0.286    2.425
  402.000   75.206    0.359    0.280    2.424
  402.250   86.403    0.361    0.275    2.422
  402.500   80.465    0.361    0.275    2.376
  402.750   77.492    0.361    0.276    2.375
  403.000   78.648    0.360    0.280    2.374
  403.250   71.528    0.359    0.287    2.329
  403.500   60.870    0.366    0.302    2.285
  403.750   52.569    0.374    0.315    2.160
  404.000   49.596    0.379    0.326    2.159
  404.250   50.752    0.381    0.312    2.118
  404.500   59.586    0.381    0.301    2.040
  404.750   69.602    0.379    0.299    2.039
  405.000   84.343    0.375    0.301    2.038
  405.250   77.820    0.372    0.305    2.036
  405.500   73.660    0.372    0.307    2.035
  405.750   63.587    0.373    0.316    2.034
  406.000   57.064    0.378    0.320    2.070
  406.250   51.722    0.380    0.322    2.069
  406.500   48.152    0.383    0.329    2.030
  406.750   47.536    0.382    0.336    2.029
  407.000   45.739    0.379    0.339    1.991
  407.250   44.519    0.377    0.337    1.953
  407.500   45.668    0.375    0.333    1.916
  407.750   46.246    0.371    0.327    1.880
  408.000   47.402    0.373    0.319    1.879
  408.250   52.692    0.378    0.302    1.878
  408.500   58.573    0.382    0.284    1.876
  408.750   69.770    0.381    0.278    1.910
  409.000   63.838    0.380    0.296    1.909
  409.250   56.134    0.377    0.311    1.943
  409.500   54.336    0.373    0.314    1.978
  409.750   60.217    0.370    0.308    2.051
  410.000   87.362    0.362    0.301    2.167
  410.250  100.332    0.356    0.290    2.331
  410.500   97.943    0.351    0.272    2.555
  410.750   83.151    0.353    0.253    2.800
  411.000   80.172    0.357    0.267    2.799
  411.250   75.421    0.363    0.286    2.797
  411.500   70.073    0.367    0.331    2.744
  411.750   54.690    0.369    0.329    2.692
  412.000   42.851    0.371    0.317    2.453
  412.250   43.410    0.372    0.304    2.194
