~VERSION INFORMATION
 VERS.                 2.0:   CWLS LOG ASCII STANDARD -VERSION 2.0
 WRAP.                  NO:   ONE LINE PER DEPTH STEP
~WELL INFORMATION BLOCK
#MNEM.UNIT           DATA                    DESCRIPTION OF MNEMONIC
#---------    -------------------            -------------------------------
# Generated from Intellog Unique Number	CS_73_76/WELL/852
WELL.         WAINCO OIL & GAS LIMITED       : Well_name    - WELL
LOC .         00/11-31-073-12W4/0            : Location     - LOCATION
UWI .         00/11-31-073-12W4/0            : Uwi          - UNIQUE WELL ID
ENTR.         SP                             : Entered      - ENTERED BY
SRVC.         SCHLUMBERGER                   : Scn          - SERVICE COMPANY
STRT.M        295                            : top_depth    - START DEPTH
STOP.M        513                            : bot_depth    - STOP DEPTH
STEP.M        0.25                           : increment    - STEP LENGTH
 NULL. -999.2500:NULL Value
~CURVE INFORMATION BLOCK
#MNEM UNIT       ERCB CURVE CODE    CURVE DESCRIPTION
#-----------   ------------------   ----------------------------------
DEPT.M        00 001 00 00         : DEPTH        - DEPTH
ILD .OHMM     00 120 00 00         : RESD         - DEEP RESISTIVITY (DIL)
DPHI.V/V      00 890 00 00         : PHID         - DENSITY POROSITY (LIMESTONE)
NPHI.V/V      00 330 00 00         : PHIN         - NEUTRON POROSITY (LIMESTONE)
GR  .API      00 310 00 00         : GR           - GAMMA RAY
~PARAMETER INFORMATION
#MNEM.UNIT           DATA             DESCRIPTION OF MNEMONIC
#---------         -----------     ------------------------------
GL  .M        657                  : gl           - GROUND LEVEL ELEVATION
EREF.M        660                  : kb           - ELEVATION OF DEPTH REFERENCE
DATM.M        657                  : datum        - DATUM ELEVATION
TDD .M        524                  : tdd          - TOTAL DEPTH DRILLER
RUN .         ONE                  : Run          - RUN NUMBER
ENG .         BILL                 : Engineer     - RECORDING ENGINEER
WIT .         JIM                  : Witness      - WITNESSED BY
MUD .         GEL                  : Mud_type     - MUD TYPE
MATR.         LIMESTONE            : Logunit      - NEUTRON MATRIX
TMAX.C        13                   : BHT          - MAXIMUM RECORDED TEMPERATURE
BHTD.M        524                  : BHTDEP       - MAXIMUM RECORDED TEMPERATURE
MATR.         1                    : LOGUNIT      - NEUTRON MATRIX
RMT .C        25                   : MDTP         - TEMPERATURE OF MUD
NEUT.         1                    : NEUTRON      - NEUTRON TYPE
RESI.         0                    : RESIST       - RESISTIVITY TYPE
RMC .OHMM     0.25                 : RMC          - RESISTIVITY OF MUD CAKE
RMF .OHMM     0.25                 : RMF          - RESISTIVITY OF MUD FILTRATE
SUFT.C        15                   : SUFT         - SURFACE TEMPERATURE
~A  DEPTH     RESD     PHID     PHIN       GR
# ...
  338.500    6.938    0.244    0.494   97.136
  338.750    6.320    0.234    0.501  101.379
  339.000    6.089    0.228    0.489  103.200
  339.250    5.979    0.228    0.475  105.628
  339.500    5.870    0.234    0.463  105.031
  339.750    5.984    0.255    0.453  102.620
  340.000    6.100    0.248    0.446  105.657
  340.250    6.457    0.236    0.450  106.268
  340.500    6.581    0.218    0.456  104.464
  340.750    6.836    0.194    0.456  100.239
  341.000    7.237    0.216    0.452   95.410
  341.250    7.377    0.231    0.463   92.393
  341.500    7.379    0.244    0.479   91.797
  341.750    7.111    0.259    0.492   93.624
  342.000    6.725    0.250    0.501   94.234
  342.250    6.602    0.217    0.517   93.640
  342.500    6.245    0.205    0.514   94.253
  342.750    6.131    0.213    0.506   96.077
  343.000    6.133    0.224    0.499   98.505
  343.250    6.138    0.228    0.496  100.935
  343.500    6.140    0.218    0.491  102.757
  343.750    6.142    0.213    0.499  103.974
  344.000    6.381    0.227    0.501  100.960
  344.250    6.383    0.241    0.496   97.342
  344.500    6.506    0.258    0.486   94.325
  344.750    6.509    0.264    0.455   90.705
  345.000    6.763    0.266    0.442   88.294
  345.250    6.764    0.268    0.446   87.092
  345.500    7.028    0.270    0.462   87.104
  345.750    7.030    0.267    0.481   87.111
  346.000    7.166    0.261    0.498   85.910
  346.250    7.304    0.261    0.497   83.503
  346.500    7.448    0.261    0.488   82.301
  346.750    7.592    0.272    0.480   82.311
  347.000    7.594    0.278    0.470   83.529
  347.250    7.599    0.276    0.455   87.171
  347.500    7.745    0.267    0.448   88.992
  347.750    7.748    0.257    0.444   90.207
  348.000    7.899    0.250    0.438   90.215
  348.250    8.054    0.242    0.421   82.364
  348.500    8.209    0.267    0.392   73.301
  348.750    8.212    0.291    0.376   67.864
  349.000    8.371    0.302    0.357   59.408
  349.250    8.534    0.309    0.351   56.390
  349.500    8.539    0.314    0.349   60.028
  349.750    8.542    0.312    0.355   63.061
  350.000    8.546    0.309    0.363   66.702
  350.250    8.550    0.309    0.374   68.523
  350.500    8.396    0.309    0.391   69.136
  350.750    8.242    0.307    0.409   63.707
  351.000    8.247    0.310    0.406   62.502
  351.250    8.250    0.319    0.404   63.115
  351.500    8.254    0.321    0.404   65.549
  351.750    8.258    0.326    0.404   66.764
  352.000    8.261    0.322    0.404   67.376
  352.250    8.265    0.317    0.403   66.180
  352.500    8.115    0.328    0.404   64.976
  352.750    7.968    0.337    0.406   63.172
  353.000    7.678    0.344    0.412   61.971
  353.250    7.539    0.343    0.414   61.979
  353.500    7.541    0.331    0.414   63.200
  353.750    7.267    0.319    0.416   65.020
  354.000    7.136    0.309    0.420   68.056
  354.250    7.005    0.309    0.422   69.878
  354.500    6.878    0.317    0.421   73.519
  354.750    6.754    0.314    0.420   74.734
  355.000    6.757    0.304    0.441   77.770
  355.250    6.759    0.297    0.477   78.988
  355.500    6.890    0.284    0.488   79.599
  355.750    7.024    0.288    0.471   77.192
  356.000    7.028    0.292    0.432   74.177
  356.250    7.166    0.303    0.412   72.369
  356.500    7.304    0.321    0.406   71.169
  356.750    7.307    0.329    0.419   72.998
  357.000    7.310    0.335    0.429   73.610
  357.250    7.314    0.349    0.453   73.617
  357.500    7.455    0.357    0.461   73.018
  357.750    7.458    0.366    0.474   70.005
  358.000    7.462    0.368    0.472   68.198
  358.250    7.465    0.356    0.451   67.000
  358.500    7.470    0.341    0.439   67.008
  358.750    7.472    0.330    0.429   67.016
  359.000    7.617    0.330    0.424   67.023
  359.250    7.911    0.336    0.424   65.828
  359.500    8.373    0.341    0.433   64.623
  359.750    8.862    0.347    0.436   59.796
  360.000    9.205    0.340    0.426   57.383
  360.250    9.210    0.305    0.400   54.369
  360.500    9.043    0.251    0.353   52.562
  360.750    8.713    0.198    0.312   54.388
  361.000    8.087    0.248    0.295   60.448
  361.250    7.792    0.290    0.390   64.084
  361.500    7.510    0.314    0.432   67.115
  361.750    7.512    0.327    0.456   71.967
  362.000    7.378    0.323    0.467   72.576
  362.250    7.381    0.323    0.452   72.584
  362.500    7.383    0.325    0.437   71.988
  362.750    7.386    0.328    0.442   71.396
  363.000    7.389    0.329    0.445   71.405
  363.250    7.394    0.324    0.452   71.413
  363.500    7.396    0.320    0.462   71.420
  363.750    7.399    0.319    0.463   69.012
  364.000    7.402    0.330    0.469   66.602
  364.250    7.406    0.334    0.475   65.400
  364.500    7.410    0.346    0.471   62.991
  364.750    7.552    0.336    0.464   62.392
  365.000    7.557    0.329    0.463   64.216
  365.250    7.561    0.323    0.466   66.042
  365.500    7.563    0.324    0.460   66.049
  365.750    7.566    0.300    0.447   65.452
  366.000    7.429    0.281    0.435   64.860
  366.250    7.296    0.269    0.426   64.866
  366.500    7.298    0.274    0.437   64.877
  366.750    7.301    0.304    0.452   65.493
  367.000    7.170    0.318    0.469   66.109
  367.250    7.172    0.330    0.476   64.302
  367.500    7.175    0.338    0.480   64.914
  367.750    7.045    0.340    0.481   65.525
  368.000    7.048    0.333    0.483   66.143
  368.250    7.052    0.331    0.473   66.753
  368.500    6.924    0.336    0.462   67.974
  368.750    6.926    0.339    0.458   68.586
  369.000    6.930    0.342    0.451   68.595
  369.250    6.804    0.342    0.472   68.001
  369.500    6.680    0.335    0.482   67.408
  369.750    6.437    0.324    0.496   67.417
  370.000    6.203    0.321    0.501   67.423
  370.250    5.757    0.321    0.478   68.034
  370.500    5.243    0.324    0.462   69.859
  370.750    4.687    0.327    0.449   70.472
  371.000    4.350    0.334    0.449   72.298
  371.250    3.962    0.330    0.470   75.331
  371.500    3.542    0.308    0.493   79.571
  371.750    3.413    0.292    0.512   86.840
  372.000    3.288    0.255    0.545   90.476
  372.250    3.229    0.241    0.566   91.694
  372.500    3.111    0.237    0.581   92.309
  372.750    3.172    0.239    0.602   91.713
  373.000    3.421    0.248    0.596   91.121
  373.250    3.553    0.249    0.572   91.126
  373.500    3.760    0.242    0.557   90.530
  373.750    4.133    0.228    0.551   89.330
  374.000    4.292    0.214    0.546   87.526
  374.250    4.717    0.198    0.541   86.929
  374.500    4.899    0.194    0.534   89.360
  374.750    5.284    0.210    0.523   90.575
  375.000    5.593    0.231    0.513   86.351
  375.250    5.919    0.261    0.495   79.101
  375.500    6.148    0.285    0.480   68.226
  375.750    6.386    0.298    0.467   62.186
  376.000    6.510    0.309    0.455   57.959
  376.250    6.513    0.316    0.472   52.524
  376.500    6.516    0.327    0.478   50.116
  376.750    6.519    0.333    0.463   49.519
  377.000    6.523    0.333    0.457   50.739
  377.250    6.525    0.329    0.455   54.984
  377.500    6.528    0.338    0.480   56.803
  377.750    6.531    0.341    0.486   61.046
  378.000    6.658    0.334    0.475   61.055
  378.250    6.661    0.316    0.461   58.645
  378.500    6.663    0.300    0.454   56.237
  378.750    6.667    0.313    0.452   55.640
  379.000    6.669    0.311    0.451   56.861
  379.250    6.548    0.310    0.448   58.076
  379.500    6.553    0.300    0.446   61.117
  379.750    6.555    0.296    0.445   61.728
  380.000    6.557    0.307    0.442   61.129
  380.250    6.562    0.313    0.451   60.534
  380.500    6.564    0.320    0.447   61.753
  380.750    6.566    0.319    0.451   63.574
  381.000    6.570    0.313    0.446   67.218
  381.250    6.572    0.311    0.455   69.039
  381.500    6.576    0.318    0.459   70.254
  381.750    6.578    0.323    0.471   72.686
