~VERSION INFORMATION
 VERS.                 2.0:   CWLS LOG ASCII STANDARD -VERSION 2.0
 WRAP.                  NO:   ONE LINE PER DEPTH STEP
~WELL INFORMATION BLOCK
#MNEM.UNIT           DATA                    DESCRIPTION OF MNEMONIC
#---------    -------------------            -------------------------------
# Generated from Intellog Unique Number	CS_77_79/WELL/927
WELL.         ALLIED ET AL HOUSE             : Well_name    - WELL
LOC .         00/10-01-079-16W4/0            : Location     - LOCATION
UWI .         00/10-01-079-16W4/0            : Uwi          - UNIQUE WELL ID
ENTR.         JHS                            : Entered      - ENTERED BY
SRVC.         SCHLUMBERGER                   : Scn          - SERVICE COMPANY
STRT.M        198.12                         : top_depth    - START DEPTH
STOP.M        426.37                         : bot_depth    - STOP DEPTH
STEP.M        0.25                           : increment    - STEP LENGTH
 NULL. -999.2500:NULL Value
~CURVE INFORMATION BLOCK
#MNEM UNIT       ERCB CURVE CODE    CURVE DESCRIPTION
#-----------   ------------------   ----------------------------------
DEPT.M        00 001 00 00         : DEPTH        - DEPTH
RHOB.KG/M3    00 350 00 00         : DENS         - BULK DENSITY
GR  .API      00 310 00 00         : GR           - GAMMA RAY
DPHI.V/V      00 890 00 00         : PHID         - DENSITY POROSITY (SANDSTONE)
NPHI.V/V      00 330 00 00         : PHIN         - NEUTRON POROSITY (SANDSTONE)
ILD .OHMM     00 120 00 00         : RESD         - DEEP RESISTIVITY (DIL)
~PARAMETER INFORMATION
#MNEM.UNIT           DATA             DESCRIPTION OF MNEMONIC
#---------         -----------     ------------------------------
GL  .M        603.504              : gl           - GROUND LEVEL ELEVATION
EREF.M        606.552              : kb           - ELEVATION OF DEPTH REFERENCE
DATM.M        606.552              : datum        - DATUM ELEVATION
TDD .M        466.344              : tdd          - TOTAL DEPTH DRILLER
RUN .         ONE                  : Run          - RUN NUMBER
ENG .         BILL                 : Engineer     - RECORDING ENGINEER
WIT .         JIM                  : Witness      - WITNESSED BY
MUD .         GEL                  : Mud_type     - MUD TYPE
MATR.         SANDSTONE            : Logunit      - NEUTRON MATRIX
TMAX.C        31.1111              : BHT          - MAXIMUM RECORDED TEMPERATURE
BHTD.M        466.344              : BHTDEP       - MAXIMUM RECORDED TEMPERATURE
MATR.         1                    : LOGUNIT      - NEUTRON MATRIX
RMT .C        25                   : MDTP         - TEMPERATURE OF MUD
NEUT.         1                    : NEUTRON      - NEUTRON TYPE
RESI.         0                    : RESIST       - RESISTIVITY TYPE
RMC .OHMM     0.25                 : RMC          - RESISTIVITY OF MUD CAKE
RMF .OHMM     0.25                 : RMF          - RESISTIVITY OF MUD FILTRATE
SUFT.C        15                   : SUFT         - SURFACE TEMPERATURE
~A  DEPTH     DENS       GR     PHID     PHIN     RESD
# ...
  344.120    0.000   55.253    0.007    0.182   29.238
  344.370    0.000   53.630   -0.002    0.180   30.206
  344.620    0.000   50.723    0.019    0.211   29.538
  344.870   -0.000   52.053    0.045    0.238   27.696
  345.120   -0.000   57.038    0.121    0.292   22.634
  345.370   -0.000   64.959    0.173    0.401   17.993
  345.620    0.000   68.463    0.252    0.430   14.169
  345.870    0.000   66.506    0.312    0.487   11.549
  346.120    0.000   63.602    0.299    0.507    9.522
  346.370   -0.000   65.057    0.289    0.487    8.189
  346.620   -0.000   66.024    0.313    0.477    8.196
  346.870   -0.000   63.680    0.327    0.484    8.653
  347.120    0.000   62.253    0.322    0.495    9.548
  347.370    0.000   62.613    0.326    0.497    9.881
  347.620   -0.000   64.266    0.329    0.504    9.693
  347.870   -0.000   65.941    0.322    0.513    9.289
  348.120   -0.000   66.901    0.320    0.511    8.823
  348.370    0.000   67.831    0.339    0.504    8.532
  348.620    0.000   69.301    0.334    0.499    8.200
  348.870    0.000   68.397    0.334    0.485    8.129
  349.120   -0.000   67.409    0.328    0.475    8.113
  349.370   -0.000   65.540    0.330    0.490    8.346
  349.620   -0.000   64.955    0.326    0.505    8.560
  349.870    0.000   65.579    0.332    0.516    8.579
  350.120    0.000   67.729    0.343    0.519    8.365
  350.370   -0.000   70.397    0.333    0.502    8.186
  350.620   -0.000   69.649    0.333    0.473    8.071
  350.870   -0.000   68.393    0.342    0.467    8.019
  351.120    0.000   69.125    0.343    0.469    7.823
  351.370    0.000   68.558    0.327    0.487    7.718
  351.620    0.000   67.187    0.315    0.508    7.645
  351.870   -0.000   64.615    0.306    0.528    7.471
  352.120   -0.000   64.129    0.301    0.511    7.441
  352.370   -0.000   63.761    0.318    0.515    7.674
  352.620    0.000   63.973    0.332    0.529    7.668
  352.870    0.000   67.350    0.322    0.513    7.673
  353.120    0.000   70.524    0.317    0.504    7.685
  353.370   -0.000   71.427    0.321    0.506    7.483
  353.620   -0.000   72.177    0.325    0.511    7.495
  353.870    0.000   71.175    0.326    0.492    7.711
  354.120    0.000   67.572    0.296    0.477    7.725
  354.370    0.000   64.754    0.255    0.438    7.765
  354.620   -0.000   63.440    0.226    0.384    8.129
  354.870   -0.000   64.025    0.184    0.391    8.146
  355.120   -0.000   67.601    0.214    0.463    8.143
  355.370    0.000   67.522    0.306    0.495    7.814
  355.620    0.000   67.458    0.293    0.500    7.481
  355.870    0.000   68.852    0.282    0.497    7.389
  356.120   -0.000   70.463    0.297    0.504    7.045
  356.370   -0.000   70.594    0.297    0.505    7.019
  356.620    0.000   69.972    0.313    0.492    7.026
  356.870    0.000   70.395    0.293    0.488    7.039
  357.120    0.000   70.683    0.301    0.491    7.089
  357.370   -0.000   72.200    0.313    0.480    7.268
  357.620   -0.000   76.346    0.327    0.487    7.082
  357.870   -0.000   76.690    0.315    0.496    6.608
  358.120    0.000   74.171    0.288    0.493    6.483
  358.370    0.000   70.758    0.275    0.492    6.498
  358.620    0.000   70.603    0.279    0.493    6.524
  358.870   -0.000   69.198    0.302    0.485    6.722
  359.120   -0.000   73.825    0.285    0.469    6.724
  359.370   -0.000   74.835    0.281    0.464    6.730
  359.620    0.000   74.260    0.277    0.475    6.763
  359.870    0.000   73.642    0.264    0.484    6.543
  360.120   -0.000   76.000    0.260    0.489    6.369
  360.370   -0.000   78.689    0.225    0.494    5.931
  360.620   -0.000   81.013    0.243    0.500    5.545
  360.870    0.000   82.480    0.227    0.502    5.207
  361.120    0.002   85.013    0.231    0.509    5.105
  361.370    0.007   89.184    0.246    0.501    5.019
  361.620   -0.074   94.162    0.267    0.488    5.027
  361.870   -1.108   96.899    0.231    0.486    5.131
  362.120   -2.514   96.398    0.231    0.492    5.261
  362.370   63.066   93.360    0.217    0.505    5.795
  362.620  788.759   90.013    0.228    0.499    6.426
  362.870 2337.730   86.325    0.218    0.485    6.863
  363.120 2333.280   82.590    0.228    0.481    7.412
  363.370 2362.370   82.492    0.204    0.482    7.700
  363.620 2400.580   86.423    0.181    0.484    7.686
  363.870 2412.470   81.665    0.174    0.481    7.583
  364.120 2381.730   82.367    0.192    0.491    7.515
  364.370 2359.300   84.426    0.205    0.505    7.519
  364.620 2341.940   85.790    0.215    0.493    7.507
  364.870 2316.530   86.364    0.230    0.488    7.746
  365.120 2343.260   85.994    0.214    0.501    7.906
  365.370 2346.990   84.075    0.212    0.506    8.015
  365.620 2378.260   83.496    0.194    0.504    8.371
  365.870 2337.420   86.644    0.218    0.477    8.700
  366.120 2363.740   85.563    0.202    0.483    8.975
  366.370 2322.400   85.180    0.227    0.471    9.172
  366.620 2379.760   85.495    0.193    0.466    9.152
  366.870 2372.540   86.508    0.197    0.461    9.393
  367.120 2372.700   87.507    0.197    0.446    9.574
  367.370 2354.640   87.028    0.208    0.443    9.695
  367.620 2329.980   84.145    0.222    0.438    9.793
  367.870 2326.430   81.354    0.224    0.430    9.804
  368.120 2383.860   85.981    0.191    0.434    9.807
  368.370 2376.630   90.101    0.195    0.441    9.813
  368.620 2357.070   90.745    0.206    0.439    9.796
  368.870 2407.530   89.710    0.177    0.440   10.031
  369.120 2408.120   88.699    0.177    0.438   10.228
  369.370 2343.130   87.890    0.215    0.430   10.576
  369.620 2383.560   87.547    0.191    0.429   10.636
  369.870 2399.080   90.811    0.182    0.432   10.463
  370.120 2424.870   96.836    0.167    0.440    9.948
  370.370 2403.960   99.887    0.179    0.453    9.107
  370.620 2359.030  101.838    0.205    0.467    8.331
  370.870 2408.980  100.340    0.176    0.485    7.452
  371.120 2393.830   97.890    0.185    0.472    6.818
  371.370 2368.020   94.325    0.200    0.455    6.323
  371.620 2344.790   91.000    0.214    0.445    6.012
  371.870 2330.600   89.163    0.222    0.449    5.695
  372.120 2367.380   88.164    0.200    0.464    5.576
  372.370 2401.300   88.131    0.181    0.486    5.227
  372.620 2361.560   89.775    0.204    0.508    4.129
  372.870 2339.020   90.345    0.217    0.513    3.574
  373.120 2260.860   90.992    0.263    0.529    2.829
  373.370 2225.780   88.748    0.283    0.567    2.360
  373.620 2181.650   87.056    0.309    0.598    2.151
  373.870 2241.000   85.287    0.274    0.600    1.935
  374.120 2255.550   82.114    0.266    0.602    1.964
  374.370 2267.370   82.672    0.259    0.595    2.036
  374.620 2286.990   81.822    0.247    0.577    2.382
  374.870 2300.690   78.249    0.239    0.513    2.853
  375.120 2361.440   75.772    0.204    0.476    3.509
  375.370 2344.010   78.990    0.214    0.458    4.383
  375.620 2353.290   81.967    0.209    0.451    5.495
  375.870 2362.960   78.168    0.203    0.454    6.462
  376.120 2385.130   74.131    0.190    0.463    6.763
  376.370 2376.840   71.815    0.195    0.468    7.654
  376.620 2365.740   70.721    0.201    0.469    8.464
  376.870 2403.080   74.675    0.179    0.417    8.981
  377.120 2485.390   82.192    0.131    0.397    8.611
  377.370 2531.270   85.062    0.105    0.415    7.704
  377.620 2413.450   87.080    0.173    0.447    6.882
  377.870 2358.510   87.432    0.206    0.469    6.184
  378.120 2361.720   88.500    0.204    0.467    5.201
  378.370 2372.430   90.075    0.197    0.488    4.740
  378.620 2357.910   90.850    0.206    0.507    4.309
  378.870 2340.080   91.400    0.216    0.519    3.845
  379.120 2348.370   93.128    0.211    0.522    3.500
  379.370 2333.020   92.410    0.220    0.534    3.411
  379.620 2307.590   94.766    0.235    0.557    3.259
  379.870 2316.010   97.857    0.230    0.569    3.381
  380.120 2344.310   99.317    0.214    0.526    3.499
  380.370 2369.190   99.220    0.199    0.511    3.654
