~VERSION INFORMATION
 VERS.                 2.0:   CWLS LOG ASCII STANDARD -VERSION 2.0
 WRAP.                  NO:   ONE LINE PER DEPTH STEP
~WELL INFORMATION BLOCK
#MNEM.UNIT           DATA                    DESCRIPTION OF MNEMONIC
#---------    -------------------            -------------------------------
# Generated from Intellog Unique Number	CW_73_75/WELL/2737
WELL.         ICG ET AL AMADO4 10-04         : Well_name    - WELL
LOC .         00/10-04-073-20W4/0            : Location     - LOCATION
UWI .         00/10-04-073-20W4/0            : Uwi          - UNIQUE WELL ID
ENTR.         JAYE                           : Entered      - ENTERED BY
SRVC.         SCHLUMBERGER                   : Scn          - SERVICE COMPANY
DATE.         11 JAN 79                      : Date         - LOG DATE
STRT.M        365                            : top_depth    - START DEPTH
STOP.M        575                            : bot_depth    - STOP DEPTH
STEP.M        0.25                           : increment    - STEP LENGTH
 NULL. -999.2500:NULL Value
~CURVE INFORMATION BLOCK
#MNEM UNIT       ERCB CURVE CODE    CURVE DESCRIPTION
#-----------   ------------------   ----------------------------------
DEPT.M        00 001 00 00         : DEPTH        - DEPTH
ILD .OHMM     00 120 00 00         : RESD         - DEEP RESISTIVITY (DIL)
NPHI.V/V      00 330 00 00         : PHIN         - NEUTRON POROSITY (SANDSTONE)
DPHI.V/V      00 890 00 00         : PHID         - DENSITY POROSITY (SANDSTONE)
GR  .API      00 310 00 00         : GR           - GAMMA RAY
CALI.MM       00 280 01 00         : CAL          - CALIPER
~PARAMETER INFORMATION
#MNEM.UNIT           DATA             DESCRIPTION OF MNEMONIC
#---------         -----------     ------------------------------
GL  .M        680.5                : gl           - GROUND LEVEL ELEVATION
EREF.M        683.2                : kb           - ELEVATION OF DEPTH REFERENCE
DATM.M        680.5                : datum        - DATUM ELEVATION
TDD .M        576.5                : tdd          - TOTAL DEPTH DRILLER
RUN .         ONE                  : Run          - RUN NUMBER
ENG .         JORDAN               : Engineer     - RECORDING ENGINEER
WIT .         WALTERS              : Witness      - WITNESSED BY
BASE.         EDM                  : Branch       - HOME BASE OF LOGGING UNIT
MUD .         GEL CHEM             : Mud_type     - MUD TYPE
MATR.         SANDSTONE            : Logunit      - NEUTRON MATRIX
TMAX.C        28.9                 : BHT          - MAXIMUM RECORDED TEMPERATURE
BHTD.M        577                  : BHTDEP       - MAXIMUM RECORDED TEMPERATURE
RMT .C        14                   : MDTP         - TEMPERATURE OF MUD
MUDD.KG/M     9.5                  : MWT          - MUD DENSITY
NEUT.         1                    : NEUTRON      - NEUTRON TYPE
RESI.         0                    : RESIST       - RESISTIVITY TYPE
RM  .OHMM     5.18                 : RM           - RESISTIVITY OF MUD
RMC .OHMM     0                    : RMC          - RESISTIVITY OF MUD CAKE
RMF .OHMM     5.66                 : RMF          - RESISTIVITY OF MUD FILTRATE
SUFT.C        0                    : SUFT         - SURFACE TEMPERATURE
~A  DEPTH     RESD     PHIN     PHID       GR      CAL
# ...
  438.000    5.791    0.441    0.318   53.177  150.277
  438.250    5.779    0.451    0.322   52.692  150.599
  438.500    5.524    0.453    0.336   53.566  150.923
  438.750    5.152    0.439    0.334   53.576  151.044
  439.000    4.952    0.433    0.321   53.152  151.159
  439.250    4.850    0.426    0.333   51.619  151.894
  439.500    4.849    0.436    0.329   51.568  153.455
  439.750    4.875    0.466    0.316   50.836  154.704
  440.000    4.976    0.467    0.309   48.931  154.616
  440.250    5.098    0.459    0.305   46.781  153.809
  440.500    5.213    0.445    0.294   48.764  151.048
  440.750    5.291    0.400    0.281   52.045  148.697
  441.000    5.320    0.460    0.287   53.658  146.655
  441.250    5.318    0.479    0.316   54.285  146.464
  441.500    5.278    0.447    0.352   54.108  147.200
  441.750    5.188    0.439    0.341   54.242  148.451
  442.000    5.148    0.457    0.347   55.423  149.085
  442.250    5.099    0.452    0.347   58.950  149.817
  442.500    5.166    0.437    0.341   57.910  150.657
  442.750    5.243    0.432    0.323   53.290  151.390
  443.000    5.301    0.430    0.300   47.315  151.099
  443.250    5.261    0.440    0.286   45.041  150.293
  443.500    5.094    0.469    0.326   48.505  149.175
  443.750    4.943    0.470    0.338   50.429  149.601
  444.000    4.823    0.458    0.341   52.227  153.011
  444.250    4.732    0.454    0.353   51.742  157.448
  444.500    4.617    0.462    0.343   50.702  163.942
  444.750    4.564    0.467    0.337   48.737  171.672
  445.000    4.504    0.465    0.341   49.301  177.550
  445.250    4.461    0.461    0.352   49.557  178.490
  445.500    4.452    0.454    0.343   48.950  173.159
  445.750    4.434    0.448    0.346   51.736  168.957
  446.000    4.392    0.440    0.336   49.276  171.029
  446.250    4.366    0.448    0.318   46.818  177.938
  446.500    4.357    0.462    0.327   44.605  178.362
  446.750    4.364    0.473    0.332   41.962  175.805
  447.000    4.380    0.469    0.326   42.772  174.381
  447.250    4.371    0.458    0.340   43.028  177.381
  447.500    4.387    0.460    0.339   43.593  182.022
  447.750    4.419    0.473    0.337   46.502  181.729
  448.000    4.435    0.507    0.344   42.440  168.066
  448.250    4.467    0.499    0.351   39.611  158.619
  448.500    4.475    0.483    0.345   38.508  154.112
  448.750    4.499    0.455    0.335   37.840  152.071
  449.000    4.532    0.459    0.343   37.663  150.645
  449.250    4.540    0.466    0.338   37.734  149.942
  449.500    4.530    0.467    0.335   39.656  149.543
  449.750    4.512    0.468    0.328   41.517  149.561
  450.000    4.520    0.464    0.328   41.033  149.266
  450.250    4.527    0.453    0.334   40.918  149.282
  450.500    4.518    0.437    0.327   41.236  148.887
  450.750    4.509    0.451    0.318   40.813  148.801
  451.000    4.483    0.470    0.325   38.786  148.614
  451.250    4.465    0.465    0.333   36.573  148.423
  451.500    4.464    0.451    0.323   39.051  148.436
  451.750    4.438    0.455    0.317   40.357  148.347
  452.000    4.437    0.471    0.301   39.873  148.155
  452.250    4.445    0.489    0.315   39.634  147.760
  452.500    4.486    0.490    0.321   41.989  147.568
  452.750    4.536    0.471    0.328   41.875  147.173
  453.000    4.586    0.460    0.337   40.403  146.881
  453.250    4.602    0.468    0.346   38.129  146.689
  453.500    4.636    0.477    0.337   38.448  146.601
  453.750    4.653    0.484    0.321   39.752  146.925
  454.000    4.661    0.484    0.319   40.254  147.046
  454.250    4.677    0.479    0.323   41.560  147.266
  454.500    4.676    0.467    0.316   43.667  148.311
  454.750    4.667    0.452    0.318   44.726  149.251
  455.000    4.665    0.448    0.325   43.253  149.061
  455.250    4.665    0.455    0.333   43.140  146.813
  455.500    4.637    0.463    0.309   43.889  145.183
  455.750    4.628    0.469    0.307   44.392  146.536
  456.000    4.601    0.467    0.321   43.846  148.816
  456.250    4.575    0.458    0.302   44.287  149.858
  456.500    4.565    0.457    0.321   45.222  150.490
  456.750    4.564    0.463    0.315   46.033  151.122
  457.000    4.563    0.456    0.319   46.722  151.857
  457.250    4.545    0.455    0.334   46.113  152.284
  457.500    4.544    0.450    0.345   43.902  152.608
  457.750    4.543    0.447    0.351   42.615  152.522
  458.000    4.525    0.453    0.336   41.698  152.332
  458.250    4.516    0.456    0.346   41.276  152.244
  458.500    4.498    0.458    0.328   42.580  152.057
  458.750    4.489    0.467    0.344   45.428  152.072
  459.000    4.463    0.468    0.332   44.697  151.984
  459.250    4.470    0.465    0.349   49.026  151.590
  459.500    4.386    0.460    0.353   49.158  151.291
  459.750    4.460    0.468    0.348   50.032  151.412
  460.000    4.544    0.461    0.322   51.584  151.323
  460.250    4.647    0.467    0.318   52.519  151.338
  460.500    4.698    0.475    0.317   53.762  150.840
  460.750    4.768    0.482    0.305   54.388  149.209
  461.000    4.794    0.479    0.319   54.459  146.551
  461.250    4.829    0.477    0.304   56.813  143.480
  461.500    4.828    0.472    0.288   59.538  140.101
  461.750    4.828    0.461    0.306   60.165  144.231
  462.000    4.790    0.471    0.317   60.605  145.584
  462.250    4.763    0.480    0.319   59.750  145.601
  462.500    4.717    0.487    0.301   57.292  145.307
  462.750    4.716    0.491    0.301   54.894  145.938
  463.000    4.724    0.472    0.301   56.076  146.777
  463.250    4.759    0.458    0.315   57.751  147.822
  463.500    4.758    0.448    0.321   57.020  148.454
  463.750    4.757    0.441    0.311   56.474  149.188
  464.000    4.756    0.442    0.312   56.052  150.131
  464.250    4.773    0.444    0.304   56.122  150.146
  464.500    4.808    0.452    0.304   56.501  150.263
  464.750    4.834    0.462    0.300   57.498  148.325
  465.000    4.879    0.481    0.316   59.605  144.535
  465.250    4.933    0.501    0.316   62.885  140.023
  465.500    4.979    0.501    0.310   60.919  137.468
  465.750    5.062    0.484    0.320   59.448  143.448
  466.000    5.090    0.495    0.321   60.814  145.727
  466.250    5.127    0.510    0.315   58.726  146.466
  466.500    5.146    0.507    0.311   59.229  146.786
  466.750    5.145    0.497    0.319   63.002  147.317
  467.000    5.173    0.493    0.315   65.357  147.850
  467.250    5.182    0.481    0.329   65.243  148.377
  467.500    5.279    0.483    0.324   64.387  149.523
  467.750    5.797    0.479    0.294   63.657  151.595
  468.000    6.798    0.454    0.255   63.110  153.667
  468.250    7.988    0.358    0.209   61.145  155.121
  468.500    9.910    0.260    0.052   58.933  155.857
  468.750   12.552    0.228    0.044   59.744  156.182
  469.000   15.370    0.214    0.063   61.296  156.299
  469.250   16.752    0.204    0.053   61.675  156.526
  469.500   16.041    0.193    0.016   61.623  156.849
  469.750   14.711    0.186    0.016   62.064  157.170
  470.000   13.877    0.198    0.012   63.677  157.390
  470.250   12.727    0.221    0.056   66.896  157.095
  470.500   11.519    0.256    0.084   67.708  156.494
  470.750   10.704    0.287    0.118   66.853  154.762
  471.000   10.135    0.275    0.089   64.517  151.593
  471.250    8.835    0.247    0.058   66.316  149.651
  471.500    8.210    0.285    0.073   70.336  148.328
  471.750    7.501    0.310    0.110   76.948  147.727
  472.000    6.701    0.357    0.172   83.127  147.742
  472.250    6.009    0.405    0.197   89.493  148.785
  472.500    5.625    0.466    0.235   93.081  150.654
  472.750    5.509    0.475    0.228   89.203  151.902
  473.000    5.571    0.482    0.219   87.979  153.564
  473.250    5.675    0.491    0.211   86.753  155.327
  473.500    5.749    0.504    0.230   83.739  156.679
  473.750    5.726    0.488    0.233   81.712  156.899
  474.000    5.693    0.477    0.231   84.313  155.476
  474.250    5.649    0.465    0.224   89.196  153.434
