~VERSION INFORMATION
 VERS.                 2.0:   CWLS LOG ASCII STANDARD -VERSION 2.0
 WRAP.                  NO:   ONE LINE PER DEPTH STEP
~WELL INFORMATION BLOCK
#MNEM.UNIT           DATA                    DESCRIPTION OF MNEMONIC
#---------    -------------------            -------------------------------
# Generated from Intellog Unique Number	CS_77_79/WELL/1989
WELL.         CAN WORLDWIDE ENR              : Well_name    - WELL
LOC .         00/10-05-079-03W4/0            : Location     - LOCATION
UWI .         00/10-05-079-03W4/0            : Uwi          - UNIQUE WELL ID
ENTR.         TIM                            : Entered      - ENTERED BY
SRVC.         SCHLUMBERGER                   : Scn          - SERVICE COMPANY
STRT.M        150                            : top_depth    - START DEPTH
STOP.M        385                            : bot_depth    - STOP DEPTH
STEP.M        0.25                           : increment    - STEP LENGTH
 NULL. -999.2500:NULL Value
~CURVE INFORMATION BLOCK
#MNEM UNIT       ERCB CURVE CODE    CURVE DESCRIPTION
#-----------   ------------------   ----------------------------------
DEPT.M        00 001 00 00         : DEPTH        - DEPTH
GR  .API      00 310 00 00         : GR           - GAMMA RAY
NPHI.V/V      00 330 00 00         : PHIN         - NEUTRON POROSITY (SANDSTONE)
DPHI.V/V      00 890 00 00         : PHID         - DENSITY POROSITY (SANDSTONE)
ILD .OHMM     00 120 00 00         : RESD         - DEEP RESISTIVITY (DIL)
~PARAMETER INFORMATION
#MNEM.UNIT           DATA             DESCRIPTION OF MNEMONIC
#---------         -----------     ------------------------------
GL  .M        548.88               : gl           - GROUND LEVEL ELEVATION
EREF.M        552.73               : kb           - ELEVATION OF DEPTH REFERENCE
DATM.M        552.73               : datum        - DATUM ELEVATION
TDD .M        396.4                : tdd          - TOTAL DEPTH DRILLER
RUN .         ONE                  : Run          - RUN NUMBER
ENG .         BILL                 : Engineer     - RECORDING ENGINEER
WIT .         JIM                  : Witness      - WITNESSED BY
MUD .         GEL                  : Mud_type     - MUD TYPE
MATR.         SANDSTONE            : Logunit      - NEUTRON MATRIX
TMAX.C        19                   : BHT          - MAXIMUM RECORDED TEMPERATURE
BHTD.M        396.4                : BHTDEP       - MAXIMUM RECORDED TEMPERATURE
MATR.         1                    : LOGUNIT      - NEUTRON MATRIX
RMT .C        16                   : MDTP         - TEMPERATURE OF MUD
NEUT.         1                    : NEUTRON      - NEUTRON TYPE
RESI.         5.3                  : RESIST       - RESISTIVITY TYPE
RMC .OHMM     3                    : RMC          - RESISTIVITY OF MUD CAKE
RMF .OHMM     4.6                  : RMF          - RESISTIVITY OF MUD FILTRATE
SUFT.C        15                   : SUFT         - SURFACE TEMPERATURE
~A  DEPTH       GR     PHIN     PHID     RESD
# ...
  324.000   27.889    0.339    0.317    1.780
  324.250   29.077    0.334    0.314    1.812
  324.500   30.252    0.334    0.305    1.807
  324.750   30.817    0.337    0.310    1.839
  325.000   30.136    0.337    0.315    1.836
  325.250   29.469    0.337    0.320    1.834
  325.500   29.411    0.338    0.315    1.866
  325.750   29.976    0.337    0.312    1.862
  326.000   31.165    0.337    0.307    1.894
  326.250   32.310    0.337    0.302    1.892
  326.500   32.281    0.337    0.296    1.888
  326.750   32.223    0.332    0.289    1.885
  327.000   30.281    0.328    0.295    1.881
  327.250   28.353    0.333    0.299    1.879
  327.500   28.918    0.339    0.310    1.877
  327.750   30.107    0.354    0.315    1.908
  328.000   31.919    0.359    0.317    1.905
  328.250   33.108    0.349    0.317    1.938
  328.500   33.673    0.341    0.317    1.935
  328.750   36.094    0.340    0.316    1.933
  329.000   37.312    0.340    0.316    1.929
  329.250   43.488    0.339    0.316    1.927
  329.500   51.533    0.339    0.316    1.887
  329.750   46.489    0.338    0.316    1.814
  330.000   39.544    0.338    0.316    1.812
  330.250   37.602    0.339    0.315    1.775
  330.500   36.326    0.342    0.314    1.740
  330.750   33.775    0.344    0.315    1.736
  331.000   36.210    0.344    0.318    1.768
  331.250   43.633    0.342    0.308    1.798
  331.500   51.678    0.340    0.282    1.829
  331.750   58.478    0.337    0.279    1.894
  332.000   62.783    0.338    0.276    1.929
  332.250   65.219    0.340    0.245    1.999
  332.500   69.524    0.344    0.252    2.150
  332.750   73.844    0.346    0.293    2.270
  333.000   66.915    0.349    0.310    2.309
  333.250   41.270    0.352    0.325    2.304
  333.500   42.459    0.355    0.329    2.176
  333.750   44.271    0.360    0.329    2.054
  334.000   43.589    0.368    0.329    1.938
  334.250   41.647    0.373    0.330    1.900
  334.500   39.733    0.374    0.332    1.828
  334.750   36.529    0.374    0.332    1.758
  335.000   35.254    0.369    0.333    1.754
  335.250   33.934    0.365    0.333    1.719
  335.500   34.500    0.361    0.333    1.717
  335.750   35.080    0.356    0.333    1.714
  336.000   36.254    0.354    0.332    1.712
  336.250   39.298    0.352    0.331    1.677
  336.500   40.502    0.353    0.329    1.674
  336.750   43.561    0.354    0.327    1.671
  337.000   46.011    0.357    0.321    1.669
  337.250   49.069    0.357    0.318    1.667
  337.500   53.969    0.357    0.315    1.663
  337.750   54.564    0.358    0.315    1.660
  338.000   53.245    0.360    0.315    1.658
  338.250   48.838    0.361    0.314    1.687
  338.500   45.010    0.361    0.316    1.684
  338.750   44.952    0.358    0.319    1.713
  339.000   44.895    0.349    0.313    1.742
  339.250   45.460    0.348    0.308    1.772
  339.500   45.416    0.343    0.306    1.803
  339.750   45.967    0.337    0.301    1.799
  340.000   46.518    0.331    0.296    1.832
  340.250   47.113    0.334    0.293    1.828
  340.500   48.925    0.338    0.291    1.859
  340.750   55.086    0.345    0.288    1.858
  341.000   57.536    0.353    0.287    1.889
  341.250   58.725    0.360    0.284    1.957
  341.500   59.899    0.361    0.279    2.027
  341.750   61.102    0.353    0.276    2.064
  342.000   59.797    0.346    0.272    2.098
  342.250   54.738    0.341    0.272    2.096
  342.500   47.823    0.339    0.273    2.091
  342.750   42.778    0.337    0.278    2.089
  343.000   35.225    0.338    0.283    2.047
  343.250   30.166    0.339    0.291    2.007
  343.500   28.252    0.344    0.302    1.893
  343.750   26.948    0.349    0.310    1.820
  344.000   26.875    0.353    0.319    1.785
  344.250   27.441    0.355    0.325    1.782
  344.500   28.615    0.357    0.328    1.779
  344.750   29.803    0.348    0.323    1.776
  345.000   30.978    0.343    0.318    1.774
  345.250   31.572    0.340    0.312    1.771
  345.500   32.109    0.333    0.306    1.767
  345.750   32.065    0.330    0.304    1.765
  346.000   32.630    0.325    0.299    1.828
  346.250   32.587    0.316    0.293    1.861
  346.500   32.515    0.310    0.285    1.927
  346.750   32.471    0.306    0.279    1.962
  347.000   32.384    0.304    0.270    2.031
  347.250   32.341    0.303    0.267    2.067
  347.500   32.268    0.302    0.267    2.103
  347.750   32.210    0.303    0.267    2.100
  348.000   32.167    0.298    0.266    2.096
  348.250   32.094    0.291    0.264    2.093
  348.500   31.413    0.291    0.262    2.089
  348.750   31.340    0.293    0.263    2.086
  349.000   31.311    0.295    0.263    2.083
  349.250   31.862    0.307    0.263    2.080
  349.500   33.675    0.319    0.271    2.038
  349.750   36.110    0.321    0.286    2.035
  350.000   38.560    0.318    0.281    2.069
  350.250   44.112    0.302    0.275    2.105
  350.500   54.028    0.295    0.265    2.222
  350.750   69.554    0.301    0.251    2.305
  351.000   75.745    0.309    0.228    2.621
  351.250   74.440    0.318    0.209    2.927
  351.500   74.976    0.324    0.192    3.270
  351.750   78.035    0.329    0.182    3.721
  352.000   81.717    0.322    0.179    4.156
  352.250   83.544    0.322    0.176    4.471
  352.500   83.472    0.330    0.183    4.721
  352.750   82.181    0.340    0.203    4.803
  353.000   79.630    0.346    0.227    4.706
  353.250   75.208    0.353    0.238    4.278
  353.500   67.656    0.351    0.238    3.891
  353.750   67.597    0.349    0.239    3.605
  354.000   65.655    0.346    0.244    3.404
  354.250   63.727    0.346    0.246    3.271
  354.500   63.669    0.346    0.240    3.268
  354.750   66.119    0.347    0.235    3.263
  355.000   68.554    0.347    0.225    3.381
  355.250   70.990    0.346    0.222    3.504
  355.500   72.164    0.340    0.218    3.632
  355.750   71.483    0.334    0.206    3.694
  356.000   71.425    0.329    0.212    3.759
  356.250   71.976    0.330    0.221    3.895
  356.500   69.439    0.329    0.232    4.113
  356.750   68.134    0.328    0.233    4.184
  357.000   73.686    0.326    0.227    4.177
  357.250   80.486    0.328    0.219    4.169
  357.500   84.182    0.336    0.207    4.162
  357.750   85.980    0.352    0.201    4.236
  358.000   84.052    0.364    0.201    4.309
  358.250   81.500    0.364    0.197    4.383
  358.500   78.949    0.345    0.196    4.459
  358.750   76.397    0.351    0.211    4.452
  359.000   71.962    0.361    0.221    4.125
  359.250   69.410    0.371    0.231    3.748
  359.500   69.352    0.378    0.226    3.608
  359.750   72.396    0.377    0.224    3.278
  360.000   73.585    0.375    0.231    3.214
  360.250   72.889    0.369    0.236    3.092
  360.500   71.614    0.361    0.241    2.918
  360.750   69.062    0.350    0.242    2.860
  361.000   68.381    0.353    0.241    2.751
  361.250   67.685    0.356    0.249    2.646
  361.500   63.264    0.358    0.259    2.589
  361.750   60.712    0.352    0.259    2.588
  362.000   65.641    0.342    0.237    2.584
  362.250   69.947    0.336    0.233    2.580
  362.500   65.525    0.339    0.227    2.624
  362.750   59.233    0.342    0.253    2.720
  363.000   54.174    0.351    0.258    2.715
  363.250   50.985    0.355    0.265    2.710
  363.500   47.172    0.364    0.274    2.607
  363.750   45.273    0.366    0.279    2.556
  364.000   40.837    0.364    0.291    2.367
  364.250   43.258    0.358    0.309    2.192
  364.500   46.331    0.355    0.300    2.031
  364.750   49.999    0.347    0.295    1.918
  365.000   52.449    0.344    0.285    1.844
  365.250   51.739    0.341    0.290    1.842
  365.500   51.695    0.338    0.290    1.839
  365.750   50.999    0.333    0.285    1.870
  366.000   50.970    0.333    0.275    1.902
  366.250   50.898    0.338    0.269    1.898
  366.500   50.854    0.346    0.280    1.897
  366.750   50.796    0.351    0.290    1.893
  367.000   41.997    0.355    0.301    1.890
  367.250   40.692    0.357    0.317    1.853
