~VERSION INFORMATION
 VERS.                 2.0:   CWLS LOG ASCII STANDARD -VERSION 2.0
 WRAP.                  NO:   ONE LINE PER DEPTH STEP
~WELL INFORMATION BLOCK
#MNEM.UNIT           DATA                    DESCRIPTION OF MNEMONIC
#---------    -------------------            -------------------------------
# Generated from Intellog Unique Number	CW_70_72/WELL/3031
NULL.         -999.25                        : NULL_VALUE
WELL.         SULPETRO ET AL PARKER 11-23    : Well_name    - WELL              
LOC .         11-23-070-05W5                 : Location     - LOCATION          
UWI .         00/11-23-070-05W5/0            : Uwi          - UNIQUE WELL ID    
ENTR.         JAYE                           : Entered      - ENTERED BY        
SRVC.         SCHLUMBERGER                   : Scn          - SERVICE COMPANY   
DATE.         2 APR 82                       : Date         - LOG DATE          
STRT.M        660                            : top_depth    - START DEPTH       
STOP.M        905                            : bot_depth    - STOP DEPTH        
STEP.M        0.25                           : increment    - STEP LENGTH       
~CURVE INFORMATION BLOCK
#MNEM UNIT       ERCB CURVE CODE    CURVE DESCRIPTION
#-----------   ------------------   ----------------------------------
DEPT.M        00 001 00 00         : DEPTH        - DEPTH                       
ILD .OHMM     00 120 00 00         : RESD         - DEEP RESISTIVITY (DIL)      
CALI.MM       00 280 01 00         : CAL          - CALIPER                     
GR  .API      00 310 00 00         : GR           - GAMMA RAY                   
NPHI.V/V      00 330 00 00         : PHIN         - NEUTRON POROSITY (SANDSTONE)
DPHI.V/V      00 890 00 00         : PHID         - DENSITY POROSITY (SANDSTONE)
~PARAMETER INFORMATION       
#MNEM.UNIT           DATA             DESCRIPTION OF MNEMONIC
#---------         -----------     ------------------------------
GL  .M        779.8                : gl           - GROUND LEVEL ELEVATION      
EREF.M        782.7                : kb           - ELEVATION OF DEPTH REFERENCE
DATM.M        779.8                : datum        - DATUM ELEVATION             
TDD .M        926                  : tdd          - TOTAL DEPTH DRILLER         
RUN .         ONE                  : Run          - RUN NUMBER                  
ENG .         VANDENBRINK          : Engineer     - RECORDING ENGINEER          
WIT .         SPRATT               : Witness      - WITNESSED BY                
BASE.         EDM                  : Branch       - HOME BASE OF LOGGING UNIT   
MUD .         GEL CHEM             : Mud_type     - MUD TYPE                    
MATR.         SANDSTONE            : Logunit      - NEUTRON MATRIX              
TMAX.C        35.5                 : BHT          - MAXIMUM RECORDED TEMPERATURE
BHTD.M        928                  : BHTDEP       - MAXIMUM RECORDED TEMPERATURE
RMT .C        18.8                 : MDTP         - TEMPERATURE OF MUD          
MUDD.KG/M     1210                 : MWT          - MUD DENSITY                 
NEUT.         1                    : NEUTRON      - NEUTRON TYPE                
RESI.         0                    : RESIST       - RESISTIVITY TYPE            
RM  .OHMM     0.644                : RM           - RESISTIVITY OF MUD          
RMC .OHMM     0.25                 : RMC          - RESISTIVITY OF MUD CAKE     
RMF .OHMM     0.598                : RMF          - RESISTIVITY OF MUD FILTRATE 
SUFT.C        0                    : SUFT         - SURFACE TEMPERATURE         
~A  DEPTH     RESD      CAL       GR     PHIN     PHID
# ...
  879.000    2.096  168.274  110.775    0.497    0.182
  879.250    2.485  167.964  101.625    0.496    0.188
  879.500    3.907  165.669   93.792    0.497    0.130
  879.750    6.330  163.270   79.314    0.437    0.056
  880.000    8.370  161.394   72.610    0.347    0.067
  880.250   10.151  160.248   70.731    0.316    0.083
  880.500   10.892  160.043   75.372    0.287    0.082
  880.750   10.056  159.942   88.663    0.272    0.079
  881.000    8.740  159.947   92.239    0.267    0.085
  881.250    7.755  160.158   96.065    0.270    0.096
  881.500    7.066  160.685  101.959    0.289    0.113
  881.750    6.760  160.898  103.215    0.302    0.124
  882.000    6.830  160.797  100.898    0.313    0.119
  882.250    7.179  160.592   98.832    0.316    0.112
  882.500    7.881  160.073   95.135    0.308    0.104
  882.750    8.797  159.868   90.061    0.285    0.094
  883.000    9.387  159.664   84.171    0.268    0.082
  883.250    9.664  159.353   78.406    0.257    0.089
  883.500    9.075  159.358   75.901    0.269    0.085
  883.750    8.409  159.362   73.459    0.292    0.081
  884.000    7.733  159.784   83.553    0.313    0.081
  884.250    7.139  159.997   94.525    0.330    0.088
  884.500    6.998  159.999   96.282    0.357    0.101
  884.750    7.552  160.943   91.583    0.368    0.102
  885.000    8.591  161.156   86.445    0.342    0.103
  885.250    9.413  161.160   80.179    0.316    0.095
  885.500    9.316  160.850   72.597    0.291    0.081
  885.750    8.746  159.391   61.880    0.278    0.067
  886.000    7.983  158.037   57.119    0.277    0.068
  886.250    7.356  157.831   58.751    0.291    0.082
  886.500    7.011  158.253   66.087    0.303    0.094
  886.750    7.754  159.093   77.811    0.313    0.104
  887.000    9.636  159.933   82.327    0.300    0.099
  887.250   10.736  160.354   78.630    0.264    0.078
  887.500   11.264  161.090   75.060    0.240    0.075
  887.750   11.253  161.615   77.570    0.221    0.096
  888.000   10.408  161.829   80.580    0.239    0.119
  888.250    9.394  161.832   86.726    0.256    0.119
  888.500    8.737  161.836   83.406    0.271    0.118
  888.750    8.582  161.735   84.474    0.283    0.137
  889.000    9.073  161.635   81.530    0.292    0.146
  889.250    9.772  161.325   77.583    0.286    0.136
  889.500   11.052  161.225   78.087    0.278    0.115
  889.750   12.338  161.228   74.077    0.269    0.092
  890.000   13.240  161.336   66.432    0.260    0.098
  890.250   13.839  160.713   58.536    0.263    0.077
  890.500   12.679  160.299   50.139    0.279    0.054
  890.750   10.339  160.303   42.870    0.287    0.011
  891.000    8.622  160.725   72.459    0.276    0.061
  891.250    7.327  161.564   82.741    0.290    0.101
  891.500    6.514  163.553   95.217    0.299    0.124
  891.750    5.759  165.333  106.189    0.326    0.146
  892.000    4.977  166.903  116.409    0.392    0.113
  892.250    3.990  165.131   90.022    0.421    0.078
  892.500    3.284  161.896   74.416    0.435    0.115
  892.750    2.812  157.721   46.587    0.418    0.221
  893.000    2.237  152.919   39.694    0.341    0.245
  893.250    2.065  150.624   32.111    0.275    0.227
  893.500    2.417  150.524   31.675    0.256    0.202
  893.750    2.598  150.528   33.871    0.241    0.194
  894.000    2.562  150.532   42.398    0.249    0.181
  894.250    2.540  150.953   50.925    0.243    0.138
  894.500    2.625  151.480   43.970    0.267    0.176
  894.750    2.822  152.423   39.333    0.284    0.207
  895.000    3.278  154.621   56.323    0.292    0.216
  895.250    3.742  157.132   71.181    0.289    0.199
  895.500    4.131  159.748  117.882    0.362    0.204
  895.750    4.334  161.737  113.497    0.430    0.209
  896.000    3.824  158.188   81.405    0.429    0.174
  896.250    3.299  153.491   57.149    0.426    0.210
  896.500    2.933  150.569   44.050    0.367    0.229
  896.750    2.775  149.006   45.996    0.308    0.243
  897.000    3.109  149.532   53.646    0.298    0.224
  897.250    4.466  150.686   53.711    0.289    0.204
  897.500    6.995  153.197   52.271    0.280    0.343
  897.750    9.128  155.081   57.351    0.464    0.392
  898.000   11.090  157.697   71.833    0.636    0.406
  898.250   11.790  159.790   82.679    0.737    0.734
  898.500   10.462  162.301   93.839    0.721    0.687
  898.750    9.179  163.872  107.381    0.659    0.654
  899.000    7.934  164.815  112.085    0.604    0.200
  899.250    6.616  163.044  102.120    0.392    0.132
  899.500    5.697  161.584   82.127    0.238    0.101
  899.750    5.289  160.021   74.356    0.257    0.116
  900.000    5.108  158.458   75.236    0.271    0.175
  900.250    5.094  157.836   84.515    0.286    0.188
  900.500    5.206  158.047   96.678    0.315    0.190
  900.750    5.349  160.350   96.869    0.430    0.201
  901.000    5.456  157.115   52.554    0.421    0.202
  901.250    5.523  152.209   68.352    0.240    0.156
  901.500    5.518  153.152   88.601    0.233    0.110
  901.750    5.440  163.917  120.635    0.300    0.107
  902.000    5.274  169.667  114.807    0.341    0.099
  902.250    5.142  161.313   87.605    0.306    0.094
  902.500    5.425  153.586   80.838    0.266    0.122
  902.750    6.044  152.440   76.703    0.270    0.058
  903.000    6.811  157.145   64.231    0.252    0.001
  903.250    7.323  158.089   59.971    0.217    0.029
  903.500    7.741  157.048   62.418    0.194    0.047
  903.750    7.985  156.425   61.417    0.182    0.031
  904.000    8.174  156.534   58.223    0.183    0.012
  904.250    8.136  157.478   57.849    0.188    0.019
  904.500    7.843  158.108   56.221    0.194    0.030
  904.750    7.547  158.321   56.788    0.195    0.011
  905.000    7.207  157.385   57.855    0.198    0.004
