~VERSION INFORMATION
 VERS.                 2.0:   CWLS LOG ASCII STANDARD -VERSION 2.0
 WRAP.                  NO:   ONE LINE PER DEPTH STEP
~WELL INFORMATION BLOCK
#MNEM.UNIT           DATA                    DESCRIPTION OF MNEMONIC
#---------    -------------------            -------------------------------
# Generated from Intellog Unique Number	CC_80_83/WELL/2330
NULL.         -999.25                        : NULL_VALUE
WELL.         KANDEX ET AL PORTAGE           : Well_name    - WELL              
LOC .         10-03-080-14W4                 : Location     - LOCATION          
UWI .         00/10-03-080-14W4/0            : Uwi          - UNIQUE WELL ID    
ENTR.         DW                             : Entered      - ENTERED BY        
SRVC.         SCHLUMBERGER                   : Scn          - SERVICE COMPANY   
DATE.         14 AUG 77                      : Date         - LOG DATE
STRT.M        274.32                         : top_depth    - START DEPTH       
STOP.M        524.42                         : bot_depth    - STOP DEPTH        
STEP.M        0.3048                         : increment    - STEP LENGTH       
~CURVE INFORMATION BLOCK
#MNEM UNIT       ERCB CURVE CODE    CURVE DESCRIPTION
#-----------   ------------------   ----------------------------------
DEPT.M        00 001 00 00         : DEPTH        - DEPTH                       
DPHI.V/V      00 890 00 00         : PHID         - DENSITY POROSITY (LIMESTONE)
NPHI.V/V      00 330 00 00         : PHIN         - NEUTRON POROSITY (LIMESTONE)
GR  .API      00 310 00 00         : GR           - GAMMA RAY                   
ILD .OHMM     00 120 00 00         : RESD         - DEEP RESISTIVITY (DIL)      
~PARAMETER INFORMATION       
#MNEM.UNIT           DATA             DESCRIPTION OF MNEMONIC
#---------         -----------     ------------------------------
GL  .M        696.773              : gl           - GROUND LEVEL ELEVATION      
EREF.M        701.65               : kb           - ELEVATION OF DEPTH REFERENCE
DATM.M        701.65               : datum        - DATUM ELEVATION             
TDD .M        531.876              : tdd          - TOTAL DEPTH DRILLER         
RUN .         ONE                  : Run          - RUN NUMBER                  
ENG .         BILL                 : Engineer     - RECORDING ENGINEER          
WIT .         JIM                  : Witness      - WITNESSED BY                
MUD .         GEL                  : Mud_type     - MUD TYPE                    
MATR.         LIMESTONE            : Logunit      - NEUTRON MATRIX              
TMAX.C        23.8889              : BHT          - MAXIMUM RECORDED TEMPERATURE
BHTD.M        533.4                : BHTDEP       - MAXIMUM RECORDED TEMPERATURE
MATR.         1                    : LOGUNIT      - NEUTRON MATRIX              
RMT .C        25                   : MDTP         - TEMPERATURE OF MUD          
NEUT.         1                    : NEUTRON      - NEUTRON TYPE                
RESI.         0                    : RESIST       - RESISTIVITY TYPE            
RMC .OHMM     0.25                 : RMC          - RESISTIVITY OF MUD CAKE     
RMF .OHMM     0.25                 : RMF          - RESISTIVITY OF MUD FILTRATE 
SUFT.C        4                    : SUFT         - SURFACE TEMPERATURE         
~A  DEPTH     PHID     PHIN       GR     RESD
# ...
  486.600    0.251    0.366   69.837   41.292
  486.905    0.262    0.355   71.066   41.286
  487.210    0.243    0.362   68.599   44.513
  487.515    0.248    0.376   69.826   45.357
  487.820    0.234    0.388   73.516   46.210
  488.125    0.246    0.403   69.818   47.085
  488.430    0.246    0.405   64.888   47.077
  488.735    0.233    0.386   63.037   44.475
  489.040    0.255    0.377   62.418   42.819
  489.345    0.257    0.372   64.877   41.228
  489.650    0.239    0.372   73.493   37.507
  489.955    0.218    0.395   74.721   34.774
  490.260    0.234    0.398   71.022   32.239
  490.565    0.222    0.386   72.249   28.780
  490.870    0.228    0.370   76.556   25.696
  491.175    0.209    0.352   85.787   22.090
  491.480    0.140    0.341   99.945   20.870
  491.785    0.169    0.347  102.404   21.264
  492.090    0.209    0.381  101.784   22.927
  492.395    0.212    0.371   96.239   25.193
  492.700    0.232    0.391   88.846   26.155
  493.005    0.227    0.368   82.685   25.183
  493.310    0.230    0.361   86.374   23.792
  493.615    0.223    0.388   90.066   21.646
  493.920    0.205    0.381   88.829   19.324
  494.225    0.191    0.361   86.979   17.916
  494.530    0.180    0.334   81.433   16.610
  494.835    0.172    0.324   86.971   15.693
  495.140    0.177    0.322   91.892   15.689
  495.445    0.172    0.319   92.504   15.687
  495.750    0.211    0.329   88.806   16.598
  496.055    0.235    0.319   79.566   18.238
  496.360    0.219    0.318   75.868   18.935
  496.665    0.234    0.317   80.173   18.578
  496.970    0.225    0.306   80.170   18.229
  497.275    0.225    0.304   81.397   15.968
  497.580    0.229    0.314   80.162   14.528
  497.885    0.177    0.349   85.084   12.728
  498.190    0.143    0.402   99.857   10.339
  498.495    0.121    0.416  110.936    8.399
  498.800    0.112    0.437  107.854    7.498
  499.105    0.105    0.458  114.007    6.822
  499.410    0.110    0.464  115.234    6.445
  499.715    0.121    0.462  107.842    6.567
  500.020    0.148    0.451   90.597    6.818
  500.325    0.229    0.408   55.497    6.690
  500.630    0.269    0.384   48.721    6.202
  500.935    0.253    0.359   44.407    5.433
  501.240    0.250    0.368   42.555    5.133
  501.545    0.293    0.386   44.399    4.942
  501.850    0.304    0.375   37.622    4.758
  502.155    0.288    0.372   39.464    4.581
  502.460    0.281    0.373   43.154    4.580
  502.765    0.299    0.381   45.614    4.667
  503.070    0.291    0.405   48.073    4.938
  503.375    0.270    0.395   51.148    5.324
  503.680    0.245    0.351   53.607    5.633
  503.985    0.254    0.375   56.065    5.849
  504.290    0.240    0.376   54.830    6.073
  504.595    0.224    0.366   48.669    6.072
  504.900    0.244    0.355   48.665    6.187
  505.205    0.238    0.360   51.123    5.956
  505.510    0.233    0.357   52.966    5.628
  505.815    0.232    0.352   49.885    5.521
  506.120    0.248    0.371   44.955    5.315
  506.425    0.287    0.379   50.492    5.215
  506.730    0.265    0.362   59.108    5.215
  507.035    0.237    0.352   56.026    5.116
  507.340    0.253    0.395   46.786    5.020
  507.645    0.292    0.388   41.241    4.925
  507.950    0.285    0.375   43.699    4.924
  508.255    0.269    0.366   45.543    5.017
  508.560    0.251    0.375   46.154    5.112
  508.865    0.246    0.378   44.303    5.015
  509.170    0.271    0.370   43.067    5.014
  509.475    0.256    0.336   43.064    5.013
  509.780    0.266    0.360   45.522    5.205
  510.085    0.275    0.360   49.828    5.508
  510.390    0.251    0.347   55.366    6.404
  510.695    0.206    0.384   52.899    8.031
  511.000    0.139    0.372   43.660   12.164
  511.305    0.105    0.335   24.568   24.918
  511.610    0.076    0.187   21.484   42.267
  511.915    0.076    0.180   20.866   49.147
  512.220    0.080    0.189   20.245   40.686
  512.525    0.058    0.196   20.242   37.015
  512.830    0.069    0.190   20.852   35.637
  513.135    0.102    0.182   21.466   38.423
  513.440    0.070    0.172   22.692   42.220
  513.745    0.057    0.168   22.689   46.392
  514.050    0.041    0.161   23.301   50.976
  514.355    0.011    0.153   23.296   57.077
  514.660    0.027    0.152   23.292   60.391
  514.965    0.076    0.165   23.289   62.703
  515.270    0.037    0.171   23.285   63.889
  515.575    0.042    0.170   23.895   65.097
  515.880    0.057    0.156   24.506   67.588
  516.185    0.057    0.140   24.504   70.175
  516.490    0.069    0.149   25.116   74.250
  516.795    0.083    0.159   25.112   80.059
  517.100    0.055    0.161   24.492   86.319
  517.405    0.027    0.155   25.720   89.630
  517.710    0.039    0.156   27.563   96.638
  518.015    0.047    0.185   28.175   98.469
  518.320    0.060    0.193   28.787  102.240
  518.625    0.074    0.202   28.783   98.432
  518.930    0.123    0.217   28.163   94.772
  519.235    0.115    0.190   26.311   92.982
  519.540    0.105    0.189   25.076   94.737
  519.845    0.128    0.205   23.226  108.103
  520.150    0.111    0.212   23.221  143.457
  520.455    0.081    0.207   24.449  201.475
  520.760    0.118    0.212   26.292  293.834
  521.065    0.102    0.229   25.672  462.157
  521.370    0.086    0.214   23.821  601.827
  521.675    0.081    0.191   21.970  601.746
  521.980    0.074    0.165   22.582  527.157
  522.285    0.022    0.143   24.425  420.233
  522.590    0.000    0.136   29.347  262.098
  522.895    0.000    0.159   31.190  157.410
  523.200    0.001    0.185   30.570  190.081
  523.505    0.032    0.175   28.102  208.853
  523.810    0.047    0.170   26.868  201.086
  524.115    0.058    0.175   32.406  151.469
  524.420    0.070    0.184   41.022  132.697
