~VERSION INFORMATION
 VERS.                 2.0:   CWLS LOG ASCII STANDARD -VERSION 2.0
 WRAP.                  NO:   ONE LINE PER DEPTH STEP
~WELL INFORMATION BLOCK
#MNEM.UNIT           DATA                    DESCRIPTION OF MNEMONIC
#---------    -------------------            -------------------------------
# Generated from Intellog Unique Number	CW_73_75/WELL/2747
WELL.         GAO ET AL AMADO4 11-31         : Well_name    - WELL
LOC .         00/11-31-073-19W4/0            : Location     - LOCATION
UWI .         00/11-31-073-19W4/0            : Uwi          - UNIQUE WELL ID
ENTR.         JAYE                           : Entered      - ENTERED BY
SRVC.         SCHLUMBERGER                   : Scn          - SERVICE COMPANY
DATE.         10 JAN 74                      : Date         - LOG DATE
STRT.M        353.568                        : top_depth    - START DEPTH
STOP.M        594.318                        : bot_depth    - STOP DEPTH
STEP.M        0.25                           : increment    - STEP LENGTH
 NULL. -999.2500:NULL Value
~CURVE INFORMATION BLOCK
#MNEM UNIT       ERCB CURVE CODE    CURVE DESCRIPTION
#-----------   ------------------   ----------------------------------
DEPT.M        00 001 00 00         : DEPTH        - DEPTH
ILD .OHMM     00 120 00 00         : RESD         - DEEP RESISTIVITY (DIL)
NPHI.V/V      00 330 00 00         : PHIN         - NEUTRON POROSITY (SANDSTONE)
DPHI.V/V      00 890 00 00         : PHID         - DENSITY POROSITY (SANDSTONE)
GR  .API      00 310 00 00         : GR           - GAMMA RAY
CALI.MM       00 280 01 00         : CAL          - CALIPER
~PARAMETER INFORMATION
#MNEM.UNIT           DATA             DESCRIPTION OF MNEMONIC
#---------         -----------     ------------------------------
GL  .M        671.779              : gl           - GROUND LEVEL ELEVATION
EREF.M        674.827              : kb           - ELEVATION OF DEPTH REFERENCE
DATM.M        671.779              : datum        - DATUM ELEVATION
TDD .M        600.456              : tdd          - TOTAL DEPTH DRILLER
RUN .         ONE                  : Run          - RUN NUMBER
BASE.         EDM                  : Branch       - HOME BASE OF LOGGING UNIT
MATR.         SANDSTONE            : Logunit      - NEUTRON MATRIX
TMAX.C        29.4444              : BHT          - MAXIMUM RECORDED TEMPERATURE
BHTD.M        603.504              : BHTDEP       - MAXIMUM RECORDED TEMPERATURE
RMT .C        13.3333              : MDTP         - TEMPERATURE OF MUD
MUDD.KG/M     0                    : MWT          - MUD DENSITY
NEUT.         1                    : NEUTRON      - NEUTRON TYPE
RESI.         0                    : RESIST       - RESISTIVITY TYPE
RM  .OHMM     0.843                : RM           - RESISTIVITY OF MUD
RMC .OHMM     0                    : RMC          - RESISTIVITY OF MUD CAKE
RMF .OHMM     1.17                 : RMF          - RESISTIVITY OF MUD FILTRATE
SUFT.C        -17.7778             : SUFT         - SURFACE TEMPERATURE
~A  DEPTH     RESD     PHIN     PHID       GR      CAL
# ...
  536.068    3.817    0.473    0.170  106.314  150.887
  536.318    3.703    0.470    0.163  102.216  150.183
  536.568    3.605    0.450    0.148  105.412  147.725
  536.818    3.555    0.434    0.146  110.097  147.450
  537.068    3.500    0.442    0.154  113.291  147.619
  537.318    3.515    0.436    0.166  114.487  148.660
  537.568    3.562    0.416    0.155  115.104  149.160
  537.818    3.704    0.406    0.169  115.075  150.080
  538.068    3.901    0.433    0.173  112.075  150.477
  538.318    4.208    0.434    0.161  110.107  150.971
  538.568    4.211    0.414    0.143  114.078  153.427
  538.818    4.055    0.436    0.153  118.246  153.601
  539.068    3.919    0.459    0.190  120.603  151.144
  539.318    3.774    0.452    0.177  121.153  148.139
  539.568    3.628    0.435    0.153  121.512  146.770
  539.818    3.449    0.456    0.129  126.001  145.957
  540.068    3.297    0.497    0.169  128.102  145.900
  540.318    3.084    0.506    0.183  125.612  146.074
  540.568    3.052    0.485    0.173  122.357  147.990
  540.818    3.341    0.448    0.173  119.744  152.196
  541.068    3.799    0.433    0.153  117.193  154.444
  541.318    4.243    0.416    0.124  114.319  154.064
  541.568    4.703    0.406    0.100  117.585  149.859
  541.818    5.147    0.426    0.126  123.431  154.285
  542.068    5.451    0.468    0.168  129.857  155.439
  542.318    5.955    0.412    0.171  124.466  157.468
  542.568    6.353    0.372    0.183  115.849  160.036
  542.818    7.467    0.322    0.199  101.226  160.420
  543.068    9.759    0.273    0.236   69.557  151.514
  543.318   12.523    0.238    0.283   58.227  145.451
  543.568   15.777    0.218    0.327   68.914  140.365
  543.818   19.698    0.247    0.320   82.766  138.884
  544.068   22.240    0.276    0.316   92.937  137.967
  544.318   20.200    0.302    0.306   98.395  138.570
  544.568   17.526    0.337    0.284   96.294  139.167
  544.818   14.500    0.374    0.241   92.071  140.550
  545.068   12.422    0.362    0.216   96.946  142.570
  545.318   10.758    0.376    0.211  102.401  145.366
  545.568    9.665    0.391    0.220  106.891  147.391
  545.818    9.241    0.395    0.208  109.963  147.556
  546.068    9.045    0.382    0.192  114.195  147.169
  546.318    9.101    0.377    0.182  113.646  147.558
  546.568   12.024    0.383    0.196  102.058  148.160
  546.818   10.963    0.392    0.243   80.720  148.437
  547.068   13.315    0.342    0.266   56.605  148.279
  547.318   17.086    0.323    0.255   43.208  146.154
  547.568   22.657    0.332    0.262   46.342  143.258
  547.818   26.875    0.338    0.273   59.419  146.486
  548.068   22.195    0.341    0.254   76.497  148.620
  548.318   17.576    0.346    0.223   99.972  149.224
  548.568   13.369    0.359    0.184  114.338  148.840
  548.818   10.645    0.374    0.161  121.670  148.896
  549.068    8.445    0.393    0.143  129.581  149.400
  549.318    7.168    0.441    0.133  134.070  153.607
  549.568    6.451    0.470    0.143  132.231  157.385
  549.818    6.100    0.492    0.198  128.263  152.740
  550.068    6.401    0.367    0.177  120.742  147.874
  550.318    7.456    0.335    0.167  112.900  148.484
  550.568    8.295    0.330    0.160  108.220  147.775
  550.818    9.280    0.340    0.142  109.352  148.160
  551.068   10.009    0.345    0.140  110.482  149.748
  551.318   10.523    0.339    0.164  102.575  151.224
  551.568   10.607    0.345    0.177   93.375  148.005
  551.818   10.810    0.343    0.190   84.112  139.967
  552.068   11.181    0.327    0.203   75.170  141.556
  552.318   11.562    0.308    0.186   68.424  143.038
  552.568   11.805    0.289    0.163   89.831  141.564
  552.818   11.770    0.268    0.125  105.683  141.073
  553.068   11.671    0.290    0.117  134.839  144.743
  553.318   11.637    0.317    0.153  143.009  143.694
  553.568   11.601    0.341    0.158  129.548  143.105
  553.818   11.653    0.342    0.111  126.935  142.825
  554.068   11.703    0.360    0.217  134.779  142.787
  554.318   11.839    0.381    0.281  141.789  142.731
  554.568   12.088    0.376    0.263  143.371  142.126
  554.818   12.662    0.381    0.268  139.467  141.748
  555.068   13.263    0.405    0.261  131.686  141.369
  555.318   13.296    0.404    0.296  120.293  140.990
  555.568   12.969    0.395    0.310  119.812  141.054
  555.818   12.512    0.387    0.277  133.017  140.884
  556.068   12.093    0.373    0.251  138.928  141.157
  556.318   11.497    0.382    0.233  133.084  141.109
  556.568   10.911    0.396    0.253  113.037  141.057
  556.818   10.298    0.392    0.266  104.420  141.340
  557.068    9.773    0.386    0.294   99.869  141.392
  557.318    9.377    0.384    0.282  100.872  141.561
  557.568    9.096    0.378    0.265  102.261  141.621
  557.818    8.664    0.373    0.253   97.130  141.776
  558.068    8.028    0.369    0.284   98.261  141.623
  558.318    7.386    0.362    0.263  105.462  141.569
  558.568    7.164    0.354    0.254  110.982  141.635
  558.818    7.065    0.352    0.224  115.150  141.691
  559.068    7.032    0.349    0.199  117.316  141.748
  559.318    7.036    0.355    0.192  119.673  142.024
  559.568    7.054    0.347    0.190  120.031  142.409
  559.818    6.995    0.332    0.188  120.258  143.234
  560.068    6.974    0.330    0.179  122.037  143.945
  560.318    6.878    0.337    0.191  116.000  143.563
  560.568    6.819    0.347    0.199  109.770  142.199
  560.818    6.737    0.354    0.190  105.673  140.946
  561.068    6.681    0.362    0.230  105.125  140.240
  561.318    6.648    0.363    0.216  110.649  140.517
  561.568    6.677    0.348    0.195  124.888  141.881
  561.818    6.706    0.327    0.207  137.512  144.236
  562.068    6.723    0.341    0.183  141.938  147.030
  562.318    6.703    0.346    0.177  142.747  150.584
  562.568    6.707    0.341    0.189  143.233  150.974
  562.818    6.787    0.336    0.190  142.556  146.876
  563.068    6.767    0.330    0.189  140.588  148.024
  563.318    6.672    0.329    0.183  141.912  150.268
  563.568    6.508    0.323    0.174  148.469  154.807
  563.818    6.406    0.339    0.179  152.248  155.307
  564.068    6.458    0.387    0.187  150.861  152.844
  564.318    6.703    0.404    0.202  127.843  149.955
  564.568    7.177    0.412    0.204  109.475  145.521
  564.818    7.970    0.382    0.173   92.203  141.097
  565.068    8.949    0.344    0.126   73.061  137.772
  565.318    9.777    0.310    0.079   68.380  134.983
  565.568    9.929    0.334    0.134   68.284  134.497
  565.818    9.899    0.378    0.158   66.059  135.319
  566.068    9.887    0.397    0.198   53.827  136.685
  566.318    9.893    0.367    0.185   46.563  137.722
  566.568    9.991    0.303    0.106   46.984  138.663
  566.818   10.145    0.281    0.091   52.052  140.132
  567.068   10.397    0.287    0.064   62.422  141.290
  567.318   10.693    0.280    0.038   65.230  142.772
  567.568   10.997    0.279    0.037   62.812  144.246
  567.818   11.519    0.289    0.039   57.355  145.504
  568.068   12.090    0.300    0.031   48.028  146.109
  568.318   12.524    0.331    0.006   39.732  146.057
  568.568   13.167    0.318    0.012   34.729  145.677
  568.818   12.518    0.294    0.023   31.665  145.406
  569.068   11.858    0.307    0.050   27.566  145.137
  569.318   11.503    0.355    0.084   26.889  144.647
  569.568   11.448    0.381    0.112   30.282  144.483
  569.818   11.775    0.336    0.078   28.379  144.546
  570.068   12.425    0.290    0.044   29.574  144.490
  570.318   13.207    0.277    0.025   36.192  144.335
  570.568   14.166    0.270    0.014   42.233  143.840
  570.818   15.278    0.264    0.029   37.811  143.349
  571.068   16.539    0.298    0.040   33.520  142.752
  571.318   18.168    0.321    0.070   28.647  142.699
  571.568   20.142    0.333    0.077   23.772  143.088
  571.818   21.724    0.339    0.075   25.226  143.042
  572.068   22.714    0.323    0.097   28.165  149.224
  572.318   22.236    0.290    0.109   32.786  146.653
