~VERSION INFORMATION
 VERS.                 2.0:   CWLS LOG ASCII STANDARD -VERSION 2.0
 WRAP.                  NO:   ONE LINE PER DEPTH STEP
~WELL INFORMATION BLOCK
#MNEM.UNIT           DATA                    DESCRIPTION OF MNEMONIC
#---------    -------------------            -------------------------------
# Generated from Intellog Unique Number	CS_77_79/WELL/1003
WELL.         HOME LEISTER                   : Well_name    - WELL
LOC .         00/11-30-078-06W4/0            : Location     - LOCATION
UWI .         00/11-30-078-06W4/0            : Uwi          - UNIQUE WELL ID
ENTR.         JHS                            : Entered      - ENTERED BY
SRVC.         SCHLUMBERGER                   : Scn          - SERVICE COMPANY
STRT.M        137                            : top_depth    - START DEPTH
STOP.M        384.25                         : bot_depth    - STOP DEPTH
STEP.M        0.25                           : increment    - STEP LENGTH
 NULL. -999.2500:NULL Value
~CURVE INFORMATION BLOCK
#MNEM UNIT       ERCB CURVE CODE    CURVE DESCRIPTION
#-----------   ------------------   ----------------------------------
DEPT.M        00 001 00 00         : DEPTH        - DEPTH
DPHI.V/V      00 890 00 00         : PHID         - DENSITY POROSITY (LIMESTONE)
NPHI.V/V      00 330 00 00         : PHIN         - NEUTRON POROSITY (LIMESTONE)
GR  .API      00 310 00 00         : GR           - GAMMA RAY
ILD .OHMM     00 120 00 00         : RESD         - DEEP RESISTIVITY (DIL)
~PARAMETER INFORMATION
#MNEM.UNIT           DATA             DESCRIPTION OF MNEMONIC
#---------         -----------     ------------------------------
GL  .M        561.09               : gl           - GROUND LEVEL ELEVATION
EREF.M        564.09               : kb           - ELEVATION OF DEPTH REFERENCE
DATM.M        564.09               : datum        - DATUM ELEVATION
TDD .M        386                  : tdd          - TOTAL DEPTH DRILLER
RUN .         ONE                  : Run          - RUN NUMBER
ENG .         BILL                 : Engineer     - RECORDING ENGINEER
WIT .         JIM                  : Witness      - WITNESSED BY
MUD .         GEL                  : Mud_type     - MUD TYPE
MATR.         LIMESTONE            : Logunit      - NEUTRON MATRIX
TMAX.C        27                   : BHT          - MAXIMUM RECORDED TEMPERATURE
BHTD.M        386                  : BHTDEP       - MAXIMUM RECORDED TEMPERATURE
MATR.         1                    : LOGUNIT      - NEUTRON MATRIX
RMT .C        25                   : MDTP         - TEMPERATURE OF MUD
NEUT.         1                    : NEUTRON      - NEUTRON TYPE
RESI.         0                    : RESIST       - RESISTIVITY TYPE
RMC .OHMM     0.25                 : RMC          - RESISTIVITY OF MUD CAKE
RMF .OHMM     0.25                 : RMF          - RESISTIVITY OF MUD FILTRATE
SUFT.C        15                   : SUFT         - SURFACE TEMPERATURE
~A  DEPTH     PHID     PHIN       GR     RESD
# ...
  180.500    0.300    0.390   83.125   15.422
  180.750    0.296    0.362  125.884   13.547
  181.000    0.286    0.347  145.711   11.465
  181.250    0.215    0.374  138.886    9.704
  181.500    0.184    0.422  133.921    8.366
  181.750    0.193    0.435  132.055    7.213
  182.000    0.181    0.435  126.470    6.956
  182.250    0.173    0.444  119.025    7.093
  182.500    0.182    0.443  122.738    7.229
  182.750    0.169    0.468  129.549    7.941
  183.000    0.198    0.487  123.963    9.223
  183.250    0.224    0.488  116.520   11.758
  183.500    0.305    0.428  118.992   15.271
  183.750    0.326    0.421  107.210   19.109
  184.000    0.321    0.448   81.790   20.988
  184.250    0.311    0.465   78.685   21.402
  184.500    0.324    0.464   73.720   19.515
  184.750    0.330    0.401   77.431   17.789
  185.000    0.324    0.381   89.821   15.922
  185.250    0.282    0.398  102.830   14.516
  185.500    0.273    0.414  108.401   13.236
  185.750    0.280    0.403  103.435   12.761
  186.000    0.269    0.428   99.091   12.770
  186.250    0.276    0.476   99.084   13.521
  186.500    0.266    0.453   91.639   13.780
  186.750    0.246    0.405   86.056   14.582
  187.000    0.256    0.354   79.232   15.721
  187.250    0.274    0.379   74.886   16.953
  187.500    0.283    0.361   77.359   16.647
  187.750    0.260    0.353   85.409   14.899
  188.000    0.239    0.339   90.981   14.366
  188.250    0.249    0.348   76.719   15.201
  188.500    0.271    0.371   74.233   17.333
  188.750    0.268    0.391   82.282   17.671
  189.000    0.244    0.413   79.178   15.815
  189.250    0.216    0.411   80.410   14.422
  189.500    0.260    0.413   87.222   14.163
  189.750    0.287    0.394   87.213   14.174
  190.000    0.278    0.399   89.687   14.452
  190.250    0.268    0.425   86.581   14.463
  190.500    0.256    0.430   89.054   14.205
  190.750    0.255    0.366   93.385   13.444
  191.000    0.254    0.352   92.759   13.205
  191.250    0.259    0.374   98.951   12.973
  191.500    0.251    0.386  108.241   12.981
  191.750    0.255    0.399  102.655   13.236
  192.000    0.247    0.396  100.790   12.760
  192.250    0.264    0.391  111.938   12.075
  192.500    0.244    0.390  110.071   11.010
  192.750    0.241    0.401  109.446    9.853
  193.000    0.212    0.404  118.737    8.819
  193.250    0.194    0.402  128.027    8.345
  193.500    0.212    0.424  130.499    8.046
  193.750    0.210    0.473  126.774    7.905
  194.000    0.208    0.481  117.469    8.210
  194.250    0.213    0.447  111.886    9.188
  194.500    0.228    0.412  105.680   10.280
  194.750    0.246    0.429  105.673   12.165
  195.000    0.239    0.436  105.047   13.116
  195.250    0.232    0.390  101.942   13.124
  195.500    0.236    0.363  113.092   12.423
  195.750    0.226    0.369  120.523   11.755
  196.000    0.214    0.375  122.995   10.921
  196.250    0.224    0.367  123.608   10.334
  196.500    0.220    0.367  125.460    9.782
  196.750    0.227    0.381  126.692    9.430
  197.000    0.233    0.380  120.489    9.262
  197.250    0.229    0.401  118.622    9.269
  197.500    0.224    0.435  114.278    9.631
  197.750    0.226    0.462  109.313   10.189
  198.000    0.262    0.439  106.207   10.985
  198.250    0.268    0.428  104.341   12.524
  198.500    0.274    0.424  101.235   13.502
  198.750    0.286    0.430  101.229   14.288
  199.000    0.290    0.411  106.799   14.566
  199.250    0.274    0.407  104.313   14.312
  199.500    0.267    0.395  108.025   13.797
  199.750    0.254    0.395  108.639   13.553
  200.000    0.247    0.412  117.310   13.313
  200.250    0.239    0.439  121.640   13.076
  200.500    0.236    0.476  116.677   13.330
  200.750    0.226    0.520  103.654   13.846
  201.000    0.246    0.566   88.772   14.652
  201.250    0.275    0.492   73.890   15.800
  201.500    0.294    0.421   73.264   16.719
  201.750    0.269    0.396   76.976   17.043
  202.000    0.268    0.405   79.448   15.254
  202.250    0.264    0.437   88.120   13.153
  202.500    0.162    0.435   89.350   11.770
  202.750    0.102    0.424   94.924   10.149
  203.000    0.142    0.396  112.270    8.752
  203.250    0.207    0.427  112.263    7.979
  203.500    0.217    0.493  106.059    6.752
  203.750    0.225    0.470  101.094    6.511
  204.000    0.231    0.409   91.791    8.615
  204.250    0.257    0.371   89.304   11.190
  204.500    0.266    0.343   94.875   12.998
  204.750    0.255    0.346   91.769   13.250
  205.000    0.243    0.370   92.383   12.310
  205.250    0.245    0.460   99.815   12.090
  205.500    0.238    0.449   97.949   12.561
  205.750    0.274    0.450   73.769   13.289
  206.000    0.299    0.454   68.185   15.151
  206.250    0.283    0.453   67.557   17.272
  206.500    0.300    0.427   68.172   19.328
  206.750    0.307    0.408   69.405   22.453
  207.000    0.312    0.395   67.539   24.661
  207.250    0.311    0.427   66.292   26.099
  207.500    0.303    0.454   67.524   27.114
  207.750    0.303    0.388   69.378   27.639
  208.000    0.311    0.372   68.132   27.659
  208.250    0.318    0.367   68.744   28.196
  208.500    0.314    0.399   71.836   29.290
  208.750    0.310    0.409   69.970   30.432
  209.000    0.310    0.438   63.146   30.449
  209.250    0.309    0.453   69.957   30.474
  209.500    0.314    0.453   69.330   30.495
  209.750    0.305    0.435   70.562   31.088
  210.000    0.308    0.411   68.698   31.692
  210.250    0.314    0.432   59.394   32.312
  210.500    0.320    0.407   64.346   32.344
  210.750    0.337    0.397   65.578   31.180
  211.000    0.331    0.409   69.290   29.504
  211.250    0.320    0.464   74.862   26.903
  211.500    0.326    0.468   69.277   24.530
  211.750    0.327    0.451   69.889   24.093
  212.000    0.313    0.459   71.743   23.666
  212.250    0.317    0.495   72.976   24.132
  212.500    0.325    0.460   72.348   25.066
  212.750    0.331    0.436   71.723   26.034
  213.000    0.335    0.403   76.674   25.576
  213.250    0.329    0.366   82.246   24.202
  213.500    0.349    0.381   84.717   22.069
  213.750    0.360    0.448   86.571   21.678
  214.000    0.368    0.474   86.565   21.291
  214.250    0.354    0.470   79.120   19.776
  214.500    0.354    0.483   76.015   19.794
  214.750    0.358    0.511   74.146   20.561
  215.000    0.347    0.472   72.903   20.962
  215.250    0.342    0.413   70.416   22.184
  215.500    0.348    0.415   71.649   22.197
  215.750    0.351    0.435   75.361   21.400
  216.000    0.345    0.472   74.734   20.634
  216.250    0.346    0.496   75.967   20.649
  216.500    0.353    0.494   73.481   20.283
  216.750    0.353    0.507   69.136   21.073
  217.000    0.346    0.480   67.269   21.482
  217.250    0.330    0.463   66.023   21.498
  217.500    0.328    0.439   66.016   21.116
  217.750    0.335    0.434   69.109   20.741
  218.000    0.340    0.451   69.723   20.000
  218.250    0.331    0.472   69.716   19.643
  218.500    0.330    0.496   72.808   20.407
  218.750    0.219    0.366   64.743   20.802
  219.000    0.143    0.320   60.399   21.607
  219.250    0.162    0.346   65.969   22.037
  219.500    0.221    0.414   67.202   22.048
  219.750    0.307    0.451   67.196   22.062
  220.000    0.318    0.447   69.049   22.083
  220.250    0.318    0.456   67.182   22.098
  220.500    0.327    0.485   63.457   22.953
  220.750    0.334    0.518   59.113   23.838
  221.000    0.336    0.548   65.303   25.709
  221.250    0.335    0.539   65.297   26.212
  221.500    0.331    0.493   62.190   26.229
  221.750    0.329    0.460   61.564   25.760
  222.000    0.338    0.455   61.557   24.843
  222.250    0.344    0.432   60.931   24.398
  222.500    0.332    0.420   64.023   23.966
  222.750    0.323    0.453   62.775   23.542
  223.000    0.335    0.488   62.151   24.004
  223.250    0.334    0.492   64.002   24.471
  223.500    0.328    0.481   63.997   24.945
  223.750    0.328    0.512   62.751   24.965
