~VERSION INFORMATION
 VERS.                 2.0:   CWLS LOG ASCII STANDARD -VERSION 2.0
 WRAP.                  NO:   ONE LINE PER DEPTH STEP
~WELL INFORMATION BLOCK
#MNEM.UNIT           DATA                    DESCRIPTION OF MNEMONIC
#---------    -------------------            -------------------------------
# Generated from Intellog Unique Number	CW_82_90/WELL/3450
WELL.         SHERRITT LIEGE 11-18           : Well_name    - WELL
LOC .         00/11-18-090-22W4/0            : Location     - LOCATION
UWI .         00/11-18-090-22W4/0            : Uwi          - UNIQUE WELL ID
ENTR.         JJ                             : Entered      - ENTERED BY
SRVC.         WESTERN ATLAS                  : Scn          - SERVICE COMPANY
DATE.         4 FEB 89                       : Date         - LOG DATE
STRT.M        80                             : top_depth    - START DEPTH
STOP.M        240                            : bot_depth    - STOP DEPTH
STEP.M        0.25                           : increment    - STEP LENGTH
 NULL. -999.2500:NULL Value
~CURVE INFORMATION BLOCK
#MNEM UNIT       ERCB CURVE CODE    CURVE DESCRIPTION
#-----------   ------------------   ----------------------------------
DEPT.M        00 001 00 00         : DEPTH        - DEPTH
DPHI.V/V      00 890 00 00         : PHID         - DENSITY POROSITY (SANDSTONE)
NPHI.V/V      00 330 00 00         : PHIN         - NEUTRON POROSITY (SANDSTONE)
GR  .API      00 310 00 00         : GR           - GAMMA RAY
CALI.MM       00 280 01 00         : CAL          - CALIPER
ILD .OHMM     00 120 00 00         : RESD         - DEEP RESISTIVITY (DIL)
~PARAMETER INFORMATION
#MNEM.UNIT           DATA             DESCRIPTION OF MNEMONIC
#---------         -----------     ------------------------------
GL  .M        510                  : gl           - GROUND LEVEL ELEVATION
EREF.M        513.9                : kb           - ELEVATION OF DEPTH REFERENCE
DATM.M        513.9                : datum        - DATUM ELEVATION
TDD .M        240                  : tdd          - TOTAL DEPTH DRILLER
RUN .         ONE                  : Run          - RUN NUMBER
ENG .         SMYTHE               : Engineer     - RECORDING ENGINEER
WIT .         WILLIAMS             : Witness      - WITNESSED BY
BASE.         MED HAT              : Branch       - HOME BASE OF LOGGING UNIT
MUD .         GEL CAUSTIC          : Mud_type     - MUD TYPE
MATR.         SANDSTONE            : Logunit      - NEUTRON MATRIX
TMAX.C        16                   : BHT          - MAXIMUM RECORDED TEMPERATURE
BHTD.M        239.7                : BHTDEP       - MAXIMUM RECORDED TEMPERATURE
RMT .C        15                   : MDTP         - TEMPERATURE OF MUD
MUDD.KG/M     1130                 : MWT          - MUD DENSITY
NEUT.         1                    : NEUTRON      - NEUTRON TYPE
RESI.         0                    : RESIST       - RESISTIVITY TYPE
RM  .OHMM     4.5                  : RM           - RESISTIVITY OF MUD
RMC .OHMM     3.9                  : RMC          - RESISTIVITY OF MUD CAKE
RMF .OHMM     0                    : RMF          - RESISTIVITY OF MUD FILTRATE
SUFT.C        5                    : SUFT         - SURFACE TEMPERATURE
~A  DEPTH     PHID     PHIN       GR      CAL     RESD
# ...
  153.000    0.222    0.419   88.651  159.002    4.756
  153.250    0.208    0.381   95.955  162.037    4.468
  153.500    0.223    0.350  100.579  162.941    4.454
  153.750    0.170    0.359   87.717  163.234    4.391
  154.000    0.125    0.323   67.788  163.833    4.179
  154.250    0.195    0.328   93.248  164.431    3.890
  154.500    0.266    0.431  109.996  163.811    3.655
  154.750    0.251    0.434  113.584  162.987    3.544
  155.000    0.244    0.443  123.020  163.687    3.507
  155.250    0.244    0.455  118.079  164.182    3.483
  155.500    0.270    0.454  118.986  164.576    3.485
  155.750    0.271    0.448  122.635  165.073    3.468
  156.000    0.271    0.440  118.120  167.397    3.451
  156.250    0.251    0.426  111.776  169.621    3.459
  156.500    0.246    0.407  114.208  170.829    3.514
  156.750    0.246    0.435  120.049  171.325    3.588
  157.000    0.244    0.473  111.330  171.313    3.740
  157.250    0.239    0.483  104.439  171.202    3.993
  157.500    0.239    0.476  111.744  170.174    4.216
  157.750    0.262    0.450  118.804  169.453    4.646
  158.000    0.271    0.423  107.282  168.730    5.081
  158.250    0.272    0.411   98.686  167.502    5.465
  158.500    0.294    0.405   94.840  166.577    6.158
  158.750    0.298    0.396   95.139  165.956    6.697
  159.000    0.291    0.389   97.447  165.336    7.560
  159.250    0.272    0.382   90.799  164.614    8.253
  159.500    0.272    0.367   87.868  163.587    9.281
  159.750    0.288    0.352   81.708  162.662   10.284
  160.000    0.307    0.357   77.193  161.941   11.268
  160.250    0.307    0.390   69.693  161.317   11.681
  160.500    0.289    0.381   70.478  160.803   11.795
  160.750    0.261    0.373   77.539  160.282   11.522
  161.000    0.291    0.366   78.384  160.370   10.528
  161.250    0.291    0.362   81.668  161.579    8.981
  161.500    0.305    0.359   87.328  162.992    6.997
  161.750    0.305    0.371   96.155  166.332    5.710
  162.000    0.282    0.402  103.764  170.686    4.685
  162.250    0.280    0.451  112.104  172.703    4.297
  162.500    0.279    0.452  114.596  173.202    4.316
  162.750    0.279    0.441  107.583  173.495    4.532
  163.000    0.270    0.435  103.981  174.195    5.144
  163.250    0.270    0.420  101.598  174.591    5.838
  163.500    0.258    0.405   95.498  173.767    6.315
  163.750    0.293    0.388   91.228  171.318    6.203
  164.000    0.295    0.383   84.823  169.886    5.893
  164.250    0.272    0.375   88.472  170.586    5.227
  164.500    0.255    0.401   96.874  173.419    4.706
  164.750    0.261    0.426  105.031  175.438    4.613
  165.000    0.289    0.404  106.913  173.092    5.598
  165.250    0.295    0.375  103.373  167.290    6.881
  165.500    0.251    0.374   86.733  164.742    8.861
  165.750    0.244    0.384   76.551  162.394   10.151
  166.000    0.272    0.361   73.134  161.165   11.760
  166.250    0.299    0.361   73.005  160.343   12.439
  166.500    0.302    0.372   74.338  159.417   12.942
  166.750    0.296    0.387   71.469  158.900   12.782
  167.000    0.306    0.398   67.380  158.581   11.921
  167.250    0.306    0.391   66.826  158.774   11.324
  167.500    0.300    0.371   68.159  158.865   11.102
  167.750    0.303    0.366   70.346  158.953   12.210
  168.000    0.174    0.359   74.055  159.248   13.681
  168.250    0.158    0.354   59.853  159.138   13.240
  168.500    0.167    0.316   67.950  159.227   11.400
  168.750    0.278    0.331   72.695  159.418    8.833
  169.000    0.316    0.377   72.992  159.714    6.869
  169.250    0.316    0.423   78.104  159.802    4.252
  169.500    0.296    0.435   85.469  159.688    3.258
  169.750    0.285    0.437   92.834  159.680    2.614
  170.000    0.306    0.442   99.469  159.872    2.411
  170.250    0.307    0.462  104.032  160.773    2.395
  170.500    0.307    0.460  108.777  161.881    2.769
  170.750    0.284    0.451  108.648  164.104    3.367
  171.000    0.277    0.426   95.056  167.036    3.973
  171.250    0.277    0.400   95.291  168.854    4.803
  171.500    0.243    0.378   96.261  168.854    5.795
  171.750    0.245    0.371   94.181  170.652    6.815
  172.000    0.245    0.370   95.517  170.648    7.411
  172.250    0.246    0.378   96.118  170.331    8.136
  172.500    0.250    0.377   91.604  168.899    8.638
  172.750    0.254    0.371   88.367  167.569    9.276
  173.000    0.229    0.395   86.960  166.236    9.885
  173.250    0.225    0.389   84.638  166.225   10.417
  173.500    0.177    0.363   80.062  166.517   10.817
  173.750    0.190    0.338   76.034  166.610   10.745
  174.000    0.204    0.373   75.479  167.918   10.322
  174.250    0.213    0.384   78.885  168.821    9.626
  174.500    0.229    0.402   84.300  167.890    8.762
  174.750    0.261    0.401   90.935  167.176    7.687
  175.000    0.267    0.394   98.970  163.912    7.466
  175.250    0.262    0.377   96.039  162.887    7.443
  175.500    0.266    0.368   88.721  162.065    7.601
  175.750    0.266    0.378   90.176  161.137    7.996
  176.000    0.267    0.359   92.973  160.924    8.521
  176.250    0.275    0.360   84.315  160.814    8.981
  176.500    0.246    0.356   76.083  162.831    9.241
  176.750    0.227    0.347   66.816  166.070    9.144
  177.000    0.247    0.384   77.898  168.801    8.719
  177.250    0.247    0.388   86.360  167.877    8.070
  177.500    0.283    0.380   84.403  164.108    7.597
  177.750    0.283    0.368   82.873  161.863    7.297
  178.000    0.284    0.366   88.533  160.835    6.694
  178.250    0.289    0.371   84.870  160.011    6.138
  178.500    0.296    0.392   78.650  159.799    5.384
  178.750    0.299    0.408   90.828  161.310    4.019
  179.000    0.312    0.452  102.640  163.027    3.311
  179.250    0.312    0.462  106.350  163.117    3.139
  179.500    0.313    0.453  104.760  160.568    3.610
  179.750    0.311    0.436   92.384  158.830    4.316
  180.000    0.324    0.411   86.347  157.598    5.404
  180.250    0.323    0.399   79.151  157.181    7.662
  180.500    0.263    0.400   69.640  157.172   10.468
  180.750    0.233    0.395   65.125  158.275   12.870
  181.000    0.302    0.393   66.581  159.688   13.587
  181.250    0.310    0.379   69.315  162.011   12.301
  181.500    0.304    0.370   70.649  162.611   10.633
  181.750    0.290    0.367   76.492  162.600    9.824
  182.000    0.290    0.366   81.662  162.991    9.043
  182.250    0.282    0.367   84.337  164.912    8.308
  182.500    0.293    0.384   85.671  168.557    7.356
  182.750    0.300    0.393   86.883  168.850    6.721
  183.000    0.300    0.389   89.314  168.434    5.639
  183.250    0.281    0.386   92.841  167.709    4.394
  183.500    0.279    0.402   91.189  167.596    4.197
  183.750    0.281    0.434   94.168  167.484    4.334
  184.000    0.297    0.432   97.999  167.272    5.357
  184.250    0.265    0.320   94.215  167.261    7.265
  184.500    0.193    0.210   84.582  168.062   10.790
  184.750    0.085    0.193   64.348  168.457   14.634
  185.000    0.014    0.186   56.786  169.665   15.139
  185.250    0.078    0.217   64.030  170.973   14.356
  185.500    0.233    0.289   92.354  171.268   13.044
  185.750    0.179    0.359   92.895  169.429   11.191
  186.000    0.177    0.357   86.857  165.051    9.872
  186.250    0.247    0.376   88.495  165.648    8.724
  186.500    0.268    0.369   93.120  169.192    7.986
  186.750    0.267    0.358  101.277  169.587    8.171
  187.000    0.245    0.365  100.052  168.559    8.772
  187.250    0.245    0.357   95.232  168.550    9.401
  187.500    0.258    0.356   94.494  168.539   10.019
  187.750    0.261    0.364   94.853  168.322   10.462
  188.000    0.252    0.356   92.775  168.209   10.606
  188.250    0.252    0.356   95.022  167.895   10.206
  188.500    0.262    0.356   96.965  167.680    8.708
  188.750    0.266    0.363   92.206  167.569    8.257
  189.000    0.255    0.357   88.423  167.049    8.231
  189.250    0.242    0.356   91.035  166.531    9.053
