~VERSION INFORMATION
 VERS.                 2.0:   CWLS LOG ASCII STANDARD -VERSION 2.0
 WRAP.                  NO:   ONE LINE PER DEPTH STEP
~WELL INFORMATION BLOCK
#MNEM.UNIT           DATA                    DESCRIPTION OF MNEMONIC
#---------    -------------------            -------------------------------
# Generated from Intellog Unique Number	CW_73_75/WELL/1043
WELL.         ENSERCH ET AL MARTEN H 11-20   : Well_name    - WELL
LOC .         00/11-20-074-23W4/0            : Location     - LOCATION
UWI .         00/11-20-074-23W4/0            : Uwi          - UNIQUE WELL ID
ENTR.         JAYE                           : Entered      - ENTERED BY
SRVC.         SCHLUMBERGER                   : Scn          - SERVICE COMPANY
DATE.         3 MAR 76                       : Date         - LOG DATE
STRT.M        411.48                         : top_depth    - START DEPTH
STOP.M        624.73                         : bot_depth    - STOP DEPTH
STEP.M        0.25                           : increment    - STEP LENGTH
 NULL. -999.2500:NULL Value
~CURVE INFORMATION BLOCK
#MNEM UNIT       ERCB CURVE CODE    CURVE DESCRIPTION
#-----------   ------------------   ----------------------------------
DEPT.M        00 001 00 00         : DEPTH        - DEPTH
ILD .OHMM     00 120 00 00         : RESD         - DEEP RESISTIVITY (DIL)
DPHI.V/V      00 890 00 00         : PHID         - DENSITY POROSITY (SANDSTONE)
NPHI.V/V      00 330 00 00         : PHIN         - NEUTRON POROSITY (SANDSTONE)
GR  .API      00 310 00 00         : GR           - GAMMA RAY
CALI.MM       00 280 01 00         : CAL          - CALIPER
~PARAMETER INFORMATION
#MNEM.UNIT           DATA             DESCRIPTION OF MNEMONIC
#---------         -----------     ------------------------------
GL  .M        690.524              : gl           - GROUND LEVEL ELEVATION
EREF.M        694.03               : kb           - ELEVATION OF DEPTH REFERENCE
DATM.M        690.524              : datum        - DATUM ELEVATION
TDD .M        640.08               : tdd          - TOTAL DEPTH DRILLER
RUN .         ONE                  : Run          - RUN NUMBER
BASE.         EDM                  : Branch       - HOME BASE OF LOGGING UNIT
MUD .         GEL CHEM             : Mud_type     - MUD TYPE
MATR.         SANDSTONE            : Logunit      - NEUTRON MATRIX
TMAX.C        28.3333              : BHT          - MAXIMUM RECORDED TEMPERATURE
BHTD.M        640.69               : BHTDEP       - MAXIMUM RECORDED TEMPERATURE
RMT .C        13.8889              : MDTP         - TEMPERATURE OF MUD
MUDD.KG/M     0                    : MWT          - MUD DENSITY
NEUT.         1                    : NEUTRON      - NEUTRON TYPE
RESI.         0                    : RESIST       - RESISTIVITY TYPE
RM  .OHMM     2.7                  : RM           - RESISTIVITY OF MUD
RMC .OHMM     0                    : RMC          - RESISTIVITY OF MUD CAKE
RMF .OHMM     2.2                  : RMF          - RESISTIVITY OF MUD FILTRATE
SUFT.C        -17.7778             : SUFT         - SURFACE TEMPERATURE
~A  DEPTH     RESD     PHID     PHIN       GR      CAL
# ...
  520.980   20.698    0.137    0.252   49.046  152.810
  521.230   17.899    0.213    0.304   50.224  153.812
  521.480   13.505    0.264    0.353   55.766  152.718
  521.730   11.906    0.309    0.413   54.274  148.096
  521.980   11.355    0.322    0.423   51.023  146.230
  522.230   11.680    0.323    0.416   49.531  145.139
  522.480   12.597    0.315    0.418   52.533  145.037
  522.730   13.770    0.261    0.428   55.079  145.378
  522.980   13.688    0.234    0.410   57.430  147.595
  523.230   13.487    0.196    0.367   62.320  149.368
  523.480   13.269    0.211    0.375   68.579  147.061
  523.730   13.133    0.274    0.397   73.404  144.976
  523.980   13.133    0.269    0.423   76.276  144.655
  524.230   13.133    0.245    0.443   81.167  144.997
  524.480   13.508    0.252    0.455   84.169  145.557
  524.730   13.895    0.246    0.444   85.217  146.449
  524.980   13.998    0.242    0.430   87.243  147.562
  525.230   14.040    0.240    0.437   88.290  149.005
  525.480   13.916    0.232    0.448   89.533  149.899
  525.730   13.773    0.249    0.452   86.087  149.356
  525.980   13.752    0.247    0.435   84.986  147.932
  526.230   14.230    0.225    0.419   85.512  147.943
  526.480   14.944    0.223    0.406   85.063  148.724
  526.730   15.740    0.225    0.403   85.198  149.946
  526.980   16.094    0.220    0.411   87.289  153.265
  527.230   15.905    0.212    0.424   90.876  157.245
  527.480   15.648    0.212    0.436   96.028  156.815
  527.730   15.509    0.216    0.442   96.164  154.839
  527.980   15.395    0.226    0.444   95.063  153.746
  528.230   15.396    0.232    0.447   96.306  152.543
  528.480   15.556    0.221    0.447   97.875  153.104
  528.730   15.742    0.209    0.439   97.099  154.327
  528.980   15.931    0.213    0.443   97.691  156.101
  529.230   16.073    0.209    0.447  101.540  156.994
  529.480   15.955    0.209    0.432   99.396  156.783
  529.730   15.397    0.199    0.431   98.490  157.123
  529.980   15.104    0.202    0.430  101.232  157.022
  530.230   15.059    0.210    0.419  100.586  156.481
  530.480   15.037    0.205    0.414   99.941  156.161
  530.730   15.127    0.210    0.416   98.839  155.949
  530.980   15.172    0.206    0.421  100.278  155.518
  531.230   15.127    0.198    0.424  105.429  154.205
  531.480   15.105    0.190    0.430  101.592  153.773
  531.730   15.106    0.200    0.458   99.448  154.665
  531.980   15.084    0.205    0.457   95.416  155.447
  532.230   15.084    0.232    0.432   94.771  151.817
  532.480   15.174    0.211    0.420   94.516  147.195
  532.730   15.287    0.214    0.422   92.698  145.992
  532.980   15.585    0.235    0.428   89.642  145.892
  533.230   16.126    0.240    0.425   87.433  146.343
  533.480   16.464    0.225    0.417   86.658  147.345
  533.730   16.686    0.191    0.407   89.139  148.457
  533.980   16.761    0.198    0.404   94.290  150.121
  534.230   16.612    0.209    0.417   94.882  151.013
  534.480   16.127    0.211    0.429   96.516  149.039
  534.730   15.656    0.210    0.439   97.694  147.946
  534.980   15.449    0.209    0.449   96.528  147.625
  535.230   15.313    0.222    0.437   97.575  147.744
  535.480   15.200    0.223    0.419   99.601  147.975
  535.730   15.110    0.211    0.410   98.173  148.646
  535.980   15.088    0.206    0.402   96.551  149.538
  536.230   15.088    0.190    0.408   96.752  149.768
  536.480   15.044    0.188    0.427   97.279  148.344
  536.730   15.000    0.205    0.437   97.675  147.361
  536.980   15.089    0.218    0.428   98.593  149.356
  537.230   15.179    0.224    0.428  103.744  152.454
  537.480   15.180    0.221    0.435  103.685  153.898
  537.730   15.180    0.212    0.443   97.764  155.122
  537.980   15.135    0.214    0.440   97.900  155.462
  538.230   15.091    0.226    0.436  101.032  154.369
  538.480   15.136    0.222    0.432   99.475  153.498
  538.730   15.181    0.211    0.424   95.898  155.271
  538.980   15.204    0.222    0.427   98.509  153.516
  539.230   15.227    0.215    0.428   97.082  150.327
  539.480   15.250    0.207    0.424   96.762  151.220
  539.730   15.273    0.210    0.429   99.113  153.325
  539.980   15.273    0.209    0.428   99.575  156.423
  540.230   15.341    0.209    0.420   99.385  158.198
  540.480   15.410    0.196    0.408   99.391  157.435
  540.730   15.502    0.206    0.398   99.918  156.011
  540.980   15.595    0.212    0.408   98.491  155.138
  541.230   15.595    0.202    0.415  103.446  154.817
  541.480   15.688    0.190    0.421  102.866  154.386
  541.730   15.758    0.196    0.430   94.861  152.191
  541.980   15.712    0.216    0.439   90.893  150.546
  542.230   15.504    0.203    0.433   89.987  148.901
  542.480   14.962    0.206    0.421   92.142  148.249
  542.730   14.698    0.219    0.426   94.558  149.913
  542.980   14.569    0.229    0.417   99.254  152.129
  543.230   14.569    0.203    0.414  101.930  154.675
  543.480   14.634    0.199    0.425  103.108  158.435
  543.730   14.700    0.220    0.432  100.899  158.888
  543.980   14.765    0.218    0.418   95.629  158.235
  544.230   14.876    0.215    0.429   95.115  157.032
  544.480   15.053    0.209    0.447   99.809  153.401
  544.730   15.347    0.186    0.459   98.903  153.852
  544.980   15.903    0.217    0.468   85.882  154.965
  545.230   18.093    0.213    0.462   75.466  152.218
  545.480   20.462    0.243    0.434   68.634  148.147
  545.730   24.739    0.285    0.424   64.927  145.288
  545.980   30.222    0.268    0.411   61.219  143.424
  546.230   36.484    0.247    0.396   57.382  142.771
  546.480   43.268    0.226    0.385   55.108  142.892
  546.730   50.557    0.231    0.369   53.551  143.454
  546.980   56.088    0.225    0.349   55.120  143.132
  547.230   57.011    0.217    0.333   57.601  145.457
  547.480   55.019    0.227    0.333   62.623  147.232
  547.730   47.579    0.200    0.318   72.528  145.698
  547.980   38.036    0.194    0.316   82.239  144.275
  548.230   25.869    0.189    0.356   91.820  144.945
  548.480   20.437    0.189    0.374   92.087  148.154
  548.730   18.865    0.218    0.387   90.594  151.142
  548.980   19.491    0.212    0.392   85.845  153.578
  549.230   23.425    0.187    0.382   78.946  155.904
  549.480   26.651    0.156    0.358   65.404  156.576
  549.730   30.773    0.091    0.305   60.981  154.711
  549.980   32.946    0.042    0.217   69.650  153.837
  550.230   32.031    0.054    0.214   87.242  153.406
  550.480   29.436    0.094    0.251   95.259  152.975
  550.730   26.067    0.121    0.360   98.783  152.764
  550.980   23.152    0.149    0.363   98.267  152.664
  551.230   20.532    0.139    0.360   98.337  152.674
  551.480   19.094    0.158    0.378   97.236  152.683
  551.730   18.263    0.171    0.398   95.549  152.803
  551.980   17.704    0.188    0.398   99.332  152.814
  552.230   17.470    0.178    0.392   97.840  152.823
  552.480   17.548    0.170    0.386   97.585  152.723
  552.730   17.626    0.147    0.384   97.851  152.843
  552.980   17.732    0.166    0.388   96.033  152.963
  553.230   17.970    0.159    0.391   95.388  152.974
  553.480   18.185    0.179    0.392   95.784  152.983
  553.730   18.293    0.191    0.404   98.005  152.772
  553.980   18.186    0.184    0.413  101.137  152.673
  554.230   17.839    0.171    0.411   98.863  152.571
  554.480   17.164    0.174    0.404   97.762  152.691
  554.730   16.713    0.181    0.401   99.721  152.922
  554.980   16.963    0.187    0.405   98.229  152.932
  555.230   17.422    0.177    0.413   94.197  153.382
  555.480   17.920    0.171    0.398   90.359  153.833
  555.730   18.107    0.169    0.382   88.606  154.284
  555.980   18.081    0.182    0.383   93.432  154.625
  556.230   17.815    0.187    0.401  100.668  154.635
  556.480   17.372    0.178    0.412  103.084  154.534
  556.730   17.015    0.177    0.408  103.025  154.544
  556.980   16.890    0.183    0.403   99.904  154.665
  557.230   16.890    0.180    0.408   98.608  155.225
