~VERSION INFORMATION
 VERS.                 2.0:   CWLS LOG ASCII STANDARD -VERSION 2.0
 WRAP.                  NO:   ONE LINE PER DEPTH STEP
~WELL INFORMATION BLOCK
#MNEM.UNIT           DATA                    DESCRIPTION OF MNEMONIC
#---------    -------------------            -------------------------------
# Generated from Intellog Unique Number	CW_73_75/WELL/1038
WELL.         CDN SUP ET AL FRANCIS 11-13    : Well_name    - WELL
LOC .         00/11-13-075-20W4/0            : Location     - LOCATION
UWI .         00/11-13-075-20W4/0            : Uwi          - UNIQUE WELL ID
ENTR.         JAYE                           : Entered      - ENTERED BY
SRVC.         SCHLUMBERGER                   : Scn          - SERVICE COMPANY
DATE.         2 FEB 77                       : Date         - LOG DATE
STRT.M        292.608                        : top_depth    - START DEPTH
STOP.M        496.858                        : bot_depth    - STOP DEPTH
STEP.M        0.25                           : increment    - STEP LENGTH
 NULL. -999.2500:NULL Value
~CURVE INFORMATION BLOCK
#MNEM UNIT       ERCB CURVE CODE    CURVE DESCRIPTION
#-----------   ------------------   ----------------------------------
DEPT.M        00 001 00 00         : DEPTH        - DEPTH
ILD .OHMM     00 120 00 00         : RESD         - DEEP RESISTIVITY (DIL)
NPHI.V/V      00 330 00 00         : PHIN         - NEUTRON POROSITY (SANDSTONE)
DPHI.V/V      00 890 00 00         : PHID         - DENSITY POROSITY (SANDSTONE)
GR  .API      00 310 00 00         : GR           - GAMMA RAY
CALI.MM       00 280 01 00         : CAL          - CALIPER
~PARAMETER INFORMATION
#MNEM.UNIT           DATA             DESCRIPTION OF MNEMONIC
#---------         -----------     ------------------------------
GL  .M        611.734              : gl           - GROUND LEVEL ELEVATION
EREF.M        616.001              : kb           - ELEVATION OF DEPTH REFERENCE
DATM.M        611.734              : datum        - DATUM ELEVATION
TDD .M        548.64               : tdd          - TOTAL DEPTH DRILLER
RUN .         ONE                  : Run          - RUN NUMBER
ENG .         LEDUC                : Engineer     - RECORDING ENGINEER
WIT .         KELLY                : Witness      - WITNESSED BY
BASE.         EDM                  : Branch       - HOME BASE OF LOGGING UNIT
MUD .         GEL CHEM             : Mud_type     - MUD TYPE
MATR.         SANDSTONE            : Logunit      - NEUTRON MATRIX
TMAX.C        100082               : BHT          - MAXIMUM RECORDED TEMPERATURE
BHTD.M        548.945              : BHTDEP       - MAXIMUM RECORDED TEMPERATURE
RMT .C        16.1111              : MDTP         - TEMPERATURE OF MUD
MUDD.KG/M     0                    : MWT          - MUD DENSITY
NEUT.         1                    : NEUTRON      - NEUTRON TYPE
RESI.         0                    : RESIST       - RESISTIVITY TYPE
RM  .OHMM     4                    : RM           - RESISTIVITY OF MUD
RMC .OHMM     0                    : RMC          - RESISTIVITY OF MUD CAKE
RMF .OHMM     4.32                 : RMF          - RESISTIVITY OF MUD FILTRATE
SUFT.C        -17.7778             : SUFT         - SURFACE TEMPERATURE
~A  DEPTH     RESD     PHIN     PHID       GR      CAL
# ...
  475.108    5.171    0.368    0.086  122.101  170.982
  475.358    5.694    0.386    0.115  121.384  171.616
  475.608    6.120    0.389    0.152  123.032  173.879
  475.858    6.375    0.390    0.144  125.946  175.748
  476.108    6.483    0.409    0.152  126.858  177.309
  476.358    6.568    0.434    0.162  126.996  178.556
  476.608    6.593    0.404    0.155  126.097  174.987
  476.858    6.581    0.379    0.116  125.267  172.748
  477.108    6.558    0.377    0.102  125.157  172.976
  477.358    6.522    0.369    0.088  130.793  174.637
  477.608    6.487    0.357    0.088  133.649  175.781
  477.858    6.500    0.373    0.136  132.993  174.467
  478.108    6.610    0.417    0.142  132.398  173.770
  478.358    6.746    0.419    0.128  133.134  176.859
  478.608    6.962    0.403    0.124  133.331  169.301
  478.858    7.266    0.372    0.135  134.426  169.921
  479.108    7.681    0.353    0.133  130.991  173.945
  479.358    8.165    0.363    0.136  125.136  178.779
  479.608    8.777    0.374    0.154  116.977  178.903
  479.858    9.347    0.386    0.137  109.731  175.750
  480.108    9.790    0.418    0.198   99.757  173.097
  480.358   10.217    0.425    0.300   97.352  170.153
  480.608   10.143    0.421    0.340   93.672  167.709
  480.858   11.251    0.429    0.285   83.462  166.595
  481.108   12.273    0.469    0.412   73.974  166.008
  481.358   13.047    0.453    0.456   66.544  165.823
  481.608   13.540    0.425    0.364   70.121  166.145
  481.858   13.794    0.370    0.304   74.128  166.773
  482.108   13.694    0.293    0.268   78.253  167.401
  482.358   13.595    0.319    0.260   84.978  167.642
  482.608   13.151    0.340    0.235   89.045  167.660
  482.858   12.329    0.370    0.221   93.171  168.294
  483.108   11.220    0.376    0.211   97.175  168.913
  483.358   10.231    0.376    0.202  104.322  169.246
  483.608    9.328    0.372    0.188  114.617  169.778
  483.858    8.761    0.353    0.163  130.481  169.804
  484.108    8.122    0.344    0.142  141.381  170.130
  484.358    7.685    0.351    0.119  145.503  171.070
  484.608    7.352    0.387    0.109  137.589  176.213
  484.858    7.205    0.375    0.112  131.676  180.124
  485.108    7.126    0.329    0.144  137.791  170.203
  485.358    7.220    0.318    0.128  141.436  169.196
  485.608    7.315    0.342    0.137  145.375  167.582
  485.858    7.397    0.338    0.107  148.961  168.826
  486.108    7.550    0.330    0.095  152.118  170.787
  486.358    7.692    0.328    0.119  151.645  172.247
  486.608    7.851    0.332    0.131  146.816  172.055
  486.858    8.028    0.322    0.138  140.900  171.461
  487.108    8.239    0.325    0.150  138.733  170.866
  487.358    8.456    0.341    0.182  141.525  170.066
  487.608    8.890    0.345    0.203  144.684  169.156
  487.858    9.574    0.343    0.152  146.812  169.184
  488.108   10.065    0.344    0.134  138.294  169.513
  488.358   10.388    0.337    0.158  132.438  169.215
  488.608   10.274    0.335    0.188  129.545  169.538
  488.858    9.921    0.348    0.206  133.183  169.977
  489.108    9.597    0.382    0.220  136.645  171.017
  489.358    9.232    0.404    0.241  120.928  171.346
  489.608    9.014    0.408    0.271  112.893  171.367
  489.858    9.065    0.393    0.292  112.420  170.052
  490.108    9.425    0.376    0.305  127.797  169.148
  490.358   10.339    0.367    0.296  138.093  168.754
  490.608   11.597    0.352    0.262  144.516  168.263
  490.858   12.035    0.334    0.239  148.760  168.078
  491.108   11.794    0.319    0.217  143.571  167.784
  491.358   10.306    0.317    0.201  137.774  167.400
  491.608    9.259    0.328    0.190  132.036  166.597
  491.858    8.489    0.332    0.213  127.090  166.203
  492.108    7.870    0.335    0.203  121.232  165.809
  492.358    6.603    0.330    0.188  114.346  165.628
  492.608    6.010    0.320    0.173  108.065  165.449
  492.858    5.728    0.321    0.214  106.984  165.566
  493.108    5.614    0.325    0.217  108.628  165.686
  493.358    5.772    0.332    0.206  108.338  165.706
  493.608    5.957    0.343    0.165   99.218  165.718
  493.858    6.451    0.337    0.187   86.284  165.749
  494.108    7.747    0.313    0.178   75.102  165.255
  494.358    9.443    0.294    0.119   66.161  164.558
  494.608   11.812    0.261    0.026   61.030  165.075
  494.858   12.745    0.252    0.031   57.047  165.109
  495.108   13.226    0.259    0.052   52.641  165.012
  495.358   13.375    0.267    0.057   51.139  164.735
  495.608   13.278    0.271    0.070   52.665  164.236
  495.858   13.084    0.288    0.087   53.583  164.258
  496.108   12.289    0.285    0.084   54.201  164.583
  496.358   11.498    0.278    0.067   61.291  164.608
  496.608   10.085    0.267    0.038   66.197  164.716
  496.858    8.813    0.298    0.025   71.959  164.746
