~VERSION INFORMATION
 VERS.                 2.0:   CWLS LOG ASCII STANDARD -VERSION 2.0
 WRAP.                  NO:   ONE LINE PER DEPTH STEP
~WELL INFORMATION BLOCK
#MNEM.UNIT           DATA                    DESCRIPTION OF MNEMONIC
#---------    -------------------            -------------------------------
# Generated from Intellog Unique Number	CS_73_76/WELL/3269
WELL.         BAILEY SELBURN OIL & GAS       : Well_name    - WELL
LOC .         00/11-35-075-18W4/0            : Location     - LOCATION
UWI .         00/11-35-075-18W4/0            : Uwi          - UNIQUE WELL ID
ENTR.         SP                             : Entered      - ENTERED BY
SRVC.         SCHLUMBERGER                   : Scn          - SERVICE COMPANY
STRT.M        243.84                         : top_depth    - START DEPTH
STOP.M        450.84                         : bot_depth    - STOP DEPTH
STEP.M        0.25                           : increment    - STEP LENGTH
 NULL. -999.2500:NULL Value
~CURVE INFORMATION BLOCK
#MNEM UNIT       ERCB CURVE CODE    CURVE DESCRIPTION
#-----------   ------------------   ----------------------------------
DEPT.M        00 001 00 00         : DEPTH        - DEPTH
GR  .API      00 310 00 00         : GR           - GAMMA RAY
DPHI.V/V      00 890 00 00         : PHID         - DENSITY POROSITY (SANDSTONE)
NPHI.V/V      00 330 00 00         : PHIN         - NEUTRON POROSITY (SANDSTONE)
ILD .OHMM     00 120 00 00         : RESD         - DEEP RESISTIVITY (DIL)
~PARAMETER INFORMATION
#MNEM.UNIT           DATA             DESCRIPTION OF MNEMONIC
#---------         -----------     ------------------------------
GL  .M        598.932              : gl           - GROUND LEVEL ELEVATION
EREF.M        598.932              : kb           - ELEVATION OF DEPTH REFERENCE
DATM.M        598.932              : datum        - DATUM ELEVATION
TDD .M        459.029              : tdd          - TOTAL DEPTH DRILLER
RUN .         ONE                  : Run          - RUN NUMBER
ENG .         BILL                 : Engineer     - RECORDING ENGINEER
WIT .         JIM                  : Witness      - WITNESSED BY
MUD .         GEL                  : Mud_type     - MUD TYPE
MATR.         SANDSTONE            : Logunit      - NEUTRON MATRIX
TMAX.C        26.6667              : BHT          - MAXIMUM RECORDED TEMPERATURE
BHTD.M        559.308              : BHTDEP       - MAXIMUM RECORDED TEMPERATURE
MATR.         1                    : LOGUNIT      - NEUTRON MATRIX
RMT .C        25                   : MDTP         - TEMPERATURE OF MUD
NEUT.         1                    : NEUTRON      - NEUTRON TYPE
RESI.         0                    : RESIST       - RESISTIVITY TYPE
RMC .OHMM     0.25                 : RMC          - RESISTIVITY OF MUD CAKE
RMF .OHMM     0.25                 : RMF          - RESISTIVITY OF MUD FILTRATE
SUFT.C        15                   : SUFT         - SURFACE TEMPERATURE
~A  DEPTH       GR     PHID     PHIN     RESD
# ...
  287.340   74.272    0.284    0.464   18.262
  287.590   77.020    0.291    0.460   16.654
  287.840   79.025    0.299    0.461   15.060
  288.090   80.801    0.294    0.471   12.314
  288.340   83.076    0.295    0.461   10.188
  288.590   84.911    0.286    0.451    9.091
  288.840   86.740    0.277    0.441    8.377
  289.090   89.151    0.271    0.433    8.148
  289.340   91.618    0.270    0.438    8.216
  289.590   90.841    0.269    0.436    8.461
  289.840   86.708    0.276    0.432    8.577
  290.090   82.915    0.279    0.424    8.784
  290.340   83.940    0.265    0.443    8.774
  290.590   87.438    0.254    0.453    8.653
  290.840   90.381    0.247    0.453    8.355
  291.090   92.368    0.269    0.449    7.692
  291.340   93.464    0.263    0.442    7.101
  291.590   92.779    0.267    0.442    6.643
  291.840   90.679    0.256    0.466    5.863
  292.090   85.324    0.280    0.478    5.286
  292.340   81.627    0.303    0.472    4.911
  292.590   81.485    0.330    0.466    4.745
  292.840   77.558    0.297    0.487    5.843
  293.090   63.897    0.355    0.513    7.938
  293.340   50.045    0.493    0.539   10.183
  293.590   41.921    0.519    0.571   14.314
  293.840   46.687    0.435    0.660   18.865
  294.090   52.969    0.393    0.581   24.270
  294.340   56.413    0.342    0.442   28.827
  294.590   57.525    0.323    0.437   32.365
  294.840   56.844    0.322    0.442   36.202
  295.090   54.787    0.331    0.457   38.440
  295.340   52.192    0.337    0.473   39.590
  295.590   51.041    0.343    0.437   39.283
  295.840   52.190    0.338    0.429   38.162
  296.090   52.230    0.333    0.419   37.664
  296.340   50.465    0.327    0.422   35.425
  296.590   49.473    0.325    0.432   34.062
  296.840   48.324    0.326    0.439   32.448
  297.090   49.736    0.329    0.441   31.458
  297.340   51.493    0.333    0.442   31.152
  297.590   51.706    0.329    0.437   30.616
  297.840   51.657    0.326    0.435   30.008
  298.090   52.673    0.331    0.442   29.493
  298.340   54.438    0.335    0.450   29.203
  298.590   54.750    0.328    0.460   28.284
  298.840   56.886    0.328    0.452   27.443
  299.090   57.345    0.336    0.463   26.845
  299.340   57.033    0.333    0.441   26.914
  299.590   57.094    0.324    0.425   27.840
  299.840   56.579    0.316    0.425   28.326
  300.090   57.706    0.318    0.428   28.936
  300.340   58.677    0.323    0.422   29.491
  300.590   59.204    0.326    0.421   29.493
  300.840   57.051    0.336    0.425   28.904
  301.090   56.537    0.339    0.431   28.964
  301.340   57.851    0.339    0.446   28.250
  301.590   58.328    0.332    0.456   26.896
  301.840   57.297    0.329    0.454   25.548
  302.090   57.134    0.340    0.456   24.403
  302.340   56.520    0.343    0.458   23.686
  302.590   57.431    0.346    0.471   22.540
  302.840   58.417    0.343    0.468   21.481
  303.090   59.321    0.329    0.455   20.880
  303.340   61.990    0.330    0.445   20.593
  303.590   63.926    0.328    0.438   20.337
  303.840   65.138    0.325    0.439   19.971
  304.090   64.932    0.314    0.444   19.444
  304.340   64.476    0.305    0.449   19.257
  304.590   65.159    0.295    0.456   18.343
  304.840   66.310    0.296    0.464   17.465
  305.090   74.447    0.303    0.461   16.386
  305.340   77.447    0.309    0.450   15.852
  305.590   77.830    0.307    0.440   15.325
  305.840   75.791    0.310    0.440   14.857
  306.090   72.494    0.313    0.438   14.431
  306.340   70.582    0.317    0.434   14.304
  306.590   68.932    0.309    0.428   14.041
  306.840   69.233    0.304    0.425   14.055
  307.090   70.686    0.299    0.425   14.054
  307.340   71.745    0.299    0.427   13.870
  307.590   71.810    0.300    0.434   13.731
  307.840   70.148    0.301    0.440   13.547
  308.090   69.070    0.308    0.444   13.268
  308.340   68.773    0.317    0.439   13.291
  308.590   68.241    0.323    0.429   13.275
  308.840   68.080    0.324    0.425   13.665
  309.090   66.349    0.325    0.424   14.078
  309.340   64.395    0.318    0.423   14.501
  309.590   61.958    0.312    0.423   14.860
  309.840   60.239    0.309    0.417   14.837
  310.090   56.951    0.312    0.411   14.650
  310.340   55.068    0.311    0.418   14.125
  310.590   52.425    0.312    0.426   13.529
  310.840   50.310    0.326    0.420   13.249
  311.090   49.848    0.332    0.415   13.202
  311.340   49.329    0.331    0.431   13.264
  311.590   49.073    0.327    0.440   12.998
  311.840   48.058    0.322    0.447   13.026
  312.090   46.463    0.318    0.448   13.027
  312.340   46.331    0.316    0.442   13.025
  312.590   46.283    0.315    0.430   13.023
  312.840   45.263    0.316    0.425   13.022
  313.090   44.456    0.318    0.428   13.021
  313.340   44.507    0.320    0.418   13.019
  313.590   45.105    0.322    0.410   13.020
  313.840   45.870    0.324    0.423   13.032
  314.090   44.592    0.324    0.434   12.787
  314.340   44.270    0.317    0.436   12.806
  314.590   44.629    0.317    0.431   12.521
  314.840   45.155    0.321    0.428   12.538
  315.090   44.865    0.323    0.424   12.423
  315.340   44.631    0.316    0.428   12.313
  315.590   45.148    0.327    0.437   12.306
  315.840   46.063    0.333    0.443   12.306
  316.090   47.052    0.334    0.449   12.304
  316.340   48.123    0.329    0.455   12.303
  316.590   48.328    0.325    0.459   12.302
  316.840   47.041    0.325    0.447   12.300
  317.090   47.026    0.324    0.442   12.299
  317.340   47.969    0.324    0.436   12.298
  317.590   49.483    0.332    0.426   12.296
  317.840   49.773    0.334    0.421   12.301
  318.090   50.776    0.334    0.428   12.329
  318.340   50.706    0.329    0.437   12.528
  318.590   51.798    0.328    0.447   12.521
  318.840   50.589    0.324    0.449   12.518
  319.090   51.464    0.319    0.452   12.518
  319.340   53.458    0.309    0.441   12.535
  319.590   54.444    0.310    0.436   12.282
  319.840   53.050    0.323    0.440   12.151
  320.090   51.205    0.329    0.441   11.776
  320.340   49.597    0.318    0.436   11.412
  320.590   49.303    0.317    0.441   11.279
  320.840   48.417    0.313    0.446   11.162
  321.090   49.461    0.321    0.441   10.988
  321.340   50.875    0.325    0.433   11.010
  321.590   51.558    0.328    0.428   10.775
  321.840   52.054    0.319    0.439   10.786
  322.090   51.859    0.314    0.445   10.703
  322.340   50.827    0.316    0.442   10.589
  322.590   50.323    0.322    0.436   10.644
  322.840   50.892    0.324    0.431    9.957
  323.090   51.465    0.322    0.433   10.016
  323.340   52.487    0.319    0.439    9.996
  323.590   53.629    0.319    0.441   10.219
  323.840   55.118    0.324    0.435   10.198
  324.090   56.355    0.326    0.427   10.203
  324.340   59.140    0.328    0.417   10.227
  324.590   60.671    0.329    0.424   10.396
  324.840   59.811    0.326    0.438   10.477
  325.090   58.119    0.317    0.450   10.573
  325.340   57.748    0.313    0.453   10.574
  325.590   56.364    0.317    0.451   10.557
  325.840   55.826    0.319    0.442   10.773
  326.090   57.570    0.317    0.447   10.806
  326.340   57.580    0.310    0.448   10.336
  326.590   58.851    0.308    0.438   10.377
  326.840   59.901    0.307    0.447   10.377
  327.090   60.005    0.305    0.454   10.384
  327.340   59.019    0.308    0.455   10.200
  327.590   57.310    0.311    0.449   10.187
  327.840   56.355    0.315    0.450   10.182
  328.090   55.846    0.319    0.456   10.176
  328.340   55.824    0.317    0.458   10.098
  328.590   56.549    0.314    0.463    9.994
  328.840   57.590    0.313    0.457    9.990
  329.090   57.553    0.314    0.450    9.989
  329.340   56.508    0.313    0.437    9.988
  329.590   56.450    0.313    0.431    9.993
  329.840   57.126    0.315    0.428   10.034
  330.090   58.285    0.321    0.426   10.173
  330.340   59.646    0.319    0.437   10.161
  330.590   60.826    0.313    0.449   10.439
