~VERSION INFORMATION
 VERS.                 2.0:   CWLS LOG ASCII STANDARD -VERSION 2.0
 WRAP.                  NO:   ONE LINE PER DEPTH STEP
~WELL INFORMATION BLOCK
#MNEM.UNIT           DATA                    DESCRIPTION OF MNEMONIC
#---------    -------------------            -------------------------------
# Generated from Intellog Unique Number	CS_73_76/WELL/2193
WELL.         AMOCO CONKLIN                  : Well_name    - WELL
LOC .         00/10-25-074-07W4/0            : Location     - LOCATION
UWI .         00/10-25-074-07W4/0            : Uwi          - UNIQUE WELL ID
ENTR.         SP                             : Entered      - ENTERED BY
SRVC.         SCHLUMBERGER                   : Scn          - SERVICE COMPANY
STRT.M        252.984                        : top_depth    - START DEPTH
STOP.M        471.484                        : bot_depth    - STOP DEPTH
STEP.M        0.25                           : increment    - STEP LENGTH
 NULL. -999.2500:NULL Value
~CURVE INFORMATION BLOCK
#MNEM UNIT       ERCB CURVE CODE    CURVE DESCRIPTION
#-----------   ------------------   ----------------------------------
DEPT.M        00 001 00 00         : DEPTH        - DEPTH
GR  .API      00 310 00 00         : GR           - GAMMA RAY
DPHI.V/V      00 890 00 00         : PHID         - DENSITY POROSITY (SANDSTONE)
NPHI.V/V      00 330 00 00         : PHIN         - NEUTRON POROSITY (SANDSTONE)
ILD .OHMM     00 120 00 00         : RESD         - DEEP RESISTIVITY (DIL)
~PARAMETER INFORMATION
#MNEM.UNIT           DATA             DESCRIPTION OF MNEMONIC
#---------         -----------     ------------------------------
GL  .M        646.877              : gl           - GROUND LEVEL ELEVATION
EREF.M        650.138              : kb           - ELEVATION OF DEPTH REFERENCE
DATM.M        646.877              : datum        - DATUM ELEVATION
TDD .M        618.744              : tdd          - TOTAL DEPTH DRILLER
RUN .         ONE                  : Run          - RUN NUMBER
ENG .         BILL                 : Engineer     - RECORDING ENGINEER
WIT .         JIM                  : Witness      - WITNESSED BY
MUD .         GEL                  : Mud_type     - MUD TYPE
MATR.         SANDSTONE            : Logunit      - NEUTRON MATRIX
TMAX.C        26.1111              : BHT          - MAXIMUM RECORDED TEMPERATURE
BHTD.M        618.744              : BHTDEP       - MAXIMUM RECORDED TEMPERATURE
MATR.         1                    : LOGUNIT      - NEUTRON MATRIX
RMT .C        25                   : MDTP         - TEMPERATURE OF MUD
NEUT.         1                    : NEUTRON      - NEUTRON TYPE
RESI.         0                    : RESIST       - RESISTIVITY TYPE
RMC .OHMM     0.25                 : RMC          - RESISTIVITY OF MUD CAKE
RMF .OHMM     0.25                 : RMF          - RESISTIVITY OF MUD FILTRATE
SUFT.C        15                   : SUFT         - SURFACE TEMPERATURE
~A  DEPTH       GR     PHID     PHIN     RESD
# ...
  296.484   77.730    0.216    0.451   12.860
  296.734   77.111    0.224    0.444   12.842
  296.984   80.153    0.229    0.445   12.671
  297.234   81.906    0.222    0.451   12.577
  297.484   83.804    0.225    0.439   11.947
  297.734   83.353    0.234    0.432   11.254
  297.984   79.281    0.250    0.425   10.633
  298.234   76.223    0.267    0.423   10.147
  298.484   69.107    0.266    0.415    9.831
  298.734   64.726    0.260    0.425    9.803
  298.984   63.218    0.250    0.429   10.598
  299.234   62.469    0.245    0.414   11.865
  299.484   62.530    0.242    0.398   13.287
  299.734   62.539    0.244    0.395   14.349
  299.984   62.543    0.247    0.407   15.157
  300.234   62.553    0.238    0.419   15.942
  300.484   63.269    0.230    0.425   16.215
  300.734   66.239    0.221    0.424   16.567
  300.984   68.607    0.217    0.423   16.867
  301.234   70.976    0.219    0.415   16.905
  301.484   71.894    0.212    0.411   16.496
  301.734   72.889    0.207    0.415   16.313
  301.984   73.843    0.197    0.419   16.027
  302.234   75.564    0.191    0.421   15.366
  302.484   76.530    0.202    0.416   14.732
  302.734   75.979    0.215    0.429   13.873
  302.984   72.825    0.228    0.437   12.788
  303.234   68.521    0.239    0.434   11.879
  303.484   67.686    0.251    0.417   11.106
  303.734   68.167    0.245    0.402   10.869
  303.984   64.710    0.243    0.390   10.998
  304.234   62.439    0.243    0.397   11.426
  304.484   59.724    0.242    0.409   11.720
  304.734   58.780    0.240    0.416   12.211
  304.984   62.349    0.240    0.415   12.456
  305.234   65.832    0.245    0.417   12.417
  305.484   65.110    0.243    0.418   12.698
  305.734   65.174    0.232    0.407   12.669
  305.984   65.239    0.216    0.401   12.476
  306.234   64.381    0.201    0.401   12.236
  306.484   62.725    0.207    0.415   12.018
  306.734   61.766    0.220    0.424   12.057
  306.984   60.795    0.230    0.412   11.739
  307.234   59.178    0.240    0.402   11.409
  307.484   56.585    0.247    0.394   10.976
  307.734   52.807    0.257    0.405   10.766
  307.984   54.183    0.274    0.404   10.798
  308.234   56.254    0.258    0.399   10.820
  308.484   61.385    0.248    0.407   10.570
  308.734   63.805    0.237    0.420   10.446
  308.984   65.346    0.244    0.428    9.942
  309.234   65.967    0.249    0.429    9.672
  309.484   66.967    0.251    0.433    9.390
  309.734   68.008    0.262    0.427    9.124
  309.984   68.369    0.267    0.418    8.678
  310.234   68.431    0.267    0.419    8.426
  310.484   67.583    0.271    0.428    8.177
  310.734   66.634    0.279    0.429    7.931
  310.984   64.951    0.283    0.420    7.932
  311.234   63.996    0.280    0.425    7.935
  311.484   63.527    0.275    0.432    7.940
  311.734   63.535    0.273    0.431    7.946
  311.984   63.508    0.269    0.428    7.952
  312.234   62.538    0.266    0.422    7.954
  312.484   60.823    0.273    0.416    7.907
  312.734   59.897    0.274    0.411    7.822
  312.984   58.883    0.283    0.410    7.722
  313.234   57.714    0.285    0.412    7.702
  313.484   56.323    0.285    0.420    7.554
  313.734   55.096    0.284    0.428    7.468
  313.984   53.603    0.280    0.423    7.393
  314.234   53.299    0.275    0.414    7.295
  314.484   52.673    0.270    0.412    7.158
  314.734   52.035    0.278    0.402    7.020
  314.984   51.561    0.284    0.390    7.050
  315.234   51.439    0.279    0.393    6.895
  315.484   52.140    0.286    0.401    6.907
  315.734   53.673    0.292    0.402    6.784
  315.984   53.954    0.296    0.400    6.755
  316.234   53.330    0.298    0.398    6.679
  316.484   53.285    0.298    0.400    6.599
  316.734   53.996    0.293    0.406    6.575
  316.984   54.532    0.291    0.402    6.452
  317.234   55.601    0.289    0.393    6.386
  317.484   55.831    0.286    0.399    6.346
  317.734   55.283    0.286    0.406    6.238
  317.984   55.201    0.288    0.415    6.229
  318.234   55.980    0.298    0.401    6.221
  318.484   58.062    0.305    0.386    6.113
  318.734   59.137    0.310    0.394    6.077
  318.984   60.153    0.308    0.416    6.014
  319.234   60.121    0.304    0.425    5.914
  319.484   59.997    0.303    0.418    5.790
  319.734   58.950    0.303    0.415    5.810
  319.984   57.573    0.300    0.413    5.695
  320.234   56.391    0.295    0.407    5.686
  320.484   55.308    0.289    0.398    5.607
  320.734   55.984    0.286    0.391    5.609
  320.984   55.889    0.286    0.385    5.602
  321.234   54.298    0.296    0.386    5.510
  321.484   53.183    0.290    0.395    5.471
  321.734   52.870    0.289    0.405    5.418
  321.984   52.288    0.303    0.410    5.317
  322.234   52.523    0.311    0.411    5.291
  322.484   52.928    0.320    0.404    5.234
  322.734   53.774    0.322    0.416    5.141
  322.984   54.009    0.314    0.426    5.015
  323.234   52.976    0.305    0.438    4.958
  323.484   52.953    0.296    0.442    4.906
  323.734   53.916    0.290    0.450    4.859
  323.984   57.014    0.284    0.451    4.791
  324.234   60.198    0.298    0.419    4.695
  324.484   60.133    0.307    0.421    4.709
  324.734   58.201    0.318    0.420    4.638
  324.984   55.421    0.317    0.410    4.629
  325.234   54.178    0.315    0.424    4.630
  325.484   52.575    0.314    0.426    4.633
  325.734   51.769    0.308    0.412    4.636
  325.984   51.830    0.302    0.417    4.639
  326.234   53.640    0.302    0.415    4.650
  326.484   55.069    0.303    0.410    4.531
  326.734   55.488    0.303    0.403    4.479
  326.984   55.895    0.306    0.409    4.297
  327.234   54.756    0.308    0.403    4.219
  327.484   55.265    0.303    0.396    4.089
  327.734   56.962    0.298    0.410    4.013
  327.984   55.450    0.297    0.418    3.938
  328.234   54.546    0.304    0.417    4.009
  328.484   52.551    0.307    0.415    4.052
  328.734   51.916    0.298    0.421    4.105
  328.984   51.275    0.303    0.424    4.189
  329.234   51.338    0.311    0.416    4.188
  329.484   51.320    0.313    0.422    4.190
  329.734   51.891    0.304    0.414    4.143
  329.984   53.402    0.297    0.422    4.104
  330.234   54.329    0.292    0.419    4.047
  330.484   55.328    0.292    0.414    3.964
  330.734   56.298    0.298    0.401    3.966
  330.984   56.217    0.305    0.413    3.900
  331.234   57.148    0.305    0.424    3.877
  331.484   58.128    0.298    0.421    3.838
  331.734   58.441    0.291    0.413    3.848
  331.984   60.020    0.293    0.424    3.763
  332.234   60.578    0.296    0.412    3.775
  332.484   60.992    0.300    0.411    3.703
  332.734   61.333    0.300    0.412    3.709
  332.984   61.831    0.294    0.414    3.716
  333.234   61.870    0.291    0.415    3.639
  333.484   61.016    0.287    0.395    3.639
  333.734   59.009    0.285    0.414    3.582
  333.984   57.401    0.284    0.437    3.555
  334.234   59.002    0.280    0.439    3.526
  334.484   62.466    0.284    0.436    3.472
  334.734   66.315    0.289    0.432    3.439
  334.984   69.268    0.284    0.444    3.401
  335.234   73.200    0.272    0.460    3.300
  335.484   75.655    0.257    0.484    3.219
  335.734   77.734    0.254    0.492    3.167
  335.984   78.846    0.252    0.486    3.108
  336.234   78.219    0.242    0.469    3.143
  336.484   77.254    0.225    0.440    3.397
  336.734   74.343    0.219    0.419    3.837
  336.984   71.479    0.214    0.410    4.348
  337.234   69.067    0.203    0.407    4.912
  337.484   73.138    0.205    0.430    5.429
  337.734   74.195    0.217    0.448    5.695
  337.984   74.261    0.224    0.460    6.070
  338.234   72.330    0.230    0.467    6.322
  338.484   69.310    0.233    0.474    6.605
  338.734   66.193    0.238    0.474    6.681
  338.984   70.535    0.223    0.464    6.314
  339.234   73.429    0.225    0.475    5.735
  339.484   76.168    0.235    0.483    5.076
  339.734   77.109    0.244    0.487    4.496
