~VERSION INFORMATION
 VERS.                 2.0:   CWLS LOG ASCII STANDARD -VERSION 2.0
 WRAP.                  NO:   ONE LINE PER DEPTH STEP
~WELL INFORMATION BLOCK
#MNEM.UNIT           DATA                    DESCRIPTION OF MNEMONIC
#---------    -------------------            -------------------------------
# Generated from Intellog Unique Number	CS_73_76/WELL/4866
WELL.         ESSO KIRBY 15-23-75-4          : Well_name    - WELL
LOC .         00/15-23-075-04W4/0            : Location     - LOCATION
UWI .         00/15-23-075-04W4/0            : Uwi          - UNIQUE WELL ID
ENTR.         ANDERSEN                       : Entered      - ENTERED BY
SRVC.         COMPUTALOG                     : Scn          - SERVICE COMPANY
STRT.M        200                            : top_depth    - START DEPTH
STOP.M        435                            : bot_depth    - STOP DEPTH
STEP.M        0.25                           : increment    - STEP LENGTH
 NULL. -999.2500:NULL Value
~CURVE INFORMATION BLOCK
#MNEM UNIT       ERCB CURVE CODE    CURVE DESCRIPTION
#-----------   ------------------   ----------------------------------
DEPT.M        00 001 00 00         : DEPTH        - DEPTH
ILD .OHMM     00 120 00 00         : RESD         - DEEP RESISTIVITY (DIL)
DPHI.V/V      00 890 00 00         : PHID         - DENSITY POROSITY (SANDSTONE)
NPHI.V/V      00 330 00 00         : PHIN         - NEUTRON POROSITY (SANDSTONE)
CALI.MM       00 280 01 00         : CAL          - CALIPER
GR  .API      00 310 00 00         : GR           - GAMMA RAY
~PARAMETER INFORMATION
#MNEM.UNIT           DATA             DESCRIPTION OF MNEMONIC
#---------         -----------     ------------------------------
GL  .M        596.42               : gl           - GROUND LEVEL ELEVATION
EREF.M        606.22               : kb           - ELEVATION OF DEPTH REFERENCE
DATM.M        606.22               : datum        - DATUM ELEVATION
TDD .M        446                  : tdd          - TOTAL DEPTH DRILLER
RUN .         ONE                  : Run          - RUN NUMBER
ENG .         BILL                 : Engineer     - RECORDING ENGINEER
WIT .         JIM                  : Witness      - WITNESSED BY
MUD .         GEL                  : Mud_type     - MUD TYPE
MATR.         SANDSTONE            : Logunit      - NEUTRON MATRIX
TMAX.C        32                   : BHT          - MAXIMUM RECORDED TEMPERATURE
BHTD.M        456                  : BHTDEP       - MAXIMUM RECORDED TEMPERATURE
MATR.         1                    : LOGUNIT      - NEUTRON MATRIX
RMT .C        10                   : MDTP         - TEMPERATURE OF MUD
NEUT.         1                    : NEUTRON      - NEUTRON TYPE
RESI.         0                    : RESIST       - RESISTIVITY TYPE
RMC .OHMM     6.2                  : RMC          - RESISTIVITY OF MUD CAKE
RMF .OHMM     6                    : RMF          - RESISTIVITY OF MUD FILTRATE
SUFT.C        15                   : SUFT         - SURFACE TEMPERATURE
~A  DEPTH     RESD     PHID     PHIN      CAL       GR
  200.000    2.681    0.308    0.548  209.330   85.190
  200.250    2.778    0.306    0.549  207.377   84.723
  200.500    2.827    0.299    0.531  206.405   84.727
  200.750    2.876    0.292    0.522  205.432   86.144
  201.000    2.874    0.292    0.530  205.441   87.560
  201.250    2.924    0.289    0.542  205.451   88.976
  201.500    2.974    0.280    0.551  205.455   90.391
  201.750    2.971    0.270    0.550  205.463   91.806
  202.000    3.022    0.235    0.543  207.435   90.399
  202.250    3.021    0.200    0.525  208.423   88.049
  202.500    3.018    0.207    0.525  209.412   84.288
  202.750    3.069    0.231    0.532  210.399   82.881
  203.000    3.123    0.276    0.532  211.388   83.826
  203.250    3.177    0.266    0.525  211.398   85.241
  203.500    3.232    0.253    0.509  211.404   87.127
  203.750    3.230    0.249    0.499  212.395   88.074
  204.000    3.347    0.248    0.500  213.384   87.607
  204.250    3.405    0.241    0.509  214.372   86.669
  204.500    3.463    0.239    0.503  214.383   88.086
  204.750    3.523    0.239    0.491  214.387   90.913
  205.000    3.521    0.240    0.492  213.415   90.918
  205.250    3.517    0.242    0.506  212.442   94.688
  205.500    3.449    0.245    0.526  211.470   93.279
  205.750    3.384    0.245    0.542  211.478   91.871
  206.000    3.381    0.238    0.536  210.510   88.581
  206.250    3.439    0.234    0.502  209.538   88.585
  206.500    3.436    0.238    0.501  207.585   87.648
  206.750    3.370    0.242    0.507  204.652   87.652
  207.000    3.367    0.247    0.503  202.699   87.656
  207.250    3.363    0.249    0.507  201.726   89.541
  207.500    3.359    0.242    0.506  203.696   90.486
  207.750    3.417    0.235    0.488  205.665   88.609
  208.000    3.414    0.234    0.485  207.634   86.730
  208.250    3.537    0.236    0.486  208.623   86.733
  208.500    3.733    0.240    0.487  209.612   87.209
  208.750    4.013    0.239    0.480  208.638   84.388
  209.000    4.235    0.215    0.449  207.665   76.861
  209.250    4.635    0.151    0.364  205.714   65.099
  209.500    4.716    0.140    0.358  203.764   47.688
  209.750    4.626    0.215    0.387  202.787   46.751
  210.000    4.455    0.239    0.435  202.796   72.170
  210.250    4.137    0.240    0.463  202.804   87.706
  210.500    3.912    0.243    0.482  203.793   91.005
  210.750    4.127    0.253    0.491  202.820   89.126
  211.000    4.773    0.284    0.495  201.850   84.423
  211.250    6.627    0.312    0.467  200.878   77.838
  211.500    8.869    0.295    0.442  200.884   71.724
  211.750   10.831    0.282    0.426  202.855   71.258
  212.000   11.019    0.281    0.412  205.803   71.262
  212.250   11.008    0.273    0.414  210.716   75.501
  212.500   10.800    0.255    0.414  212.683   82.095
  212.750   10.988    0.262    0.423  213.672   84.924
  213.000   12.475    0.287    0.433  214.665   81.632
  213.250   14.691    0.304    0.438  214.675   75.988
  213.500   16.382    0.311    0.423  214.681   70.815
  213.750   20.755    0.315    0.402  214.692   59.994
  214.000   23.999    0.322    0.385  214.696   35.523
  214.250   27.241    0.326    0.379  213.723   30.821
  214.500   27.212    0.331    0.375  212.753   30.354
  214.750   27.679    0.334    0.378  210.800   30.829
  215.000   27.657    0.339    0.380  210.809   31.775
  215.250   27.629    0.343    0.379  210.815   31.779
  215.500   27.101    0.347    0.379  209.845   33.666
  215.750   26.589    0.341    0.390  209.855   38.375
  216.000   25.144    0.327    0.406  209.859   55.323
  216.250   23.772    0.322    0.408  211.828   67.564
  216.500   22.895    0.324    0.409  212.817   72.746
  216.750   21.650    0.314    0.416  211.845   73.690
  217.000   20.852    0.295    0.423  208.911   76.518
  217.250   20.082    0.279    0.421  208.920   76.993
  217.500   19.698    0.273    0.397  214.811   75.114
  217.750   19.678    0.256    0.380  217.763   72.294
  218.000   19.658    0.247    0.378  219.732   68.533
  218.250   20.000    0.251    0.381  220.721   65.713
  218.500   20.343    0.274    0.391  217.790   62.894
  218.750   20.702    0.288    0.404  216.813   62.898
  219.000   21.440    0.291    0.413  215.841   65.255
  219.250   21.428    0.286    0.417  213.888   64.317
  219.500   21.801    0.265    0.422  211.935   62.908
  219.750   21.779    0.231    0.426  210.965   59.148
  220.000   21.362    0.232    0.435  209.993   58.681
  220.250   20.569    0.245    0.437  209.999   61.980
  220.500   19.099    0.264    0.438  210.990   66.691
  220.750   17.734    0.270    0.438  212.961   69.989
  221.000   16.172    0.264    0.441  214.930   73.758
  221.250   14.473    0.256    0.444  216.900   77.057
  221.500   13.690    0.248    0.449  216.908   78.943
  221.750   13.182    0.240    0.449  216.916   78.477
  222.000   13.659    0.245    0.436  216.924   73.774
  222.250   14.680    0.271    0.411  217.913   64.835
  222.500   16.667    0.302    0.399  217.921   56.838
  222.750   18.584    0.326    0.399  215.969   46.959
  223.000   20.712    0.345    0.403  214.996   35.667
  223.250   19.587    0.349    0.394  215.985   39.907
  223.500   17.534    0.303    0.381  217.954   54.501
  223.750   14.066    0.223    0.359  218.943   65.330
  224.000   11.703    0.173    0.359  217.971   81.807
  224.250   10.670    0.165    0.365  216.999   94.049
  224.500   10.656    0.150    0.382  217.005   91.698
  224.750   11.045    0.136    0.391  217.013   86.055
  225.000   11.870    0.161    0.389  211.138   79.940
  225.250   14.237    0.191    0.385  205.263   74.767
  225.500   17.070    0.221    0.376  201.351   72.888
  225.750   19.030    0.251    0.368  200.379   69.597
  226.000   20.087    0.269    0.365  199.405   63.012
  226.250   20.814    0.279    0.369  199.417   57.839
  226.500   20.787    0.283    0.376  200.402   55.961
  226.750   20.390    0.281    0.385  201.392   54.553
  227.000   20.374    0.276    0.381  202.379   53.145
  227.250   19.267    0.269    0.380  204.348   54.092
  227.500   18.898    0.266    0.380  207.298   53.625
  227.750   17.547    0.266    0.391  210.250   53.629
  228.000   16.594    0.266    0.400  211.239   55.045
  228.250   15.408    0.265    0.414  212.230   57.871
  228.500   13.789    0.257    0.426  212.238   64.465
  228.750   12.344    0.238    0.447  212.244   84.707
  229.000   11.053    0.193    0.465  212.254   93.183
  229.250    9.367    0.172    0.477  212.263   93.657
  229.500    7.935    0.192    0.490  212.271   97.897
  229.750    6.724    0.211    0.485  212.279  104.961
  230.000    6.020    0.209    0.490  211.307  105.906
  230.250    5.291    0.212    0.498  209.354  104.498
  230.500    4.735    0.215    0.502  209.360  104.974
  230.750    4.562    0.212    0.499  207.409  106.390
  231.000    4.236    0.219    0.510  206.437  105.923
  231.250    3.931    0.232    0.517  206.445  105.927
  231.500    3.787    0.245    0.529  206.456  106.401
  231.750    3.715    0.254    0.534  207.440  106.876
  232.000    3.849    0.254    0.495  208.429  104.526
  232.250    4.291    0.251    0.466  208.437  100.294
  232.500    4.963    0.244    0.450  208.445   95.591
  232.750    6.522    0.241    0.446  206.493   85.711
  233.000    8.728    0.257    0.447  206.503   86.187
  233.250    9.907    0.270    0.444  205.533   86.662
  233.500   10.847    0.284    0.440  204.556   83.842
  233.750   12.543    0.297    0.436  203.586   77.256
  234.000   14.771    0.306    0.438  202.614   71.612
  234.250   17.399    0.316    0.440  200.659   68.323
  234.500   21.252    0.319    0.440  198.708   66.915
  234.750   24.123    0.319    0.438  198.716   67.388
  235.000   25.002    0.318    0.439  198.725   68.804
  235.250   26.871    0.316    0.442  198.733   70.220
  235.500   26.836    0.316    0.447  198.741   69.284
  235.750   26.808    0.319    0.445  198.751   68.817
  236.000   26.781    0.323    0.445  199.740   70.704
  236.250   25.793    0.322    0.443  199.746   73.060
