~VERSION INFORMATION
 VERS.                 2.0:   CWLS LOG ASCII STANDARD -VERSION 2.0
 WRAP.                  NO:   ONE LINE PER DEPTH STEP
~WELL INFORMATION BLOCK
#MNEM.UNIT           DATA                    DESCRIPTION OF MNEMONIC
#---------    -------------------            -------------------------------
# Generated from Intellog Unique Number	CX_WELLS/WELL/4063
WELL.         10-01-079-01W5                 : Well_name    - WELL
LOC .         00/10-01-079-01W5/0            : Location     - LOCATION
UWI .         00/10-01-079-01W5/0            : Uwi          - UNIQUE WELL ID
ENTR.         MAX                            : Entered      - ENTERED BY
SRVC.         COMPUTALOG                     : Scn          - SERVICE COMPANY
STRT.F        950                            : top_depth    - START DEPTH
STOP.F        1789.9                         : bot_depth    - STOP DEPTH
STEP.F        0.82                           : increment    - STEP LENGTH
 NULL. -999.2500:NULL Value
~CURVE INFORMATION BLOCK
#MNEM UNIT       ERCB CURVE CODE    CURVE DESCRIPTION
#-----------   ------------------   ----------------------------------
DEPT.F        00 001 00 00         : DEPTH        - DEPTH
ILD .OHMM     00 120 00 00         : RESD         - DEEP RESISTIVITY (DIL)
GR  .API      00 310 00 00         : GR           - GAMMA RAY
NPHI.V/V      00 330 00 00         : PHIN         - NEUTRON POROSITY (SANDSTONE)
DPHI.V/V      00 890 00 00         : PHID         - DENSITY POROSITY (SANDSTONE)
~PARAMETER INFORMATION
#MNEM.UNIT           DATA             DESCRIPTION OF MNEMONIC
#---------         -----------     ------------------------------
GL  .F        1935.5               : gl           - GROUND LEVEL ELEVATION
EREF.F        1947.5               : kb           - ELEVATION OF DEPTH REFERENCE
DATM.F        1935.5               : datum        - DATUM ELEVATION
TDD .F        1802                 : tdd          - TOTAL DEPTH DRILLER
RUN .         ONE                  : Run          - RUN NUMBER
ENG .         BILL                 : Engineer     - RECORDING ENGINEER
WIT .         JIM                  : Witness      - WITNESSED BY
MUD .         GEL                  : Mud_type     - MUD TYPE
MATR.         SANDSTONE            : Logunit      - NEUTRON MATRIX
TMAX.F        65                   : BHT          - MAXIMUM RECORDED TEMPERATURE
BHTD.F        1800                 : BHTDEP       - MAXIMUM RECORDED TEMPERATURE
RMT .F        62.06                : MDTP         - TEMPERATURE OF MUD
MUDD.LB/G     1.15                 : MWT          - MUD DENSITY
NEUT.         1                    : NEUTRON      - NEUTRON TYPE
RESI.         0                    : RESIST       - RESISTIVITY TYPE
RM  .OHMM     5.1                  : RM           - RESISTIVITY OF MUD
RMC .OHMM     0                    : RMC          - RESISTIVITY OF MUD CAKE
RMF .OHMM     4.7                  : RMF          - RESISTIVITY OF MUD FILTRATE
SUFT.F        -4                   : SUFT         - SURFACE TEMPERATURE
~A  DEPTH     RESD       GR     PHIN     PHID
# ...
 1092.720   14.082   38.344    0.560    0.362
 1093.540   14.115   37.752    0.544    0.351
 1094.360   14.141   37.815    0.535    0.344
 1095.180   14.161   37.866    0.529    0.344
 1096.000   14.187   39.178    0.526    0.346
 1096.820   13.964   41.765    0.531    0.347
 1097.640   13.996   43.695    0.539    0.345
 1098.460   13.758   48.187    0.545    0.344
 1099.280   13.789   50.117    0.545    0.343
 1100.100   13.828   47.657    0.546    0.343
 1100.920   14.101   46.434    0.547    0.340
 1101.740   14.120   43.356    0.548    0.336
 1102.560   14.153   42.132    0.549    0.331
 1103.380   14.439   40.316    0.550    0.331
 1104.200   14.466   39.092    0.551    0.337
 1105.020   14.758   38.512    0.553    0.342
 1105.840   14.792   38.563    0.552    0.345
 1106.660   15.084   38.614    0.555    0.346
 1107.480   15.126   38.677    0.556    0.341
 1108.300   15.425   39.358    0.559    0.338
 1109.120   15.453   39.409    0.560    0.333
 1109.940   15.765   40.090    0.553    0.330
 1110.760   16.091   40.141    0.521    0.325
 1111.580   16.417   40.192    0.506    0.320
 1112.400   16.756   39.624    0.495    0.325
 1113.220   16.795   39.044    0.486    0.332
 1114.040   17.119   38.464    0.485    0.338
 1114.860   17.150   37.253    0.497    0.337
 1115.680   17.513   36.042    0.506    0.329
 1116.500   17.537   34.844    0.492    0.303
 1117.320   17.586   34.264    0.460    0.269
 1118.140   17.925   33.697    0.443    0.236
 1118.960   17.966   33.760    0.453    0.254
 1119.780   18.008   33.798    0.473    0.275
 1120.600   18.033   33.836    0.485    0.300
 1121.420   18.415   34.518    0.494    0.324
 1122.240   18.440   35.212    0.496    0.327
 1123.060   18.466   36.524    0.500    0.326
 1123.880   17.865   36.600    0.507    0.325
 1124.700   17.882   36.007    0.512    0.320
 1125.520   17.915   35.427    0.518    0.317
 1126.350   17.956   34.885    0.521    0.323
 1127.170   17.998   34.292    0.514    0.328
 1127.990   17.699   33.700    0.507    0.332
 1128.810   17.740   33.750    0.501    0.333
 1129.630   17.764   33.788    0.503    0.334
 1130.450   17.163   33.864    0.513    0.332
 1131.270   16.291   33.902    0.522    0.332
 1132.090   16.027   34.609    0.532    0.335
 1132.910   15.484   34.635    0.547    0.338
 1133.730   14.953   35.329    0.543    0.340
 1134.550   14.460   37.272    0.533    0.343
 1135.370   14.220   39.215    0.524    0.340
 1136.190   14.009   41.171    0.551    0.339
 1137.010   14.016   41.234    0.557    0.340
 1137.830   14.042   41.272    0.568    0.340
 1138.650   13.821   41.323    0.565    0.340
 1139.470   13.853   41.373    0.560    0.337
 1140.290   13.629   41.437    0.551    0.335
 1141.110   13.654   41.500    0.542    0.334
 1141.930   13.433   41.551    0.531    0.332
 1142.750   13.458   41.589    0.536    0.337
 1143.570   13.241   41.640    0.543    0.348
 1144.390   13.271   41.085    0.549    0.346
 1145.210   13.296   41.123    0.555    0.341
 1146.030   13.315   41.173    0.554    0.337
 1146.850   13.099   41.237    0.551    0.336
 1147.670   13.130   41.300    0.545    0.335
 1148.490   13.166   41.338    0.521    0.334
 1149.310   13.184   41.402    0.514    0.340
 1150.130   13.203   42.083    0.489    0.338
 1150.950   13.482   42.777    0.487    0.328
 1151.770   13.501   43.446    0.477    0.314
 1152.590   13.526   44.771    0.477    0.306
 1153.410   12.607   46.714    0.488    0.277
 1154.230   11.322   49.275    0.520    0.254
 1155.050    9.460   56.278    0.604    0.249
 1155.870    7.622   62.031    0.615    0.242
 1156.690    6.482   63.331    0.597    0.233
 1157.510    5.824   66.561    0.581    0.258
 1158.330    5.141   67.217    0.570    0.290
 1159.150    4.880   67.898    0.577    0.313
 1159.970    4.799   67.318    0.588    0.322
 1160.790    4.640   63.609    0.583    0.320
 1161.610    4.647   61.149    0.571    0.322
 1162.430    4.653   61.175    0.561    0.314
 1163.250    4.752   63.749    0.555    0.283
 1164.070    4.845   68.859    0.545    0.268
 1164.900    5.220   71.445    0.537    0.254
 1165.720    5.941   72.745    0.543    0.241
 1166.540    6.285   74.057    0.550    0.233
 1167.360    6.418   74.120    0.569    0.233
 1168.180    6.427   74.196    0.583    0.238
 1169.000    6.320   74.222    0.572    0.241
 1169.820    6.218   73.642    0.557    0.244
 1170.640    6.120   72.443    0.552    0.243
 1171.460    6.024   70.627    0.550    0.244
 1172.280    6.033   69.403    0.554    0.246
 1173.100    6.049   68.811    0.563    0.253
 1173.920    6.055   69.505    0.560    0.254
 1174.740    6.066   70.174    0.553    0.252
 1175.560    6.083   72.142    0.552    0.249
 1176.380    6.097   73.442    0.557    0.249
 1177.200    5.993   74.754    0.565    0.248
 1178.020    6.010   75.448    0.570    0.246
 1178.840    6.018   76.130    0.564    0.244
 1179.660    5.924   76.811    0.558    0.240
 1180.480    5.830   77.493    0.548    0.235
 1181.300    5.836   77.543    0.545    0.232
 1182.120    5.847   77.619    0.546    0.229
 1182.940    5.755   77.670    0.553    0.230
 1183.760    5.765   77.721    0.556    0.233
 1184.580    5.677   78.415    0.557    0.240
 1185.400    5.685   79.084    0.562    0.246
 1186.220    5.696   79.135    0.568    0.268
 1187.040    5.503   77.293    0.571    0.287
 1187.860    5.129   74.189    0.578    0.302
 1188.680    4.689   67.932    0.600    0.322
 1189.500    3.989   58.521    0.617    0.327
 1190.320    3.394   51.002    0.611    0.335
 1191.140    2.785   47.898    0.615    0.342
 1191.960    2.413   47.949    0.624    0.350
 1192.780    2.130   48.013    0.632    0.348
 1193.600    1.949   47.432    0.634    0.346
 1194.420    1.816   45.616    0.642    0.348
 1195.240    1.753   45.642    0.644    0.341
 1196.060    1.725   46.323    0.639    0.329
 1196.880    1.894   48.279    0.634    0.299
 1197.700    1.967   50.865    0.624    0.290
 1198.520    2.197   52.165    0.611    0.261
 1199.340    2.594   54.752    0.582    0.256
 1200.160    2.951   56.707    0.563    0.249
 1200.980    3.296   59.269    0.531    0.238
 1201.800    3.961   68.794    0.536    0.241
 1202.620    4.589   72.011    0.547    0.248
 1203.440    5.719   72.680    0.559    0.255
 1204.270    5.834   74.005    0.561    0.259
 1205.090    5.848   74.056    0.536    0.258
 1205.910    5.647   75.381    0.532    0.251
 1206.730    5.558   76.049    0.535    0.239
 1207.550    5.471   78.018    0.546    0.221
 1208.370    5.382   78.674    0.558    0.215
 1209.190    5.392   79.368    0.568    0.245
 1210.010    5.402   79.419    0.572    0.251
 1210.830    5.415   79.470    0.560    0.254
 1211.650    5.425   80.782    0.556    0.244
 1212.470    5.432   78.953    0.549    0.230
 1213.290    5.443   77.755    0.538    0.222
 1214.110    5.453   76.544    0.530    0.213
 1214.930    5.463   75.964    0.537    0.206
 1215.750    5.475   76.014    0.560    0.199
 1216.570    5.486   76.078    0.569    0.203
 1217.390    5.501   76.747    0.563    0.210
 1218.210    5.506   78.690    0.560    0.220
 1219.030    5.417   81.264    0.560    0.217
 1219.850    5.427   83.219    0.566    0.215
 1220.670    5.442   84.532    0.573    0.214
 1221.490    5.352   85.239    0.578    0.212
 1222.310    5.361   84.002    0.572    0.209
 1223.130    5.374   82.804    0.572    0.205
 1223.950    5.384   82.237    0.572    0.205
 1224.770    5.391   81.644    0.570    0.207
 1225.590    5.406   81.695    0.563    0.209
 1226.410    5.414   81.745    0.553    0.211
 1227.230    5.426   81.808    0.546    0.212
 1228.050    5.436   81.872    0.545    0.219
 1228.870    5.444   80.674    0.545    0.220
 1229.690    5.462   80.068    0.542    0.225
 1230.510    5.469   80.119    0.534    0.224
 1231.330    5.577   82.100    0.535    0.221
 1232.150    5.593   82.756    0.542    0.215
 1232.970    5.700   84.069    0.548    0.213
 1233.790    5.716   84.750    0.556    0.210
 1234.610    5.724   84.826    0.561    0.208
