~VERSION INFORMATION
 VERS.                 2.0:   CWLS LOG ASCII STANDARD -VERSION 2.0
 WRAP.                  NO:   ONE LINE PER DEPTH STEP
~WELL INFORMATION BLOCK
#MNEM.UNIT           DATA                    DESCRIPTION OF MNEMONIC
#---------    -------------------            -------------------------------
# Generated from Intellog Unique Number	CW_73_75/WELL/1029
WELL.         PACIFIC AMADOU 10-32           : Well_name    - WELL
LOC .         00/10-32-075-20W4/0            : Location     - LOCATION
UWI .         00/10-32-075-20W4/0            : Uwi          - UNIQUE WELL ID
ENTR.         JAYE                           : Entered      - ENTERED BY
SRVC.         SCHLUMBERGER                   : Scn          - SERVICE COMPANY
DATE.         20 MAR 74                      : Date         - LOG DATE
STRT.M        301.752                        : top_depth    - START DEPTH
STOP.M        475.502                        : bot_depth    - STOP DEPTH
STEP.M        0.25                           : increment    - STEP LENGTH
 NULL. -999.2500:NULL Value
~CURVE INFORMATION BLOCK
#MNEM UNIT       ERCB CURVE CODE    CURVE DESCRIPTION
#-----------   ------------------   ----------------------------------
DEPT.M        00 001 00 00         : DEPTH        - DEPTH
CALI.MM       00 280 01 00         : CAL          - CALIPER
GR  .API      00 310 00 00         : GR           - GAMMA RAY
NPHI.V/V      00 330 00 00         : PHIN         - NEUTRON POROSITY (SANDSTONE)
DPHI.V/V      00 890 00 00         : PHID         - DENSITY POROSITY (SANDSTONE)
ILD .OHMM     00 120 00 00         : RESD         - DEEP RESISTIVITY (DIL)
~PARAMETER INFORMATION
#MNEM.UNIT           DATA             DESCRIPTION OF MNEMONIC
#---------         -----------     ------------------------------
GL  .M        619.049              : gl           - GROUND LEVEL ELEVATION
EREF.M        623.103              : kb           - ELEVATION OF DEPTH REFERENCE
DATM.M        619.049              : datum        - DATUM ELEVATION
TDD .M        478.536              : tdd          - TOTAL DEPTH DRILLER
RUN .         ONE                  : Run          - RUN NUMBER
ENG .         BROWN                : Engineer     - RECORDING ENGINEER
WIT .         WADDELL              : Witness      - WITNESSED BY
BASE.         EDM                  : Branch       - HOME BASE OF LOGGING UNIT
MUD .         GEL CHEM             : Mud_type     - MUD TYPE
MATR.         SANDSTONE            : Logunit      - NEUTRON MATRIX
TMAX.C        18.3333              : BHT          - MAXIMUM RECORDED TEMPERATURE
BHTD.M        479.755              : BHTDEP       - MAXIMUM RECORDED TEMPERATURE
RMT .C        15.5556              : MDTP         - TEMPERATURE OF MUD
MUDD.KG/M     1044                 : MWT          - MUD DENSITY
NEUT.         1                    : NEUTRON      - NEUTRON TYPE
RESI.         0                    : RESIST       - RESISTIVITY TYPE
RM  .OHMM     9.59                 : RM           - RESISTIVITY OF MUD
RMC .OHMM     0                    : RMC          - RESISTIVITY OF MUD CAKE
RMF .OHMM     5.7                  : RMF          - RESISTIVITY OF MUD FILTRATE
SUFT.C        -17.7778             : SUFT         - SURFACE TEMPERATURE
~A  DEPTH      CAL       GR     PHIN     PHID     RESD
# ...
  411.252  152.310   82.396    0.507    0.207    5.552
  411.502  152.866   81.266    0.534    0.237    5.499
  411.752  153.004   82.690    0.507    0.242    5.487
  412.002  153.042   85.687    0.496    0.208    5.496
  412.252  153.091   87.712    0.519    0.193    5.515
  412.502  153.842   88.589    0.487    0.202    5.533
  412.752  155.410   88.249    0.472    0.209    5.521
  413.002  157.185   88.213    0.482    0.236    5.540
  413.252  157.836   91.392    0.501    0.214    5.559
  413.502  158.798   92.874    0.518    0.212    5.578
  413.752  159.150   92.413    0.523    0.207    5.586
  414.002  159.183   90.316    0.517    0.195    5.554
  414.252  159.224   91.312    0.508    0.184    5.501
  414.502  159.275   96.130    0.504    0.199    5.489
  414.752  159.110   98.642    0.521    0.211    5.477
  415.002  158.946   97.212    0.525    0.200    5.476
  415.252  158.879   95.359    0.515    0.204    5.494
  415.502  158.824   93.805    0.510    0.211    5.503
  415.752  158.759   89.706    0.473    0.186    5.635
  416.002  158.503   90.822    0.497    0.167    5.846
  416.252  158.441   90.061    0.502    0.196    6.121
  416.502  157.973   88.085    0.488    0.207    6.362
  416.752  157.908   87.140    0.483    0.224    6.443
  417.002  157.135   85.648    0.486    0.212    6.500
  417.252  156.570   82.033    0.473    0.194    6.559
  417.502  155.795   83.094    0.457    0.217    6.667
  417.752  155.227   85.238    0.425    0.208    6.702
  418.002  155.170   87.811    0.433    0.187    6.675
  418.252  155.206   88.020    0.447    0.206    6.649
  418.502  155.253   88.043    0.474    0.201    6.609
  418.752  155.901   89.586    0.469    0.194    6.559
  419.002  157.163   86.276    0.471    0.209    6.521
  419.252  158.528   87.937    0.496    0.216    6.495
  419.502  159.388   91.056    0.511    0.217    6.493
  419.752  160.045   86.350    0.512    0.207    6.503
  420.002  160.188   84.799    0.517    0.189    6.573
  420.252  160.537   87.679    0.515    0.185    6.632
  420.502  160.473   90.127    0.501    0.194    6.630
  420.752  160.314   88.575    0.476    0.196    6.592
  421.002  159.534   86.722    0.453    0.211    6.566
  421.252  158.556   87.718    0.440    0.204    6.515
  421.502  156.568   91.748    0.446    0.184    6.453
  421.752  155.485   93.408    0.459    0.199    6.415
  422.002  155.526   88.520    0.457    0.200    6.437
  422.252  155.974   83.269    0.447    0.196    6.447
  422.502  156.224   83.536    0.466    0.210    6.362
  422.752  157.690   87.386    0.474    0.220    6.232
  423.002  160.276   89.835    0.462    0.193    5.993
  423.252  161.436   91.743    0.465    0.202    5.763
  423.502  165.245   89.765    0.488    0.195    5.593
  423.752  177.706   88.578    0.493    0.174    5.418
  424.002  175.715   87.146    0.496    0.198    5.317
  424.252  169.848   84.988    0.511    0.229    5.208
  424.502  164.393   85.924    0.497    0.210    5.207
  424.752  158.428   82.187    0.497    0.184    5.342
  425.002  154.196   75.848    0.502    0.221    6.124
  425.252  153.014   70.534    0.507    0.222    7.716
  425.502  153.159   66.129    0.532    0.252   11.211
  425.752  154.016   62.031    0.469    0.247   14.021
  426.002  154.971   59.084    0.349    0.167   14.199
  426.252  156.142   57.291    0.300    0.116   13.730
  426.502  156.686   55.253    0.246    0.087   12.817
  426.752  157.045   53.580    0.261    0.052   11.530
  427.002  157.481   53.300    0.304    0.104    9.668
  427.252  158.041   54.420    0.447    0.261    8.428
  427.502  158.282   55.597    0.490    0.272    7.824
  427.752  158.831   57.321    0.496    0.257    7.622
  428.002  158.975   56.498    0.498    0.279    7.507
  428.252  159.015   55.493    0.467    0.247    7.491
  428.502  158.957   55.337    0.437    0.239    7.615
  428.752  160.017   56.088    0.426    0.240    7.697
  429.002  161.886   57.509    0.453    0.253    7.652
  429.252  162.850   58.625    0.467    0.242    7.496
  429.502  163.193   60.348    0.466    0.227    7.181
  429.752  163.241   62.619    0.476    0.222    6.918
  430.002  163.281   65.254    0.495    0.253    6.603
  430.252  163.120   68.010    0.548    0.285    6.176
  430.502  163.165   70.642    0.521    0.273    5.916
  430.752  163.212   73.759    0.489    0.253    5.731
  431.002  163.247   75.484    0.469    0.275    5.593
  431.252  163.490   75.998    0.466    0.257    5.379
  431.502  164.138   77.355    0.448    0.238    5.115
  431.752  164.287   79.623    0.449    0.218    4.955
  432.002  165.142   81.592    0.465    0.222    4.343
  432.252  166.096   82.163    0.495    0.198    4.177
  432.502  168.477   82.976    0.518    0.179    4.293
  432.752  168.927   84.516    0.549    0.196    4.511
  433.002  167.441   87.878    0.564    0.218    4.767
  433.252  167.280   90.029    0.555    0.235    4.946
  433.502  167.933   88.295    0.560    0.259    5.037
  433.752  169.608   86.560    0.555    0.239    5.148
  434.002  170.255   87.253    0.558    0.213    5.282
  434.252  171.522   85.761    0.546    0.230    5.510
  434.502  175.734   84.029    0.540    0.221    5.705
  434.752  163.561   82.234    0.544    0.242    5.941
  435.002  159.324   81.106    0.536    0.232    6.106
  435.252  156.822   79.495    0.487    0.217    6.253
  435.502  156.252   76.850    0.459    0.202    6.475
  435.752  156.090   75.359    0.466    0.196    6.643
  436.002  156.138   75.870    0.475    0.178    6.866
  436.252  156.689   76.016    0.454    0.154    7.096
  436.502  156.832   77.378    0.436    0.143    7.307
  436.752  157.684   77.401    0.433    0.179    7.332
  437.002  158.445   75.790    0.447    0.194    7.116
  437.252  158.899   76.970    0.442    0.197    6.919
  437.502  159.449   78.998    0.419    0.167    6.678
  437.752  159.886   79.201    0.399    0.142    6.590
  438.002  159.225   78.985    0.434    0.178    6.491
  438.252  158.853   80.653    0.466    0.214    6.406
  438.502  157.879   82.251    0.464    0.224    6.368
  438.752  157.620   82.277    0.448    0.231    6.354
  439.002  157.552   80.421    0.439    0.208    6.376
  439.252  157.692   79.475    0.432    0.212    6.615
  439.502  157.637   78.713    0.437    0.198    7.042
  439.752  157.283   78.980    0.456    0.198    7.415
  440.002  157.330   78.947    0.468    0.179    7.607
  440.252  157.265   78.609    0.436    0.163    7.548
  440.502  157.392   79.179    0.417    0.138    7.449
  440.752  157.336   81.205    0.406    0.140    7.419
  441.002  156.767   85.358    0.427    0.164    7.390
  441.252  155.891   84.957    0.446    0.191    7.360
  441.502  155.325   80.129    0.453    0.176    7.385
  441.752  154.242   79.127    0.467    0.176    7.438
  442.002  153.675   80.241    0.447    0.199    7.449
  442.252  154.029   83.238    0.432    0.198    7.474
  442.502  154.878   85.508    0.461    0.178    7.458
  442.752  155.635   86.383    0.482    0.167    7.414
  443.002  156.385   88.351    0.478    0.191    7.358
  443.252  156.839   88.070    0.465    0.177    7.221
  443.502  157.593   85.185    0.454    0.161    6.956
  443.752  158.040   86.180    0.436    0.175    6.689
  444.002  159.000   88.449    0.413    0.169    6.432
  444.252  160.059   88.900    0.424    0.163    6.266
  444.502  160.918   89.471    0.424    0.156    6.206
  444.752  161.566   90.531    0.435    0.164    6.204
  445.002  161.823   91.523    0.450    0.170    6.145
  445.252  161.546   93.733    0.464    0.164    6.075
  445.502  160.881   92.667    0.480    0.155    6.040
  445.752  160.815   88.021    0.495    0.152    6.072
  446.002  160.657   86.288    0.489    0.162    6.137
  446.252  160.596   86.192    0.473    0.136    6.193
  446.502  160.640   89.856    0.456    0.159    6.307
  446.752  160.578   94.250    0.430    0.172    6.555
  447.002  159.803   93.850    0.407    0.189    6.725
  447.252  158.527   89.933    0.393    0.211    6.938
  447.502  158.259   90.566    0.406    0.176    7.000
