~VERSION INFORMATION
 VERS.                 2.0:   CWLS LOG ASCII STANDARD -VERSION 2.0
 WRAP.                  NO:   ONE LINE PER DEPTH STEP
~WELL INFORMATION BLOCK
#MNEM.UNIT           DATA                    DESCRIPTION OF MNEMONIC
#---------    -------------------            -------------------------------
# Generated from Intellog Unique Number	CS_77_79/WELL/3303
WELL.         ATCOR LTD.                     : Well_name    - WELL
LOC .         00/11-23-077-13W4/0            : Location     - LOCATION
UWI .         00/11-23-077-13W4/0            : Uwi          - UNIQUE WELL ID
ENTR.         JO                             : Entered      - ENTERED BY
SRVC.         SCHLUMBERGER                   : Scn          - SERVICE COMPANY
DATE.         05/22/92                       : Date         - LOG DATE
STRT.M        285                            : top_depth    - START DEPTH
STOP.M        505                            : bot_depth    - STOP DEPTH
STEP.M        0.25                           : increment    - STEP LENGTH
 NULL. -999.2500:NULL Value
~CURVE INFORMATION BLOCK
#MNEM UNIT       ERCB CURVE CODE    CURVE DESCRIPTION
#-----------   ------------------   ----------------------------------
DEPT.M        00 001 00 00         : DEPTH        - DEPTH
GR  .API      00 310 00 00         : GR           - GAMMA RAY
NPHI.V/V      00 330 00 00         : PHIN         - NEUTRON POROSITY (SANDSTONE)
DPHI.V/V      00 890 00 00         : PHID         - DENSITY POROSITY (SANDSTONE)
ILD .OHMM     00 120 00 00         : RESD         - DEEP RESISTIVITY (DIL)
~PARAMETER INFORMATION
#MNEM.UNIT           DATA             DESCRIPTION OF MNEMONIC
#---------         -----------     ------------------------------
GL  .M        683.2                : gl           - GROUND LEVEL ELEVATION
EREF.M        686.7                : kb           - ELEVATION OF DEPTH REFERENCE
DATM.M        686.7                : datum        - DATUM ELEVATION
TDD .M        511                  : tdd          - TOTAL DEPTH DRILLER
RUN .         ONE                  : Run          - RUN NUMBER
ENG .         BILL                 : Engineer     - RECORDING ENGINEER
WIT .         JIM                  : Witness      - WITNESSED BY
MUD .         GEL                  : Mud_type     - MUD TYPE
MATR.         SANDSTONE            : Logunit      - NEUTRON MATRIX
TMAX.C        21                   : BHT          - MAXIMUM RECORDED TEMPERATURE
BHTD.M        511                  : BHTDEP       - MAXIMUM RECORDED TEMPERATURE
MATR.         1                    : LOGUNIT      - NEUTRON MATRIX
RMT .C        20                   : MDTP         - TEMPERATURE OF MUD
NEUT.         1                    : NEUTRON      - NEUTRON TYPE
RESI.         0                    : RESIST       - RESISTIVITY TYPE
RMC .OHMM     0                    : RMC          - RESISTIVITY OF MUD CAKE
RMF .OHMM     5.64                 : RMF          - RESISTIVITY OF MUD FILTRATE
SUFT.C        5                    : SUFT         - SURFACE TEMPERATURE
~A  DEPTH       GR     PHIN     PHID     RESD
# ...
  372.000   75.105    0.452    0.310   15.188
  372.250   74.660    0.465    0.301   15.805
  372.500   74.109    0.439    0.315   16.761
  372.750   74.242    0.416    0.322   17.081
  373.000   75.558    0.425    0.331   17.442
  373.250   75.034    0.438    0.327   17.498
  373.500   69.724    0.408    0.316   16.305
  373.750   67.989    0.402    0.299   14.908
  374.000   70.515    0.418    0.245   11.568
  374.250   73.646    0.443    0.209   10.019
  374.500   78.592    0.352    0.116   12.742
  374.750   70.231    0.328    0.183   13.504
  375.000   70.942    0.431    0.219   11.904
  375.250   75.283    0.477    0.223    7.835
  375.500   83.884    0.467    0.218    7.163
  375.750   89.434    0.459    0.221    5.662
  376.000   92.565    0.464    0.235    4.997
  376.250   96.355    0.475    0.251    5.010
  376.500   91.596    0.471    0.255    5.019
  376.750   86.837    0.457    0.242    5.036
  377.000   89.363    0.446    0.231    5.237
  377.250   93.731    0.443    0.237    5.446
  377.500   90.867    0.448    0.246    5.557
  377.750   92.130    0.448    0.241    5.674
  378.000   95.261    0.447    0.237    5.801
  378.250   98.391    0.468    0.242    5.707
  378.500  100.944    0.494    0.244    5.318
  378.750   97.395    0.493    0.235    5.235
  379.000   92.690    0.486    0.247    5.854
  379.250   90.982    0.483    0.282    6.928
  379.500   89.301    0.492    0.308    6.456
  379.750   88.776    0.501    0.314    7.357
  380.000   86.464    0.486    0.322    8.533
  380.250   84.098    0.456    0.335    8.098
  380.500   89.070    0.484    0.305    5.948
  380.750   97.066    0.511    0.278    4.613
  381.000  104.431    0.550    0.266    3.646
  381.250  106.957    0.562    0.267    3.275
  381.500  105.276    0.532    0.262    2.944
  381.750  104.778    0.517    0.260    2.894
  382.000  106.726    0.532    0.270    2.797
  382.250  107.384    0.560    0.272    2.704
  382.500  108.701    0.580    0.268    2.714
  382.750  109.466    0.573    0.263    2.720
  383.000  108.941    0.550    0.269    2.726
  383.250  108.496    0.550    0.277    2.735
  383.500  108.576    0.544    0.286    2.742
  383.750  109.288    0.559    0.289    2.798
  384.000  106.922    0.580    0.288    2.857
  384.250   99.771    0.583    0.281    2.919
  384.500   99.877    0.586    0.266    2.925
  384.750  102.457    0.571    0.258    3.213
  385.000  103.720    0.544    0.262    3.801
  385.250  105.036    0.514    0.255    4.576
  385.500  103.933    0.493    0.239    5.311
  385.750   97.387    0.470    0.226    6.516
  386.000   90.209    0.439    0.217    7.702
  386.250   83.663    0.443    0.262    8.308
  386.500   77.748    0.432    0.300    8.489
  386.750   74.777    0.438    0.292    8.505
  387.000   75.542    0.450    0.268    8.372
  387.250   77.436    0.417    0.266    8.092
  387.500   79.963    0.375    0.275    8.576
  387.750   72.207    0.343    0.235   10.325
  388.000   69.262    0.380    0.087   12.893
  388.250   66.950    0.414    0.150   17.979
  388.500   70.081    0.419    0.177   14.739
  388.750   83.520    0.419    0.229    9.011
  389.000   87.888    0.424    0.259    6.737
  389.250   90.441    0.447    0.269    7.271
  389.500   88.101    0.458    0.274    8.136
  389.750   85.211    0.453    0.264    8.938
  390.000   85.922    0.448    0.259    9.642
  390.250   88.422    0.441    0.252    9.858
  390.500   89.160    0.433    0.254    9.698
  390.750   89.240    0.422    0.251    9.367
  391.000   91.793    0.421    0.259    8.890
  391.250   93.687    0.440    0.265    8.603
  391.500   86.536    0.435    0.254    8.614
  391.750   81.804    0.415    0.241    8.480
  392.000   79.492    0.379    0.222    8.670
  392.250   78.362    0.382    0.201    8.687
  392.500   83.361    0.405    0.212    9.039
  392.750   88.911    0.413    0.252    9.062
  393.000   89.623    0.405    0.275    9.086
  393.250   85.469    0.385    0.208    9.103
  393.500   81.947    0.392    0.221    9.127
  393.750   86.919    0.402    0.246    8.355
  394.000   90.654    0.425    0.264    7.501
  394.250   90.183    0.400    0.237    6.863
  394.500   89.053    0.397    0.259    7.269
  394.750   86.136    0.408    0.268    7.709
  395.000   88.662    0.427    0.281    7.861
  395.250   88.164    0.428    0.279    8.175
  395.500   85.825    0.422    0.250    8.347
  395.750   82.329    0.411    0.234    8.529
  396.000   83.619    0.391    0.215    9.364
  396.250   88.591    0.411    0.213    9.224
  396.500   90.512    0.426    0.212    8.281
  396.750   93.038    0.438    0.217    7.041
  397.000   95.565    0.451    0.224    5.772
  397.250   99.327    0.523    0.247    4.996
  397.500   99.434    0.534    0.242    4.096
  397.750   97.148    0.504    0.242    3.747
  398.000   95.992    0.493    0.252    4.119
  398.250   95.493    0.478    0.260    4.609
  398.500   95.600    0.472    0.246    4.882
  398.750   94.524    0.474    0.231    4.718
  399.000   94.631    0.474    0.233    4.084
  399.250   94.106    0.485    0.246    4.170
  399.500   80.906    0.466    0.236    5.023
  399.750   79.172    0.422    0.222    5.624
  400.000   80.515    0.426    0.225    5.743
  400.250   87.275    0.421    0.231    5.754
  400.500   94.666    0.425    0.235    5.664
  400.750   95.378    0.439    0.237    5.478
  401.000   88.805    0.430    0.241    5.590
  401.250   88.334    0.410    0.243    5.813
  401.500   89.019    0.412    0.253    6.157
  401.750   88.547    0.428    0.271    6.773
  402.000   84.393    0.446    0.258    7.178
  402.250   80.871    0.454    0.252    7.192
  402.500   77.402    0.463    0.249    6.951
  402.750   76.246    0.456    0.255    5.796
  403.000   73.933    0.443    0.261    3.293
  403.250   73.409    0.426    0.260    3.825
  403.500   72.937    0.418    0.256    8.130
  403.750   72.439    0.422    0.264   11.330
  404.000   69.522    0.417    0.254   11.367
  404.250   67.209    0.411    0.224   10.787
  404.500   69.104    0.399    0.269   12.512
  404.750   68.606    0.394    0.299   14.267
  405.000   65.083    0.397    0.320   12.348
  405.250   60.351    0.417    0.331    8.744
  405.500   59.248    0.411    0.338    7.713
  405.750   61.775    0.403    0.337    7.597
  406.000   63.696    0.398    0.326    7.622
  406.250   62.646    0.392    0.324    7.636
  406.500   63.909    0.383    0.327    7.651
  406.750   65.226    0.399    0.330    7.676
  407.000   64.123    0.415    0.320    7.690
  407.250   61.810    0.409    0.320    7.720
  407.500   59.498    0.401    0.339    7.730
  407.750   60.814    0.399    0.339    7.614
  408.000   60.921    0.405    0.331    7.495
  408.250   57.399    0.409    0.326    7.374
  408.500   58.715    0.412    0.329    7.268
  408.750   60.032    0.407    0.333    7.287
  409.000   58.324    0.402    0.333    7.301
  409.250   59.035    0.407    0.326    7.315
  409.500   61.588    0.416    0.316    7.469
  409.750   61.063    0.415    0.318    7.498
  410.000   59.356    0.410    0.334    7.512
  410.250   57.043    0.404    0.328    7.527
  410.500   54.730    0.356    0.297    7.690
  410.750   52.418    0.275    0.257    8.449
  411.000   51.920    0.231    0.214   12.668
  411.250   52.026    0.195    0.148   15.261
  411.500   50.924    0.192    0.087   19.057
  411.750   48.006    0.205    0.112   17.436
  412.000   51.164    0.327    0.162   10.856
  412.250   54.295    0.359    0.243    6.884
  412.500   56.794    0.378    0.275    5.969
  412.750   58.769    0.400    0.304    6.087
  413.000   57.612    0.413    0.307    6.220
  413.250   59.560    0.424    0.315    6.240
  413.500   61.482    0.409    0.327    6.256
  413.750   63.403    0.401    0.331    6.162
  414.000   59.881    0.409    0.323    6.170
  414.250   60.592    0.421    0.319    6.078
  414.500   64.933    0.419    0.316    5.979
  414.750   63.225    0.387    0.316    5.886
  415.000   57.310    0.383    0.319    5.905
  415.250   57.995    0.379    0.326    5.923
