~VERSION INFORMATION
 VERS.                 2.0:   CWLS LOG ASCII STANDARD -VERSION 2.0
 WRAP.                  NO:   ONE LINE PER DEPTH STEP
~WELL INFORMATION BLOCK
#MNEM.UNIT           DATA                    DESCRIPTION OF MNEMONIC
#---------    -------------------            -------------------------------
# Generated from Intellog Unique Number	CW_70_72/WELL/1044
NULL.         -999.25                        : NULL_VALUE
WELL.         UNIGAS ET AL SMITH 10-31       : Well_name    - WELL              
LOC .         10-31-071-24W4                 : Location     - LOCATION          
UWI .         00/10-31-071-24W4/0            : Uwi          - UNIQUE WELL ID    
ENTR.         JAYE                           : Entered      - ENTERED BY        
SRVC.         SCHLUMBERGER                   : Scn          - SERVICE COMPANY   
DATE.         14 NOV 71                      : Date         - LOG DATE          
STRT.M        435.254                        : top_depth    - START DEPTH       
STOP.M        635.254                        : bot_depth    - STOP DEPTH        
STEP.M        0.25                           : increment    - STEP LENGTH       
~CURVE INFORMATION BLOCK
#MNEM UNIT       ERCB CURVE CODE    CURVE DESCRIPTION
#-----------   ------------------   ----------------------------------
DEPT.M        00 001 00 00         : DEPTH        - DEPTH                       
DPHI.V/V      00 890 00 00         : PHID         - DENSITY POROSITY (SANDSTONE)
NPHI.V/V      00 330 00 00         : PHIN         - NEUTRON POROSITY (SANDSTONE)
CALI.MM       00 280 01 00         : CAL          - CALIPER                     
ILD .OHMM     00 120 00 00         : RESD         - DEEP RESISTIVITY (DIL)      
GR  .API      00 310 00 00         : GR           - GAMMA RAY                   
~PARAMETER INFORMATION       
#MNEM.UNIT           DATA             DESCRIPTION OF MNEMONIC
#---------         -----------     ------------------------------
GL  .M        656.783              : gl           - GROUND LEVEL ELEVATION      
EREF.M        659.221              : kb           - ELEVATION OF DEPTH REFERENCE
DATM.M        656.783              : datum        - DATUM ELEVATION             
TDD .M        645.566              : tdd          - TOTAL DEPTH DRILLER         
RUN .         ONE                  : Run          - RUN NUMBER                  
BASE.         EDM                  : Branch       - HOME BASE OF LOGGING UNIT   
MATR.         SANDSTONE            : Logunit      - NEUTRON MATRIX              
TMAX.C        22.2222              : BHT          - MAXIMUM RECORDED TEMPERATURE
BHTD.M        645.262              : BHTDEP       - MAXIMUM RECORDED TEMPERATURE
RMT .C        18.3333              : MDTP         - TEMPERATURE OF MUD          
MUDD.KG/M     0                    : MWT          - MUD DENSITY                 
NEUT.         1                    : NEUTRON      - NEUTRON TYPE                
RESI.         0                    : RESIST       - RESISTIVITY TYPE            
RM  .OHMM     2.03                 : RM           - RESISTIVITY OF MUD          
RMC .OHMM     0                    : RMC          - RESISTIVITY OF MUD CAKE     
RMF .OHMM     2.43                 : RMF          - RESISTIVITY OF MUD FILTRATE 
SUFT.C        -17.7778             : SUFT         - SURFACE TEMPERATURE         
~A  DEPTH     PHID     PHIN      CAL     RESD       GR
# ...
  508.254    0.375    0.518  160.733    3.479   57.884
  508.504    0.375    0.518  160.759    3.550   56.968
  508.754    0.375    0.516  160.574    3.622   56.983
  509.004    0.376    0.513  160.810    3.669   59.734
  509.254    0.376    0.512  161.151    3.764   63.476
  509.504    0.376    0.513  161.281    3.812   67.469
  509.754    0.377    0.514  161.516    3.883   66.304
  510.004    0.377    0.516  162.068    3.976   62.900
  510.254    0.379    0.519  163.359    4.042   59.808
  510.504    0.384    0.527  164.647    4.094   59.201
  510.754    0.397    0.544  165.722    4.147   61.392
  511.004    0.414    0.573  167.117    4.216   67.372
  511.254    0.450    0.597  168.192    4.263   73.415
  511.504    0.446    0.597  168.851    4.341   76.536
  511.754    0.435    0.594  168.562    4.421   78.229
  512.004    0.443    0.603  167.954    4.487   83.216
  512.254    0.450    0.597  167.877    4.595   84.972
  512.504    0.449    0.586  167.797    4.662   83.681
  512.754    0.436    0.573  167.506    4.688   81.584
  513.004    0.415    0.544  166.587    4.520   79.052
  513.254    0.394    0.520  165.033    4.233   76.146
  513.504    0.380    0.527  163.374    4.037   72.185
  513.754    0.393    0.547  161.821    3.857   67.540
  514.004    0.400    0.543  160.584    3.678   61.094
  514.254    0.398    0.542  160.302    3.619   56.450
  514.504    0.399    0.549  160.534    3.579   55.221
  514.754    0.394    0.527  160.666    3.593   55.919
  515.004    0.377    0.506  160.693    3.652   52.518
  515.254    0.363    0.495  160.821    3.754   50.855
  515.504    0.363    0.494  161.271    3.837   51.430
  515.754    0.365    0.499  162.136    3.973   53.867
  516.004    0.358    0.486  163.422    4.091   55.373
  516.254    0.352    0.484  167.973    4.235   53.151
  516.504    0.357    0.490  170.312    4.337   52.175
  516.754    0.359    0.486  164.867    4.450   55.108
  517.004    0.353    0.488  163.631    4.458   55.187
  517.254    0.360    0.500  163.238    4.402   54.456
  517.504    0.370    0.511  162.946    4.236   56.708
  517.754    0.380    0.521  162.760    4.003   62.067
  518.004    0.387    0.528  162.576    3.742   65.562
  518.254    0.392    0.536  162.183    3.615   66.200
  518.504    0.395    0.539  161.999    3.530   67.830
  518.754    0.402    0.546  161.708    3.466   72.318
  519.004    0.409    0.558  161.422    3.397   71.214
  519.254    0.419    0.569  161.652    3.324   69.863
  519.504    0.428    0.584  161.996    3.288   58.880
  519.754    0.435    0.595  161.915    3.264   49.947
  520.004    0.434    0.590  161.735    3.223   50.646
  520.254    0.434    0.592  161.546    3.182   49.544
  520.504    0.447    0.600  161.467    3.136   48.067
  520.754    0.459    0.606  161.492    3.130   48.579
  521.004    0.467    0.608  161.940    3.229   53.317
  521.254    0.480    0.610  163.648    3.411   60.913
  521.504    0.461    0.605  167.146    3.623   66.583
  521.754    0.428    0.586  170.854    3.877   75.607
  522.004    0.414    0.569  169.198    4.095   84.259
  522.254    0.422    0.571  166.908    4.357   90.055
  522.504    0.425    0.579  167.461    4.528   86.217
  522.754    0.423    0.574  167.803    4.553   81.510
  523.004    0.424    0.572  167.932    4.536   82.146
  523.254    0.432    0.587  167.746    4.537   84.771
  523.504    0.431    0.586  167.774    4.545   87.397
  523.754    0.430    0.588  167.798    4.554   87.846
  524.004    0.439    0.594  167.935    4.554   84.196
  524.254    0.446    0.601  167.955    4.571   88.187
  524.504    0.451    0.606  168.403    4.588   89.694
  524.754    0.452    0.609  168.220    4.605   87.596
  525.004    0.449    0.607  168.142    4.596   90.594
  525.254    0.437    0.590  168.166    4.597   88.808
  525.504    0.427    0.583  168.822    4.597   88.512
  525.754    0.433    0.588  169.585    4.622   87.970
  526.004    0.436    0.594  170.349    4.673   86.803
  526.254    0.436    0.596  171.215    4.725   81.784
  526.504    0.436    0.595  172.082    4.743   82.296
  526.754    0.435    0.593  170.003    4.743   83.865
  527.004    0.435    0.592  164.661    4.691   77.294
  527.254    0.436    0.596  163.845    4.556   66.808
  527.504    0.439    0.601  165.872    4.099   56.695
  527.754    0.442    0.602  166.211    3.529   53.169
  528.004    0.446    0.602  162.344    3.186   56.415
  528.254    0.445    0.600  161.318    3.287   53.634
  528.504    0.308    0.590  162.399    3.562   52.531
  528.754    0.241    0.393  164.000    4.426   55.592
  529.004    0.171    0.258  166.132    5.810   55.854
  529.254    0.173    0.296  167.524    7.503   60.531
  529.504    0.274    0.360  166.708    8.778   69.120
  529.754    0.401    0.557  162.209    6.448   80.009
  530.004    0.439    0.587  160.556    5.161   79.838
  530.254    0.445    0.602  160.054    4.509   73.764
  530.504    0.441    0.593  160.080    3.918   75.954
  530.754    0.435    0.584  160.421    3.792   78.268
  531.004    0.432    0.583  161.079    3.904   77.289
  531.254    0.433    0.585  161.522    4.042   80.350
  531.504    0.436    0.590  161.865    4.050   75.208
  531.754    0.440    0.597  161.683    3.730   64.908
  532.004    0.444    0.603  161.390    3.368   65.110
  532.254    0.443    0.605  160.783    3.108   67.176
  532.504    0.438    0.602  159.865    3.137   67.812
  532.754    0.430    0.597  159.048    3.295   70.252
  533.004    0.411    0.577  157.074    3.487   75.236
  533.254    0.410    0.550  154.678    3.772   76.121
  533.504    0.414    0.561  151.762    3.807   73.403
  533.754    0.417    0.567  148.630    3.794   66.894
  534.004    0.421    0.571  145.497    3.766   63.243
  534.254    0.432    0.580  142.788    3.746   68.291
  534.504    0.434    0.588  147.337    3.678   75.576
  534.754    0.435    0.590  151.466    3.645   71.927
  535.004    0.435    0.593  148.968    3.625   71.505
  535.254    0.448    0.599  145.204    3.592   73.944
  535.504    0.462    0.604  148.282    3.586   73.961
  535.754    0.476    0.611  157.251    3.566   68.631
  536.004    0.475    0.612  149.070    3.626   67.651
  536.254    0.448    0.601  145.308    3.830   72.825
  536.504    0.426    0.578  143.861    3.944   76.010
  536.754    0.413    0.562  144.207    4.009   72.917
  537.004    0.415    0.560  145.070    4.076   72.499
  537.254    0.418    0.565  145.517    4.113   73.818
  537.504    0.415    0.569  145.857    4.166   75.821
  537.754    0.413    0.566  147.463    4.236   80.123
  538.004    0.410    0.558  150.120    4.298   84.861
  538.254    0.406    0.551  151.513    4.369   81.086
  538.504    0.402    0.544  154.591    4.450   77.995
  538.754    0.397    0.539  159.454    4.541   79.874
  539.004    0.390    0.533  164.743    4.858   83.741
  539.254    0.376    0.518  169.501    5.421   84.628
  539.504    0.315    0.416  172.053    6.171   81.597
  539.754    0.241    0.346  165.555    7.181   71.237
  540.004    0.190    0.275  164.108    8.667   61.806
  540.254    0.183    0.251  169.079   10.067   53.868
  540.504    0.225    0.308  169.736   10.929   60.283
  540.754    0.297    0.465  162.820    8.527   68.190
  541.004    0.362    0.471  156.214    7.684   71.126
  541.254    0.250    0.355  156.979    8.207   61.012
  541.504    0.170    0.284  164.578   10.106   55.062
  541.754    0.121    0.191  169.445   12.286   49.300
  542.004    0.122    0.179  167.472   15.157   45.337
  542.254    0.190    0.222  170.549   13.735   45.539
  542.504    0.271    0.353  165.733   11.569   51.333
  542.754    0.315    0.503  155.659    9.010   61.600
  543.004    0.379    0.538  148.949    7.687   68.513
  543.254    0.382    0.519  152.870    6.335   68.093
  543.504    0.367    0.485  155.737    5.709   63.138
  543.754    0.336    0.459  156.921    5.933   61.227
  544.004    0.314    0.431  157.365    6.371   62.239
  544.254    0.315    0.438  156.555    6.524   63.868
  544.504    0.345    0.480  156.054    6.336   65.994
