~VERSION INFORMATION
 VERS.                 2.0:   CWLS LOG ASCII STANDARD -VERSION 2.0
 WRAP.                  NO:   ONE LINE PER DEPTH STEP
~WELL INFORMATION BLOCK
#MNEM.UNIT           DATA                    DESCRIPTION OF MNEMONIC
#---------    -------------------            -------------------------------
# Generated from Intellog Unique Number	CS_73_76/WELL/849
WELL.         PEX KIRBY                      : Well_name    - WELL
LOC .         00/11-21-073-07W4/0            : Location     - LOCATION
UWI .         00/11-21-073-07W4/0            : Uwi          - UNIQUE WELL ID
ENTR.         SP                             : Entered      - ENTERED BY
SRVC.         SCHLUMBERGER                   : Scn          - SERVICE COMPANY
STRT.M        345                            : top_depth    - START DEPTH
STOP.M        570                            : bot_depth    - STOP DEPTH
STEP.M        0.25                           : increment    - STEP LENGTH
 NULL. -999.2500:NULL Value
~CURVE INFORMATION BLOCK
#MNEM UNIT       ERCB CURVE CODE    CURVE DESCRIPTION
#-----------   ------------------   ----------------------------------
DEPT.M        00 001 00 00         : DEPTH        - DEPTH
ILD .OHMM     00 120 00 00         : RESD         - DEEP RESISTIVITY (DIL)
DPHI.V/V      00 890 00 00         : PHID         - DENSITY POROSITY (LIMESTONE)
NPHI.V/V      00 330 00 00         : PHIN         - NEUTRON POROSITY (LIMESTONE)
GR  .API      00 310 00 00         : GR           - GAMMA RAY
~PARAMETER INFORMATION
#MNEM.UNIT           DATA             DESCRIPTION OF MNEMONIC
#---------         -----------     ------------------------------
GL  .M        731                  : gl           - GROUND LEVEL ELEVATION
EREF.M        734.2                : kb           - ELEVATION OF DEPTH REFERENCE
DATM.M        731                  : datum        - DATUM ELEVATION
TDD .M        582                  : tdd          - TOTAL DEPTH DRILLER
RUN .         ONE                  : Run          - RUN NUMBER
ENG .         BILL                 : Engineer     - RECORDING ENGINEER
WIT .         JIM                  : Witness      - WITNESSED BY
MUD .         GEL                  : Mud_type     - MUD TYPE
MATR.         LIMESTONE            : Logunit      - NEUTRON MATRIX
TMAX.C        29                   : BHT          - MAXIMUM RECORDED TEMPERATURE
BHTD.M        582                  : BHTDEP       - MAXIMUM RECORDED TEMPERATURE
MATR.         1                    : LOGUNIT      - NEUTRON MATRIX
RMT .C        25                   : MDTP         - TEMPERATURE OF MUD
NEUT.         1                    : NEUTRON      - NEUTRON TYPE
RESI.         0                    : RESIST       - RESISTIVITY TYPE
RMC .OHMM     0.25                 : RMC          - RESISTIVITY OF MUD CAKE
RMF .OHMM     0.25                 : RMF          - RESISTIVITY OF MUD FILTRATE
SUFT.C        15                   : SUFT         - SURFACE TEMPERATURE
~A  DEPTH     RESD     PHID     PHIN       GR
  345.000    3.705    0.269    0.466   96.342
  345.250    3.776    0.257    0.451   96.943
  345.500    3.778    0.243    0.438  100.592
  345.750    3.851    0.253    0.435  102.413
  346.000    4.000    0.249    0.445   98.745
  346.250    4.154    0.253    0.436   96.298
  346.500    4.234    0.263    0.440   97.509
  346.750    4.397    0.268    0.469  101.767
  347.000    4.567    0.257    0.490  105.417
  347.250    4.744    0.252    0.480  104.799
  347.500    4.835    0.252    0.468  102.351
  347.750    4.836    0.237    0.446   97.463
  348.000    4.839    0.225    0.436   95.015
  348.250    4.750    0.204    0.439   98.666
  348.500    4.664    0.210    0.428   98.045
  348.750    4.578    0.219    0.440   96.818
  349.000    4.495    0.218    0.432   95.591
  349.250    4.497    0.228    0.437   97.412
  349.500    4.498    0.234    0.441  100.452
  349.750    4.585    0.224    0.428  100.443
  350.000    4.673    0.218    0.413   97.385
  350.250    4.675    0.209    0.439  100.426
  350.500    4.677    0.213    0.442   94.320
  350.750    4.591    0.216    0.424  101.016
  351.000    4.508    0.227    0.428   99.789
  351.250    4.509    0.245    0.422   96.731
  351.500    4.511    0.231    0.412   95.504
  351.750    4.598    0.236    0.426  103.421
  352.000    4.687    0.239    0.423  105.242
  352.250    4.689    0.223    0.427   98.526
  352.500    4.603    0.211    0.410   90.588
  352.750    4.692    0.228    0.384   86.922
  353.000    4.965    0.194    0.397   91.180
  353.250    5.558    0.196    0.399   98.487
  353.500    6.223    0.218    0.403  100.921
  353.750    7.098    0.233    0.379   95.423
  354.000    9.586    0.283    0.367   89.926
  354.250   15.042    0.311    0.377   84.429
  354.500   18.154    0.332    0.386   81.373
  354.750   17.166    0.342    0.380   87.462
  355.000   16.539    0.246    0.366  103.307
  355.250   16.238    0.235    0.343  111.225
  355.500   16.551    0.221    0.339  113.046
  355.750   18.531    0.268    0.294   97.790
  356.000   19.609    0.261    0.262   89.243
  356.250   23.223    0.262    0.227   83.750
  356.500   30.781    0.293    0.206   75.814
  356.750   43.977    0.319    0.194   67.270
  357.000   66.465    0.276    0.181   49.577
  357.250  100.453    0.291    0.174   47.740
  357.500  140.853    0.337    0.170   44.677
  357.750  163.715    0.305    0.170   42.228
  358.000  157.743    0.381    0.173   41.002
  358.250  104.452    0.434    0.179   39.778
  358.500   77.389    0.464    0.187   37.330
  358.750   42.479    0.457    0.226   40.369
  359.000   28.656    0.436    0.277   54.993
  359.250   21.235    0.403    0.318   70.229
  359.500   17.944    0.265    0.346   77.538
  359.750   16.651    0.250    0.341   81.798
  360.000   15.166    0.264    0.342   79.350
  360.250   15.171    0.265    0.353   82.388
  360.500   14.895    0.276    0.359   84.210
  360.750   14.351    0.274    0.357   84.202
  361.000   13.571    0.215    0.348   89.070
  361.250   13.575    0.220    0.343   93.329
  361.500   14.366    0.214    0.340   92.101
  361.750   16.085    0.254    0.337   95.138
  362.000   17.022    0.279    0.343   90.255
  362.250   18.014    0.293    0.351   81.709
  362.500   18.709    0.278    0.346   73.773
  362.750   19.430    0.260    0.342   78.034
  363.000   19.076    0.256    0.347   82.292
  363.250   18.038    0.275    0.347   82.894
  363.500   15.531    0.295    0.341   81.057
  363.750   14.145    0.320    0.347   82.877
  364.000   12.643    0.357    0.367   81.038
  364.250   11.091    0.213    0.388   85.296
  364.500    9.730    0.169    0.380   90.776
  364.750    8.535    0.141    0.391   95.647
  365.000    9.378    0.118    0.396   97.467
  365.250   11.533    0.099    0.373   95.629
  365.500   12.910    0.116    0.357   91.962
  365.750   16.176    0.157    0.347   96.221
  366.000   19.518    0.198    0.328   88.284
  366.250   21.854    0.234    0.324   79.739
  366.500   22.273    0.274    0.318   67.535
  366.750   21.463    0.246    0.299   60.211
  367.000   20.677    0.152    0.308   57.153
  367.250   17.806    0.212    0.329   62.019
  367.500   16.521    0.268    0.345   68.107
  367.750   13.446    0.271    0.357   65.050
  368.000   10.541    0.275    0.378   62.605
  368.250    9.247    0.263    0.388   66.249
  368.500    8.266    0.224    0.400   66.856
  368.750    7.815    0.141    0.421   79.041
  369.000    7.118    0.063    0.436   88.180
  369.250    6.363    0.057    0.431   98.535
  369.500    5.688    0.108    0.431  105.235
  369.750    5.181    0.184    0.427  111.931
  370.000    4.991    0.215    0.421  116.193
  370.250    4.632    0.201    0.424  119.234
  370.500    4.299    0.142    0.428  116.176
  370.750    4.142    0.147    0.433  106.412
  371.000    3.991    0.194    0.436  116.157
  371.250    4.223    0.215    0.421  121.637
  371.500    5.096    0.232    0.410  122.236
  371.750    7.281    0.244    0.407  121.009
  372.000    9.123    0.260    0.420  122.221
  372.250   11.217    0.240    0.414  112.456
  372.500   13.285    0.220    0.385  100.859
  372.750   14.596    0.239    0.372   84.998
  373.000   14.879    0.267    0.383   77.674
  373.250   13.809    0.259    0.388   81.932
  373.500   13.058    0.267    0.403   81.922
  373.750   12.819    0.247    0.399   84.963
  374.000   14.085    0.129    0.391   91.052
  374.250   15.187    0.057    0.380   99.576
  374.500   16.687    0.065    0.380  102.009
  374.750   17.992    0.326    0.369  103.832
  375.000   19.770    0.331    0.351  109.919
  375.250   20.921    0.326    0.353  111.130
  375.500   22.563    0.325    0.366  101.366
  375.750   22.567    0.338    0.369   84.283
  376.000   23.002    0.332    0.363   70.860
  376.250   23.011    0.337    0.359   54.996
  376.500   22.592    0.348    0.363   47.061
  376.750   22.603    0.358    0.374   48.272
  377.000   22.188    0.373    0.384   52.529
  377.250   22.195    0.373    0.393   54.962
  377.500   22.207    0.365    0.383   59.217
  377.750   21.802    0.364    0.376   61.041
  378.000   21.807    0.357    0.375   64.082
  378.250   21.817    0.350    0.375   68.949
  378.500   21.416    0.354    0.370   65.284
  378.750   21.426    0.363    0.364   75.030
  379.000   21.431    0.351    0.363   87.218
  379.250   21.040    0.342    0.370   98.185
  379.500   20.655    0.335    0.374  106.103
  379.750   20.279    0.333    0.367  107.314
  380.000   19.912    0.344    0.367  103.645
  380.250   19.549    0.352    0.363  106.684
  380.500   19.191    0.358    0.362  107.897
  380.750   18.840    0.312    0.366  105.449
  381.000   18.847    0.269    0.373   91.416
  381.250   18.503    0.265    0.377   82.260
  381.500   18.510    0.262    0.367   82.250
  381.750   18.173    0.258    0.361   81.024
  382.000   17.841    0.267    0.363   78.576
  382.250   17.516    0.279    0.354   85.274
  382.500   17.197    0.286    0.351   74.900
  382.750   16.568    0.274    0.355   66.353
  383.000   15.964    0.170    0.355   61.467
  383.250   15.096    0.219    0.356   64.505
  383.500   14.275    0.240    0.357   66.327
  383.750   13.500    0.252    0.354   63.880
  384.000   13.253    0.275    0.350   66.309
  384.250   14.027    0.247    0.345   70.568
  384.500   14.296    0.229    0.363   76.044
  384.750   14.850    0.254    0.372   77.259
  385.000   15.134    0.274    0.376   68.102
  385.250   15.140    0.289    0.361   63.217
  385.500   15.144    0.285    0.368   65.035
  385.750   14.869    0.302    0.373   63.200
  386.000   14.874    0.266    0.379   64.411
  386.250   14.602    0.252    0.383   72.322
  386.500   14.336    0.259    0.366   74.147
  386.750   13.812    0.261    0.353   76.579
  387.000   12.348    0.252    0.358   77.180
  387.250   11.896    0.254    0.364   72.902
  387.500   11.463    0.256    0.361   75.333
  387.750   11.905    0.189    0.365   84.469
  388.000   12.365    0.178    0.363   88.730
  388.250   12.842    0.183    0.348   92.380
