~VERSION INFORMATION
 VERS.                 2.0:   CWLS LOG ASCII STANDARD -VERSION 2.0
 WRAP.                  NO:   ONE LINE PER DEPTH STEP
~WELL INFORMATION BLOCK
#MNEM.UNIT           DATA                    DESCRIPTION OF MNEMONIC
#---------    -------------------            -------------------------------
# Generated from Intellog Unique Number	CS_67_68/WELL/2205
WELL.         GOEG et al HYLO                : Well_name    - WELL
LOC .         00/11-10-067-14W4/0            : Location     - LOCATION
UWI .         00/11-10-067-14W4/0            : Uwi          - UNIQUE WELL ID
ENTR.         SP                             : Entered      - ENTERED BY
SRVC.         SCHLUMBERGER                   : Scn          - SERVICE COMPANY
STRT.M        310                            : top_depth    - START DEPTH
STOP.M        505                            : bot_depth    - STOP DEPTH
STEP.M        0.25                           : increment    - STEP LENGTH
 NULL. -999.2500:NULL Value
~CURVE INFORMATION BLOCK
#MNEM UNIT       ERCB CURVE CODE    CURVE DESCRIPTION
#-----------   ------------------   ----------------------------------
DEPT.M        00 001 00 00         : DEPTH        - DEPTH
ILD .OHMM     00 120 00 00         : RESD         - DEEP RESISTIVITY (DIL)
DPHI.V/V      00 890 00 00         : PHID         - DENSITY POROSITY (LIMESTONE)
NPHI.V/V      00 330 00 00         : PHIN         - NEUTRON POROSITY (LIMESTONE)
GR  .API      00 310 00 00         : GR           - GAMMA RAY
CALI.MM       00 280 01 00         : CAL          - CALIPER
~PARAMETER INFORMATION
#MNEM.UNIT           DATA             DESCRIPTION OF MNEMONIC
#---------         -----------     ------------------------------
GL  .M        575.5                : gl           - GROUND LEVEL ELEVATION
EREF.M        578.5                : kb           - ELEVATION OF DEPTH REFERENCE
DATM.M        578.5                : datum        - DATUM ELEVATION
TDD .M        506                  : tdd          - TOTAL DEPTH DRILLER
RUN .         ONE                  : Run          - RUN NUMBER
ENG .         BILL                 : Engineer     - RECORDING ENGINEER
WIT .         JIM                  : Witness      - WITNESSED BY
MUD .         GEL                  : Mud_type     - MUD TYPE
MATR.         LIMESTONE            : Logunit      - NEUTRON MATRIX
TMAX.C        22                   : BHT          - MAXIMUM RECORDED TEMPERATURE
BHTD.M        506                  : BHTDEP       - MAXIMUM RECORDED TEMPERATURE
MATR.         1                    : LOGUNIT      - NEUTRON MATRIX
RMT .C        25                   : MDTP         - TEMPERATURE OF MUD
NEUT.         1                    : NEUTRON      - NEUTRON TYPE
RESI.         0                    : RESIST       - RESISTIVITY TYPE
RMC .OHMM     0.25                 : RMC          - RESISTIVITY OF MUD CAKE
RMF .OHMM     0.25                 : RMF          - RESISTIVITY OF MUD FILTRATE
SUFT.C        15                   : SUFT         - SURFACE TEMPERATURE
~A  DEPTH     RESD     PHID     PHIN       GR      CAL
# ...
  346.500    2.063    0.335    0.451   75.827  154.688
  346.750    1.977    0.340    0.441   74.421  155.490
  347.000    1.927    0.328    0.446   72.711  155.885
  347.250    1.927    0.335    0.450   71.670  155.570
  347.500    1.945    0.351    0.453   71.116  155.054
  347.750    2.007    0.358    0.459   71.292  154.334
  348.000    2.075    0.346    0.469   71.956  154.626
  348.250    2.138    0.349    0.458   72.740  154.923
  348.500    2.206    0.355    0.455   73.648  153.897
  348.750    2.260    0.358    0.457   74.495  152.568
  349.000    2.281    0.359    0.464   75.098  152.253
  349.250    2.294    0.360    0.480   75.275  152.345
  349.500    2.324    0.362    0.465   75.390  152.539
  349.750    2.416    0.378    0.463   75.141  153.238
  350.000    2.660    0.396    0.473   74.952  153.836
  350.250    3.129    0.384    0.481   75.555  154.131
  350.500    3.842    0.252    0.334   71.652  154.527
  350.750    4.333    0.104    0.240   65.194  155.228
  351.000    4.446    0.064    0.210   59.466  157.855
  351.250    4.262    0.096    0.228   60.860  159.266
  351.500    3.530    0.302    0.274   67.185  158.851
  351.750    2.945    0.348    0.357   73.327  153.564
  352.000    2.466    0.364    0.434   75.817  150.206
  352.250    2.112    0.356    0.437   72.706  150.197
  352.500    1.894    0.355    0.433   72.822  150.895
  352.750    1.779    0.358    0.446   74.156  150.988
  353.000    1.730    0.351    0.442   74.636  150.471
  353.250    1.717    0.343    0.439   74.265  149.345
  353.500    1.718    0.337    0.437   75.477  149.741
  353.750    1.718    0.337    0.428   74.740  151.049
  354.000    1.721    0.343    0.419   72.360  151.547
  354.250    1.750    0.340    0.409   73.450  151.739
  354.500    1.773    0.328    0.407   74.235  151.931
  354.750    1.806    0.314    0.418   74.412  151.923
  355.000    1.846    0.313    0.426   74.467  151.812
  355.250    1.888    0.324    0.417   74.034  151.801
  355.500    1.923    0.326    0.423   74.272  151.690
  355.750    1.941    0.322    0.426   76.214  151.882
  356.000    1.959    0.316    0.417   78.095  152.177
  356.250    1.974    0.324    0.422   80.098  152.572
  356.500    1.981    0.323    0.428   81.371  152.665
  356.750    2.000    0.317    0.421   78.808  151.742
  357.000    2.030    0.312    0.420   75.393  150.819
  357.250    2.091    0.321    0.423   82.387  151.518
  357.500    2.260    0.299    0.409   87.677  152.014
  357.750    2.393    0.278    0.415   92.663  151.802
  358.000    2.520    0.266    0.432   96.553  151.385
  358.250    2.654    0.283    0.441  100.199  151.174
  358.500    2.749    0.268    0.432  103.238  151.061
  358.750    2.821    0.244    0.438  107.493  152.067
  359.000    2.879    0.225    0.437  108.948  155.709
  359.250    2.955    0.222    0.448  109.369  158.439
  359.500    3.061    0.252    0.437  110.276  160.763
  359.750    3.235    0.251    0.450  111.426  159.432
  360.000    3.395    0.243    0.461  115.255  158.207
  360.250    3.555    0.254    0.457  115.310  158.907
  360.500    3.629    0.257    0.460  109.581  160.316
  360.750    3.471    0.247    0.459  111.219  160.307
  361.000    3.290    0.236    0.442  114.866  158.470
  361.250    3.183    0.234    0.440  109.320  156.127
  361.500    3.079    0.251    0.437  106.819  154.088
  361.750    3.073    0.257    0.435  113.813  154.788
  362.000    3.085    0.242    0.456  120.625  156.604
  362.250    3.148    0.226    0.483  126.524  158.421
  362.500    3.255    0.237    0.483  128.040  159.628
  362.750    3.486    0.242    0.430  123.408  160.024
  363.000    3.671    0.243    0.413  115.670  160.216
  363.250    3.685    0.239    0.428  110.246  158.379
  363.500    3.525    0.285    0.407  105.127  154.921
  363.750    3.366    0.276    0.399  111.391  153.998
  364.000    3.354    0.254    0.401  116.194  155.710
  364.250    3.410    0.234    0.411  114.605  156.615
  364.500    3.487    0.219    0.415  109.973  156.910
  364.750    3.565    0.242    0.403  107.288  155.073
  365.000    3.632    0.227    0.389  110.022  152.222
  365.250    3.693    0.207    0.386  110.381  152.923
  365.500    3.776    0.212    0.404  111.045  155.754
  365.750    3.832    0.226    0.413  113.900  157.571
  366.000    3.904    0.234    0.422  117.607  158.778
  366.250    3.926    0.238    0.427  120.402  160.492
  366.500    3.826    0.226    0.422  120.335  161.497
  366.750    3.701    0.215    0.430  119.354  162.603
  367.000    3.514    0.204    0.431  119.775  161.376
  367.250    3.240    0.213    0.452  121.352  158.931
  367.500    3.054    0.245    0.467  103.448  155.977
  367.750    2.976    0.273    0.453   95.589  154.548
  368.000    2.863    0.253    0.440   91.382  154.537
  368.250    2.719    0.290    0.430   87.115  154.325
  368.500    2.530    0.313    0.421   82.969  154.113
  368.750    2.354    0.307    0.414   78.885  154.407
  369.000    2.231    0.297    0.414   79.671  154.499
  369.250    2.163    0.290    0.410   83.135  154.892
  369.500    2.147    0.289    0.400   84.407  155.290
  369.750    2.199    0.274    0.384   87.505  155.990
  370.000    2.265    0.258    0.373   91.700  156.285
  370.250    2.368    0.264    0.389   95.042  156.579
  370.500    2.457    0.266    0.399   97.410  156.873
  370.750    2.541    0.260    0.405  100.204  156.963
  371.000    2.583    0.282    0.410   98.007  157.056
  371.250    2.612    0.303    0.410   93.312  156.742
  371.500    2.593    0.307    0.419   90.872  155.312
  371.750    2.555    0.280    0.425   89.710  154.084
  372.000    2.518    0.267    0.420   96.095  152.551
  372.250    2.560    0.261    0.415  104.064  151.730
  372.500    2.706    0.250    0.414  111.972  151.518
  372.750    2.871    0.237    0.407  117.506  151.910
  373.000    3.103    0.226    0.397  121.762  152.612
  373.250    3.304    0.221    0.386  118.772  154.125
  373.500    3.499    0.213    0.401  114.688  157.058
  373.750    3.519    0.252    0.413  111.516  159.076
  374.000    3.442    0.262    0.421  109.501  157.849
  374.250    3.281    0.277    0.414  107.425  154.998
  374.500    3.127    0.271    0.407  112.411  152.553
  374.750    2.953    0.259    0.396  110.457  151.325
  375.000    2.830    0.266    0.378  100.527  151.721
  375.250    2.733    0.274    0.360   95.775  153.030
  375.500    2.624    0.282    0.374   93.820  153.933
  375.750    2.548    0.270    0.387  101.058  154.938
  376.000    2.576    0.257    0.401  104.401  156.448
  376.250    2.678    0.241    0.387  106.464  157.251
  376.500    2.790    0.225    0.378  108.589  157.647
  376.750    2.868    0.233    0.375  109.436  157.840
  377.000    2.938    0.239    0.379  107.907  157.831
  377.250    2.927    0.243    0.380  103.213  157.618
  377.500    2.890    0.242    0.389  102.721  157.404
  377.750    2.911    0.229    0.378  104.357  156.989
  378.000    3.021    0.198    0.369  106.301  156.776
  378.250    3.223    0.203    0.361  111.529  156.563
  378.500    3.464    0.188    0.357  115.785  156.451
  378.750    3.689    0.177    0.358  121.136  156.543
  379.000    3.807    0.205    0.362  124.052  156.938
  379.250    3.900    0.210    0.367  125.690  158.045
  379.500    3.914    0.197    0.370  122.823  159.354
  379.750    3.893    0.196    0.374  122.695  161.372
  380.000    3.850    0.194    0.379  123.298  162.784
  380.250    3.766    0.219    0.394  115.013  162.571
  380.500    3.550    0.239    0.404  108.615  160.125
  380.750    3.340    0.261    0.402  102.217  158.187
  381.000    3.057    0.254    0.407  110.429  157.162
  381.250    2.746    0.231    0.431  117.911  157.558
  381.500    2.555    0.218    0.456  124.175  159.171
  381.750    2.418    0.227    0.476  125.569  161.699
  382.000    2.326    0.217    0.501  121.971  164.429
  382.250    2.266    0.215    0.516  117.096  165.332
  382.500    2.396    0.233    0.519  109.541  164.611
  382.750    2.561    0.236    0.482  104.665  163.078
