~VERSION INFORMATION
 VERS.                 2.0:   CWLS LOG ASCII STANDARD -VERSION 2.0
 WRAP.                  NO:   ONE LINE PER DEPTH STEP
~WELL INFORMATION BLOCK
#MNEM.UNIT           DATA                    DESCRIPTION OF MNEMONIC
#---------    -------------------            -------------------------------
# Generated from Intellog Unique Number	CW_70_72/WELL/1075
NULL.         -999.25                        : NULL_VALUE
WELL.         WESTM ET AL CALLW 16-23        : Well_name    - WELL              
LOC .         16-23-071-20W4                 : Location     - LOCATION          
UWI .         00/16-23-071-20W4/0            : Uwi          - UNIQUE WELL ID    
ENTR.         JAYE                           : Entered      - ENTERED BY        
SRVC.         SCHLUMBERGER                   : Scn          - SERVICE COMPANY   
DATE.         21 FEB 84                      : Date         - LOG DATE          
STRT.M        315                            : top_depth    - START DEPTH       
STOP.M        510                            : bot_depth    - STOP DEPTH        
STEP.M        0.25                           : increment    - STEP LENGTH       
~CURVE INFORMATION BLOCK
#MNEM UNIT       ERCB CURVE CODE    CURVE DESCRIPTION
#-----------   ------------------   ----------------------------------
DEPT.M        00 001 00 00         : DEPTH        - DEPTH                       
DPHI.V/V      00 890 00 00         : PHID         - DENSITY POROSITY (SANDSTONE)
NPHI.V/V      00 330 00 00         : PHIN         - NEUTRON POROSITY (SANDSTONE)
GR  .API      00 310 00 00         : GR           - GAMMA RAY                   
CALI.MM       00 280 01 00         : CAL          - CALIPER                     
ILD .OHMM     00 120 00 00         : RESD         - DEEP RESISTIVITY (DIL)      
~PARAMETER INFORMATION       
#MNEM.UNIT           DATA             DESCRIPTION OF MNEMONIC
#---------         -----------     ------------------------------
GL  .M        586.4                : gl           - GROUND LEVEL ELEVATION      
EREF.M        588.9                : kb           - ELEVATION OF DEPTH REFERENCE
DATM.M        586.4                : datum        - DATUM ELEVATION             
TDD .M        518                  : tdd          - TOTAL DEPTH DRILLER         
RUN .         ONE                  : Run          - RUN NUMBER                  
ENG .         DOWNIE               : Engineer     - RECORDING ENGINEER          
WIT .         JACKSON              : Witness      - WITNESSED BY                
BASE.         EDSON                : Branch       - HOME BASE OF LOGGING UNIT   
MUD .         GEL CHEN             : Mud_type     - MUD TYPE                    
MATR.         SANDSTONE            : Logunit      - NEUTRON MATRIX              
TMAX.C        26                   : BHT          - MAXIMUM RECORDED TEMPERATURE
BHTD.M        517.3                : BHTDEP       - MAXIMUM RECORDED TEMPERATURE
RMT .C        18.9                 : MDTP         - TEMPERATURE OF MUD          
MUDD.KG/M     1170                 : MWT          - MUD DENSITY                 
NEUT.         1                    : NEUTRON      - NEUTRON TYPE                
RESI.         0                    : RESIST       - RESISTIVITY TYPE            
RM  .OHMM     4.57                 : RM           - RESISTIVITY OF MUD          
RMC .OHMM     0                    : RMC          - RESISTIVITY OF MUD CAKE     
RMF .OHMM     4.13                 : RMF          - RESISTIVITY OF MUD FILTRATE 
SUFT.C        0                    : SUFT         - SURFACE TEMPERATURE         
~A  DEPTH     PHID     PHIN       GR      CAL     RESD
# ...
  351.500    0.218    0.325   54.988  157.504   10.396
  351.750    0.151    0.292   53.368  158.144   12.080
  352.000    0.113    0.231   48.995  159.306   14.118
  352.250    0.078    0.207   47.251  160.050   16.038
  352.500    0.044    0.174   46.446  160.899   18.359
  352.750    0.033    0.155   47.143  160.912   20.739
  353.000    0.041    0.159   49.029  161.346   23.430
  353.250    0.042    0.179   49.601  161.566   26.120
  353.500    0.054    0.237   48.983  161.478   27.991
  353.750    0.066    0.328   48.616  160.970   27.669
  354.000    0.156    0.371   53.132  159.837   24.755
  354.250    0.269    0.407   57.520  158.806   22.304
  354.500    0.291    0.413   60.220  157.676   16.341
  354.750    0.314    0.416   61.105  157.169   11.906
  355.000    0.324    0.420   61.050  156.973    9.110
  355.250    0.323    0.425   60.307  156.987    8.041
  355.500    0.320    0.437   59.189  157.316    6.864
  355.750    0.317    0.456   59.261  157.226    6.495
  356.000    0.314    0.443   61.272  157.131    6.493
  356.250    0.308    0.429   63.469  157.042    6.477
  356.500    0.305    0.411   67.859  157.159    6.402
  356.750    0.297    0.399   72.623  157.176    6.269
  357.000    0.282    0.410   77.701  157.187    6.148
  357.250    0.268    0.430   82.214  157.410    5.875
  357.500    0.254    0.449   86.040  158.154    5.645
  357.750    0.242    0.429   88.802  158.898    5.404
  358.000    0.228    0.414   90.000  164.546    5.211
  358.250    0.216    0.406   93.951  166.332    5.074
  358.500    0.220    0.418   99.779  164.781    4.986
  358.750    0.222    0.430  104.482  163.440    4.909
  359.000    0.216    0.448   96.229  162.723    4.798
  359.250    0.211    0.453   82.344  161.801    4.680
  359.500    0.220    0.409   77.222  161.396    4.634
  359.750    0.237    0.400   82.236  161.307    4.572
  360.000    0.250    0.422   85.060  160.590    4.544
  360.250    0.263    0.450   71.426  159.666    4.576
  360.500    0.290    0.435   62.799  158.741    4.653
  360.750    0.313    0.411   66.564  157.919    4.729
  361.000    0.305    0.415   69.200  157.622    4.827
  361.250    0.302    0.430   72.587  157.949    4.899
  361.500    0.301    0.427   72.344  158.797    4.941
  361.750    0.288    0.436   73.354  161.106    4.967
  362.000    0.264    0.434   76.179  162.581    4.957
  362.250    0.250    0.421   81.570  162.908    4.944
  362.500    0.243    0.417   86.459  162.713    4.942
  362.750    0.279    0.423   88.032  161.684    4.978
  363.000    0.331    0.513   79.467  160.028    4.995
  363.250    0.359    0.568   67.773  159.624    5.021
  363.500    0.333    0.524   58.144  158.282    5.037
  363.750    0.301    0.394   49.517  158.093    5.112
  364.000    0.302    0.377   46.458  157.998    5.177
  364.250    0.317    0.378   48.219  156.761    5.244
  364.500    0.322    0.391   50.042  156.566    5.193
  364.750    0.321    0.405   48.111  156.790    5.094
  365.000    0.322    0.411   48.306  157.325    5.033
  365.250    0.324    0.404   51.819  157.547    4.911
  365.500    0.329    0.399   56.021  157.977    4.799
  365.750    0.337    0.406   55.090  158.201    4.689
  366.000    0.335    0.412   54.410  158.115    4.557
  366.250    0.328    0.415   56.546  158.337    4.495
  366.500    0.331    0.424   57.306  158.346    4.434
  366.750    0.342    0.410   55.876  158.259    4.383
  367.000    0.346    0.405   53.881  158.166    4.340
  367.250    0.346    0.415   51.261  157.972    4.281
  367.500    0.344    0.418   49.204  157.884    4.248
  367.750    0.340    0.411   47.210  157.692    4.214
  368.000    0.333    0.399   47.657  157.492    4.196
  368.250    0.325    0.393   49.730  157.195    4.194
  368.500    0.331    0.383   49.551  156.999    4.162
  368.750    0.336    0.411   48.933  157.330    4.130
  369.000    0.342    0.418   50.131  157.031    4.129
  369.250    0.347    0.416   51.267  157.040    4.118
  369.500    0.352    0.415   51.211  157.473    4.132
  369.750    0.355    0.420   47.778  157.592    4.122
  370.000    0.350    0.417   44.595  157.291    4.127
  370.250    0.344    0.408   44.478  156.576    4.126
  370.500    0.338    0.400   48.366  156.485    4.123
  370.750    0.336    0.399   50.191  157.543    4.130
  371.000    0.335    0.400   51.199  159.642    4.127
  371.250    0.334    0.389   51.959  160.180    4.141
  371.500    0.332    0.396   52.093  159.775    4.148
  371.750    0.329    0.410   51.914  158.954    4.170
  372.000    0.327    0.405   51.796  158.241    4.175
  372.250    0.329    0.398   49.927  157.939    4.181
  372.500    0.334    0.388   51.626  157.541    4.196
  372.750    0.342    0.385   53.637  157.656    4.201
  373.000    0.338    0.395   51.267  157.878    4.216
  373.250    0.332    0.406   49.711  157.996    4.223
  373.500    0.333    0.401   52.222  158.219    4.220
  373.750    0.336    0.411   53.545  158.337    4.233
  374.000    0.340    0.418   54.742  158.350    4.266
  374.250    0.347    0.412   56.691  158.365    4.288
  374.500    0.348    0.406   59.390  158.069    4.310
  374.750    0.340    0.401   57.271  158.080    4.325
  375.000    0.336    0.399   55.026  157.469    4.329
  375.250    0.335    0.408   53.221  157.064    4.360
  375.500    0.334    0.426   50.975  156.768    4.409
  375.750    0.333    0.417   50.171  156.570    4.440
  376.000    0.332    0.384   54.496  156.274    4.438
  376.250    0.332    0.377   57.008  155.974    4.444
  376.500    0.333    0.396   56.141  155.573    4.442
  376.750    0.333    0.417   54.773  155.068    4.448
  377.000    0.334    0.429   55.344  155.076    4.463
  377.250    0.335    0.418   59.232  154.777    4.470
  377.500    0.336    0.409   58.365  154.478    4.484
  377.750    0.334    0.411   56.433  154.079    4.499
  378.000    0.330    0.418   56.817  154.299    4.498
  378.250    0.293    0.433   58.641  154.941    4.564
  378.500    0.231    0.415   58.837  155.789    4.631
  378.750    0.109    0.227   57.218  156.426    4.770
  379.000    0.161    0.274   56.539  157.797    5.143
  379.250    0.277    0.325   57.547  158.958    5.616
  379.500    0.306    0.387   59.809  157.093    6.063
  379.750    0.300    0.408   57.188  151.060    6.486
  380.000    0.265    0.389   55.445  150.134    6.744
  380.250    0.214    0.387   55.204  150.148    6.704
  380.500    0.274    0.411   56.588  151.310    6.452
  380.750    0.306    0.435   60.038  153.098    6.107
  381.000    0.322    0.439   57.356  154.988    5.587
  381.250    0.338    0.439   58.429  157.195    5.054
  381.500    0.350    0.439   59.626  158.145    4.712
  381.750    0.345    0.450   56.505  158.471    4.435
  382.000    0.341    0.454   53.510  157.652    4.270
  382.250    0.346    0.440   53.393  157.039    4.166
  382.500    0.352    0.428   54.277  156.637    4.131
  382.750    0.354    0.431   56.100  156.650    4.099
  383.000    0.352    0.436   59.301  156.357    4.076
  383.250    0.350    0.430   59.935  156.263    4.081
  383.500    0.352    0.432   58.630  156.278    4.070
  383.750    0.354    0.433   57.763  156.290    4.069
  384.000    0.348    0.426   58.333  156.200    4.075
  384.250    0.339    0.415   59.844  155.693    4.135
  384.500    0.332    0.427   62.481  155.185    4.259
  384.750    0.326    0.428   65.117  154.259    4.397
  385.000    0.320    0.438   67.566  151.876    4.503
  385.250    0.314    0.450   67.887  151.160    4.639
  385.500    0.308    0.465   66.394  151.279    4.824
  385.750    0.304    0.467   64.463  151.603    4.978
  386.000    0.302    0.462   63.595  153.080    5.178
  386.250    0.298    0.456   64.166  153.927    5.312
  386.500    0.281    0.466   67.241  154.672    5.473
  386.750    0.236    0.400   60.992  155.623    5.757
  387.000    0.126    0.276   58.121  157.205    6.134
  387.250    0.164    0.319   58.569  158.050    6.851
  387.500    0.228    0.356   61.894  159.318    7.976
  387.750    0.250    0.398   65.406  159.538    9.445
