~VERSION INFORMATION
 VERS.                 2.0:   CWLS LOG ASCII STANDARD -VERSION 2.0
 WRAP.                  NO:   ONE LINE PER DEPTH STEP
~WELL INFORMATION BLOCK
#MNEM.UNIT           DATA                    DESCRIPTION OF MNEMONIC
#---------    -------------------            -------------------------------
# Generated from Intellog Unique Number	CW_70_72/WELL/1056
NULL.         -999.25                        : NULL_VALUE
WELL.         SACKVILLE ET AL MITSUE 11-12   : Well_name    - WELL              
LOC .         11-12-071-03W5                 : Location     - LOCATION          
UWI .         00/11-12-071-03W5/2            : Uwi          - UNIQUE WELL ID    
ENTR.         JAYE                           : Entered      - ENTERED BY        
SRVC.         SCHLUMBERGER                   : Scn          - SERVICE COMPANY   
DATE.         9 DEC 77                       : Date         - LOG DATE          
STRT.M        417.576                        : top_depth    - START DEPTH       
STOP.M        652.326                        : bot_depth    - STOP DEPTH        
STEP.M        0.25                           : increment    - STEP LENGTH       
~CURVE INFORMATION BLOCK
#MNEM UNIT       ERCB CURVE CODE    CURVE DESCRIPTION
#-----------   ------------------   ----------------------------------
DEPT.M        00 001 00 00         : DEPTH        - DEPTH                       
DPHI.V/V      00 890 00 00         : PHID         - DENSITY POROSITY (SANDSTONE)
NPHI.V/V      00 330 00 00         : PHIN         - NEUTRON POROSITY (SANDSTONE)
GR  .API      00 310 00 00         : GR           - GAMMA RAY                   
CALI.MM       00 280 01 00         : CAL          - CALIPER                     
ILD .OHMM     00 120 00 00         : RESD         - DEEP RESISTIVITY (DIL)      
~PARAMETER INFORMATION       
#MNEM.UNIT           DATA             DESCRIPTION OF MNEMONIC
#---------         -----------     ------------------------------
GL  .M        610.514              : gl           - GROUND LEVEL ELEVATION      
EREF.M        613.562              : kb           - ELEVATION OF DEPTH REFERENCE
DATM.M        610.514              : datum        - DATUM ELEVATION             
TDD .M        659.892              : tdd          - TOTAL DEPTH DRILLER         
RUN .         ONE                  : Run          - RUN NUMBER                  
ENG .         KOOYMAN              : Engineer     - RECORDING ENGINEER          
WIT .         MINKEN/PODULSKY      : Witness      - WITNESSED BY                
BASE.         EDM                  : Branch       - HOME BASE OF LOGGING UNIT   
MUD .         GEL                  : Mud_type     - MUD TYPE                    
MATR.         SANDSTONE            : Logunit      - NEUTRON MATRIX              
TMAX.C        23.8889              : BHT          - MAXIMUM RECORDED TEMPERATURE
BHTD.M        658.063              : BHTDEP       - MAXIMUM RECORDED TEMPERATURE
RMT .C        10                   : MDTP         - TEMPERATURE OF MUD          
MUDD.KG/M     1140                 : MWT          - MUD DENSITY                 
NEUT.         1                    : NEUTRON      - NEUTRON TYPE                
RESI.         0                    : RESIST       - RESISTIVITY TYPE            
RM  .OHMM     4.33                 : RM           - RESISTIVITY OF MUD          
RMC .OHMM     0                    : RMC          - RESISTIVITY OF MUD CAKE     
RMF .OHMM     4.09                 : RMF          - RESISTIVITY OF MUD FILTRATE 
SUFT.C        -17.7778             : SUFT         - SURFACE TEMPERATURE         
~A  DEPTH     PHID     PHIN       GR      CAL     RESD
# ...
  454.076    0.221    0.451  116.024  176.820    3.126
  454.326    0.237    0.445  121.362  177.213    3.172
  454.576    0.265    0.423  118.668  176.764    3.243
  454.826    0.299    0.379  110.184  164.928    3.320
  455.076    0.281    0.356  100.142  161.946    3.382
  455.326    0.261    0.372   93.465  164.126    3.456
  455.576    0.271    0.389   97.994  167.580    3.520
  455.826    0.263    0.390  100.218  171.031    3.578
  456.076    0.278    0.381  100.636  169.000    3.629
  456.326    0.303    0.374  104.416  165.389    3.655
  456.576    0.308    0.393  111.312  164.405    3.639
  456.826    0.270    0.409  122.253  164.379    3.603
  457.076    0.235    0.402  126.781  163.824    3.562
  457.326    0.229    0.405  127.013  162.421    3.546
  457.576    0.246    0.435  125.873  161.763    3.638
  457.826    0.241    0.436  125.859  161.418    3.789
  458.076    0.228    0.413  127.460  162.342    3.917
  458.326    0.213    0.412  124.830  165.054    4.079
  458.576    0.200    0.423  118.710  168.716    4.232
  458.826    0.177    0.416  111.097  173.642    4.342
  459.076    0.190    0.406  103.734  175.827    4.126
  459.326    0.216    0.391   87.842  175.063    3.618
  459.576    0.257    0.372   66.096  164.070    2.960
  459.826    0.293    0.356   53.875  163.299    2.382
  460.076    0.310    0.346   50.559  165.172    2.061
  460.326    0.312    0.344   55.833  164.824    1.794
  460.576    0.286    0.352   62.169  162.055    1.743
  460.826    0.260    0.369   71.800  159.708    1.742
  461.076    0.223    0.408   78.945  160.626    1.815
  461.326    0.248    0.448   75.317  162.812    1.897
  461.576    0.301    0.412   78.600  164.790    1.957
  461.826    0.265    0.427   86.925  167.609    1.993
  462.076    0.243    0.453   73.523  170.005    2.007
  462.326    0.289    0.447   69.894  159.644    2.036
  462.576    0.331    0.421   73.301  154.346    2.081
  462.826    0.325    0.408   79.324  148.623    2.217
  463.076    0.310    0.404   88.459  149.329    2.446
  463.326    0.296    0.396   97.099  151.726    2.690
  463.576    0.272    0.386  102.437  155.178    2.991
  463.826    0.244    0.376   97.688  158.312    3.252
  464.076    0.216    0.363   90.387  161.128    3.457
  464.326    0.232    0.365   78.664  164.050    3.117
  464.576    0.242    0.368   70.305  167.503    2.698
  464.826    0.252    0.366   63.315  167.266    2.291
  465.076    0.270    0.359   52.962  162.704    2.062
  465.326    0.296    0.350   50.581  158.353    1.849
  465.576    0.321    0.362   47.761  157.378    1.674
  465.826    0.333    0.374   42.515  157.764    1.567
  466.076    0.337    0.353   48.661  157.633    1.531
  466.326    0.328    0.349   50.389  157.292    1.519
  466.576    0.324    0.369   51.181  157.680    1.541
  466.826    0.319    0.382   53.216  157.649    1.584
  467.076    0.305    0.377   58.308  157.518    1.684
  467.326    0.296    0.368   64.766  156.857    1.898
  467.576    0.290    0.368   86.353  156.200    2.174
  467.826    0.276    0.358  102.275  156.907    2.417
  468.076    0.217    0.361  115.394  160.993    2.678
  468.326    0.193    0.398  121.914  167.601    2.917
  468.576    0.207    0.413  122.085  170.635    3.130
  468.826    0.209    0.405  126.799  168.288    3.365
  469.076    0.209    0.409  130.644  168.152    3.551
  469.326    0.198    0.407  132.681  173.501    3.754
  469.576    0.180    0.406  135.155  174.316    4.028
  469.826    0.179    0.416  134.888  173.865    4.171
  470.076    0.174    0.396  132.942  174.890    4.169
  470.326    0.188    0.381  135.914  176.445    3.502
  470.576    0.183    0.441  140.128  179.576    2.791
  470.826    0.186    0.472  142.790  182.817    2.357
  471.076    0.203    0.518  143.833  188.376    2.274
  471.326    0.224    0.514  135.597  192.561    2.324
  471.576    0.244    0.490  120.701  190.955    2.403
  471.826    0.263    0.442   97.897  173.218    2.607
  472.076    0.238    0.430   79.076  167.490    2.705
  472.326    0.250    0.422   69.284  166.515    2.659
  472.576    0.266    0.413   63.230  164.167    2.447
  472.826    0.281    0.401   65.948  162.349    2.338
  473.076    0.306    0.395   68.300  157.573    2.316
  473.326    0.309    0.411   70.773  152.801    2.323
  473.576    0.300    0.424   71.194  151.510    2.379
  473.826    0.332    0.416   70.118  152.536    2.432
  474.076    0.313    0.423   77.510  156.408    2.490
  474.326    0.291    0.432   86.709  164.285    2.536
  474.576    0.276    0.453   99.703  169.105    2.606
  474.826    0.277    0.482   97.008  164.860    2.674
  475.076    0.280    0.459  102.908  156.083    2.693
  475.326    0.227    0.440  116.775  158.270    2.681
  475.576    0.190    0.454  128.214  166.147    2.625
  475.826    0.188    0.479  122.033  178.030    2.547
  476.076    0.229    0.511  114.357  181.378    2.470
  476.326    0.260    0.496  102.637  169.328    2.455
  476.576    0.297    0.460   89.669  159.288    2.472
  476.826    0.290    0.424   80.252  153.460    2.584
  477.076    0.278    0.413   82.975  151.637    2.702
  477.326    0.274    0.411   86.071  152.557    2.861
  477.576    0.258    0.410   85.369  152.636    3.193
  477.826    0.245    0.403   71.405  150.815    3.472
  478.076    0.228    0.383   71.323  149.207    3.705
  478.326    0.205    0.352   73.116  152.130    3.808
  478.576    0.224    0.343   77.517  157.054    3.667
  478.826    0.259    0.400   80.927  158.818    3.400
  479.076    0.294    0.458   83.649  156.681    3.237
  479.326    0.299    0.439   85.750  152.964    3.094
  479.576    0.292    0.428   88.410  156.199    2.945
  479.826    0.289    0.444   90.757  156.492    2.873
  480.076    0.271    0.448   93.231  150.771    2.898
  480.326    0.264    0.422   95.206  150.425    2.935
  480.576    0.254    0.421   98.304  155.246    2.950
  480.826    0.249    0.441  101.525  161.228    2.970
  481.076    0.243    0.449  102.316  165.100    2.980
  481.326    0.231    0.445  101.489  156.213    2.995
  481.576    0.215    0.439  104.398  150.912    3.028
  481.826    0.221    0.433  105.565  148.461    3.060
  482.076    0.231    0.429  101.503  149.594    3.070
  482.326    0.242    0.437   97.252  153.252    3.091
  482.576    0.255    0.449   99.476  156.913    3.107
  482.826    0.266    0.452   95.038  158.045    3.076
  483.076    0.282    0.446   91.907  157.489    3.063
  483.326    0.253    0.439   89.772  156.726    3.039
  483.576    0.259    0.422   88.076  157.013    3.020
  483.826    0.269    0.419   86.755  158.671    3.019
  484.076    0.261    0.432   86.798  163.178    3.057
  484.326    0.251    0.436   89.334  166.206    3.119
  484.576    0.240    0.440   94.049  166.386    3.200
  484.826    0.234    0.451   99.450  164.568    3.258
  485.076    0.240    0.457  102.359  161.692    3.233
  485.326    0.253    0.461  100.661  157.443    3.112
  485.576    0.271    0.450   96.411  156.049    3.002
  485.826    0.291    0.430   91.040  153.802    2.906
  486.076    0.275    0.420   91.270  151.666    2.840
  486.326    0.265    0.423   93.683  152.905    2.823
  486.576    0.260    0.432   99.767  158.781    2.832
  486.826    0.242    0.443  106.102  163.286    2.879
  487.076    0.227    0.458  100.854  166.315    2.948
  487.326    0.257    0.449   95.483  160.382    2.946
  487.576    0.275    0.434   84.074  156.453    2.800
  487.826    0.289    0.422   78.516  158.213    2.670
  488.076    0.259    0.417   78.686  158.925    2.615
  488.326    0.245    0.423   79.354  159.214    2.613
  488.576    0.220    0.433   70.495  159.072    2.666
  488.826    0.260    0.431   68.860  159.257    2.725
  489.076    0.282    0.402   72.890  158.918    2.755
  489.326    0.271    0.402   76.299  158.784    2.717
  489.576    0.277    0.418   75.220  158.432    2.553
  489.826    0.288    0.434   72.591  158.088    2.399
  490.076    0.305    0.449   71.638  158.374    2.327
  490.326    0.304    0.453   72.557  158.348    2.326
