~VERSION INFORMATION
 VERS.                 2.0:   CWLS LOG ASCII STANDARD -VERSION 2.0
 WRAP.                  NO:   ONE LINE PER DEPTH STEP
~WELL INFORMATION BLOCK
#MNEM.UNIT           DATA                    DESCRIPTION OF MNEMONIC
#---------    -------------------            -------------------------------
# Generated from Intellog Unique Number	CS_77_79/WELL/993
WELL.         BVX ET AL PORTAGE              : Well_name    - WELL
LOC .         00/11-09-079-15W4/0            : Location     - LOCATION
UWI .         00/11-09-079-15W4/0            : Uwi          - UNIQUE WELL ID
ENTR.         JHS                            : Entered      - ENTERED BY
SRVC.         SCHLUMBERGER                   : Scn          - SERVICE COMPANY
STRT.M        220                            : top_depth    - START DEPTH
STOP.M        453                            : bot_depth    - STOP DEPTH
STEP.M        0.25                           : increment    - STEP LENGTH
 NULL. -999.2500:NULL Value
~CURVE INFORMATION BLOCK
#MNEM UNIT       ERCB CURVE CODE    CURVE DESCRIPTION
#-----------   ------------------   ----------------------------------
DEPT.M        00 001 00 00         : DEPTH        - DEPTH
DPHI.V/V      00 890 00 00         : PHID         - DENSITY POROSITY (LIMESTONE)
NPHI.V/V      00 330 00 00         : PHIN         - NEUTRON POROSITY (LIMESTONE)
GR  .API      00 310 00 00         : GR           - GAMMA RAY
ILD .OHMM     00 120 00 00         : RESD         - DEEP RESISTIVITY (DIL)
RHOB.KG/M3    00 350 00 00         : DENS         - BULK DENSITY
~PARAMETER INFORMATION
#MNEM.UNIT           DATA             DESCRIPTION OF MNEMONIC
#---------         -----------     ------------------------------
GL  .M        627.7                : gl           - GROUND LEVEL ELEVATION
EREF.M        630.7                : kb           - ELEVATION OF DEPTH REFERENCE
DATM.M        630.7                : datum        - DATUM ELEVATION
TDD .M        460                  : tdd          - TOTAL DEPTH DRILLER
RUN .         ONE                  : Run          - RUN NUMBER
ENG .         BILL                 : Engineer     - RECORDING ENGINEER
WIT .         JIM                  : Witness      - WITNESSED BY
MUD .         GEL                  : Mud_type     - MUD TYPE
MATR.         LIMESTONE            : Logunit      - NEUTRON MATRIX
TMAX.C        22                   : BHT          - MAXIMUM RECORDED TEMPERATURE
BHTD.M        460                  : BHTDEP       - MAXIMUM RECORDED TEMPERATURE
MATR.         1                    : LOGUNIT      - NEUTRON MATRIX
RMT .C        25                   : MDTP         - TEMPERATURE OF MUD
NEUT.         1                    : NEUTRON      - NEUTRON TYPE
RESI.         0                    : RESIST       - RESISTIVITY TYPE
RMC .OHMM     0.25                 : RMC          - RESISTIVITY OF MUD CAKE
RMF .OHMM     0.25                 : RMF          - RESISTIVITY OF MUD FILTRATE
SUFT.C        15                   : SUFT         - SURFACE TEMPERATURE
~A  DEPTH     PHID     PHIN       GR     RESD     DENS
# ...
  329.500    0.246    0.512   93.520    4.762    0.000
  329.750    0.256    0.498   94.184    4.762    0.000
  330.000    0.270    0.485   91.203    5.038    0.000
  330.250    0.267    0.475   88.197    5.533    0.000
  330.500    0.265    0.462   85.225    6.673    0.000
  330.750    0.281    0.438   83.459    8.048    0.000
  331.000    0.339    0.378   81.063    9.889    0.000
  331.250    0.399    0.316   75.624   11.066    0.000
  331.500    0.406    0.269   69.583   11.929    0.000
  331.750    0.372    0.370   58.666   11.492    0.000
  332.000    0.335    0.419   56.287   10.665    0.000
  332.250    0.317    0.424   56.348   10.468    0.000
  332.500    0.314    0.415   57.007    9.898    0.000
  332.750    0.338    0.420   59.527    9.899    0.000
  333.000    0.331    0.436   60.774    9.718    0.000
  333.250    0.323    0.429   61.442    9.719    0.000
  333.500    0.316    0.411   60.893    9.720    0.000
  333.750    0.324    0.422   59.130    9.722    0.000
  334.000    0.326    0.422   57.967    9.906    0.000
  334.250    0.335    0.407   56.791   10.286    0.000
  334.500    0.327    0.402   53.187   10.287    0.000
  334.750    0.314    0.415   53.255   10.483    0.000
  335.000    0.303    0.424   54.525   10.683    0.000
  335.250    0.320    0.403   57.022   11.092    0.000
  335.500    0.307    0.403   59.510   11.517    0.000
  335.750    0.294    0.400   60.196   11.737    0.000
  336.000    0.304    0.390   59.019   11.739    0.000
  336.250    0.309    0.396   57.244   11.740    0.000
  336.500    0.311    0.401   56.073   11.524    0.000
  336.750    0.317    0.404   56.136   11.312    0.000
  337.000    0.328    0.418   57.412   11.104    0.000
  337.250    0.319    0.417   58.074   11.105    0.000
  337.500    0.310    0.406   57.525   11.107    0.000
  337.750    0.304    0.396   55.763   11.108    0.000
  338.000    0.303    0.397   55.801   11.534    0.000
  338.250    0.298    0.433   57.084   11.535    0.000
  338.500    0.297    0.426   55.916   11.538    0.000
  338.750    0.300    0.423   57.202   11.325    0.000
  339.000    0.313    0.423   60.311   11.326    0.000
  339.250    0.322    0.439   61.599   10.710    0.000
  339.500    0.325    0.422   62.264   10.710    0.000
  339.750    0.323    0.412   61.688   10.713    0.000
  340.000    0.312    0.414   60.538   10.916    0.000
  340.250    0.314    0.418   58.746   11.124    0.000
  340.500    0.309    0.412   58.216   10.717    0.000
  340.750    0.319    0.410   60.092   10.718    0.000
  341.000    0.304    0.411   61.359   10.134    0.000
  341.250    0.282    0.398   62.021   10.924    0.000
  341.500    0.259    0.353   58.434   11.556    0.000
  341.750    0.122    0.304   54.822   13.426    0.000
  342.000    0.067    0.195   49.996   14.471    0.000
  342.250    0.006    0.156   44.576   14.748    0.000
  342.500    0.007    0.211   56.817   13.944    0.000
  342.750    0.081    0.389   64.189   11.784    0.000
  343.000    0.147    0.456   69.120   10.732    0.000
  343.250    0.242    0.463   72.228    9.415    0.000
  343.500    0.322    0.450   71.672    8.737    0.000
  343.750    0.310    0.439   69.898    8.262    0.000
  344.000    0.308    0.434   71.787    8.109    0.000
  344.250    0.304    0.435   69.414    7.960    0.000
  344.500    0.300    0.442   70.066    7.961    0.000
  344.750    0.311    0.450   70.137    7.962    0.000
  345.000    0.319    0.451   68.349    7.816    0.000
  345.250    0.312    0.457   69.038    7.817    0.000
  345.500    0.307    0.446   70.294    7.818    0.000
  345.750    0.312    0.436   71.570    7.819    0.000
  346.000    0.301    0.436   71.634    7.968    0.000
  346.250    0.292    0.453   73.514    7.969    0.000
  346.500    0.298    0.458   75.394    7.971    0.000
  346.750    0.293    0.453   74.838    7.971    0.000
  347.000    0.287    0.444   76.123    7.972    0.000
  347.250    0.278    0.435   78.619    7.974    0.000
  347.500    0.277    0.432   79.278    7.975    0.000
  347.750    0.267    0.441   76.905    7.828    0.000
  348.000    0.261    0.434   75.127    7.829    0.000
  348.250    0.276    0.431   73.963    7.830    0.000
  348.500    0.279    0.443   71.577    7.831    0.000
  348.750    0.281    0.469   72.244    7.688    0.000
  349.000    0.269    0.469   73.523    7.834    0.000
  349.250    0.269    0.458   71.756    7.835    0.000
  349.500    0.277    0.445   68.756    8.135    0.000
  349.750    0.288    0.438   63.332    8.606    0.000
  350.000    0.257    0.394   60.369    9.749    0.000
  350.250    0.241    0.388   64.654    9.564    0.000
  350.500    0.252    0.405   75.654    8.871    0.000
  350.750    0.272    0.431   79.940    7.925    0.000
  351.000    0.279    0.445   82.400    7.082    0.000
  351.250    0.261    0.457   84.254    6.448    0.000
  351.500    0.247    0.465   87.931    5.761    0.000
  351.750    0.231    0.472   89.173    5.651    0.000
  352.000    0.230    0.434   87.365    5.647    0.000
  352.250    0.239    0.432   88.602    5.643    0.000
  352.500    0.233    0.439   89.844    5.746    0.000
  352.750    0.221    0.443   90.478    5.852    0.000
  353.000    0.219    0.447   90.493    5.848    0.000
  353.250    0.225    0.455   90.518    5.736    0.000
  353.500    0.251    0.462   91.145    5.628    0.000
  353.750    0.239    0.468   95.439    5.731    0.000
  354.000    0.226    0.459   95.456    5.835    0.000
  354.250    0.239    0.459   93.037    5.617    0.000
  354.500    0.215    0.471   91.840    5.510    0.000
  354.750    0.202    0.493   90.639    5.508    0.000
  355.000    0.219    0.493   87.614    5.821    0.000
  355.250    0.241    0.499   88.853    6.269    0.000
  355.500    0.257    0.480   90.700    7.140    0.000
  355.750    0.246    0.458   93.167    7.982    0.000
  356.000    0.222    0.435   92.572    8.922    0.000
  356.250    0.218    0.407   88.937    9.788    0.000
  356.500    0.208    0.414   85.295   10.154    0.000
  356.750    0.189    0.393   82.877   10.150    0.000
  357.000    0.173    0.381   82.900    9.592    0.000
  357.250    0.178    0.387   84.141    8.896    0.000
  357.500    0.204    0.415   87.819    7.949    0.000
  357.750    0.227    0.437   91.501    7.236    0.000
  358.000    0.232    0.431   92.126    6.712    0.000
  358.250    0.242    0.433   89.709    6.584    0.000
  358.500    0.255    0.445   84.853    6.580    0.000
  358.750    0.255    0.451   79.996    6.955    0.000
  359.000    0.273    0.430   80.014    8.070    0.000
  359.250    0.221    0.426   80.035    9.192    0.000
  359.500    0.178    0.417   81.886    9.715    0.000
  359.750    0.152    0.407   89.833    9.892    0.000
  360.000    0.152    0.402   97.780    9.886    0.000
  360.250    0.173    0.418  102.679    9.698    0.000
  360.500    0.256    0.441   99.039    9.512    0.000
  360.750    0.269    0.436   89.304    9.158    0.000
  361.000    0.288    0.454   85.057    8.983    0.000
  361.250    0.288    0.459   82.646    8.812    0.000
  361.500    0.288    0.435   81.442    8.808    0.000
  361.750    0.299    0.429   79.630    8.802    0.000
  362.000    0.301    0.446   77.822    8.796    0.000
  362.250    0.287    0.449   74.190    8.957    0.000
  362.500    0.279    0.453   71.156    9.293    0.000
  362.750    0.263    0.458   65.692   10.584    0.000
  363.000    0.224    0.407   62.661   11.614    0.000
  363.250    0.127    0.330   55.976   12.507    0.000
  363.500    0.016    0.240   49.899   12.733    0.000
  363.750    0.006    0.203   52.972   12.033    0.000
  364.000    0.075    0.236   59.085   11.161    0.000
  364.250    0.136    0.337   67.037   10.353    0.000
  364.500    0.258    0.406   70.102    9.250    0.000
  364.750    0.271    0.432   70.128    8.580    0.000
  365.000    0.255    0.435   68.930    8.735    0.000
  365.250    0.226    0.423   67.120    9.948    0.000
  365.500    0.136    0.365   63.481   12.210    0.000
  365.750    0.073    0.312   59.847   15.267    0.000
