~VERSION INFORMATION
 VERS.                 2.0:   CWLS LOG ASCII STANDARD -VERSION 2.0
 WRAP.                  NO:   ONE LINE PER DEPTH STEP
~WELL INFORMATION BLOCK
#MNEM.UNIT           DATA                    DESCRIPTION OF MNEMONIC
#---------    -------------------            -------------------------------
# Generated from Intellog Unique Number	CW_76_78/WELL/2818
WELL.         SCURRY ATKINSON MCMULLEN 11-30 : Well_name    - WELL
LOC .         00/11-30-077-25W4/0            : Location     - LOCATION
UWI .         00/11-30-077-25W4/0            : Uwi          - UNIQUE WELL ID
ENTR.         JJ                             : Entered      - ENTERED BY
SRVC.         SCHLUMBERGER                   : Scn          - SERVICE COMPANY
DATE.         26 FEB 74                      : Date         - LOG DATE
STRT.M        435.864                        : top_depth    - START DEPTH
STOP.M        563.864                        : bot_depth    - STOP DEPTH
STEP.M        0.25                           : increment    - STEP LENGTH
 NULL. -999.2500:NULL Value
~CURVE INFORMATION BLOCK
#MNEM UNIT       ERCB CURVE CODE    CURVE DESCRIPTION
#-----------   ------------------   ----------------------------------
DEPT.M        00 001 00 00         : DEPTH        - DEPTH
DELT.US/F     00 520 00 00         : DELT         - SONIC TRAVEL TIME
GR  .API      00 310 00 00         : GR           - GAMMA RAY
CALI.MM       00 280 01 00         : CAL          - CALIPER
ILD .OHMM     00 120 00 00         : RESD         - DEEP RESISTIVITY (DIL)
~PARAMETER INFORMATION
#MNEM.UNIT           DATA             DESCRIPTION OF MNEMONIC
#---------         -----------     ------------------------------
GL  .M        648.005              : gl           - GROUND LEVEL ELEVATION
EREF.M        651.967              : kb           - ELEVATION OF DEPTH REFERENCE
DATM.M        648.005              : datum        - DATUM ELEVATION
TDD .M        566.014              : tdd          - TOTAL DEPTH DRILLER
RUN .         ONE                  : Run          - RUN NUMBER
ENG .         BOYKO                : Engineer     - RECORDING ENGINEER
BASE.         EDM                  : Branch       - HOME BASE OF LOGGING UNIT
MUD .         GEL CHEM             : Mud_type     - MUD TYPE
MATR.         SANDSTONE            : Logunit      - NEUTRON MATRIX
TMAX.C        23.3333              : BHT          - MAXIMUM RECORDED TEMPERATURE
BHTD.M        566.014              : BHTDEP       - MAXIMUM RECORDED TEMPERATURE
RMT .C        17.7778              : MDTP         - TEMPERATURE OF MUD
MUDD.KG/M     1140                 : MWT          - MUD DENSITY
NEUT.         1                    : NEUTRON      - NEUTRON TYPE
RESI.         0                    : RESIST       - RESISTIVITY TYPE
RM  .OHMM     2.28                 : RM           - RESISTIVITY OF MUD
RMC .OHMM     0                    : RMC          - RESISTIVITY OF MUD CAKE
RMF .OHMM     2.2                  : RMF          - RESISTIVITY OF MUD FILTRATE
SUFT.C        5                    : SUFT         - SURFACE TEMPERATURE
~A  DEPTH     DELT       GR      CAL     RESD
# ...
  479.364  259.526   52.160  197.362   31.176
  479.614  260.549   54.271  197.071   28.712
  479.864  268.534   60.513  195.629   26.249
  480.114  287.644   68.604  192.208   21.783
  480.364  329.977   76.637  193.375   21.038
  480.614  325.730   68.691  194.337   19.436
  480.864  298.063   64.572  194.880   17.985
  481.114  291.084   69.333  195.633   17.062
  481.364  340.836   75.267  195.757   16.602
  481.614  361.697   73.799  192.754   17.732
  481.864  336.440   66.595  190.162   18.750
  482.114  277.805   61.551  200.417   19.465
  482.364  250.786   63.415  197.723   19.964
  482.614  244.327   67.067  191.479   19.840
  482.864  342.807   70.161  191.815   18.973
  483.114  362.111   76.403  191.730   18.361
  483.364  320.781   71.052  199.482   17.605
  483.614  285.370   62.860  202.113   17.105
  483.864  267.528   64.973  194.515   17.229
  484.114  257.944   68.313  190.876   17.312
  484.364  329.684   73.383  188.185   15.550
  484.614  341.183   78.268  187.472   13.988
  484.864  352.807   82.229  188.645   14.399
  485.114  350.189   78.232  193.886   16.072
  485.364  268.979   68.315  201.016   17.218
  485.614  232.920   61.666  205.628   18.037
  485.864  274.473   69.822  197.919   18.576
  486.114  313.294   76.004  189.690   18.834
  486.364  350.358   79.961  193.161   16.114
  486.614  327.634   81.515  201.643   15.279
  486.864  307.449   77.951  204.481   15.210
  487.114  295.329   76.300  204.920   15.742
  487.364  311.966   78.039  201.911   16.040
  487.614  316.372   82.490  199.323   15.117
  487.864  322.207   88.670  195.377   14.210
  488.114  329.933   89.978  192.690   13.735
  488.364  343.313   80.369  192.292   13.482
  488.614  349.540   81.740  192.314   13.341
  488.864  351.281   86.503  192.540   13.265
  489.114  347.620   88.426  194.649   13.252
  489.364  341.941   83.135  195.403   13.201
  489.614  335.025   79.940  194.489   13.228
  489.864  338.782   82.790  193.772   13.311
  490.114  345.724   83.049  194.213   13.331
  490.364  342.648   80.349  196.848   13.222
  490.614  341.196   81.227  199.371   12.931
  490.864  346.386   82.410  202.525   12.878
  491.114  352.091   81.866  201.299   13.089
  491.364  344.722   80.029  202.048   13.516
  491.614  331.692   80.907  204.156   13.895
  491.864  311.832   78.574  204.493   14.018
  492.114  332.631   76.119  205.035   13.775
  492.364  347.314   79.772  206.731   13.419
  492.614  355.819   82.931  208.947   12.848
  492.864  362.438   85.471  210.743   12.498
  493.114  353.178   80.548  211.282   12.078
  493.364  347.437   78.402  209.321   11.811
  493.614  344.619   80.821  202.448   11.966
  493.864  344.734   83.921  195.892   12.433
  494.114  343.867   85.472  191.948   12.820
  494.364  337.215   79.872  190.400   12.991
  494.614  332.578   83.893  190.426   13.194
  494.864  344.140   80.886  190.861   13.486
  495.114  350.952   76.705  192.345   13.617
  495.364  340.916   75.360  193.723   13.853
  495.614  323.982   75.064  196.145   14.072
  495.864  313.230   76.185  199.719   14.387
  496.114  296.038   82.244  203.188   15.213
  496.364  333.622   87.312  206.345   14.705
  496.614  360.079   92.814  210.018   13.135
  496.864  367.284   98.562  214.635   11.796
  497.114  366.615   94.691  217.893   10.921
  497.364  358.203   89.029  214.885   10.253
  497.614  346.605   84.971  204.880    9.793
  497.864  334.421   83.195  210.443   10.245
  498.114  338.438   84.194  213.486   10.999
  498.364  341.673   79.953  193.666   11.793
  498.614  329.618   76.080  198.282   12.740
  498.864  306.570   72.699  189.636   13.223
  499.114  293.344   76.043  200.416   13.482
  499.364  344.005   77.844  202.316   13.845
  499.614  354.332   71.380  190.640   14.544
  499.864  323.346   67.815  189.512   15.642
  500.114  289.498   61.908  190.266   13.959
  500.364  276.015   58.712  190.912   19.254
  500.614  244.051   62.427  191.978   23.506
  500.864  268.429   69.655  191.583   24.709
  501.114  290.467   72.566  190.874   23.586
  501.364  342.300   73.631  186.510   21.821
  501.614  335.381   74.996  186.739   19.816
  501.864  330.938   77.353  192.923   17.548
  502.114  327.216   78.476  197.851   16.369
  502.364  318.608   80.588  203.616   15.809
  502.614  308.703   79.797  206.979   15.354
  502.864  316.555   76.663  207.632   15.131
  503.114  320.702   72.421  206.605   14.989
  503.364  308.518   73.729  203.810   15.096
  503.614  311.622   76.518  201.324   15.821
  503.864  328.909   78.011  201.552   17.343
  504.114  317.441   74.753  202.833   18.462
  504.364  260.236   58.052  202.642   20.047
  504.614  243.824   59.978  200.366   19.953
  504.864  286.550   69.180  196.102   19.498
  505.114  327.712   75.174  199.676   19.074
  505.364  325.156   77.901  204.818   16.827
  505.614  319.735   77.666  206.302   15.488
  505.864  319.720   77.682  206.423   14.679
  506.114  317.033   77.693  206.133   15.204
  506.364  318.836   77.211  204.377   15.921
  506.614  323.698   74.202  199.701   16.502
  506.864  306.440   68.787  200.141   16.223
  507.114  290.287   70.341  201.729   16.507
  507.364  290.204   78.805  202.688   16.999
  507.614  330.261   74.253  203.859   16.656
  507.864  313.847   78.522  204.197   15.598
  508.114  306.284   81.309  203.067   14.637
  508.364  323.896   81.691  200.370   14.214
  508.614  341.963   78.435  197.367   14.119
  508.864  324.573   72.343  198.325   13.816
  509.114  314.860   74.452  201.379   13.280
  509.364  324.604   80.078  203.174   13.315
  509.614  339.218   80.523  204.139   13.583
  509.864  339.660   76.834  204.366   13.714
  510.114  324.611   76.661  204.494   13.411
  510.364  311.649   76.426  204.094   13.132
  510.614  322.751   77.060  203.805   13.159
  510.864  337.830   77.809  203.305   13.475
  511.114  346.530   80.721  202.700   13.678
  511.364  346.313   79.994  202.299   13.857
  511.614  322.615   73.776  200.650   14.004
  511.864  297.161   74.159  200.045   14.240
  512.114  299.023   78.736  199.340   14.347
  512.364  307.730   81.093  199.883   14.333
  512.614  340.174   79.809  200.631   13.845
  512.864  329.812   76.306  202.537   13.172
  513.114  329.663   78.233  203.915   13.425
  513.364  325.026   80.464  205.503   13.475
  513.614  319.152   77.517  205.526   12.698
  513.864  323.232   79.812  205.124   12.025
  514.114  347.674   85.129  203.057   12.824
  514.364  357.221   90.938  195.768   13.863
  514.614  344.192   78.987  192.030   14.829
  514.864  280.743   68.083  196.334   16.029
  515.114  266.151   63.901  195.311   18.747
  515.364  285.064   69.279  188.961   18.609
  515.614  318.290   72.686  187.422   19.361
  515.864  340.652   73.067  187.437   20.584
  516.114  350.327   72.401  191.952   23.415
  516.364  332.874   69.948  195.731   27.525
  516.614  246.979   64.347  199.200   31.873
  516.864  217.555   55.108  193.894   36.621
  517.114  231.786   52.900  192.662   42.092
  517.364  256.747   55.443  197.069   34.032
  517.614  258.484   57.305  195.003   26.207
  517.864  258.012   68.481  185.939   18.863
  518.114  290.980   74.291  185.960   15.044
  518.364  327.263   71.466  190.264   13.512
  518.614  339.865   71.294  196.552   12.792
  518.864  333.666   72.848  198.872   12.752
  519.114  310.551   66.447  199.414   13.262
  519.364  302.270   68.436  198.919   13.853
  519.614  307.263   71.099  197.682   14.258
  519.864  320.776   74.996  196.031   14.178
  520.114  327.004   78.771  195.534   13.187
  520.364  329.586   81.746  196.809   12.460
  520.614  332.750   81.571  200.169   11.948
  520.864  335.665   81.525  205.104   11.460
  521.114  340.199   84.372  208.883   11.043
  521.364  344.148   88.270  210.992   11.888
  521.614  342.246   90.567  208.194   13.485
  521.864  323.494   84.225  200.173   20.864
  522.114  265.443   68.696  194.239   27.085
  522.364  243.435   59.520  193.950   34.819
  522.614  233.529   55.338  196.065   41.073
