~VERSION INFORMATION
 VERS.                 2.0:   CWLS LOG ASCII STANDARD -VERSION 2.0
 WRAP.                  NO:   ONE LINE PER DEPTH STEP
~WELL INFORMATION BLOCK
#MNEM.UNIT           DATA                    DESCRIPTION OF MNEMONIC
#---------    -------------------            -------------------------------
# Generated from Intellog Unique Number	CC_84_87/WELL/2347
NULL.         -999.25                        : NULL_VALUE
WELL.         PETROREP ET AL HOUSE           : Well_name    - WELL              
LOC .         14-15-084-16W4                 : Location     - LOCATION          
UWI .         00/14-15-084-16W400            : Uwi          - UNIQUE WELL ID    
ENTR.         JHS                            : Entered      - ENTERED BY        
SRVC.         SCHLUMBERGER                   : Scn          - SERVICE COMPANY   
DATE.         11 MAR 80                      : Date         - LOG DATE
STRT.M        100                            : top_depth    - START DEPTH       
STOP.M        286.9                          : bot_depth    - STOP DEPTH        
STEP.M        0.3                            : increment    - STEP LENGTH       
~CURVE INFORMATION BLOCK
#MNEM UNIT       ERCB CURVE CODE    CURVE DESCRIPTION
#-----------   ------------------   ----------------------------------
DEPT.M        00 001 00 00         : DEPTH        - DEPTH                       
DPHI.V/V      00 890 00 00         : PHID         - DENSITY POROSITY (LIMESTONE)
NPHI.V/V      00 330 00 00         : PHIN         - NEUTRON POROSITY (LIMESTONE)
GR  .API      00 310 00 00         : GR           - GAMMA RAY                   
ILD .OHMM     00 120 00 00         : RESD         - DEEP RESISTIVITY (DIL)      
~PARAMETER INFORMATION       
#MNEM.UNIT           DATA             DESCRIPTION OF MNEMONIC
#---------         -----------     ------------------------------
GL  .M        528.6                : gl           - GROUND LEVEL ELEVATION      
EREF.M        531.8                : kb           - ELEVATION OF DEPTH REFERENCE
DATM.M        531.8                : datum        - DATUM ELEVATION             
TDD .M        283                  : tdd          - TOTAL DEPTH DRILLER         
RUN .         ONE                  : Run          - RUN NUMBER                  
ENG .         BILL                 : Engineer     - RECORDING ENGINEER          
WIT .         JIM                  : Witness      - WITNESSED BY                
MUD .         GEL                  : Mud_type     - MUD TYPE                    
MATR.         LIMESTONE            : Logunit      - NEUTRON MATRIX              
TMAX.C        19                   : BHT          - MAXIMUM RECORDED TEMPERATURE
BHTD.M        283                  : BHTDEP       - MAXIMUM RECORDED TEMPERATURE
MATR.         1                    : LOGUNIT      - NEUTRON MATRIX              
RMT .C        25                   : MDTP         - TEMPERATURE OF MUD          
NEUT.         1                    : NEUTRON      - NEUTRON TYPE                
RESI.         0                    : RESIST       - RESISTIVITY TYPE            
RMC .OHMM     0.25                 : RMC          - RESISTIVITY OF MUD CAKE     
RMF .OHMM     0.25                 : RMF          - RESISTIVITY OF MUD FILTRATE 
SUFT.C        15                   : SUFT         - SURFACE TEMPERATURE         
~A  DEPTH     PHID     PHIN       GR     RESD
# ...
  152.201    0.349    0.403   57.312   24.389
  152.501    0.354    0.406   58.538   23.488
  152.801    0.356    0.421   59.166   23.486
  153.101    0.344    0.429   60.993   23.047
  153.401    0.341    0.437   62.220   22.616
  153.701    0.347    0.428   62.845   20.979
  154.001    0.337    0.432   64.069   19.098
  154.301    0.333    0.432   65.900   16.433
  154.601    0.329    0.438   66.522   15.532
  154.901    0.328    0.446   66.540   15.825
  155.201    0.338    0.440   64.151   16.740
  155.501    0.350    0.428   60.561   18.044
  155.801    0.356    0.418   58.776   20.575
  156.101    0.368    0.414   57.588   22.178
  156.401    0.358    0.420   56.407   23.460
  156.701    0.340    0.412   61.248   23.458
  157.001    0.343    0.386   61.272   23.901
  157.301    0.356    0.404   59.482   23.454
  157.601    0.345    0.434   58.898   23.452
  157.901    0.342    0.444   56.511   23.450
  158.201    0.356    0.421   55.335   23.448
  158.501    0.365    0.410   55.350   23.445
  158.801    0.362    0.401   54.768   23.444
  159.101    0.379    0.399   54.787   23.005
  159.401    0.366    0.413   56.019   22.156
  159.701    0.360    0.427   60.255   19.065
  160.001    0.351    0.417   65.695   14.118
  160.301    0.329    0.433   72.347    8.997
  160.601    0.308    0.428   78.995    6.538
  160.901    0.234    0.437  110.342    5.419
  161.201    0.225    0.477  112.771    4.663
  161.501    0.212    0.485  111.590    4.490
  161.801    0.194    0.488  107.996    4.490
  162.101    0.186    0.497  106.815    4.575
  162.401    0.202    0.490  109.851    4.839
  162.701    0.212    0.478  112.275    5.024
  163.001    0.199    0.453  106.875    5.119
  163.301    0.214    0.456  111.114    5.118
  163.601    0.213    0.463  114.751    5.215
  163.901    0.196    0.461  112.966    5.313
  164.201    0.227    0.460  111.780    5.620
  164.501    0.222    0.447  108.190    5.620
  164.801    0.208    0.448  110.619    5.619
  165.101    0.214    0.449  111.842    5.412
  165.401    0.210    0.469  108.853    5.115
  165.701    0.226    0.487  112.489    5.019
  166.001    0.221    0.483  118.535    4.926
  166.301    0.227    0.492  118.559    4.925
  166.601    0.217    0.494  119.789    4.925
  166.901    0.227    0.513  118.598    4.833
  167.201    0.206    0.516  116.214    4.742
  167.501    0.213    0.479  116.835    4.654
  167.801    0.191    0.481  116.853    4.482
  168.101    0.172    0.507  112.055    4.398
  168.401    0.218    0.511  110.876    4.481
  168.701    0.222    0.524  110.893    4.481
  169.001    0.225    0.518  103.684    4.235
  169.301    0.248    0.495   97.079    4.079
  169.601    0.259    0.505   95.297    4.396
  169.901    0.271    0.513   93.506    5.205
  170.201    0.290    0.472   85.697    6.048
  170.501    0.263    0.444   74.873    6.519
  170.801    0.260    0.446   71.883    8.013
  171.101    0.278    0.464   70.698    8.967
  171.401    0.303    0.475   68.913    9.849
  171.701    0.298    0.471   65.922   10.225
  172.001    0.306    0.461   67.147   10.417
  172.301    0.304    0.445   70.183   10.614
  172.601    0.300    0.440   70.204   10.415
  172.901    0.304    0.420   70.829   10.221
  173.201    0.274    0.412   71.450    9.844
  173.501    0.163    0.372   74.485    9.304
  173.801    0.180    0.384   81.132    8.960
  174.101    0.289    0.447   83.563    8.469
  174.401    0.238    0.448   85.390    8.310
  174.701    0.249    0.424   92.645    8.155
  175.001    0.258    0.420   96.279    8.003
  175.301    0.261    0.436   95.697    7.853
  175.601    0.258    0.441   98.731    7.853
  175.901    0.250    0.444   96.944    7.706
  176.201    0.242    0.450   98.171    7.562
  176.501    0.253    0.466   96.987    7.421
  176.801    0.251    0.468   93.392    7.282
  177.101    0.290    0.420   92.811    7.281
  177.401    0.295    0.411   88.012    7.280
  177.701    0.328    0.421   88.038    7.280
  178.001    0.240    0.446   93.478    7.011
  178.301    0.253    0.455   94.103    6.752
  178.601    0.241    0.464   92.319    6.752
  178.901    0.253    0.457   89.326    7.009
  179.201    0.218    0.404   86.340    7.009
  179.501    0.176    0.404   88.164    6.878
  179.801    0.236    0.427   91.199    6.749
  180.101    0.253    0.442   87.600    6.500
  180.401    0.254    0.446   80.995    6.260
  180.701    0.253    0.443   77.401    5.699
  181.001    0.264    0.441   80.436    5.286
  181.301    0.275    0.441   87.083    5.091
  181.601    0.287    0.452   85.903    5.285
  181.901    0.295    0.466   79.898    5.697
  182.201    0.304    0.455   81.727    6.496
  182.501    0.306    0.431   85.964    7.134
  182.801    0.288    0.432   84.781    7.836
  183.101    0.302    0.444   81.190    8.134
  183.401    0.292    0.449   80.004    8.134
  183.701    0.291    0.439   85.446    7.982
  184.001    0.295    0.425   86.675    7.544
  184.301    0.286    0.439   84.889    7.403
  184.601    0.280    0.456   87.318    7.403
  184.901    0.280    0.451   86.736    7.402
  185.201    0.270    0.429   84.949    7.401
  185.501    0.258    0.424   86.180    7.263
  185.801    0.251    0.444   87.403    7.127
  186.101    0.248    0.460   89.833    6.864
  186.401    0.254    0.468   91.058    6.610
  186.701    0.258    0.457   89.274    6.366
  187.001    0.253    0.438   86.884    5.905
  187.301    0.266    0.449   88.715    5.687
  187.601    0.271    0.459   88.132    5.581
  187.901    0.274    0.459   89.359    5.477
  188.201    0.280    0.450   88.776    5.374
  188.501    0.309    0.439   92.412    5.374
  188.801    0.295    0.467   90.026    5.373
  189.101    0.272    0.471   87.034    5.373
  189.401    0.275    0.459   87.656    5.474
  189.701    0.262    0.443   88.882    5.791
  190.001    0.278    0.434   88.301    6.360
  190.301    0.316    0.429   78.683    7.118
  190.601    0.333    0.419   70.275    8.270
  190.901    0.328    0.430   66.076    9.791
  191.201    0.307    0.421   62.481   10.357
  191.501    0.295    0.409   60.092   10.356
  191.801    0.292    0.421   61.924   10.356
  192.101    0.308    0.409   60.137   10.355
  192.401    0.312    0.414   57.748   10.161
  192.701    0.318    0.399   57.770    9.971
  193.001    0.309    0.380   57.187    9.785
  193.301    0.321    0.392   55.403    9.784
  193.601    0.327    0.411   57.830    9.783
  193.901    0.318    0.429   54.840    9.601
  194.201    0.305    0.429   56.068    9.600
  194.501    0.300    0.424   58.500    9.420
  194.801    0.294    0.417   60.930    9.420
  195.101    0.309    0.408   63.965    9.419
  195.401    0.311    0.400   65.191    9.418
  195.701    0.315    0.400   67.017    9.417
  196.001    0.303    0.416   67.038    9.416
  196.301    0.306    0.413   58.624    9.415
  196.601    0.304    0.422   56.841    9.415
  196.901    0.307    0.418   56.258    9.592
  197.201    0.296    0.431   58.690    9.591
  197.501    0.323    0.436   61.119    9.957
  197.801    0.308    0.428   58.733   10.533
  198.101    0.311    0.400   56.947   11.787
  198.401    0.311    0.376   58.171   14.490
  198.701    0.291    0.352   53.374   19.564
  199.001    0.278    0.307   48.574   29.014
  199.301    0.267    0.266   46.189   35.665
  199.601    0.057    0.222   48.617   30.118
  199.901    0.127    0.246   52.253   21.481
  200.201    0.164    0.289   56.491   12.231
  200.501    0.219    0.397   66.152   11.134
  200.801    0.295    0.440   69.189   10.723
  201.101    0.292    0.428   69.210    9.946
  201.401    0.284    0.431   70.435    9.761
  201.701    0.285    0.423   71.661    9.578
  202.001    0.279    0.412   72.284    9.577
  202.301    0.294    0.428   70.498    9.398
  202.601    0.287    0.440   73.530    9.397
  202.901    0.296    0.444   71.140    9.222
  203.201    0.320    0.453   72.971    8.716
  203.501    0.295    0.434   76.005    8.238
  203.801    0.277    0.418   78.434    7.934
  204.101    0.263    0.433   84.480    7.641
