~VERSION INFORMATION
 VERS.                 2.0:   CWLS LOG ASCII STANDARD -VERSION 2.0
 WRAP.                  NO:   ONE LINE PER DEPTH STEP
~WELL INFORMATION BLOCK
#MNEM.UNIT           DATA                    DESCRIPTION OF MNEMONIC
#---------    -------------------            -------------------------------
# Generated from Intellog Unique Number	CW_79_81/WELL/694
WELL.         10-04-079-25W4                 : Well_name    - WELL
LOC .         00/10-04-079-25W4/0            : Location     - LOCATION
UWI .         00/10-04-079-25W4/0            : Uwi          - UNIQUE WELL ID
ENTR.         MAX                            : Entered      - ENTERED BY
SRVC.         SCHLUMBERGER                   : Scn          - SERVICE COMPANY
STRT.M        274.32                         : top_depth    - START DEPTH
STOP.M        502.82                         : bot_depth    - STOP DEPTH
STEP.M        0.25                           : increment    - STEP LENGTH
 NULL. -999.2500:NULL Value
~CURVE INFORMATION BLOCK
#MNEM UNIT       ERCB CURVE CODE    CURVE DESCRIPTION
#-----------   ------------------   ----------------------------------
DEPT.M        00 001 00 00         : DEPTH        - DEPTH
ILD .OHMM     00 120 00 00         : RESD         - DEEP RESISTIVITY (DIL)
NPHI.V/V      00 330 00 00         : PHIN         - NEUTRON POROSITY (SANDSTONE)
DPHI.V/V      00 890 00 00         : PHID         - DENSITY POROSITY (SANDSTONE)
CALI.MM       00 280 01 00         : CAL          - CALIPER
GR  .API      00 310 00 00         : GR           - GAMMA RAY
~PARAMETER INFORMATION
#MNEM.UNIT           DATA             DESCRIPTION OF MNEMONIC
#---------         -----------     ------------------------------
GL  .M        587.35               : gl           - GROUND LEVEL ELEVATION
EREF.M        590.855              : kb           - ELEVATION OF DEPTH REFERENCE
DATM.M        587.35               : datum        - DATUM ELEVATION
TDD .M        502.006              : tdd          - TOTAL DEPTH DRILLER
RUN .         ONE                  : Run          - RUN NUMBER
ENG .         BILL                 : Engineer     - RECORDING ENGINEER
WIT .         JIM                  : Witness      - WITNESSED BY
MUD .         GEL                  : Mud_type     - MUD TYPE
MATR.         SANDSTONE            : Logunit      - NEUTRON MATRIX
TMAX.C        21.6667              : BHT          - MAXIMUM RECORDED TEMPERATURE
BHTD.M        502.006              : BHTDEP       - MAXIMUM RECORDED TEMPERATURE
RMT .C        17.7778              : MDTP         - TEMPERATURE OF MUD
MUDD.KG/M     9800                 : MWT          - MUD DENSITY
NEUT.         1                    : NEUTRON      - NEUTRON TYPE
RESI.         0                    : RESIST       - RESISTIVITY TYPE
RM  .OHMM     4.66                 : RM           - RESISTIVITY OF MUD
RMC .OHMM     0                    : RMC          - RESISTIVITY OF MUD CAKE
RMF .OHMM     4.56                 : RMF          - RESISTIVITY OF MUD FILTRATE
SUFT.C        -20.5556             : SUFT         - SURFACE TEMPERATURE
~A  DEPTH     RESD     PHIN     PHID      CAL       GR
# ...
  456.820   98.392    0.129    0.399  225.877   31.859
  457.070   95.753    0.154    0.394  225.970   31.318
  457.320   78.527    0.169    0.369  226.026   29.568
  457.570   67.369    0.192    0.354  225.091   29.016
  457.820   57.276    0.217    0.338  223.661   27.879
  458.070   48.696    0.276    0.319  223.250   27.322
  458.320   39.221    0.363    0.294  223.306   27.669
  458.570   39.215    0.405    0.297  223.389   29.209
  458.820   42.136    0.403    0.305  223.473   29.247
  459.070   44.469    0.391    0.297  223.548   29.600
  459.320   44.469    0.377    0.284  223.622   30.229
  459.570   51.809    0.383    0.292  223.697   31.779
  459.820   64.880    0.413    0.289  223.790   33.302
  460.070   76.977    0.421    0.281  223.864   33.346
  460.320   84.220    0.407    0.292  223.929   35.493
  460.570   92.138    0.402    0.286  224.527   35.824
  460.820   91.299    0.394    0.287  224.592   35.873
  461.070   87.261    0.386    0.283  224.162   37.413
  461.320   82.657    0.381    0.280  224.274   36.866
  461.570   82.657    0.375    0.270  224.834   35.122
  461.820   70.259    0.370    0.274  224.899   34.278
  462.070   67.156    0.366    0.278  225.488   34.013
  462.320   64.189    0.354    0.271  225.076   35.260
  462.570   61.905    0.351    0.281  225.141   37.092
  462.820   61.905    0.353    0.283  224.216   37.434
  463.070   60.233    0.353    0.280  224.300   37.483
  463.320   56.545    0.357    0.289  223.860   38.714
  463.570   53.080    0.365    0.285  223.430   40.855
  463.820   51.193    0.373    0.273  223.009   42.979
  464.070   48.057    0.381    0.271  223.074   41.533
  464.320   44.308    0.388    0.266  222.663   42.791
  464.570   39.761    0.391    0.261  222.663   44.606
  464.820   36.992    0.389    0.246  222.830   49.424
  465.070   30.888    0.384    0.249  222.895   53.348
  465.320   28.478    0.389    0.242  222.960   56.372
  465.570   26.257    0.407    0.254  223.035   59.407
  465.820   23.991    0.417    0.246  223.623   62.138
  466.070   22.521    0.406    0.251  227.744   65.753
  466.320   21.141    0.409    0.244  230.351   67.585
  466.570   19.491    0.393    0.211  230.921   67.932
  466.820   17.492    0.368    0.193  228.995   70.669
  467.070   15.279    0.381    0.178  228.565   74.593
  467.320   13.960    0.408    0.202  229.154   76.121
  467.570   13.709    0.404    0.266  228.705   76.463
  467.820   14.338    0.403    0.248  228.284   72.329
  468.070   17.634    0.413    0.247  224.826   64.029
  468.320   19.294    0.408    0.281  222.891   58.417
  468.570   27.162    0.400    0.283  222.461   57.567
  468.820   29.986    0.403    0.287  222.545   59.399
  469.070   28.921    0.418    0.281  221.610   63.024
  469.320   27.149    0.423    0.285  220.675   63.962
  469.570   24.806    0.411    0.279  220.255   63.410
  469.820   23.497    0.407    0.264  219.320   65.253
  470.070   23.492    0.421    0.239  219.404   67.676
  470.320   23.488    0.429    0.218  221.496   67.736
  470.570   22.858    0.403    0.213  223.075   69.557
  470.820   20.886    0.359    0.188  225.196   69.303
  471.070   16.823    0.307    0.150  226.775   68.768
  471.320   14.563    0.289    0.074  227.850   72.377
  471.570   11.315    0.322    0.070  229.952   81.664
  471.820   10.814    0.350    0.131  230.036   89.760
  472.070   10.152    0.364    0.153  229.110  100.835
  472.320    9.791    0.354    0.149  228.166  110.421
  472.570    9.191    0.372    0.155  227.745  118.815
  472.820    8.628    0.386    0.165  228.343  126.314
  473.070    8.099    0.394    0.151  229.427  127.258
  473.320    7.672    0.382    0.143  229.987  124.018
  473.570    7.533    0.380    0.136  232.099  115.420
  473.820    7.266    0.397    0.145  234.706  109.206
  474.070    6.821    0.398    0.155  235.780  108.659
  474.320    6.758    0.411    0.182  236.368  113.179
  474.570    6.696    0.428    0.185  234.424  117.991
  474.820    6.756    0.457    0.181  233.499  120.419
  475.070    6.816    0.439    0.174  235.078  108.245
  475.320    7.001    0.389    0.167  234.657   99.045
  475.570    7.192    0.361    0.151  232.218   88.063
  475.820    7.322    0.382    0.148  230.769   92.582
  476.070    6.935    0.441    0.204  230.844  103.062
  476.320    5.791    0.445    0.204  232.450  104.596
  476.570    5.535    0.451    0.190  232.534  101.362
  476.820    5.635    0.417    0.175  231.581   97.239
  477.070    6.109    0.406    0.158  229.637   97.879
  477.320    6.684    0.397    0.131  231.758  101.803
  477.570    7.118    0.433    0.172  234.337  104.242
  477.820    7.511    0.433    0.194  237.953  103.977
  478.070    7.511    0.426    0.193  241.064  100.748
  478.320    7.576    0.447    0.191  238.120   96.620
  478.570    7.644    0.468    0.153  237.681   93.088
  478.820    7.852    0.471    0.136  236.746   88.960
  479.070    8.212    0.455    0.155  233.811   86.327
  479.320    8.512    0.438    0.160  231.363   86.068
  479.570    8.903    0.409    0.235  231.428   87.309
  479.820    9.480    0.421    0.231  232.512   87.364
  480.070   10.372    0.466    0.258  232.605   85.913
  480.320   11.871    0.486    0.309  231.670   82.077
  480.570   14.211    0.463    0.319  228.212   71.691
  480.820   15.973    0.449    0.307  227.287   63.689
  481.070   18.117    0.423    0.321  229.389   60.753
  481.320   20.922    0.413    0.308  231.472   65.576
  481.570   23.944    0.433    0.297  231.565   68.004
  481.820   26.433    0.420    0.289  231.135   71.922
  482.070   24.814    0.410    0.281  231.696   80.912
  482.320   20.719    0.497    0.281  231.780   87.809
  482.570   14.845    0.557    0.296  231.863   94.415
  482.820   11.026    0.585    0.321  231.938  101.324
  483.070    8.722    0.584    0.339  232.526  102.262
  483.320    7.970    0.562    0.354  232.591  101.114
  483.570    7.415    0.538    0.370  232.180   99.966
  483.820    7.023    0.502    0.355  232.768  101.804
  484.070    6.897    0.489    0.246  233.833  101.555
  484.320    6.772    0.516    0.265  234.431   99.210
  484.570    6.473    0.563    0.269  232.496   91.505
  484.820    6.243    0.566    0.232  231.543   86.191
  485.070    6.076    0.566    0.217  232.645   96.963
  485.320    6.129    0.559    0.192  234.738  101.775
  485.570    6.411    0.556    0.272  237.326  117.928
  485.820    6.951    0.565    0.223  237.410  118.860
  486.070    7.604    0.562    0.171  235.971  109.070
  486.320    8.471    0.549    0.138  233.036   96.896
  486.570    8.859    0.422    0.108  231.597   90.080
  486.820    8.622    0.383    0.078  231.157   85.963
  487.070    8.241    0.404    0.152  231.232   86.299
  487.320    7.736    0.422    0.217  233.353  100.057
  487.570    6.942    0.490    0.248  235.445  112.027
  487.820    6.756    0.509    0.209  234.501  118.042
  488.070    6.940    0.485    0.175  232.567  115.398
  488.320    7.524    0.437    0.188  230.109  106.502
  488.570    8.458    0.391    0.182  230.193  100.288
  488.820    9.253    0.378    0.148  231.276   91.988
  489.070    9.505    0.353    0.149  230.351   91.436
  489.320    9.334    0.346    0.140  229.930   93.273
  489.570    8.761    0.367    0.163  231.014   98.383
  489.820    8.604    0.389    0.194  234.125  107.075
  490.070    8.759    0.412    0.222  234.713  108.316
  490.320    9.160    0.430    0.221  231.246  110.457
  490.570   10.022    0.404    0.194  230.302  109.315
  490.820   10.965    0.391    0.207  234.937  107.554
  491.070   12.663    0.371    0.214  233.002   97.764
  491.320   16.001    0.349    0.209  231.040   79.630
  491.570   19.504    0.325    0.129  229.600   68.046
  491.820   21.531    0.257    0.065  229.702   64.520
  492.070   19.497    0.218    0.049  230.272   68.741
  492.320   13.474    0.213    0.058  230.272   75.634
  492.570   11.151    0.247    0.092  231.468   89.099
  492.820    8.586    0.287    0.137  232.010   97.487
  493.070    7.916    0.326    0.190  232.093  105.881
