~VERSION INFORMATION
 VERS.                 2.0:   CWLS LOG ASCII STANDARD -VERSION 2.0
 WRAP.                  NO:   ONE LINE PER DEPTH STEP
~WELL INFORMATION BLOCK
#MNEM.UNIT           DATA                    DESCRIPTION OF MNEMONIC
#---------    -------------------            -------------------------------
# Generated from Intellog Unique Number	CW_70_72/WELL/1050
NULL.         -999.25                        : NULL_VALUE
WELL.         GULF FRANS 10-34               : Well_name    - WELL              
LOC .         10-34-071-21W4                 : Location     - LOCATION          
UWI .         00/10-34-071-21W4/0            : Uwi          - UNIQUE WELL ID    
ENTR.         JAYE                           : Entered      - ENTERED BY        
SRVC.         SCHLUMBERGER                   : Scn          - SERVICE COMPANY   
DATE.         7 MAR 86                       : Date         - LOG DATE          
STRT.M        320                            : top_depth    - START DEPTH       
STOP.M        505                            : bot_depth    - STOP DEPTH        
STEP.M        0.25                           : increment    - STEP LENGTH       
~CURVE INFORMATION BLOCK
#MNEM UNIT       ERCB CURVE CODE    CURVE DESCRIPTION
#-----------   ------------------   ----------------------------------
DEPT.M        00 001 00 00         : DEPTH        - DEPTH                       
DPHI.V/V      00 890 00 00         : PHID         - DENSITY POROSITY (SANDSTONE)
NPHI.V/V      00 330 00 00         : PHIN         - NEUTRON POROSITY (SANDSTONE)
GR  .API      00 310 00 00         : GR           - GAMMA RAY                   
CALI.MM       00 280 01 00         : CAL          - CALIPER                     
ILD .OHMM     00 120 00 00         : RESD         - DEEP RESISTIVITY (DIL)      
~PARAMETER INFORMATION       
#MNEM.UNIT           DATA             DESCRIPTION OF MNEMONIC
#---------         -----------     ------------------------------
GL  .M        593                  : gl           - GROUND LEVEL ELEVATION      
EREF.M        597.3                : kb           - ELEVATION OF DEPTH REFERENCE
DATM.M        593                  : datum        - DATUM ELEVATION             
TDD .M        524                  : tdd          - TOTAL DEPTH DRILLER         
RUN .         ONE                  : Run          - RUN NUMBER                  
ENG .         GEORGE               : Engineer     - RECORDING ENGINEER          
WIT .         CLAPHAM              : Witness      - WITNESSED BY                
BASE.         SL                   : Branch       - HOME BASE OF LOGGING UNIT   
MUD .         GEL CHEM             : Mud_type     - MUD TYPE                    
MATR.         SANDSTONE            : Logunit      - NEUTRON MATRIX              
TMAX.C        22                   : BHT          - MAXIMUM RECORDED TEMPERATURE
BHTD.M        525                  : BHTDEP       - MAXIMUM RECORDED TEMPERATURE
RMT .C        12.8                 : MDTP         - TEMPERATURE OF MUD          
MUDD.KG/M     1120                 : MWT          - MUD DENSITY                 
NEUT.         1                    : NEUTRON      - NEUTRON TYPE                
RESI.         0                    : RESIST       - RESISTIVITY TYPE            
RM  .OHMM     3.15                 : RM           - RESISTIVITY OF MUD          
RMC .OHMM     0                    : RMC          - RESISTIVITY OF MUD CAKE     
RMF .OHMM     3.2                  : RMF          - RESISTIVITY OF MUD FILTRATE 
SUFT.C        0                    : SUFT         - SURFACE TEMPERATURE         
~A  DEPTH     PHID     PHIN       GR      CAL     RESD
# ...
  466.000    0.161    0.387   99.520  208.331    6.047
  466.250    0.153    0.387   97.722  208.764    6.050
  466.500    0.171    0.416   96.798  210.030    6.077
  466.750    0.186    0.445   96.497  210.668    6.127
  467.000    0.189    0.463   96.447  210.686    6.225
  467.250    0.180    0.443   96.332  210.083    6.277
  467.500    0.169    0.408   95.654  208.956    6.269
  467.750    0.181    0.409   93.607  208.245    6.308
  468.000    0.196    0.420   90.810  208.054    6.384
  468.250    0.196    0.418   91.010  208.280    6.449
  468.500    0.189    0.403   90.708  208.299    6.454
  468.750    0.181    0.388   88.846  208.421    6.433
  469.000    0.170    0.384   89.044  208.333    6.400
  469.250    0.159    0.388   88.368  208.351    6.380
  469.500    0.163    0.391   86.757  208.161    6.361
  469.750    0.175    0.394   87.080  207.866    6.364
  470.000    0.198    0.396   88.088  207.781    6.356
  470.250    0.209    0.388   89.534  207.796    6.348
  470.500    0.208    0.362   91.353  208.025    6.328
  470.750    0.195    0.373   92.610  208.248    6.272
  471.000    0.177    0.388   95.053  208.265    6.182
  471.250    0.167    0.405   97.371  208.489    6.081
  471.500    0.174    0.412   91.831  209.756    5.982
  471.750    0.182    0.419   92.777  210.712    5.918
  472.000    0.182    0.412   95.532  211.038    5.877
  472.250    0.180    0.395  100.284  210.953    5.891
  472.500    0.179    0.375  104.472  210.762    5.918
  472.750    0.177    0.361  100.927  209.948    5.990
  473.000    0.165    0.361   96.322  207.888    6.050
  473.250    0.149    0.391   92.342  206.243    6.135
  473.500    0.158    0.471   86.427  205.530    6.209
  473.750    0.150    0.466   78.080  204.715    6.490
  474.000    0.091    0.441   64.930  204.112    6.900
  474.250    0.021    0.216   55.335  203.712    8.020
  474.500   -0.004    0.222   59.961  203.624    9.430
  474.750    0.014    0.271   71.947  204.581    9.635
  475.000    0.068    0.313   78.382  205.116    8.555
  475.250    0.105    0.349   82.571  206.381    7.496
  475.500    0.144    0.372   86.824  206.813    7.276
  475.750    0.142    0.357   84.276  206.729    7.406
  476.000    0.142    0.350   86.719  206.850    7.524
  476.250    0.149    0.383   86.355  207.178    7.644
  476.500    0.125    0.343   84.183  207.092    7.796
  476.750    0.101    0.290   77.707  207.004    7.935
  477.000    0.069    0.269   71.231  206.714    8.046
  477.250    0.076    0.315   73.486  206.732    8.143
  477.500    0.094    0.349   81.668  206.953    8.117
  477.750    0.113    0.371   86.108  207.908    7.924
  478.000    0.136    0.372   88.614  208.969    7.364
  478.250    0.151    0.372   89.994  209.397    6.882
  478.500    0.142    0.377   91.878  209.415    6.619
  478.750    0.134    0.358   90.952  208.916    6.547
  479.000    0.122    0.359   86.472  208.930    6.627
  479.250    0.120    0.372   86.918  208.845    6.745
  479.500    0.155    0.384   87.553  208.550    7.050
  479.750    0.147    0.372   86.939  208.153    7.596
  480.000    0.096    0.331   81.586  207.546    8.138
  480.250    0.051    0.298   80.974  207.043    8.603
  480.500    0.075    0.313   83.353  207.061    8.273
  480.750    0.112    0.331   87.295  207.598    7.046
  481.000    0.170    0.366   90.861  208.030    6.173
  481.250    0.181    0.392   93.364  208.051    5.948
  481.500    0.172    0.398   98.366  207.861    5.974
  481.750    0.165    0.380   98.626  207.462    6.070
  482.000    0.161    0.362   94.456  207.375    6.189
  482.250    0.160    0.354   91.723  207.291    6.396
  482.500    0.164    0.347   86.993  207.201    6.723
  482.750    0.149    0.353   83.885  207.324    7.149
  483.000    0.117    0.371   79.529  207.029    7.373
  483.250    0.091    0.334   76.859  206.942    7.448
  483.500    0.069    0.325   77.181  206.649    7.369
  483.750    0.087    0.322   80.621  206.669    7.180
  484.000    0.147    0.316   85.809  206.682    6.723
  484.250    0.173    0.316   90.435  206.808    5.534
  484.500    0.183    0.365   96.495  207.031    4.624
  484.750    0.184    0.461  103.055  207.049    3.365
  485.000    0.185    0.481  105.810  207.066    2.838
  485.250    0.184    0.500  106.445  207.395    2.782
  485.500    0.181    0.522  102.338  207.619    2.880
  485.750    0.179    0.472  100.353  207.743    3.205
  486.000    0.173    0.437   96.871  207.868    3.662
  486.250    0.142    0.413   91.205  207.675    4.523
  486.500    0.023    0.385   80.113  208.003    5.661
  486.750    0.006    0.353   74.511  208.439    6.770
  487.000    0.088    0.327   81.507  208.454    6.699
  487.250    0.129    0.361   87.692  208.573    6.416
  487.500    0.157    0.404   93.629  210.152    6.053
  487.750    0.162    0.392   97.319  211.623    5.722
  488.000    0.158    0.385   98.453  211.746    5.748
  488.250    0.141    0.412  100.146  210.412    6.053
  488.500    0.101    0.367   96.913  208.661    7.378
  488.750    0.018    0.342   76.653  205.564    8.907
  489.000   -0.004    0.285   70.614  204.642    9.707
  489.250    0.050    0.326   73.742  204.141    8.751
  489.500    0.127    0.360   80.427  203.952    7.785
  489.750    0.151    0.391   82.621  203.968    7.045
  490.000    0.140    0.376   84.504  204.510    6.448
  490.250    0.093    0.347   87.818  204.836    6.119
  490.500    0.086    0.362   94.254  205.267    5.929
  490.750    0.111    0.400   95.885  205.392    5.777
  491.000    0.130    0.402   92.715  205.614    5.640
  491.250    0.147    0.403   94.037  205.737    5.517
  491.500    0.162    0.411   94.233  205.756    5.447
  491.750    0.167    0.428   92.373  205.774    5.389
  492.000    0.149    0.441   89.451  205.582    5.362
  492.250    0.131    0.433   89.526  205.285    5.345
  492.500    0.094    0.412   90.657  204.789    5.328
  492.750    0.082    0.392   90.356  204.597    5.321
  493.000    0.064    0.380   90.865  204.406    5.284
  493.250    0.081    0.401   92.872  204.423    5.208
  493.500    0.132    0.432   95.191  204.024    5.104
  493.750    0.146    0.437   96.575  203.937    5.002
  494.000    0.140    0.447   96.897  203.850    4.957
  494.250    0.155    0.407   97.343  204.081    4.970
  494.500    0.161    0.394   97.790  204.304    5.068
  494.750    0.151    0.393   98.050  204.843    5.228
  495.000    0.145    0.396   98.996  205.272    5.537
  495.250    0.139    0.394   97.946  205.601    5.898
  495.500    0.125    0.387   93.591  206.242    6.379
  495.750    0.106    0.372   85.680  206.467    6.834
  496.000    0.072    0.354   81.698  205.861    7.063
  496.250    0.113    0.358   91.938  200.265    6.856
  496.500    0.143    0.380  107.230  201.536    6.158
  496.750    0.126    0.404  114.288  203.005    5.324
  497.000    0.128    0.411  116.232  207.076    5.149
  497.250    0.142    0.420  120.173  211.773    5.291
  497.500    0.130    0.432  127.543  213.347    5.572
  497.750    0.138    0.354  140.963  212.845    5.791
  498.000    0.159    0.312  130.058  210.159    5.951
  498.250    0.176    0.294  106.056  204.669    6.034
  498.500    0.173    0.289   73.696  200.322    6.153
  498.750    0.154    0.280   58.862  198.571    6.456
  499.000    0.187    0.269   47.645  199.004    6.969
  499.250    0.220    0.260   40.171  200.894    7.668
  499.500    0.237    0.244   36.191  203.095    8.420
  499.750    0.250    0.228   35.826  204.360    9.246
  500.000    0.265    0.216   36.087  205.311   10.566
  500.250    0.278    0.208   35.972  206.267   11.492
  500.500    0.281    0.213   34.423  206.697   12.149
  500.750    0.266    0.230   34.996  207.029   11.016
  501.000    0.251    0.249   42.615  207.358    9.597
  501.250    0.210    0.272   47.180  207.688    8.521
  501.500    0.187    0.271   46.753  208.017    7.859
  501.750    0.184    0.264   46.204  208.138    7.985
  502.000    0.166    0.268   45.776  207.427    8.235
  502.250    0.156    0.279   43.977  207.032    8.907
