~VERSION INFORMATION
 VERS.                 2.0:   CWLS LOG ASCII STANDARD -VERSION 2.0
 WRAP.                  NO:   ONE LINE PER DEPTH STEP
~WELL INFORMATION BLOCK
#MNEM.UNIT           DATA                    DESCRIPTION OF MNEMONIC
#---------    -------------------            -------------------------------
# Generated from Intellog Unique Number	CS_73_76/WELL/2192
WELL.         BOW VALLEY INDUSTRIES LTD      : Well_name    - WELL
LOC .         00/10-17-074-13W4/0            : Location     - LOCATION
UWI .         00/10-17-074-13W4/0            : Uwi          - UNIQUE WELL ID
ENTR.         SP                             : Entered      - ENTERED BY
SRVC.         SCHLUMBERGER                   : Scn          - SERVICE COMPANY
STRT.M        365                            : top_depth    - START DEPTH
STOP.M        602                            : bot_depth    - STOP DEPTH
STEP.M        0.25                           : increment    - STEP LENGTH
 NULL. -999.2500:NULL Value
~CURVE INFORMATION BLOCK
#MNEM UNIT       ERCB CURVE CODE    CURVE DESCRIPTION
#-----------   ------------------   ----------------------------------
DEPT.M        00 001 00 00         : DEPTH        - DEPTH
ILD .OHMM     00 120 00 00         : RESD         - DEEP RESISTIVITY (DIL)
DPHI.V/V      00 890 00 00         : PHID         - DENSITY POROSITY (LIMESTONE)
NPHI.V/V      00 330 00 00         : PHIN         - NEUTRON POROSITY (LIMESTONE)
GR  .API      00 310 00 00         : GR           - GAMMA RAY
~PARAMETER INFORMATION
#MNEM.UNIT           DATA             DESCRIPTION OF MNEMONIC
#---------         -----------     ------------------------------
GL  .M        724.21               : gl           - GROUND LEVEL ELEVATION
EREF.M        727.56               : kb           - ELEVATION OF DEPTH REFERENCE
DATM.M        724.21               : datum        - DATUM ELEVATION
TDD .M        609                  : tdd          - TOTAL DEPTH DRILLER
RUN .         ONE                  : Run          - RUN NUMBER
ENG .         BILL                 : Engineer     - RECORDING ENGINEER
WIT .         JIM                  : Witness      - WITNESSED BY
MUD .         GEL                  : Mud_type     - MUD TYPE
MATR.         LIMESTONE            : Logunit      - NEUTRON MATRIX
TMAX.C        18                   : BHT          - MAXIMUM RECORDED TEMPERATURE
BHTD.M        609                  : BHTDEP       - MAXIMUM RECORDED TEMPERATURE
MATR.         1                    : LOGUNIT      - NEUTRON MATRIX
RMT .C        25                   : MDTP         - TEMPERATURE OF MUD
NEUT.         1                    : NEUTRON      - NEUTRON TYPE
RESI.         0                    : RESIST       - RESISTIVITY TYPE
RMC .OHMM     0.25                 : RMC          - RESISTIVITY OF MUD CAKE
RMF .OHMM     0.25                 : RMF          - RESISTIVITY OF MUD FILTRATE
SUFT.C        15                   : SUFT         - SURFACE TEMPERATURE
~A  DEPTH     RESD     PHID     PHIN       GR
# ...
  452.000    5.112    0.221    0.449  100.948
  452.250    4.749    0.214    0.461  100.953
  452.500    4.332    0.218    0.477  101.562
  452.750    4.099    0.231    0.483  103.385
  453.000    3.808    0.247    0.475  104.601
  453.250    3.672    0.258    0.461  104.605
  453.500    3.540    0.259    0.455  105.213
  453.750    3.608    0.214    0.467  106.425
  454.000    3.610    0.227    0.474  108.852
  454.250    3.612    0.234    0.485  108.857
  454.500    3.483    0.230    0.498  108.863
  454.750    3.420    0.250    0.504  109.474
  455.000    3.486    0.270    0.513  109.476
  455.250    3.686    0.285    0.524   93.150
  455.500    3.972    0.300    0.457   85.898
  455.750    4.963    0.300    0.428   81.668
  456.000    5.446    0.295    0.427   81.069
  456.250    6.203    0.294    0.437   81.677
  456.500    6.322    0.285    0.440   86.521
  456.750    5.159    0.273    0.430   93.785
  457.000    4.211    0.261    0.420  100.445
  457.250    3.312    0.247    0.437  104.682
  457.500    2.753    0.242    0.465  110.737
  457.750    2.557    0.249    0.493  114.371
  458.000    2.376    0.250    0.517  116.189
  458.250    2.249    0.244    0.548  116.194
  458.500    2.468    0.257    0.565  106.522
  458.750    2.659    0.272    0.539  101.688
  459.000    3.578    0.278    0.511   98.063
  459.250    4.726    0.286    0.471   92.021
  459.500    5.796    0.267    0.425   87.187
  459.750    7.110    0.220    0.410   93.847
  460.000    7.660    0.214    0.398   96.875
  460.250    7.523    0.209    0.427  101.719
  460.500    7.120    0.203    0.439  104.143
  460.750    6.030    0.216    0.449  104.147
  461.000    5.706    0.227    0.465  101.128
  461.250    5.606    0.217    0.469   99.318
  461.500    5.608    0.212    0.478  100.535
  461.750    5.610    0.210    0.463   99.933
  462.000    5.613    0.232    0.434   96.914
  462.250    5.721    0.263    0.439   93.293
  462.500    6.052    0.277    0.444   90.876
  462.750    6.167    0.292    0.435   87.252
  463.000    6.523    0.303    0.415   82.421
  463.250    6.647    0.313    0.427   81.214
  463.500    6.774    0.318    0.433   80.008
  463.750    6.779    0.326    0.438   78.805
  464.000    6.781    0.318    0.426   78.205
  464.250    6.786    0.303    0.418   76.396
  464.500    6.664    0.314    0.427   75.189
  464.750    6.666    0.319    0.424   75.800
  465.000    6.670    0.323    0.432   72.178
  465.250    6.927    0.312    0.430   71.576
  465.500    6.929    0.306    0.424   73.396
  465.750    7.062    0.312    0.428   75.821
  466.000    6.936    0.320    0.421   77.035
  466.250    6.686    0.332    0.434   78.856
  466.500    6.447    0.340    0.441   79.464
  466.750    6.215    0.347    0.449   83.099
  467.000    5.993    0.335    0.440   84.919
  467.250    5.995    0.316    0.436   85.528
  467.500    5.997    0.301    0.445   86.137
  467.750    6.114    0.293    0.459   84.328
  468.000    6.231    0.281    0.462   82.519
  468.250    6.351    0.276    0.427   81.314
  468.500    6.473    0.273    0.422   80.111
  468.750    6.476    0.270    0.432   79.510
  469.000    6.599    0.289    0.423   81.934
  469.250    6.603    0.281    0.406   83.149
  469.500    6.604    0.269    0.399   85.573
  469.750    6.607    0.252    0.394   87.998
  470.000    6.611    0.250    0.393   89.818
  470.250    6.493    0.273    0.417   88.615
  470.500    6.378    0.282    0.441   86.806
  470.750    6.262    0.282    0.452   86.204
  471.000    5.929    0.287    0.463   86.208
  471.250    6.154    0.299    0.473   85.004
  471.500    6.044    0.288    0.473   86.824
  471.750    6.048    0.269    0.436   87.432
  472.000    6.050    0.263    0.421   88.045
  472.250    5.942    0.269    0.414   87.443
  472.500    5.946    0.250    0.408   87.448
  472.750    5.947    0.237    0.408   88.058
  473.000    5.841    0.219    0.414   88.670
  473.250    5.953    0.229    0.425   86.254
  473.500    6.067    0.235    0.424   87.468
  473.750    6.183    0.251    0.414   86.868
  474.000    6.420    0.256    0.410   86.873
  474.250    6.667    0.234    0.405   86.879
  474.500    6.669    0.213    0.401   88.699
  474.750    6.798    0.203    0.403   88.703
  475.000    6.801    0.213    0.408   86.289
  475.250    6.930    0.224    0.407   85.690
  475.500    6.808    0.237    0.401   87.509
  475.750    6.810    0.248    0.401   91.143
  476.000    6.566    0.259    0.413   91.752
  476.250    6.331    0.273    0.417   89.942
  476.500    6.104    0.282    0.424   88.739
  476.750    5.993    0.276    0.435   90.557
  477.000    5.887    0.291    0.443   86.331
  477.250    5.781    0.308    0.453   85.729
  477.500    5.784    0.321    0.464   87.548
  477.750    5.681    0.260    0.457   90.578
  478.000    5.685    0.241    0.420   97.236
  478.250    5.686    0.243    0.436  100.265
  478.500    6.015    0.249    0.443   97.852
  478.750    6.129    0.259    0.455   96.646
  479.000    6.249    0.270    0.464   95.443
  479.250    6.252    0.265    0.471   93.633
  479.500    6.254    0.248    0.461   94.242
  479.750    6.256    0.240    0.468   95.458
  480.000    6.145    0.234    0.471   94.254
  480.250    6.036    0.253    0.474   92.443
  480.500    6.038    0.269    0.461   89.424
  480.750    6.040    0.280    0.443   88.824
  481.000    6.044    0.288    0.432   88.224
  481.250    6.159    0.282    0.438   85.811
  481.500    6.164    0.275    0.440   85.210
  481.750    6.167    0.265    0.435   84.610
  482.000    6.169    0.258    0.421   88.244
  482.250    6.286    0.250    0.429   91.274
  482.500    6.175    0.252    0.426   94.908
  482.750    6.178    0.260    0.415   96.122
  483.000    6.068    0.271    0.415   96.127
  483.250    5.959    0.278    0.426   95.529
  483.500    5.962    0.288    0.438   95.532
  483.750    5.854    0.289    0.446   95.539
  484.000    5.751    0.278    0.425   94.334
  484.250    5.754    0.272    0.418   93.128
  484.500    5.756    0.278    0.423   93.133
  484.750    5.653    0.287    0.431   91.930
  485.000    5.657    0.273    0.435   90.725
  485.250    5.872    0.260    0.432   91.334
  485.500    5.660    0.250    0.443   94.364
  485.750    5.068    0.233    0.458   99.208
  486.000    4.292    0.226    0.470  105.866
  486.250    3.568    0.213    0.486  110.710
  486.500    2.966    0.244    0.505  114.343
  486.750    2.705    0.237    0.524  112.535
  487.000    2.467    0.236    0.561  110.725
  487.250    2.292    0.232    0.534  109.520
  487.500    2.210    0.225    0.504  107.107
  487.750    2.211    0.239    0.494  106.505
  488.000    2.472    0.250    0.470  107.115
  488.250    2.816    0.262    0.453  110.749
  488.500    3.148    0.238    0.430  110.149
  488.750    3.861    0.220    0.418  107.735
  489.000    4.480    0.231    0.411  104.716
  489.250    5.198    0.238    0.420  102.302
  489.500    5.298    0.243    0.430  102.306
  489.750    5.300    0.231    0.434  102.917
  490.000    5.205    0.241    0.441  101.107
  490.250    5.113    0.236    0.442   98.694
  490.500    5.115    0.227    0.427   97.488
  490.750    5.023    0.249    0.424   95.074
  491.000    5.026    0.262    0.415   93.869
  491.250    5.030    0.273    0.414   93.269
  491.500    5.032    0.264    0.426   92.671
  491.750    5.127    0.272    0.432   92.675
  492.000    5.226    0.287    0.438   92.678
  492.250    5.228    0.294    0.442   93.290
  492.500    5.231    0.302    0.449   93.295
  492.750    5.331    0.310    0.434   92.696
  493.000    5.333    0.284    0.423   92.095
  493.250    5.336    0.270    0.417   90.891
  493.500    5.339    0.248    0.411   90.895
  493.750    5.342    0.238    0.414   92.715
  494.000    5.345    0.227    0.421   98.768
  494.250    5.346    0.222    0.428  101.797
  494.500    5.252    0.221    0.442  103.013
  494.750    5.253    0.226    0.446  103.017
  495.000    5.160    0.210    0.432   99.999
  495.250    4.975    0.223    0.411   97.584
