~VERSION INFORMATION
 VERS.                 2.0:   CWLS LOG ASCII STANDARD -VERSION 2.0
 WRAP.                  NO:   ONE LINE PER DEPTH STEP
~WELL INFORMATION BLOCK
#MNEM.UNIT           DATA                    DESCRIPTION OF MNEMONIC
#---------    -------------------            -------------------------------
# Generated from Intellog Unique Number	CS_67_68/WELL/2196
WELL.         10-28-067-03W4                 : Well_name    - WELL
LOC .         00/10-28-067-03W4/0            : Location     - LOCATION
UWI .         00/10-28-067-03W4/0            : Uwi          - UNIQUE WELL ID
ENTR.         SP                             : Entered      - ENTERED BY
SRVC.         SCHLUMBERGER                   : Scn          - SERVICE COMPANY
STRT.M        335                            : top_depth    - START DEPTH
STOP.M        560                            : bot_depth    - STOP DEPTH
STEP.M        0.25                           : increment    - STEP LENGTH
 NULL. -999.2500:NULL Value
~CURVE INFORMATION BLOCK
#MNEM UNIT       ERCB CURVE CODE    CURVE DESCRIPTION
#-----------   ------------------   ----------------------------------
DEPT.M        00 001 00 00         : DEPTH        - DEPTH
ILD .OHMM     00 120 00 00         : RESD         - DEEP RESISTIVITY (DIL)
DPHI.V/V      00 890 00 00         : PHID         - DENSITY POROSITY (LIMESTONE)
NPHI.V/V      00 330 00 00         : PHIN         - NEUTRON POROSITY (LIMESTONE)
GR  .API      00 310 00 00         : GR           - GAMMA RAY
CALI.MM       00 280 01 00         : CAL          - CALIPER
~PARAMETER INFORMATION
#MNEM.UNIT           DATA             DESCRIPTION OF MNEMONIC
#---------         -----------     ------------------------------
GL  .M        678.88               : gl           - GROUND LEVEL ELEVATION
EREF.M        682.54               : kb           - ELEVATION OF DEPTH REFERENCE
DATM.M        682.54               : datum        - DATUM ELEVATION
TDD .M        573                  : tdd          - TOTAL DEPTH DRILLER
RUN .         ONE                  : Run          - RUN NUMBER
ENG .         BILL                 : Engineer     - RECORDING ENGINEER
WIT .         JIM                  : Witness      - WITNESSED BY
MUD .         GEL                  : Mud_type     - MUD TYPE
MATR.         LIMESTONE            : Logunit      - NEUTRON MATRIX
TMAX.C        18                   : BHT          - MAXIMUM RECORDED TEMPERATURE
BHTD.M        572.4                : BHTDEP       - MAXIMUM RECORDED TEMPERATURE
MATR.         1                    : LOGUNIT      - NEUTRON MATRIX
RMT .C        25                   : MDTP         - TEMPERATURE OF MUD
NEUT.         1                    : NEUTRON      - NEUTRON TYPE
RESI.         0                    : RESIST       - RESISTIVITY TYPE
RMC .OHMM     0.25                 : RMC          - RESISTIVITY OF MUD CAKE
RMF .OHMM     0.25                 : RMF          - RESISTIVITY OF MUD FILTRATE
SUFT.C        15                   : SUFT         - SURFACE TEMPERATURE
~A  DEPTH     RESD     PHID     PHIN       GR      CAL
# ...
  371.500    6.256    0.286    0.506  101.934  204.922
  371.750    6.244    0.289    0.506   99.990  205.034
  372.000    6.255    0.291    0.490   96.037  205.047
  372.250    6.267    0.285    0.478   92.997  204.954
  372.500    6.266    0.279    0.472   91.601  204.965
  372.750    6.325    0.282    0.464   90.816  204.673
  373.000    6.433    0.283    0.454   89.360  204.378
  373.250    6.530    0.282    0.442   93.266  204.083
  373.500    6.666    0.279    0.431   96.197  203.788
  373.750    6.678    0.275    0.446   99.493  203.900
  374.000    6.652    0.276    0.459  101.448  203.809
  374.250    6.602    0.286    0.447   99.322  204.126
  374.500    6.639    0.295    0.436   92.931  204.439
  374.750    6.639    0.299    0.449   92.268  204.552
  375.000    6.638    0.293    0.439   95.077  204.765
  375.250    6.638    0.287    0.431   97.032  205.182
  375.500    6.638    0.277    0.446  100.573  205.497
  375.750    6.650    0.268    0.461  103.929  205.612
  376.000    6.687    0.268    0.476   97.417  205.519
  376.250    6.699    0.280    0.491   91.635  205.529
  376.500    6.737    0.287    0.501   88.838  205.640
  376.750    6.762    0.261    0.503   93.232  205.652
  377.000    6.799    0.215    0.503   89.096  205.662
  377.250    6.980    0.198    0.492   86.421  205.672
  377.500    7.166    0.199    0.482   86.122  205.581
  377.750    7.343    0.254    0.483   87.774  205.795
  378.000    7.652    0.279    0.487   84.612  206.011
  378.250    8.111    0.291    0.491   80.718  206.222
  378.500    8.453    0.295    0.498   73.840  206.435
  378.750    9.061    0.301    0.500   64.221  206.546
  379.000   10.335    0.325    0.484   55.148  206.761
  379.250   11.921    0.340    0.466   49.306  207.075
  379.500   20.215    0.343    0.453   46.267  207.494
  379.750   27.772    0.345    0.444   47.004  208.010
  380.000   35.391    0.350    0.444   49.873  208.832
  380.250   41.286    0.356    0.458   57.495  209.250
  380.500   46.039    0.363    0.474   70.966  209.462
  380.750   49.818    0.364    0.459   84.132  209.069
  381.000   51.336    0.358    0.450   96.872  208.571
  381.250   50.661    0.351    0.460  112.902  208.074
  381.500   50.091    0.344    0.476  106.816  207.474
  381.750   49.619    0.345    0.484   94.637  206.976
  382.000   49.152    0.348    0.480   78.985  206.581
  382.250   48.781    0.347    0.478   70.340  206.286
  382.500   47.960    0.351    0.469   61.086  205.790
  382.750   46.101    0.357    0.445   58.716  205.495
  383.000   43.489    0.358    0.461   61.526  204.998
  383.250   41.569    0.358    0.479   64.090  204.502
  383.500   39.584    0.358    0.486   62.208  204.211
  383.750   37.623    0.358    0.489   59.228  204.117
  384.000   35.093    0.357    0.477   56.676  204.025
  384.250   34.373    0.357    0.458   56.986  204.035
  384.500   34.892    0.357    0.439   58.394  203.945
  384.750   36.568    0.357    0.433   59.802  203.955
  385.000   39.495    0.357    0.431   61.697  203.764
  385.250   42.258    0.356    0.427   64.627  203.773
  385.500   42.574    0.354    0.442   68.655  203.683
  385.750   37.044    0.352    0.451   70.915  203.492
  386.000   31.277    0.343    0.472   71.531  203.399
  386.250   27.523    0.343    0.495   73.182  203.307
  386.500   23.020    0.344    0.500   75.930  203.420
  386.750   18.165    0.335    0.474   79.227  203.532
  387.000   13.675    0.333    0.448   77.405  203.646
  387.250   11.289    0.339    0.452   74.304  203.756
  387.500    9.934    0.343    0.456   71.814  203.564
  387.750    9.042    0.334    0.457   68.346  203.574
  388.000    8.371    0.335    0.460   64.331  203.583
  388.250    9.729    0.343    0.469   60.560  203.593
  388.500   12.190    0.332    0.477   58.068  203.503
  388.750   14.247    0.325    0.469   58.806  203.515
  389.000   16.067    0.322    0.461   61.066  203.625
  389.250   17.816    0.319    0.455   64.667  203.738
  389.500   17.582    0.315    0.463   68.755  203.849
  389.750   15.765    0.308    0.483   73.210  203.963
  390.000   12.965    0.310    0.480   76.688  203.870
  390.250   10.405    0.302    0.474   80.473  203.982
  390.500    8.969    0.291    0.487   83.281  203.993
  390.750    7.804    0.304    0.501   85.420  204.004
  391.000    7.252    0.307    0.514   87.741  203.813
  391.250    7.116    0.297    0.513   79.827  203.924
  391.500    6.957    0.282    0.482   64.419  204.037
  391.750    6.957    0.273    0.461   52.971  204.251
  392.000    7.485    0.267    0.441   46.764  204.465
  392.250    8.442    0.290    0.411   42.383  204.473
  392.500   10.244    0.307    0.397   37.150  204.483
  392.750   11.839    0.316    0.405   41.847  204.595
  393.000   13.352    0.309    0.404   49.774  204.605
  393.250   14.502    0.307    0.423   54.959  204.514
  393.500   15.227    0.313    0.459   59.291  204.222
  393.750   15.399    0.315    0.454   55.519  204.128
  394.000   15.341    0.314    0.413   55.953  203.939
  394.250   14.857    0.315    0.428   54.313  203.947
  394.500   14.580    0.315    0.450   50.847  203.756
  394.750   14.335    0.309    0.438   50.975  203.664
  395.000   14.093    0.300    0.417   50.860  203.676
  395.250   14.145    0.301    0.401   48.003  203.686
  395.500   14.440    0.312    0.388   45.084  203.797
  395.750   15.334    0.306    0.420   47.468  203.809
  396.000   16.162    0.295    0.446   50.641  203.818
  396.250   16.939    0.287    0.428   54.181  203.827
  396.500   17.130    0.284    0.419   57.661  203.838
  396.750   16.841    0.284    0.425   58.459  203.849
  397.000   15.857    0.288    0.414   57.429  203.859
  397.250   14.434    0.286    0.402   59.081  203.871
  397.500   13.213    0.289    0.400   58.234  203.881
  397.750   12.371    0.305    0.416   56.351  203.788
  398.000   11.474    0.295    0.415   58.185  203.700
  398.250   10.865    0.284    0.415   61.725  203.708
  398.500   10.582    0.309    0.433   58.137  203.619
  398.750   12.532    0.329    0.449   47.055  203.627
  399.000   16.060    0.343    0.423   36.277  203.436
  399.250   21.330    0.346    0.409   30.861  203.344
  399.500   27.645    0.350    0.417   30.441  203.254
  399.750   35.096    0.350    0.421   30.021  203.263
  400.000   43.891    0.352    0.427   30.515  202.970
  400.250   50.343    0.355    0.424   31.556  202.980
  400.500   52.170    0.349    0.410   32.659  202.789
  400.750   49.960    0.346    0.400   34.067  202.594
  401.000   49.027    0.347    0.391   35.475  202.302
  401.250   49.209    0.349    0.407   37.004  202.007
  401.500   52.355    0.354    0.423   35.731  201.610
  401.750   56.334    0.357    0.436   32.874  201.216
  402.000   59.263    0.354    0.445   31.052  201.124
  402.250   62.110    0.342    0.429   30.023  200.730
  402.500   64.003    0.339    0.419   30.090  200.537
  402.750   64.604    0.349    0.401   28.817  200.141
  403.000   64.357    0.356    0.412   30.408  199.947
  403.250   63.752    0.367    0.427   33.764  199.857
  403.500   60.707    0.376    0.446   37.487  199.664
  403.750   58.575    0.365    0.476   38.590  199.573
  404.000   59.235    0.363    0.434   36.830  199.483
  404.250   57.154    0.362    0.414   33.241  199.494
  404.500   49.823    0.360    0.422   33.979  199.604
  404.750   41.206    0.353    0.408   48.181  199.614
  405.000   28.992    0.354    0.389   56.777  199.728
  405.250   21.340    0.368    0.454   63.729  199.737
  405.500   16.126    0.358    0.489   57.460  199.950
  405.750   14.542    0.344    0.463   52.958  200.267
  406.000   15.559    0.335    0.468   58.204  200.278
  406.250   16.931    0.333    0.472   62.353  200.288
  406.500   18.424    0.334    0.460   59.801  200.195
  406.750   19.529    0.339    0.451   58.406  200.003
  407.000   20.276    0.340    0.445   57.071  199.813
  407.250   20.160    0.342    0.448   55.920  199.720
  407.500   19.416    0.345    0.461   57.023  199.629
  407.750   18.212    0.347    0.473   61.112  199.537
