~VERSION INFORMATION
 VERS.                 2.0:   CWLS LOG ASCII STANDARD -VERSION 2.0
 WRAP.                  NO:   ONE LINE PER DEPTH STEP
~WELL INFORMATION BLOCK
#MNEM.UNIT           DATA                    DESCRIPTION OF MNEMONIC
#---------    -------------------            -------------------------------
# Generated from Intellog Unique Number	CW_76_78/WELL/913
WELL.         PCP MARTEN HILLS 10-28-076     : Well_name    - WELL
LOC .         00/10-28-076-04W5/0            : Location     - LOCATION
UWI .         00/10-28-076-04W5/0            : Uwi          - UNIQUE WELL ID
ENTR.         JAYE                           : Entered      - ENTERED BY
SRVC.         SCHLUMBERGER                   : Scn          - SERVICE COMPANY
DATE.         18 FEB 74                      : Date         - LOG DATE
STRT.M        463.296                        : top_depth    - START DEPTH
STOP.M        704.046                        : bot_depth    - STOP DEPTH
STEP.M        0.25                           : increment    - STEP LENGTH
 NULL. -999.2500:NULL Value
~CURVE INFORMATION BLOCK
#MNEM UNIT       ERCB CURVE CODE    CURVE DESCRIPTION
#-----------   ------------------   ----------------------------------
DEPT.M        00 001 00 00         : DEPTH        - DEPTH
ILD .OHMM     00 120 00 00         : RESD         - DEEP RESISTIVITY (DIL)
NPHI.V/V      00 330 00 00         : PHIN         - NEUTRON POROSITY (SANDSTONE)
DPHI.V/V      00 890 00 00         : PHID         - DENSITY POROSITY (SANDSTONE)
GR  .API      00 310 00 00         : GR           - GAMMA RAY
CALI.MM       00 280 01 00         : CAL          - CALIPER
~PARAMETER INFORMATION
#MNEM.UNIT           DATA             DESCRIPTION OF MNEMONIC
#---------         -----------     ------------------------------
GL  .M        771.754              : gl           - GROUND LEVEL ELEVATION
EREF.M        775.716              : kb           - ELEVATION OF DEPTH REFERENCE
DATM.M        771.754              : datum        - DATUM ELEVATION
TDD .M        717.804              : tdd          - TOTAL DEPTH DRILLER
RUN .         ONE                  : Run          - RUN NUMBER
MATR.         SANDSTONE            : Logunit      - NEUTRON MATRIX
TMAX.C        31.6667              : BHT          - MAXIMUM RECORDED TEMPERATURE
BHTD.M        717.499              : BHTDEP       - MAXIMUM RECORDED TEMPERATURE
RMT .C        20                   : MDTP         - TEMPERATURE OF MUD
MUDD.KG/M     0                    : MWT          - MUD DENSITY
NEUT.         1                    : NEUTRON      - NEUTRON TYPE
RESI.         0                    : RESIST       - RESISTIVITY TYPE
RM  .OHMM     2.52                 : RM           - RESISTIVITY OF MUD
RMC .OHMM     0                    : RMC          - RESISTIVITY OF MUD CAKE
RMF .OHMM     2.67                 : RMF          - RESISTIVITY OF MUD FILTRATE
SUFT.C        -17.7778             : SUFT         - SURFACE TEMPERATURE
~A  DEPTH     RESD     PHIN     PHID       GR      CAL
  463.296    3.509    0.399    0.193   54.880  205.418
  463.546    3.365    0.357    0.197   49.705  205.091
  463.796    3.151    0.344    0.179   43.357  205.167
  464.046    2.854    0.368    0.211   40.856  205.448
  464.296    2.590    0.379    0.244   40.907  205.721
  464.546    2.439    0.397    0.260   44.158  206.312
  464.796    2.365    0.412    0.246   47.571  206.277
  465.046    2.401    0.395    0.224   49.809  206.464
  465.296    2.441    0.396    0.209   38.196  206.538
  465.546    2.482    0.401    0.220   32.414  207.020
  465.796    2.529    0.359    0.226   29.468  206.996
  466.046    2.549    0.334    0.248   35.028  206.451
  466.296    2.568    0.339    0.272   40.546  206.117
  466.546    2.583    0.366    0.267   48.009  205.977
  466.796    2.612    0.422    0.230   55.472  205.548
  467.046    2.652    0.488    0.196   58.276  205.303
  467.296    2.687    0.470    0.203   56.383  205.400
  467.546    2.738    0.436    0.220   51.250  205.063
  467.796    2.774    0.417    0.198   48.831  204.521
  468.046    2.805    0.388    0.210   46.412  204.077
  468.296    2.837    0.377    0.211   43.952  204.147
  468.546    2.843    0.382    0.229   41.370  203.810
  468.796    2.782    0.413    0.218   38.546  203.568
  469.046    2.712    0.405    0.220   36.044  203.336
  469.296    2.625    0.390    0.243   33.746  203.006
  469.546    2.517    0.385    0.252   33.433  203.069
  469.796    2.440    0.373    0.259   33.038  202.945
  470.046    2.332    0.359    0.272   34.224  202.805
  470.296    2.298    0.349    0.262   36.299  202.786
  470.546    2.312    0.346    0.262   38.133  202.541
  470.796    2.364    0.354    0.264   40.614  201.898
  471.046    2.440    0.382    0.254   44.957  201.659
  471.296    2.490    0.419    0.236   50.840  207.206
  471.546    2.556    0.440    0.185   56.561  214.403
  471.796    2.647    0.437    0.185   54.710  221.805
  472.046    2.793    0.415    0.229   51.236  224.357
  472.296    2.930    0.394    0.222   52.381  218.545
  472.546    3.007    0.424    0.213   55.146  213.984
  472.796    2.953    0.528    0.202   58.032  217.458
  473.046    2.842    0.536    0.210   57.880  222.176
  473.296    2.726    0.524    0.230   56.351  221.218
  473.546    2.623    0.498    0.220   54.662  215.827
  473.796    2.591    0.479    0.221   55.117  213.228
  474.046    2.620    0.483    0.205   57.275  213.090
  474.296    2.635    0.533    0.203   60.038  212.959
  474.546    2.612    0.577    0.197   63.613  214.589
  474.796    2.528    0.567    0.189   65.405  219.410
  475.046    2.442    0.551    0.223   63.310  222.057
  475.296    2.363    0.552    0.201   63.928  224.202
  475.546    2.283    0.531    0.229   65.194  224.996
  475.796    2.161    0.629    0.258   64.759  224.861
  476.046    2.084    0.627    0.279   67.240  217.198
  476.296    2.010    0.668    0.247   69.762  213.258
  476.546    1.956    0.656    0.232   67.585  213.437
  476.796    1.924    0.637    0.241   66.178  212.996
  477.046    1.907    0.624    0.249   66.836  210.079
  477.296    1.873    0.602    0.253   69.236  209.130
  477.546    1.829    0.574    0.245   68.438  209.200
  477.796    1.741    0.588    0.239   67.515  210.001
  478.046    1.688    0.627    0.258   66.230  210.586
  478.296    1.698    0.661    0.257   65.147  210.864
  478.546    1.733    0.647    0.251   64.064  209.820
  478.796    1.789    0.638    0.259   63.913  208.853
  479.046    1.836    0.655    0.250   64.369  207.690
  479.296    1.888    0.633    0.265   65.189  206.729
  479.546    1.923    0.624    0.262   65.970  206.497
  479.796    1.938    0.619    0.235   66.304  206.979
  480.046    1.949    0.615    0.208   66.557  207.264
  480.296    1.961    0.611    0.201   66.325  207.767
  480.546    1.965    0.596    0.229   67.104  207.938
  480.796    1.958    0.552    0.230   67.804  208.627
  481.046    1.952    0.527    0.225   67.328  209.540
  481.296    1.966    0.546    0.232   66.651  210.739
  481.546    1.996    0.567    0.230   66.823  212.676
  481.796    2.034    0.556    0.199   68.696  213.670
  482.046    2.057    0.547    0.217   68.504  214.063
  482.296    2.076    0.562    0.226   67.543  213.935
  482.546    2.112    0.574    0.211   65.487  213.605
  482.796    2.203    0.580    0.176   62.299  213.458
  483.046    2.320    0.593    0.192   59.474  213.132
  483.296    2.475    0.516    0.198   55.596  212.062
  483.546    2.733    0.462    0.198   49.693  210.389
  483.796    2.991    0.426    0.223   41.523  207.569
  484.046    3.453    0.414    0.249   39.305  205.503
  484.296    3.927    0.389    0.268   41.017  205.372
  484.546    4.197    0.374    0.272   39.165  205.745
  484.796    4.428    0.366    0.267   40.917  206.014
  485.046    4.470    0.379    0.250   44.653  206.918
  485.296    4.398    0.384    0.232   47.296  208.226
  485.546    4.280    0.404    0.229   49.170  210.472
  485.796    4.149    0.418    0.227   50.193  211.990
  486.046    4.031    0.415    0.233   45.667  210.929
  486.296    3.944    0.411    0.250   41.547  208.757
  486.546    3.873    0.408    0.262   40.991  207.995
  486.796    3.867    0.403    0.278   41.973  207.853
  487.046    3.926    0.396    0.243   42.511  208.366
  487.296    4.059    0.356    0.223   43.370  208.633
  487.546    4.258    0.350    0.212   46.095  209.226
  487.796    4.338    0.442    0.191   56.352  209.511
  488.046    4.277    0.474    0.185   60.372  209.679
  488.296    4.078    0.503    0.212   61.354  209.865
  488.546    3.729    0.501    0.230   60.880  209.933
  488.796    3.244    0.507    0.229   61.659  210.006
  489.046    2.828    0.524    0.189   60.211  210.393
  489.296    2.581    0.516    0.233   56.293  210.890
  489.546    2.475    0.525    0.256   56.385  210.963
  489.796    2.846    0.506    0.274   55.585  210.221
  490.046    3.109    0.506    0.294   54.098  209.254
  490.296    3.396    0.488    0.267   51.839  207.159
  490.546    3.744    0.474    0.287   49.622  204.242
  490.796    4.259    0.483    0.301   47.648  203.595
  491.046    4.817    0.473    0.310   48.591  203.573
  491.296    5.321    0.443    0.334   49.735  203.746
  491.546    5.676    0.484    0.330   49.016  204.341
  491.796    5.955    0.569    0.315   43.842  204.619
  492.046    6.282    0.536    0.321   38.750  205.329
  492.296    6.688    0.460    0.329   35.197  205.180
  492.546    7.428    0.441    0.278   35.126  204.427
  492.796    8.250    0.466    0.303   35.825  203.062
  493.046    9.179    0.497    0.304   37.051  202.317
  493.296    9.352    0.511    0.314   39.654  202.098
  493.546    8.854    0.475    0.322   40.352  202.575
  493.796    8.184    0.456    0.334   39.026  203.059
  494.046    7.762    0.491    0.322   39.119  203.446
  494.296    7.430    0.497    0.330   39.574  203.628
  494.546    7.364    0.476    0.343   39.705  204.014
  494.796    8.015    0.469    0.332   39.393  204.298
  495.046    9.268    0.443    0.326   38.754  204.476
  495.296   10.014    0.434    0.331   36.821  204.751
  495.546   10.372    0.444    0.335   35.535  204.611
  495.796   10.376    0.445    0.338   35.709  204.690
  496.046   10.246    0.448    0.343   35.434  204.774
  496.296    9.971    0.443    0.350   34.757  205.048
  496.546    9.544    0.433    0.342   33.350  205.951
  496.796    8.936    0.437    0.330   33.077  206.637
  497.046    8.429    0.446    0.345   34.707  207.339
  497.296    8.009    0.467    0.331   34.920  206.687
  497.546    7.895    0.477    0.320   34.648  203.458
  497.796    7.926    0.469    0.348   35.225  200.962
  498.046    8.180    0.444    0.354   34.952  201.977
  498.296    8.519    0.447    0.309   33.383  203.277
  498.546    8.711    0.471    0.320   32.218  204.796
  498.796    8.875    0.473    0.316   34.011  206.835
  499.046    8.911    0.468    0.332   35.278  208.555
  499.296    8.832    0.474    0.336   36.826  202.956
  499.546    8.706    0.506    0.335   38.012  201.180
