~VERSION INFORMATION
 VERS.                 2.0:   CWLS LOG ASCII STANDARD -VERSION 2.0
 WRAP.                  NO:   ONE LINE PER DEPTH STEP
~WELL INFORMATION BLOCK
#MNEM.UNIT           DATA                    DESCRIPTION OF MNEMONIC
#---------    -------------------            -------------------------------
# Generated from Intellog Unique Number	CN_94_101/WELL/3782
WELL.         10-25-095-18W4                 : Well_name    - WELL
LOC .         00/10-25-095-18W4/0            : Location     - LOCATION
UWI .         00/10-25-095-18W400            : Uwi          - UNIQUE WELL ID
ENTR.         T                              : Entered      - ENTERED BY
SRVC.         SCHLUMBERGER                   : Scn          - SERVICE COMPANY
DATE.         04/12/92                       : Date         - LOG DATE
STRT.M        200                            : top_depth    - START DEPTH
STOP.M        394.75                         : bot_depth    - STOP DEPTH
STEP.M        0.25                           : increment    - STEP LENGTH
 NULL. -999.2500:NULL Value
~CURVE INFORMATION BLOCK
#MNEM UNIT       ERCB CURVE CODE    CURVE DESCRIPTION
#-----------   ------------------   ----------------------------------
DEPT.M        00 001 00 00         : DEPTH        - DEPTH
GR  .API      00 310 00 00         : GR           - GAMMA RAY
CALI.MM       00 280 01 00         : CAL          - CALIPER
NPHI.V/V      00 330 00 00         : PHIN         - NEUTRON POROSITY (SANDSTONE)
DPHI.V/V      00 890 00 00         : PHID         - DENSITY POROSITY (SANDSTONE)
ILD .OHMM     00 120 00 00         : RESD         - DEEP RESISTIVITY (DIL)
~PARAMETER INFORMATION
#MNEM.UNIT           DATA             DESCRIPTION OF MNEMONIC
#---------         -----------     ------------------------------
GL  .M        665                  : gl           - GROUND LEVEL ELEVATION
EREF.M        668                  : kb           - ELEVATION OF DEPTH REFERENCE
DATM.M        668                  : datum        - DATUM ELEVATION
TDD .M        399                  : tdd          - TOTAL DEPTH DRILLER
RUN .         0.000000             : Run          - RUN NUMBER
MUD .         GEL                  : Mud_type     - MUD TYPE
MATR.         SANDSTONE            : Logunit      - NEUTRON MATRIX
TMAX.C        15                   : BHT          - MAXIMUM RECORDED TEMPERATURE
BHTD.M        253.4                : BHTDEP       - MAXIMUM RECORDED TEMPERATURE
RMT .C        17.3                 : MDTP         - TEMPERATURE OF MUD
MUDD.KG/M     1130                 : MWT          - MUD DENSITY
NEUT.         1                    : NEUTRON      - NEUTRON TYPE
RESI.         0                    : RESIST       - RESISTIVITY TYPE
RM  .OHMM     8.25                 : RM           - RESISTIVITY OF MUD
RMC .OHMM     7.89                 : RMC          - RESISTIVITY OF MUD CAKE
RMF .OHMM     3.5                  : RMF          - RESISTIVITY OF MUD FILTRATE
SUFT.C        4                    : SUFT         - SURFACE TEMPERATURE
BTZC.MM       0                    : BITZC        - BIT SIZE CONSTANT
MDW .KG/M     0                    : MDW          - MUD WEIGHT
~A  DEPTH       GR      CAL     PHIN     PHID     RESD
# ...
  236.500   80.042  177.905    0.432    0.301    6.042
  236.750   76.261  162.344    0.442    0.284    6.277
  237.000   78.151  160.270    0.451    0.273    6.648
  237.250   90.126  170.643    0.481    0.262    6.399
  237.500   89.496  176.867    0.482    0.251    6.072
  237.750   91.387  179.979    0.481    0.239    5.957
  238.000   93.908  175.830    0.452    0.228    5.957
  238.250   96.429  174.793    0.443    0.197    6.190
  238.500   81.933  163.382    0.457    0.210    6.683
  238.750   73.109  163.542    0.462    0.240    6.190
  239.000   78.151  159.375    0.421    0.255    6.813
  239.250   82.563  159.375    0.416    0.259    6.556
  239.500   86.345  160.417    0.430    0.256    6.190
  239.750   89.496  160.417    0.460    0.259    5.843
  240.000   91.387  173.958    0.464    0.266    5.705
  240.250   88.235  177.083    0.428    0.265    5.386
  240.500   81.303  177.083    0.431    0.274    5.086
  240.750   79.412  177.083    0.479    0.299    4.895
  241.000   79.412  169.792    0.534    0.301    4.534
  241.250   79.412  176.042    0.505    0.299    4.990
  241.500   79.412  183.333    0.471    0.300    4.990
  241.750   79.412  177.083    0.461    0.303    4.895
  242.000   83.824  172.917    0.499    0.301    4.802
  242.250   87.605  177.083    0.541    0.296    4.711
  242.500   86.975  175.000    0.489    0.290    4.802
  242.750   84.454  171.875    0.490    0.289    4.895
  243.000   83.193  171.875    0.491    0.276    4.895
  243.250   83.193  172.917    0.504    0.264    4.990
  243.500   86.975  168.750    0.510    0.268    5.086
  243.750   88.866  171.875    0.479    0.273    5.491
  244.000   88.866  166.667    0.446    0.273    6.277
  244.250   80.672  159.375    0.455    0.271    6.522
  244.500   63.655  169.792    0.466    0.273    6.648
  244.750   58.613  170.833    0.476    0.303    6.777
  245.000   67.437  168.750    0.481    0.288    6.648
  245.250   76.261  171.875    0.478    0.294    6.277
  245.500   76.261  177.083    0.478    0.290    6.158
  245.750   76.891  168.750    0.478    0.288    6.158
  246.000   78.151  167.708    0.460    0.279    6.158
  246.250   78.782  164.583    0.430    0.278    6.399
  246.500   79.412  169.792    0.448    0.279    6.522
  246.750   78.782  161.458    0.520    0.289    6.522
  247.000   76.891  160.417    0.596    0.305    6.648
  247.250   71.218  161.458    0.574    0.326    6.648
  247.500   60.504  159.375    0.420    0.316    6.777
  247.750   69.328  162.500    0.450    0.321    6.777
  248.000   73.739  162.500    0.471    0.326    6.908
  248.250   72.479  162.500    0.443    0.324    7.041
  248.500   59.244  161.458    0.400    0.315    7.457
  248.750   55.462  162.500    0.401    0.303    8.859
  249.000   56.723  162.500    0.425    0.311    8.206
  249.250   59.244  162.500    0.459    0.313    7.748
  249.500   62.395  161.458    0.448    0.295    7.898
  249.750   64.916  161.458    0.419    0.129    7.898
  250.000   64.286  161.458    0.386    0.119    8.050
  250.250   57.983  161.458    0.378    0.138    8.050
  250.500   48.529  160.417    0.378    0.258    8.050
  250.750   54.832  161.458    0.400    0.280    7.457
  251.000   64.916  164.583    0.476    0.295    6.158
  251.250   85.084  164.419    0.477    0.298    5.597
  251.500   89.496  168.568    0.475    0.296    4.990
  251.750   87.605  168.568    0.472    0.293    4.990
  252.000   82.563  167.531    0.471    0.289    5.597
  252.250   81.303  165.456    0.481    0.282    4.802
  252.500   81.303  162.344    0.475    0.273    5.597
  252.750   80.042  161.307    0.457    0.271    5.815
  253.000   78.151  166.494    0.450    0.283    5.705
  253.250   80.042  168.568    0.462    0.296    5.386
  253.500   86.975  170.643    0.470    0.297    5.184
  253.750   90.126  176.867    0.451    0.296    4.990
  254.000   88.866  169.606    0.447    0.287    4.895
  254.250   83.193  169.606    0.421    0.276    4.895
  254.500   75.630  163.382    0.416    0.272    4.802
  254.750   74.370  185.166    0.422    0.273    4.802
  255.000   75.316  172.718    0.431    0.272    5.927
  255.250   79.114  165.456    0.440    0.256    7.041
  255.500   75.949  166.494    0.437    0.224    7.316
  255.750   70.886  170.643    0.423    0.223    7.748
  256.000   63.291  163.382    0.448    0.227    7.898
  256.250   70.253  158.195    0.453    0.227    7.898
  256.500   76.582  161.307    0.441    0.227    7.217
  256.750   73.418  161.307    0.440    0.225    7.356
  257.000   65.190  162.344    0.437    0.205    7.792
  257.250   58.228  160.270    0.422    0.200    8.577
  257.500   55.063  162.344    0.391    0.214    9.204
  257.750   61.392  167.531    0.397    0.266    8.691
  258.000   82.278  161.307    0.421    0.323    7.601
  258.250   88.608  161.307    0.440    0.327    6.432
  258.500   88.608  170.643    0.452    0.279    6.310
  258.750   87.975  160.270    0.471    0.267    6.072
  259.000   85.443  161.307    0.466    0.272    6.190
  259.250   82.911  172.718    0.446    0.274    6.190
  259.500   82.911  160.270    0.445    0.272    6.310
  259.750   84.810  164.419    0.448    0.272    5.957
  260.000   85.714  161.307    0.453    0.268    5.843
  260.250   87.605  162.344    0.463    0.262    6.190
  260.500   91.387  160.270    0.487    0.262    6.190
  260.750   90.756  159.232    0.497    0.243    6.190
  261.000   85.084  162.344    0.481    0.218    6.072
  261.250   81.933  162.344    0.442    0.164    6.072
  261.500   75.630  162.344    0.457    0.164    6.072
  261.750   74.370  172.718    0.462    0.193    6.190
  262.000   85.084  161.307    0.450    0.200    6.072
  262.250   86.975  164.419    0.471    0.234    6.072
  262.500   85.084  162.344    0.475    0.249    6.158
  262.750   86.345  169.606    0.447    0.243    5.815
  263.000   88.235  171.680    0.438    0.247    5.705
  263.250   88.235  170.643    0.465    0.246    5.491
  263.500   88.235  172.718    0.476    0.239    4.990
  263.750   88.235  174.587    0.471    0.233    4.990
  264.000   88.866  174.587    0.468    0.228    4.802
  264.250   88.866  174.587    0.482    0.235    4.802
  264.500   88.866  169.421    0.508    0.237    4.990
  264.750   88.235  161.157    0.527    0.227    5.086
  265.000   84.454  161.157    0.345    0.023    9.563
  265.250   73.109  159.091    0.326    0.089    8.859
  265.500   59.244  160.124    0.383    0.167    8.206
  265.750   69.328  170.455    0.453    0.225    6.648
  266.000   88.866  169.421    0.515    0.245    5.705
  266.250   86.345  169.421    0.520    0.245    5.284
  266.500   87.605  160.124    0.523    0.244    4.895
  266.750   90.126  175.620    0.511    0.242    4.711
  267.000   90.756  176.653    0.495    0.250    4.622
  267.250   90.126  174.587    0.505    0.250    4.534
  267.500   94.538  175.620    0.503    0.254    4.622
  267.750   94.538  177.686    0.458    0.257    4.711
  268.000   91.387  160.124    0.452    0.261    4.534
  268.250   92.017  176.653    0.472    0.259    4.534
  268.500   92.017  166.322    0.493    0.255    4.534
  268.750   92.647  173.554    0.497    0.250    4.534
  269.000   93.277  174.587    0.493    0.246    4.534
  269.250   90.756  175.620    0.481    0.240    4.622
  269.500   82.563  175.620    0.477    0.228    4.711
  269.750   80.042  171.488    0.469    0.207    5.184
  270.000   72.176  165.289    0.454    0.156    4.895
  270.250   77.824  163.223    0.515    0.191    4.622
  270.500   92.887  167.355    0.518    0.289    4.200
  270.750  102.301  160.124    0.518    0.292    3.966
  271.000  102.929  177.686    0.522    0.285    3.745
  271.250  101.674  178.719    0.525    0.281    3.745
  271.500  102.929  175.620    0.477    0.262    3.817
  271.750  104.812  174.587    0.473    0.241    3.966
  272.000  106.067  174.587    0.502    0.247    4.042
  272.250  107.322  174.587    0.506    0.252    4.042
  272.500  106.067  174.587    0.506    0.257    4.042
  272.750  107.950  176.653    0.508    0.252    3.966
