~VERSION INFORMATION
 VERS.                 2.0:   CWLS LOG ASCII STANDARD -VERSION 2.0
 WRAP.                  NO:   ONE LINE PER DEPTH STEP
~WELL INFORMATION BLOCK
#MNEM.UNIT           DATA                    DESCRIPTION OF MNEMONIC
#---------    -------------------            -------------------------------
# Generated from Intellog Unique Number	CW_82_90/WELL/877
WELL.         TEXEX TEXCAN MUSKWA 10-17-084- : Well_name    - WELL
LOC .         00/10-17-084-25W4/0            : Location     - LOCATION
UWI .         00/10-17-084-25W4/0            : Uwi          - UNIQUE WELL ID
ENTR.         JAYE                           : Entered      - ENTERED BY
SRVC.         SCHLUMBERGER                   : Scn          - SERVICE COMPANY
DATE.         23 JAN 76                      : Date         - LOG DATE
STRT.F        650                            : top_depth    - START DEPTH
STOP.F        1320.11                        : bot_depth    - STOP DEPTH
STEP.F        0.82                           : increment    - STEP LENGTH
 NULL. -999.2500:NULL Value
~CURVE INFORMATION BLOCK
#MNEM UNIT       ERCB CURVE CODE    CURVE DESCRIPTION
#-----------   ------------------   ----------------------------------
DEPT.F        00 001 00 00         : DEPTH        - DEPTH
GR  .API      00 310 00 00         : GR           - GAMMA RAY
NPHI.V/V      00 330 00 00         : PHIN         - NEUTRON POROSITY (SANDSTONE)
DPHI.V/V      00 890 00 00         : PHID         - DENSITY POROSITY (SANDSTONE)
ILD .OHMM     00 120 00 00         : RESD         - DEEP RESISTIVITY (DLL)
~PARAMETER INFORMATION
#MNEM.UNIT           DATA             DESCRIPTION OF MNEMONIC
#---------         -----------     ------------------------------
GL  .M        543.154              : gl           - GROUND LEVEL ELEVATION
EREF.M        546.811              : kb           - ELEVATION OF DEPTH REFERENCE
DATM.M        543.154              : datum        - DATUM ELEVATION
TDD .M        388.62               : tdd          - TOTAL DEPTH DRILLER
RUN .         ONE                  : Run          - RUN NUMBER
ENG .         SKOWORODKO           : Engineer     - RECORDING ENGINEER
WIT .         NICOUD &YANITSKI     : Witness      - WITNESSED BY
BASE.         EDMONTON             : Branch       - HOME BASE OF LOGGING UNIT
MATR.         SANDSTONE            : Logunit      - NEUTRON MATRIX
TMAX.F        75                   : BHT          - MAXIMUM RECORDED TEMPERATURE
BHTD.F        1340                 : BHTDEP       - MAXIMUM RECORDED TEMPERATURE
RMT .F        55                   : MDTP         - TEMPERATURE OF MUD
MUDD.LB/G     0                    : MWT          - MUD DENSITY
NEUT.         0                    : NEUTRON      - NEUTRON TYPE
RESI.         1                    : RESIST       - RESISTIVITY TYPE
RM  .OHMM     6.15                 : RM           - RESISTIVITY OF MUD
RMC .OHMM     0                    : RMC          - RESISTIVITY OF MUD CAKE
RMF .OHMM     6.1                  : RMF          - RESISTIVITY OF MUD FILTRATE
SUFT.F        4                    : SUFT         - SURFACE TEMPERATURE
~A  DEPTH       GR     PHIN     PHID     RESD
# ...
 1078.150   86.984    0.377    0.110   12.582
 1078.970   88.200    0.372    0.106   13.536
 1079.790   88.802    0.405    0.118   13.538
 1080.610   88.789    0.439    0.179   12.590
 1081.430   88.777    0.450    0.203   11.086
 1082.250   88.760    0.453    0.205   10.693
 1083.070   87.518    0.455    0.194   10.694
 1083.890   88.120    0.453    0.168   10.696
 1084.710   88.107    0.453    0.153   10.699
 1085.530   88.094    0.453    0.159   10.898
 1086.350   89.919    0.453    0.176   10.901
 1087.170   91.139    0.452    0.186   10.903
 1087.990   94.815    0.451    0.187   10.905
 1088.810   90.499    0.451    0.179   11.108
 1089.630   86.180    0.446    0.152   11.111
 1090.450   84.322    0.442    0.141   11.113
 1091.270   83.695    0.440    0.140   11.115
 1092.090   86.756    0.436    0.142   11.117
 1092.910   89.199    0.436    0.136   10.919
 1093.730   86.112    0.438    0.125   10.724
 1094.550   88.558    0.441    0.125   10.726
 1095.370   92.234    0.442    0.135   10.535
 1096.190   95.909    0.447    0.150   10.347
 1097.010   97.126    0.452    0.176   10.162
 1097.830  100.183    0.457    0.188    9.801
 1098.650  102.015    0.453    0.187    9.454
 1099.480   93.396    0.429    0.160    9.986
 1100.300   86.621    0.376    0.139   10.743
 1101.120   84.760    0.364    0.108   11.347
 1101.940   82.903    0.369    0.081   11.350
 1102.760   81.661    0.394    0.065   10.750
 1103.580   79.801    0.403    0.094    9.817
 1104.400   79.788    0.416    0.174    9.467
 1105.220   84.078    0.424    0.199    8.804
 1106.040  101.278    0.426    0.193    8.491
 1106.860  100.650    0.428    0.185    8.494
 1107.680   90.802    0.427    0.157    8.651
 1108.500   83.412    0.418    0.137    8.974
 1109.320   82.167    0.377    0.100    9.479
 1110.140   80.309    0.340    0.084   10.576
 1110.960   79.679    0.320    0.076   11.377
 1111.780   82.125    0.348    0.101   12.693
 1112.600   85.189    0.375    0.156   13.904
 1113.420   92.550    0.384    0.187   14.423
 1114.240   97.455    0.397    0.191   12.025
 1115.060   86.373    0.404    0.167   11.183
 1115.880   82.675    0.343    0.142   14.172
 1116.700   76.509    0.252    0.096   17.635
 1117.520   76.496    0.282    0.060   19.676
 1118.340   78.330    0.300    0.038   20.783
 1119.160   82.621    0.336    0.026   18.981
 1119.980   87.526    0.418    0.186   17.020
 1120.800   94.883    0.421    0.194   14.190
 1121.620   99.177    0.417    0.198   12.270
 1122.440  101.005    0.415    0.191   11.205
 1123.260  102.222    0.415    0.193   10.612
 1124.080  101.591    0.415    0.198   10.615
 1124.900   99.122    0.410    0.205   10.617
 1125.720   97.265    0.406    0.208   10.813
 1126.540   97.252    0.405    0.200   11.217
 1127.360   97.236    0.407    0.179   11.426
 1128.180   97.227    0.421    0.156   11.428
 1129.000   97.822    0.429    0.146   11.224
 1129.820  100.271    0.443    0.135   10.825
 1130.640  104.562    0.469    0.144   10.632
 1131.460  108.237    0.470    0.168    9.887
 1132.280  112.528    0.463    0.168    9.364
 1133.100  111.279    0.461    0.154    8.551
 1133.920  109.422    0.464    0.139    8.099
 1134.740   88.511    0.472    0.180    7.670
 1135.560   83.577    0.487    0.187    7.397
 1136.380   85.409    0.505    0.180    7.005
 1137.200   84.166    0.513    0.158    7.136
 1138.020   89.071    0.484    0.153    7.402
 1138.850   96.435    0.464    0.144    7.539
 1139.670   98.263    0.466    0.118    7.965
 1140.490  100.709    0.463    0.150    8.568
 1141.310  101.926    0.451    0.158    9.386
 1142.130   96.992    0.438    0.171   10.859
 1142.950   93.294    0.412    0.180   11.896
 1143.770   90.201    0.389    0.184   13.273
 1144.590   89.570    0.377    0.173   13.520
 1145.410   90.179    0.360    0.142   13.280
 1146.230   92.010    0.364    0.125   13.281
 1147.050   93.841    0.395    0.127   12.809
 1147.870   96.281    0.407    0.180   12.354
 1148.690   97.501    0.437    0.202   11.489
 1149.510   99.332    0.455    0.178   10.685
 1150.330   99.931    0.455    0.173    9.581
 1151.150   99.918    0.463    0.146    8.910
 1151.970   99.905    0.474    0.145    8.439
 1152.790   99.889    0.437    0.132    8.595
 1153.610  101.717    0.433    0.087    9.080
 1154.430  102.326    0.467    0.139    9.591
 1155.250  105.380    0.479    0.161    9.594
 1156.070  106.593    0.483    0.159    9.422
 1156.890  107.202    0.483    0.146    9.087
 1157.710  107.804    0.479    0.135    8.764
 1158.530  109.020    0.475    0.153    8.452
 1159.350  110.848    0.470    0.156    8.454
 1160.170  113.294    0.468    0.146    8.456
 1160.990  115.123    0.464    0.133    8.614
 1161.810  116.339    0.462    0.123    8.774
 1162.630  116.326    0.453    0.155    8.775
 1163.450  115.084    0.438    0.164    8.939
 1164.270  108.306    0.427    0.169    9.105
 1165.090  106.452    0.417    0.178    9.106
 1165.910  106.436    0.389    0.182    9.108
 1166.730  106.423    0.375    0.184    8.946
 1167.550  102.719    0.360    0.178    8.787
 1168.370   99.632    0.319    0.163    8.950
 1169.190   95.319    0.286    0.132    9.454
 1170.010   87.926    0.266    0.032   10.741
 1170.830   87.913    0.345   -0.008   13.611
 1171.650   90.360    0.368    0.070   15.748
 1172.470   94.647    0.381    0.104   15.754
 1173.290   97.707    0.389    0.155   14.920
 1174.110  100.154    0.391    0.165   14.128
 1174.930  100.141    0.389    0.162   12.902
 1175.750   90.907    0.387    0.147   11.782
 1176.570   82.903    0.374    0.104   10.188
 1177.400   75.510    0.322    0.043   10.377
 1178.220   71.808    0.287    0.015   11.163
 1179.040   67.489    0.274   -0.000   14.406
 1179.860   65.020    0.277    0.026   38.508
 1180.680   63.160    0.271    0.032   47.921
 1181.500   66.829    0.266    0.054   48.811
 1182.320   68.052    0.267    0.082   45.390
 1183.140   72.954    0.370    0.121   39.247
 1183.960   76.015    0.401    0.150   20.386
 1184.780   80.309    0.416    0.181   16.389
 1185.600   84.596    0.404    0.202   13.665
 1186.420   84.583    0.372    0.172   12.479
 1187.240   80.264    0.356    0.124   12.943
 1188.060   74.107    0.320    0.099   16.703
 1188.880   65.481    0.299    0.029   22.767
 1189.700   71.004    0.374    0.095   28.851
 1190.520   78.983    0.449    0.163   27.323
 1191.340   84.502    0.449    0.210   21.570
 1192.160   94.937    0.440    0.207   17.341
 1192.980   91.850    0.423    0.180   13.201
 1193.800   83.846    0.402    0.161   11.414
 1194.620   78.915    0.454    0.146   10.424
 1195.440   76.444    0.458    0.146    9.873
 1196.260   79.498    0.456    0.159    9.874
 1197.080   81.944    0.449    0.172    9.877
 1197.900   83.779    0.445    0.173    9.879
 1198.720   88.066    0.440    0.173    9.881
 1199.540   90.512    0.440    0.173   10.249
 1200.360   89.884    0.440    0.155   10.631
 1201.180   84.953    0.440    0.156   10.829
 1202.000   80.637    0.435    0.175   11.649
 1202.820   78.166    0.429    0.182   12.083
 1203.640   78.153    0.427    0.176   12.764
 1204.460   78.748    0.432    0.168   13.002
 1205.280   79.968    0.441    0.137   12.770
 1206.100   81.799    0.450    0.114   12.316
 1206.920   84.854    0.456    0.115   11.664
 1207.740   86.077    0.463    0.140   11.456
 1208.560   87.905    0.463    0.151   11.049
 1209.380   89.118    0.438    0.116   10.852
 1210.200   88.491    0.422    0.098   10.855
 1211.020   84.793    0.400    0.089   10.856
 1211.840   78.629    0.411    0.121   10.662
 1212.660   77.384    0.456    0.130   10.283
 1213.480   79.215    0.462    0.132    9.392
 1214.300   81.661    0.462    0.146    9.057
 1215.120   83.496    0.451    0.126    8.897
 1215.940   85.939    0.458    0.100    9.061
 1216.770   87.770    0.435    0.069    9.229
 1217.590   85.913    0.428    0.035    9.065
 1218.410   88.356    0.417    0.024    8.903
 1219.230   90.805    0.443    0.070    8.432
 1220.050   93.860    0.450    0.104    8.281
