~VERSION INFORMATION
 VERS.                 2.0:   CWLS LOG ASCII STANDARD -VERSION 2.0
 WRAP.                  NO:   ONE LINE PER DEPTH STEP
~WELL INFORMATION BLOCK
#MNEM.UNIT           DATA                    DESCRIPTION OF MNEMONIC
#---------    -------------------            -------------------------------
# Generated from Intellog Unique Number	CS_67_68/WELL/858
WELL.         AEC MARGUERITA                 : Well_name    - WELL
LOC .         00/15-26-068-05W4/0            : Location     - LOCATION
UWI .         00/15-26-068-05W4/0            : Uwi          - UNIQUE WELL ID
ENTR.         SP                             : Entered      - ENTERED BY
SRVC.         SCHLUMBERGER                   : Scn          - SERVICE COMPANY
STRT.M        360                            : top_depth    - START DEPTH
STOP.M        605                            : bot_depth    - STOP DEPTH
STEP.M        0.25                           : increment    - STEP LENGTH
 NULL. -999.2500:NULL Value
~CURVE INFORMATION BLOCK
#MNEM UNIT       ERCB CURVE CODE    CURVE DESCRIPTION
#-----------   ------------------   ----------------------------------
DEPT.M        00 001 00 00         : DEPTH        - DEPTH
ILD .OHMM     00 120 00 00         : RESD         - DEEP RESISTIVITY (DIL)
DPHI.V/V      00 890 00 00         : PHID         - DENSITY POROSITY (LIMESTONE)
NPHI.V/V      00 330 00 00         : PHIN         - NEUTRON POROSITY (LIMESTONE)
GR  .API      00 310 00 00         : GR           - GAMMA RAY
~PARAMETER INFORMATION
#MNEM.UNIT           DATA             DESCRIPTION OF MNEMONIC
#---------         -----------     ------------------------------
GL  .M        713.2                : gl           - GROUND LEVEL ELEVATION
EREF.M        716.8                : kb           - ELEVATION OF DEPTH REFERENCE
DATM.M        713.2                : datum        - DATUM ELEVATION
TDD .M        610                  : tdd          - TOTAL DEPTH DRILLER
RUN .         ONE                  : Run          - RUN NUMBER
ENG .         BILL                 : Engineer     - RECORDING ENGINEER
WIT .         JIM                  : Witness      - WITNESSED BY
MUD .         GEL                  : Mud_type     - MUD TYPE
MATR.         LIMESTONE            : Logunit      - NEUTRON MATRIX
TMAX.C        24                   : BHT          - MAXIMUM RECORDED TEMPERATURE
BHTD.M        610                  : BHTDEP       - MAXIMUM RECORDED TEMPERATURE
MATR.         1                    : LOGUNIT      - NEUTRON MATRIX
RMT .C        25                   : MDTP         - TEMPERATURE OF MUD
NEUT.         1                    : NEUTRON      - NEUTRON TYPE
RESI.         0                    : RESIST       - RESISTIVITY TYPE
RMC .OHMM     0.25                 : RMC          - RESISTIVITY OF MUD CAKE
RMF .OHMM     0.25                 : RMF          - RESISTIVITY OF MUD FILTRATE
SUFT.C        15                   : SUFT         - SURFACE TEMPERATURE
~A  DEPTH     RESD     PHID     PHIN       GR
# ...
  577.500    8.849    0.166    0.382   97.195
  577.750    8.619    0.167    0.394   95.782
  578.000    8.380    0.167    0.407   99.160
  578.250    8.270    0.166    0.407   97.316
  578.500    8.301    0.166    0.394   93.139
  578.750    8.409    0.169    0.378   96.823
  579.000    8.456    0.175    0.371   98.359
  579.250    8.519    0.173    0.379   97.743
  579.500    8.567    0.163    0.383   96.391
  579.750    8.615    0.164    0.385   95.101
  580.000    8.679    0.166    0.388   93.810
  580.250    8.826    0.165    0.392   92.397
  580.500    8.842    0.164    0.395   93.072
  580.750    8.858    0.173    0.396   94.361
  581.000    8.775    0.180    0.389   92.026
  581.250    8.692    0.187    0.380   89.814
  581.500    8.643    0.177    0.372   96.017
  581.750    8.594    0.169    0.379  100.194
  582.000    8.546    0.164    0.381   96.385
  582.250    8.497    0.191    0.377   88.522
  582.500    8.449    0.210    0.377   82.501
  582.750    8.417    0.220    0.378   78.201
  583.000    8.338    0.227    0.367   75.067
  583.250    8.260    0.231    0.349   80.411
  583.500    8.167    0.222    0.336   83.113
  583.750    8.090    0.214    0.335   83.481
  584.000    7.940    0.209    0.337   82.927
  584.250    7.792    0.211    0.340   80.838
  584.500    7.463    0.231    0.378   75.555
  584.750    7.108    0.273    0.414   66.340
  585.000    5.852    0.348    0.409   47.968
  585.250    4.972    0.334    0.396   54.916
  585.500    4.873    0.313    0.409   59.975
  585.750    4.828    0.299    0.431   52.319
  586.000    4.854    0.310    0.452   42.961
  586.250    4.865    0.329    0.468   36.102
  586.500    4.688    0.345    0.425   31.931
  586.750    4.588    0.337    0.400   37.722
  587.000    4.488    0.319    0.391   42.608
  587.250    4.475    0.306    0.392   46.127
  587.500    4.469    0.306    0.402   49.290
  587.750    4.447    0.306    0.398   46.403
  588.000    4.466    0.297    0.417   39.550
  588.250    4.418    0.309    0.431   32.995
  588.500    4.331    0.346    0.403   29.375
  588.750    4.231    0.342    0.409   29.299
  589.000    4.178    0.341    0.410   34.360
  589.250    4.149    0.342    0.409   35.807
  589.500    4.090    0.355    0.416   30.851
  589.750    4.062    0.364    0.408   28.262
  590.000    4.027    0.368    0.404   28.686
  590.250    4.014    0.370    0.409   30.005
  590.500    4.040    0.372    0.395   30.054
  590.750    4.058    0.374    0.383   28.085
  591.000    4.060    0.377    0.374   25.812
  591.250    4.064    0.374    0.377   25.977
  591.500    4.081    0.360    0.384   27.185
  591.750    4.077    0.353    0.390   26.929
  592.000    4.039    0.345    0.393   25.386
  592.250    4.036    0.349    0.395   24.585
  592.500    4.068    0.356    0.390   26.282
  592.750    4.110    0.351    0.381   28.275
  593.000    4.191    0.338    0.387   30.704
  593.250    4.290    0.336    0.392   30.505
  593.500    4.441    0.319    0.373   54.816
  593.750    4.773    0.280    0.353   59.624
  594.000    5.034    0.245    0.334   58.937
  594.250    5.447    0.242    0.310   47.984
  594.500    5.496    0.278    0.357   37.095
  594.750    5.489    0.309    0.368   27.670
  595.000    5.431    0.326    0.371   21.488
  595.250    5.333    0.332    0.384   18.177
  595.500    5.180    0.342    0.398   16.936
  595.750    4.908    0.347    0.399   16.861
  596.000    4.633    0.350    0.389   16.907
  596.250    4.474    0.348    0.393   16.711
  596.500    3.953    0.344    0.391   16.829
  596.750    4.250    0.336    0.389   16.927
  597.000    4.309    0.334    0.384   17.282
  597.250    4.401    0.341    0.375   17.637
  597.500    4.505    0.326    0.379   18.167
  597.750    4.629    0.322    0.387   19.131
  598.000    4.826    0.330    0.371   20.337
  598.250    5.035    0.315    0.360   24.724
  598.500    5.280    0.202    0.352   41.816
  598.750    5.497    0.179    0.360   59.950
  599.000    5.776    0.166    0.400   69.341
  599.250    6.162    0.160    0.441   59.921
  599.500    7.070    0.172    0.461   52.699
  599.750    7.731    0.165    0.436   46.450
  600.000    9.840    0.015    0.388   40.514
  600.250   12.409   -0.006    0.256   37.316
  600.500   16.274   -0.000    0.206   36.510
  600.750   19.509    0.001    0.192   36.681
  601.000   23.337    0.005    0.185   37.456
  601.250   26.387    0.013    0.185   37.874
  601.500   28.776    0.013    0.184   37.981
  601.750   30.076    0.016    0.183   37.597
  602.000   31.140    0.020    0.180   36.605
  602.250   32.537    0.012    0.172   35.799
  602.500   34.635    0.018    0.168   35.171
  602.750   35.927    0.023    0.172   35.340
  603.000   36.908    0.012    0.179   35.875
  603.250   37.074   -0.002    0.182   37.208
  603.500   36.750    0.008    0.180   37.987
  603.750   36.569    0.022    0.180   38.157
  604.000   37.417    0.029    0.179   37.713
  604.250   38.236    0.017    0.179   37.392
  604.500   39.207    0.010    0.178   57.540
  604.750   40.044    0.012    0.181  151.191
  605.000   40.386    0.017    0.183  151.909
