~VERSION INFORMATION
 VERS.                 2.0:   CWLS LOG ASCII STANDARD -VERSION 2.0
 WRAP.                  NO:   ONE LINE PER DEPTH STEP
~WELL INFORMATION BLOCK
#MNEM.UNIT           DATA                    DESCRIPTION OF MNEMONIC
#---------    -------------------            -------------------------------
# Generated from Intellog Unique Number	CS_67_68/WELL/2205
WELL.         GOEG et al HYLO                : Well_name    - WELL
LOC .         00/11-10-067-14W4/0            : Location     - LOCATION
UWI .         00/11-10-067-14W4/0            : Uwi          - UNIQUE WELL ID
ENTR.         SP                             : Entered      - ENTERED BY
SRVC.         SCHLUMBERGER                   : Scn          - SERVICE COMPANY
STRT.M        310                            : top_depth    - START DEPTH
STOP.M        505                            : bot_depth    - STOP DEPTH
STEP.M        0.25                           : increment    - STEP LENGTH
 NULL. -999.2500:NULL Value
~CURVE INFORMATION BLOCK
#MNEM UNIT       ERCB CURVE CODE    CURVE DESCRIPTION
#-----------   ------------------   ----------------------------------
DEPT.M        00 001 00 00         : DEPTH        - DEPTH
ILD .OHMM     00 120 00 00         : RESD         - DEEP RESISTIVITY (DIL)
DPHI.V/V      00 890 00 00         : PHID         - DENSITY POROSITY (LIMESTONE)
NPHI.V/V      00 330 00 00         : PHIN         - NEUTRON POROSITY (LIMESTONE)
GR  .API      00 310 00 00         : GR           - GAMMA RAY
CALI.MM       00 280 01 00         : CAL          - CALIPER
~PARAMETER INFORMATION
#MNEM.UNIT           DATA             DESCRIPTION OF MNEMONIC
#---------         -----------     ------------------------------
GL  .M        575.5                : gl           - GROUND LEVEL ELEVATION
EREF.M        578.5                : kb           - ELEVATION OF DEPTH REFERENCE
DATM.M        578.5                : datum        - DATUM ELEVATION
TDD .M        506                  : tdd          - TOTAL DEPTH DRILLER
RUN .         ONE                  : Run          - RUN NUMBER
ENG .         BILL                 : Engineer     - RECORDING ENGINEER
WIT .         JIM                  : Witness      - WITNESSED BY
MUD .         GEL                  : Mud_type     - MUD TYPE
MATR.         LIMESTONE            : Logunit      - NEUTRON MATRIX
TMAX.C        22                   : BHT          - MAXIMUM RECORDED TEMPERATURE
BHTD.M        506                  : BHTDEP       - MAXIMUM RECORDED TEMPERATURE
MATR.         1                    : LOGUNIT      - NEUTRON MATRIX
RMT .C        25                   : MDTP         - TEMPERATURE OF MUD
NEUT.         1                    : NEUTRON      - NEUTRON TYPE
RESI.         0                    : RESIST       - RESISTIVITY TYPE
RMC .OHMM     0.25                 : RMC          - RESISTIVITY OF MUD CAKE
RMF .OHMM     0.25                 : RMF          - RESISTIVITY OF MUD FILTRATE
SUFT.C        15                   : SUFT         - SURFACE TEMPERATURE
~A  DEPTH     RESD     PHID     PHIN       GR      CAL
# ...
  419.500    3.448    0.279    0.337   59.160  159.377
  419.750    3.665    0.192    0.273   58.485  159.062
  420.000    2.872    0.136    0.255   56.774  158.546
  420.250    2.055    0.130    0.249   57.439  156.708
  420.500    1.799    0.216    0.376   59.807  155.581
  420.750    1.620    0.295    0.400   62.236  154.660
  421.000    1.499    0.330    0.414   63.264  153.839
  421.250    1.444    0.348    0.414   64.293  154.235
  421.500    1.392    0.343    0.411   64.957  154.527
  421.750    1.384    0.329    0.417   65.803  154.720
  422.000    1.403    0.342    0.406   65.736  154.509
  422.250    1.445    0.339    0.399   65.365  154.296
  422.500    1.477    0.343    0.406   64.264  154.084
  422.750    1.527    0.353    0.403   62.370  154.175
  423.000    1.594    0.362    0.409   61.512  154.367
  423.250    1.654    0.361    0.419   63.820  154.865
  423.500    1.732    0.348    0.427   66.917  154.956
  423.750    1.814    0.335    0.431   69.469  155.149
  424.000    1.924    0.321    0.435   72.324  155.038
  424.250    2.123    0.319    0.439   67.387  154.825
  424.500    2.438    0.327    0.435   63.363  154.511
  424.750    2.592    0.303    0.427   64.818  154.196
  425.000    2.452    0.251    0.417   67.855  153.983
  425.250    2.187    0.223    0.334   67.058  154.074
  425.500    1.929    0.213    0.302   65.592  153.862
  425.750    1.798    0.244    0.405   68.933  153.547
  426.000    1.695    0.333    0.425   70.875  153.335
  426.250    1.642    0.352    0.443   67.461  153.020
  426.500    1.621    0.335    0.440   70.012  152.807
  426.750    1.621    0.346    0.443   68.119  152.389
  427.000    1.622    0.355    0.436   67.625  152.077
  427.250    1.649    0.346    0.436   69.141  151.661
  427.500    1.686    0.342    0.442   68.039  151.144
  427.750    1.714    0.345    0.443   69.433  151.336
  428.000    1.733    0.349    0.451   71.741  151.834
  428.250    1.746    0.337    0.448   73.622  152.634
  428.500    1.763    0.317    0.438   72.460  153.536
  428.750    1.769    0.333    0.428   69.532  154.340
  429.000    1.792    0.341    0.438   68.978  154.735
  429.250    1.813    0.331    0.443   71.284  154.726
  429.500    1.836    0.333    0.442   70.975  154.209
  429.750    1.864    0.330    0.443   71.090  155.212
  430.000    1.881    0.329    0.444   72.362  156.013
  430.250    1.899    0.339    0.440   73.878  156.512
  430.500    1.902    0.331    0.433   75.577  156.807
  430.750    1.902    0.323    0.427   77.761  157.203
  431.000    1.885    0.316    0.424   78.852  157.192
  431.250    1.868    0.311    0.419   78.907  157.386
  431.500    1.864    0.311    0.426   73.909  157.273
  431.750    1.864    0.322    0.430   69.276  157.364
  432.000    1.861    0.332    0.429   67.687  157.356
  432.250    1.851    0.329    0.430   69.873  157.344
  432.500    1.854    0.332    0.433   72.059  157.336
  432.750    1.879    0.324    0.433   74.427  157.122
  433.000    1.914    0.312    0.430   75.882  157.012
  433.250    1.990    0.301    0.441   77.946  156.900
  433.500    2.115    0.298    0.427   79.644  156.788
  433.750    2.231    0.305    0.418   78.604  156.473
  434.000    2.389    0.310    0.419   78.293  155.956
  434.250    2.597    0.299    0.431   78.653  155.236
  434.500    2.735    0.289    0.436   74.873  154.720
  434.750    2.730    0.271    0.430   84.667  154.405
  435.000    2.626    0.258    0.421   91.844  154.395
  435.250    2.494    0.240    0.411   98.961  155.095
  435.500    2.359    0.217    0.447  106.808  158.738
  435.750    2.265    0.239    0.479  119.342  162.887
  436.000    2.171    0.255    0.494  121.954  164.602
  436.250    2.073    0.246    0.504  123.226  164.591
  436.500    2.017    0.268    0.502  126.143  164.886
  436.750    2.021    0.264    0.499  129.789  165.181
  437.000    2.077    0.251    0.495  129.965  165.272
  437.250    2.184    0.258    0.495  129.472  164.958
  437.500    2.365    0.258    0.502  125.936  164.642
  437.750    2.603    0.272    0.500  125.991  164.532
  438.000    2.742    0.253    0.494  124.950  164.419
  438.250    2.732    0.225    0.474  123.239  164.409
  438.500    2.727    0.212    0.458  120.738  164.502
  438.750    2.618    0.208    0.437  117.565  164.593
  439.000    2.509    0.207    0.431  115.794  164.582
  439.250    2.523    0.214    0.439  116.641  164.777
  439.500    2.702    0.226    0.439  117.608  164.561
  439.750    2.835    0.233    0.431  117.542  164.250
  440.000    3.127    0.233    0.415  115.345  163.529
  440.250    3.449    0.241    0.404  108.825  162.403
  440.500    3.984    0.263    0.398  101.757  160.566
  440.750    4.654    0.223    0.401   97.612  159.238
  441.000    5.703    0.143    0.403   95.779  158.518
  441.250    6.835    0.069    0.383   92.790  159.014
  441.500    6.232    0.040    0.290   80.122  159.714
  441.750    5.704    0.150    0.273   77.925  160.109
  442.000    5.012    0.169    0.347   90.824  160.100
  442.250    4.578    0.180    0.388  100.619  159.584
  442.500    4.244    0.182    0.419  104.875  158.965
  442.750    4.060    0.188    0.418  102.555  158.141
  443.000    3.899    0.202    0.408  103.828  157.422
  443.250    3.835    0.201    0.400  105.343  156.702
  443.500    3.842    0.208    0.417  105.277  155.678
  443.750    3.885    0.216    0.441  101.618  155.261
  444.000    4.009    0.213    0.427  103.317  156.164
  444.250    4.246    0.210    0.433  103.189  157.576
  444.500    4.648    0.181    0.417  102.452  158.376
  444.750    4.762    0.155    0.400  100.802  158.671
  445.000    4.615    0.138    0.388   99.944  158.357
  445.250    4.447    0.139    0.377  100.791  158.043
  445.500    4.294    0.183    0.383  103.037  157.932
  445.750    4.192    0.208    0.410  102.057  158.023
  446.000    4.093    0.206    0.436  103.938  158.013
  446.250    4.033    0.199    0.423  106.732  158.003
  446.500    4.019    0.211    0.414  110.257  157.586
  446.750    4.026    0.211    0.407  112.808  157.272
  447.000    4.056    0.218    0.423  112.985  157.262
  447.250    4.072    0.203    0.415  113.101  156.949
  447.500    4.079    0.206    0.412  113.338  157.852
  447.750    4.057    0.222    0.421  114.002  156.725
  448.000    4.012    0.235    0.421  113.692  156.410
  448.250    3.968    0.219    0.411  111.981  156.806
  448.500    3.947    0.213    0.403  112.522  157.506
  448.750    3.939    0.223    0.411  111.968  158.513
  449.000    3.932    0.236    0.406  111.171  159.313
  449.250    3.933    0.225    0.417  112.200  160.520
  449.500    3.940    0.224    0.406  113.960  161.221
  449.750    3.926    0.234    0.385  114.928  161.515
  450.000    3.940    0.224    0.388  114.800  161.709
  450.250    3.919    0.217    0.405  113.151  161.292
  450.500    3.897    0.215    0.419  110.405  160.573
  450.750    3.890    0.210    0.427  109.120  158.939
  451.000    3.891    0.206    0.431  108.932  157.814
  451.250    3.891    0.198    0.434  109.291  156.787
  451.500    4.052    0.193    0.426  111.294  156.576
  451.750    4.429    0.221    0.422  113.966  156.566
  452.000    4.903    0.219    0.416  115.726  156.353
  452.250    5.529    0.236    0.406  116.572  155.936
  452.500    5.674    0.248    0.393  115.714  154.507
  452.750    5.368    0.256    0.382  108.281  153.683
  453.000    5.173    0.244    0.376   99.753  154.181
  453.250    4.968    0.203    0.364   99.260  155.085
  453.500    4.805    0.175    0.391  104.428  156.293
  453.750    4.726    0.168    0.413   94.986  157.298
  454.000    4.779    0.131    0.427   84.510  157.085
  454.250    4.996    0.091    0.336   85.113  155.756
  454.500    5.175    0.120    0.320   99.717  154.731
  454.750    5.311    0.169    0.349  105.920  153.098
  455.000    4.851    0.199    0.368   98.243  151.363
  455.250    4.231    0.215    0.389   91.602  151.860
  455.500    3.650    0.200    0.370   90.987  154.387
  455.750    3.051    0.205    0.377  101.148  156.506
