~VERSION INFORMATION
 VERS.                 2.0:   CWLS LOG ASCII STANDARD -VERSION 2.0
 WRAP.                  NO:   ONE LINE PER DEPTH STEP
~WELL INFORMATION BLOCK
#MNEM.UNIT           DATA                    DESCRIPTION OF MNEMONIC
#---------    -------------------            -------------------------------
# Generated from Intellog Unique Number	CS_73_76/WELL/3268
WELL.         HOUSTON OIL LIMITED            : Well_name    - WELL
LOC .         00/11-27-076-17W4/0            : Location     - LOCATION
UWI .         00/11-27-076-17W4/0            : Uwi          - UNIQUE WELL ID
ENTR.         SP                             : Entered      - ENTERED BY
SRVC.         SCHLUMBERGER                   : Scn          - SERVICE COMPANY
STRT.M        350.52                         : top_depth    - START DEPTH
STOP.M        571.52                         : bot_depth    - STOP DEPTH
STEP.M        0.25                           : increment    - STEP LENGTH
 NULL. -999.2500:NULL Value
~CURVE INFORMATION BLOCK
#MNEM UNIT       ERCB CURVE CODE    CURVE DESCRIPTION
#-----------   ------------------   ----------------------------------
DEPT.M        00 001 00 00         : DEPTH        - DEPTH
GR  .API      00 310 00 00         : GR           - GAMMA RAY
DPHI.V/V      00 890 00 00         : PHID         - DENSITY POROSITY (SANDSTONE)
NPHI.V/V      00 330 00 00         : PHIN         - NEUTRON POROSITY (SANDSTONE)
ILD .OHMM     00 120 00 00         : RESD         - DEEP RESISTIVITY (DIL)
~PARAMETER INFORMATION
#MNEM.UNIT           DATA             DESCRIPTION OF MNEMONIC
#---------         -----------     ------------------------------
GL  .M        714.146              : gl           - GROUND LEVEL ELEVATION
EREF.M        717.194              : kb           - ELEVATION OF DEPTH REFERENCE
DATM.M        714.146              : datum        - DATUM ELEVATION
TDD .M        572.414              : tdd          - TOTAL DEPTH DRILLER
RUN .         ONE                  : Run          - RUN NUMBER
ENG .         BILL                 : Engineer     - RECORDING ENGINEER
WIT .         JIM                  : Witness      - WITNESSED BY
MUD .         GEL                  : Mud_type     - MUD TYPE
MATR.         SANDSTONE            : Logunit      - NEUTRON MATRIX
TMAX.C        25.5556              : BHT          - MAXIMUM RECORDED TEMPERATURE
BHTD.M        572.414              : BHTDEP       - MAXIMUM RECORDED TEMPERATURE
MATR.         1                    : LOGUNIT      - NEUTRON MATRIX
RMT .C        25                   : MDTP         - TEMPERATURE OF MUD
NEUT.         1                    : NEUTRON      - NEUTRON TYPE
RESI.         0                    : RESIST       - RESISTIVITY TYPE
RMC .OHMM     0.25                 : RMC          - RESISTIVITY OF MUD CAKE
RMF .OHMM     0.25                 : RMF          - RESISTIVITY OF MUD FILTRATE
SUFT.C        15                   : SUFT         - SURFACE TEMPERATURE
~A  DEPTH       GR     PHID     PHIN     RESD
# ...
  524.520   94.325    0.264    0.585    2.769
  524.770   92.788    0.277    0.590    2.485
  525.020   92.895    0.276    0.577    2.207
  525.270   94.220    0.267    0.564    1.925
  525.520   96.219    0.251    0.555    1.775
  525.770   98.186    0.244    0.542    1.672
  526.020   99.571    0.242    0.539    1.666
  526.270  100.281    0.226    0.526    1.785
  526.520   97.267    0.218    0.505    1.961
  526.770   91.751    0.204    0.467    2.204
  527.020   91.758    0.192    0.444    2.676
  527.270   93.193    0.173    0.440    3.102
  527.520   94.299    0.180    0.440    3.649
  527.770   95.307    0.196    0.435    4.060
  528.020   95.088    0.187    0.430    4.316
  528.270   91.583    0.182    0.433    4.472
  528.520   89.919    0.177    0.423    4.606
  528.770   87.901    0.160    0.400    4.846
  529.020   87.806    0.152    0.412    4.984
  529.270   89.829    0.166    0.418    5.225
  529.520   90.819    0.190    0.420    5.350
  529.770   91.893    0.183    0.426    5.337
  530.020   94.443    0.184    0.455    5.178
  530.270   96.013    0.212    0.469    4.883
  530.520   95.915    0.213    0.482    4.598
  530.770   97.325    0.198    0.483    4.271
  531.020   99.336    0.187    0.476    4.045
  531.270  101.294    0.182    0.476    3.900
  531.520  103.641    0.194    0.480    3.830
  531.770  104.937    0.224    0.485    3.734
  532.020  106.807    0.234    0.485    3.628
  532.270  106.155    0.234    0.494    3.450
  532.520  105.480    0.230    0.504    3.273
  532.770  105.498    0.232    0.514    3.081
  533.020  106.447    0.236    0.499    2.895
  533.270  107.463    0.227    0.488    2.785
  533.520  108.578    0.211    0.498    2.696
  533.770  108.305    0.198    0.500    2.683
  534.020  107.919    0.187    0.485    2.793
  534.270  105.765    0.180    0.468    3.005
  534.520  106.503    0.173    0.467    3.406
  534.770  107.930    0.198    0.472    3.672
  535.020  104.575    0.206    0.476    3.828
  535.270   98.797    0.210    0.476    3.972
  535.520   88.369    0.214    0.480    4.168
  535.770   73.692    0.225    0.480    4.524
  536.020   64.386    0.243    0.451    5.392
  536.270   57.677    0.246    0.428    6.171
  536.520   60.822    0.229    0.381    6.910
  536.770   74.013    0.210    0.386    7.010
  537.020   84.391    0.200    0.401    6.232
  537.270   95.811    0.195    0.437    5.194
  537.520  104.894    0.222    0.488    4.505
  537.770  107.887    0.212    0.497    3.627
  538.020  110.065    0.198    0.455    3.115
  538.270  111.063    0.181    0.422    3.142
  538.520  104.333    0.177    0.405    3.903
  538.770  100.027    0.180    0.395    4.923
  539.020   90.577    0.195    0.379    5.903
  539.270   74.019    0.207    0.280    7.051
  539.520   50.591    0.225    0.202    9.207
  539.770   37.301    0.248    0.190   11.601
  540.020   33.469    0.314    0.227   15.815
  540.270   31.379    0.335    0.290   19.515
  540.520   30.370    0.312    0.321   24.234
  540.770   30.375    0.291    0.337   29.316
  541.020   31.371    0.287    0.347   32.454
  541.270   34.877    0.288    0.349   38.461
  541.520   36.882    0.297    0.341   45.719
  541.770   42.432    0.288    0.341   52.422
  542.020   50.094    0.275    0.334   54.790
  542.270   60.266    0.278    0.312   54.124
  542.520   78.914    0.225    0.307   44.325
  542.770   99.950    0.205    0.348   32.930
  543.020  104.928    0.195    0.371   22.036
  543.270  104.871    0.193    0.385   15.322
  543.520  104.688    0.187    0.375   11.178
  543.770  104.294    0.181    0.374    9.575
  544.020  104.308    0.177    0.376    8.760
  544.270  104.457    0.182    0.373    8.076
  544.520  104.875    0.182    0.374    7.971
  544.770  105.439    0.177    0.381    7.801
  545.020  106.894    0.164    0.402    7.808
  545.270  107.817    0.143    0.413    7.799
  545.520  109.000    0.140    0.406    8.042
  545.770  105.344    0.189    0.416    8.112
  546.020   97.677    0.196    0.409    8.246
  546.270   95.411    0.207    0.389    8.483
  546.520  100.107    0.209    0.393    8.560
  546.770  100.101    0.218    0.385    8.831
  547.020   99.364    0.213    0.368    9.108
  547.270  100.047    0.205    0.354    9.211
  547.520  103.264    0.207    0.351    9.210
  547.770  105.371    0.190    0.372    9.214
  548.020  104.600    0.185    0.397    9.058
  548.270   99.539    0.194    0.372    8.783
  548.520   96.300    0.187    0.369    8.519
  548.770   97.577    0.187    0.373    8.263
  549.020  102.615    0.188    0.386    8.026
  549.270  104.368    0.181    0.402    7.621
  549.520  105.252    0.174    0.430    7.427
  549.770  106.977    0.185    0.444    6.860
  550.020  107.899    0.186    0.462    6.343
  550.270  108.886    0.177    0.485    5.972
  550.520  109.865    0.157    0.517    5.615
  550.770  106.978    0.170    0.540    5.369
  551.020   98.115    0.195    0.490    5.459
  551.270   96.165    0.207    0.372    5.699
  551.520  104.171    0.202    0.372    6.073
  551.770  108.782    0.197    0.375    6.394
  552.020  112.503    0.182    0.388    6.717
  552.270  117.454    0.171    0.401    6.828
  552.520  116.102    0.171    0.408    6.777
  552.770  113.170    0.181    0.406    6.703
  553.020  109.921    0.173    0.401    6.911
  553.270  105.129    0.163    0.395    7.123
  553.520  102.479    0.175    0.389    7.341
  553.770  100.110    0.170    0.383    7.569
  554.020   97.852    0.194    0.388    7.825
  554.270   94.291    0.218    0.398    8.327
  554.520   91.287    0.225    0.408    8.902
  554.770   88.018    0.223    0.391    9.975
  555.020   83.681    0.190    0.365   11.096
  555.270   80.029    0.167    0.321   12.248
  555.520   83.538    0.161    0.341   13.835
  555.770   88.285    0.227    0.408   14.887
  556.020   91.943    0.251    0.416   15.816
  556.270   97.741    0.250    0.414   15.959
  556.520  104.814    0.235    0.403   15.424
  556.770  122.969    0.207    0.395   14.004
  557.020  128.149    0.211    0.385   12.129
  557.270  134.282    0.214    0.374   11.051
  557.520  140.427    0.196    0.367   10.322
  557.770  142.256    0.182    0.368    9.885
  558.020  137.528    0.180    0.368    9.018
  558.270  134.362    0.181    0.366    8.613
  558.520  134.326    0.185    0.364    8.190
  558.770  135.077    0.186    0.363    8.132
  559.020  135.775    0.191    0.349    7.877
  559.270  144.152    0.191    0.346    7.770
  559.520  153.434    0.180    0.350    7.702
  559.770  160.818    0.178    0.375    7.450
  560.020  159.376    0.183    0.380    7.374
  560.270  148.083    0.186    0.385    7.144
  560.520  137.353    0.179    0.386    6.918
  560.770  129.336    0.169    0.375    6.776
  561.020  123.458    0.153    0.367    6.667
  561.270  120.360    0.136    0.364    6.658
  561.520  115.298    0.100    0.360    6.646
  561.770  118.086    0.080    0.355    6.786
  562.020  126.350    0.082    0.350    6.878
  562.270  130.347    0.118    0.377    6.892
  562.520  128.095    0.149    0.393    7.037
  562.770  115.534    0.142    0.393    7.031
  563.020  111.032    0.143    0.359    7.032
  563.270  111.285    0.163    0.346    7.030
  563.520  118.105    0.180    0.339    6.940
  563.770  124.312    0.145    0.349    7.069
  564.020  123.762    0.105    0.357    7.807
  564.270  119.763    0.058    0.362    7.900
  564.520  116.565    0.061    0.359    8.155
  564.770  111.774    0.102    0.344    8.131
  565.020  108.719    0.142    0.339    8.312
  565.270  105.364    0.156    0.331    8.295
  565.520  101.440    0.175    0.330    8.309
  565.770   94.210    0.177    0.330    8.124
  566.020   68.691    0.161    0.324    8.139
  566.270   17.212    0.150    0.319    8.137
  566.520   10.206    0.150    0.305    8.136
  566.770    9.050    0.138    0.297    8.135
  567.020    8.040    0.150    0.291    8.137
  567.270    7.854    0.163    0.287    8.150
  567.520    7.842    0.170    0.291    8.425
  567.770    7.838    0.161    0.298    8.491
